Trace #1 at position 0.000000
$GPZDA,123918.03,06,10,2011,00,00*60
$GPRMC,123918.00,A,4611.950132,N,01258.218825,E,000.0,143.1,061011$GPGGA,123919.00,4611.950124,N,01258.218865,E,1,05,2.5,141.32,M,46.25,M,,*68
$GPGLL,4611.950124,N,01258.218865,E,123919.00,A,A*6F
$GPVTG,102.9,T,103.1,M,000.1,N,000.2,K,A*29
$GPGSV,3,1,10,05,08,032,38,16,40,307,,31,19,216,,18,26,143,38*75
$GPGSV,3,2,10,29,34,081,37,30,42,158,42,21,80,125,38,25,06,142,*77
$GPGSV,3,3,10,03,20,283,,06,35,283,,,,,,,,,*79
$GPGSA,M,3,05,18,29,30,21,,,,,,,,3.4,2.5,2.2*39
Trace #2 at position 0.250000
$GPZDA,123924.03,06,10,2011,00,00*6F
$GPRMC,123924.00,A,4611.950111,N,01258.218907,E,000.2,260.8,061011,0.2,E,A*35
$GPGGA,123925.00,4611.950107,N,01258.218897,E,1,05,2.5,141.32,M,46.25,M,,*6B
$GPGLL,4611.950107,N,01258.218897,E,123925.00,A,A*6C
$GPVTG,142.4,T,142.6,M,000.0,N,000.0,K,A*21
$GPGSV,3,1,10,05,08,032,38,6,142,*76
$GPGSV,3,3,10,03,20,283,,06,35,283,,,,,,,,,*79
$GPGSA,M,3,05,18,29,30,21,,,,,,,,3.4,2.5,2.2*39
Trace #3 at position 0.500000
$GPZDA,123925.03,06,10,2011,00,00*6E
$GPRMC,123925.00,A,4611.950107,N,01258.218897,E,000.0,142.4,061011,0.2,E,A*36
$GPGGA,123926.00,4611.950107,N,01258.218940,E,1,05,2.5,141.33,M,46.25,M,,*62
$GPGLL,4611.950107,N,01258.218940,E,123926.00,A,A*64
$GPVTG,91.6,T,91.7,M,000.1,N,000.2,K,A*21
$GPGSV,3,1,10,05,08,032,37,16,40,307,,31,19,216,,18,26,143,39*7B
$GPGSV,3,2,10,29,34,081,37,30,42,158,41,21,80,,*79
$GPGSA,M,3,05,18,29,30,21,,,,,,,,3.4,2.5,2.2*39
Trace #4 at position 0.750000
$GPZDA,123925.03,06,10,2011,00,00*6E
$GPRMC,123925.00,A,4611.950107,N,01258.218897,E,000.0,142.4,061011,0.2,E,A*36
$GPGGA,123926.00,4611.950107,N,01258.218940,E,1,05,2.5,141.33,M,46.25,M,,*62
$GPGLL,4611.950107,N,01258.218940,E,123926.00,A,A*64
$GPVTG,91.6,T,91.7,M,000.1,N,000.2,K,A*21
$GPGSV,3,1,10,05,08,032,37,16,40,307,,31,19,216,,18,26,143,39*7B
$GPGSV,3,2,10,29,34,081,37,30,42,158,41,21,80,,*79
$GPGSA,M,3,05,18,29,30,21,,,,,,,,3.4,2.5,2.2*39
Trace #5 at position 1.000000
$GPZDA,123926.03,06,10,2011,00,00*6D
$GPRMC,123926.00,A,4611.950107,N,01258.218940,E,000.1,91.6,061011,0.2,E,A*02
$GPGGA,123927.00,4611.950111,N,01258.219028,E,1,05,2.5,141.39,M,46.25,M,,*68
$GPGLL,4611.950111,N,01258.219028,E,123927.00,A,A*64
$GPVTG,86.5,T,86.6,M,000.3,N,000.5,K,A*26
$GPGSV,3,1,10,05,08,032,37,16,40,307,,31,19,216,,18,26,143,38*7A
$GPGSV,3,2,10,29,34,081,36,30,41,158,40,21,80,124,36,25,06,142,*78
$GPGSV,3,3,10,03,20,283,,06,35,23,06,10,2011,00,00*6C
$GPRMC,123927.00,A,4611.950111,N,01258.219028,E,000.3,86.5,061011,0.2,E,A*05
$GPGGA,123928.00,4611.950110,N,01258.219098,E,1,05,2.5,141.47,M,46.25,M,,*64
$GPGLL,4611.950110,N,01258.219098,E,123928.00,A,A*61
$GPVTG,111.7,T,111.9,M,000.1,N,000.2,K,A*2E
$GPGSV,3,1,10,05,08,032,39,16,40,307,,31,19,216,,18,26,143,38*74
$GPGSV,3,2,10,29,34,081,36,30,41,158,41,21,80,124,38,25,06,142,*77
$GPGSV,3,3,10,03,20,283,,06,35,283,,,,,,,,,*79
$GPGSA,M,3,05,18,29,30,21,,,,,,,,3.4,2.5,2.2*39
Trace #6 at position 1.250000
$GP,E,000.1,111.7,061011,0.2,E,A*3F
$GPGGA,123929.00,4611.950126,N,01258.219090,E,1,05,2.5,141.50,M,46.25,M,,*6E
$GPGLL,4611.950126,N,01258.219090,E,123929.00,A,A*6D
$GPVTG,323.8,T,324.0,M,000.2,N,000.3,K,A*2D
$GPGSV,3,1,10,05,08,032,36,16,40,307,,31,19,216,,18,26,143,38*7B
$GPGSV,3,2,10,29,34,081,37,30,41,158,41,21,80,124,36,25,06,142,*78
$GPGSV,3,3,10,03,20,283,,06,35,283,,,,,,,,,*79
$GPGSA,M,3,05,18,29,30,21,,,,,,,,3.4,2.5,2.2*39
Trace #7 at position 1.500000
$GPZDA,123929.03,06,10,2011,00,00*62
$GPRMC,123929.00,A,4611.950126,N$GPGGA,123930.00,4611.950162,N,01258.219081,E,1,05,2.5,141.49,M,46.25,M,,*6E
$GPGLL,4611.950162,N,01258.219081,E,123930.00,A,A*65
$GPVTG,34.7,T,34.9,M,000.1,N,000.2,K,A*2E
$GPGSV,3,1,10,05,08,032,38,16,40,307,,31,19,216,,18,26,143,39*74
$GPGSV,3,2,10,29,34,081,38,30,41,158,41,21,80,124,36,25,06,142,*77
$GPGSV,3,3,10,03,20,283,,06,35,283,,,,,,,,,*79
$GPGSA,M,3,05,18,29,30,21,,,,,,,,3.4,2.5,2.2*39
Trace #8 at position 1.750000
$GPZDA,123930.03,06,10,2011,00,00*6A
$GPRMC,123930.00,A,4611.950162,N,01258.219081,E,000.1,34.7,061011,0.$GPGGA,123931.00,4611.950202,N,01258.219078,E,1,05,2.5,141.54,M,46.25,M,,*60
$GPGLL,4611.950202,N,01258.219078,E,123931.00,A,A*67
$GPVTG,336.4,T,336.6,M,000.2,N,000.3,K,A*20
$GPGSV,3,1,10,05,08,032,37,16,41,307,,31,19,216,,18,26,143,39*7A
$GPGSV,3,2,10,29,34,081,37,30,41,158,41,21,80,124,37,25,06,142,*79
$GPGSV,3,3,10,03,20,283,,06,35,283,,,,,,,,,*79
$GPGSA,M,3,05,18,29,30,21,,,,,,,,3.4,2.5,2.2*39
Trace #9 at position 2.000000
$GPZDA,123931.03,06,10,2011,00,00*6B
$GPRMC,123931.00,A,4611.950202,N,01258.219078,E,000.2,336.4,061011$GPGGA,123932.00,4611.950311,N,01258.219071,E,1,05,2.5,141.59,M,46.25,M,,*64
$GPGLL,4611.950311,N,01258.219071,E,123932.00,A,A*6E
$GPVTG,7.1,T,7.3,M,000.6,N,001.1,K,A*27
$GPGSV,3,1,10,05,08,032,36,16,41,307,,31,19,216,,18,26,143,39*7B
$GPGSV,3,2,10,29,34,081,39,30,41,158,41,21,80,124,37,25,06,142,*77
$GPGSV,3,3,10,03,20,283,,06,35,283,,,,,,,,,*79
$GPGSA,M,3,05,18,29,30,21,,,,,,,,3.4,2.5,2.2*39
Trace #10 at position 2.250000
$GPZDA,123931.03,06,10,2011,00,00*6B
$GPRMC,123931.00,A,4611.950202,N,01258.219078,E,000.2,336.4,061011$GPGGA,123932.00,4611.950311,N,01258.219071,E,1,05,2.5,141.59,M,46.25,M,,*64
$GPGLL,4611.950311,N,01258.219071,E,123932.00,A,A*6E
$GPVTG,7.1,T,7.3,M,000.6,N,001.1,K,A*27
$GPGSV,3,1,10,05,08,032,36,16,41,307,,31,19,216,,18,26,143,39*7B
$GPGSV,3,2,10,29,34,081,39,30,41,158,41,21,80,124,37,25,06,142,*77
$GPGSV,3,3,10,03,20,283,,06,35,283,,,,,,,,,*79
$GPGSA,M,3,05,18,29,30,21,,,,,,,,3.4,2.5,2.2*39
Trace #11 at position 2.500000
$GPZDA,123932.03,06,10,2011,00,00*68
$GPRMC,123932.00,A,4611.950311,N,01258.219071,E,000.6,7.1,061011,0.2,E$GPGGA,123933.00,4611.950462,N,01258.219053,E,1,05,2.5,141.65,M,46.25,M,,*69
$GPGLL,4611.950462,N,01258.219053,E,123933.00,A,A*6C
$GPVTG,350.0,T,350.2,M,000.5,N,001.0,K,A*25
$GPGSV,3,1,10,05,08,032,36,16,41,307,,31,19,216,,18,26,143,38*7A
$GPGSV,3,2,10,29,34,081,41,30,41,158,40,21,80,124,38,25,06,142,*76
$GPGSV,3,3,10,03,20,283,,06,35,283,,,,,,,,,*79
$GPGSA,M,3,05,18,29,30,21,,,,,,,,3.4,2.5,2.2*39
Trace #12 at position 2.750000
$GPZDA,123933.03,06,10,2011,00,00*69
$GPRMC,123933.00,A,4611.950462,N,01258.219053,E,000.5,350.0,061011$GPGGA,123934.00,4611.950582,N,01258.218998,E,1,05,2.5,141.69,M,46.25,M,,*62
$GPGLL,4611.950582,N,01258.218998,E,123934.00,A,A*6B
$GPVTG,344.1,T,344.3,M,000.4,N,000.7,K,A*22
$GPGSV,3,1,10,05,08,032,37,16,41,307,,31,19,216,,18,26,143,38*7B
$GPGSV,3,2,10,29,34,081,40,30,41,158,40,21,80,124,38,25,06,142,*77
$GPGSV,3,3,10,03,20,283,,06,35,283,34,,,,,,,,*7E
$GPGSA,M,3,05,18,29,30,21,,,,,,,,3.4,2.5,2.2*39
Trace #13 at position 3.000000
$GPZDA,123934.03,06,10,2011,00,00*6E
$GPRMC,123934.00,A,4611.950582,N,01258.218998,E,000.4,344.1,061005,2.5,141.81,M,46.25,M,,*6C
$GPGLL,4611.950698,N,01258.218999,E,123935.00,A,A*63
$GPVTG,29.5,T,29.6,M,000.5,N,001.0,K,A*24
$GPGSV,3,1,10,05,08,032,34,16,41,307,,31,19,216,,18,26,143,40*77
$GPGSV,3,2,10,29,34,081,39,30,41,158,40,21,80,124,38,25,06,142,*79
$GPGSV,3,3,10,03,20,283,,06,35,283,33,,,,,,,,*79
$GPGSA,M,3,05,18,29,30,21,,,,,,,,3.4,2.5,2.2*39
Trace #14 at position 3.250000
$GPZDA,123935.03,06,10,2011,00,00*6F
$GPRMC,123935.00,A,4611.950698,N,01258.218999,E,000.5,29.5,061011,0.2,E,A*01
$GPGGA,123936.00,4611.950825,N,012581258.218720,E,123936.00,A,A*64
$GPVTG,353.2,T,353.4,M,000.3,N,000.6,K,A*20
$GPGSV,3,1,10,05,08,032,35,16,41,307,,31,19,216,,18,26,143,39*78
$GPGSV,3,2,10,29,34,081,40,30,41,158,41,21,80,124,37,25,06,142,*79
$GPGSV,3,3,10,03,20,283,,06,35,283,33,,,,,,,,*79
$GPGSA,M,3,05,18,29,30,21,06,,,,,,,2.3,1.2,1.9*35
Trace #15 at position 3.500000
$GPZDA,123936.04,06,10,2011,00,00*6B
$GPRMC,123936.00,A,4611.950825,N,01258.218720,E,000.3,353.2,061011,0.2,E,A*39
$GPGGA,123937.00,4611.950899,N,01258.218388,E,1,06,1.2,141.44,M,46.25,M,,*65
$GPGL8,032,36,16,41,307,,31,19,216,,18,26,143,39*7B
$GPGSV,3,2,10,29,34,081,39,30,41,158,41,21,80,124,37,25,06,142,*77
$GPGSV,3,3,10,03,20,283,,06,35,283,35,,,,,,,,*7F
$GPGSA,M,3,05,18,29,30,21,06,,,,,,,2.3,1.2,1.9*35
Trace #16 at position 3.750000
$GPZDA,123936.04,06,10,2011,00,00*6B
$GPRMC,123936.00,A,4611.950825,N,01258.218720,E,000.3,353.2,061011,0.2,E,A*39
$GPGGA,123937.00,4611.950899,N,01258.218388,E,1,06,1.2,141.44,M,46.25,M,,*65
$GPGL8,032,36,16,41,307,,31,19,216,,18,26,143,39*7B
$GPGSV,3,2,10,29,34,081,39,30,41,158,41,21,80,124,37,25,06,142,*77
$GPGSV,3,3,10,03,20,283,,06,35,283,35,,,,,,,,*7F
$GPGSA,M,3,05,18,29,30,21,06,,,,,,,2.3,1.2,1.9*35
Trace #17 at position 4.000000
$GPZDA,123936.04,06,10,2011,00,00*6B
$GPRMC,123936.00,A,4611.950825,N,01258.218720,E,000.3,353.2,061011,0.2,E,A*39
$GPGGA,123937.00,4611.950899,N,01258.218388,E,1,06,1.2,141.44,M,46.25,M,,*65
$GPGL8,032,36,16,41,307,,31,19,216,,18,26,143,39*7B
$GPGSV,3,2,10,29,34,081,39,30,41,158,41,21,80,124,37,25,06,142,*77
$GPGSV,3,3,10,03,20,283,,06,35,283,35,,,,,,,,*7F
$GPGSA,M,3,05,18,29,30,21,06,,,,,,,2.3,1.2,1.9*35
Trace #18 at position 4.250000
$GPZDA,123937.03,06,10,2011,00,00*6D
$GPRMC,123937.00,A,4611.950899,N,01258.218388,E,000.1,294.4,061011,0.2,E,A*37
$GPGGA,123938.00,4611.950980,N,01258.218250,E,1,05,2.5,141.50,M,46.25,M,,*65
$GPGLL,4611.950980,N,01258.218250,E,123938.00,A,A*66
$GPVTG,296.7,T,296.9,M,000.9,N,001.7,K,A*22
$,,,,,,,,3.4,2.5,2.2*39
$GPZDA,123938.04,06,10,2011,00,00*65
$GPRMC,123938.00,A,4611.950980,N,01258.218250,E,000.9,296.7,061011,0.2,E,A*3C
$GPGGA,123939.00,4611.951121,N,01258.218046,E,1,05,2.5,141.52,M,46.25,M,,*61
$GPGLL,4611.951121,N,01258.218046,E,123939.00,A,A*60
$GPVTG,313.3,T,313.5,M,000.7,N,001.3,K,A*20
$GPGSV,3,1,10,05,08,032,37,16,41,307,,31,19,216,,18,26,143,39*7A
$GPGSV,3,2,10,29,34,081,39,30,41,158,40,21,80,124,38,25,06,142,*79
$GPGSV,3,3,10,03,20,283,32,06,35,283,33,,,,,,,,*78
$GPGSA,MGPRMC,123939.00,A,4611.951121,N,01258.218046,E,000.7,313.3,061011,0.2,E,A*3C
Trace #19 at position 4.500000
$GPGGA,123940.00,4611.951319,N,01258.217742,E,1,06,1.2,141.23,M,46.25,M,,*6B
$GPGLL,4611.951319,N,01258.217742,E,123940.00,A,A*6B
$GPVTG,7.0,T,7.1,M,000.7,N,001.3,K,A*27
$GPGSV,3,1,10,05,08,032,37,16,41,307,,31,19,216,,18,26,143,39*7A
$GPGSV,3,2,10,29,34,081,40,30,41,158,40,21,80,124,38,25,06,142,*77
$GPGSV,3,3,10,03,20,283,31,06,35,283,34,,,,,,,,*7C
$GPGSA,M,3,05,18,29,30,21,06,,,,,,,2.3,1.2,1.9*35
Trace #20 at position 4.750000
$GPZDA,123940.04,06,10,2$GPGGA,123941.00,4611.951497,N,01258.217485,E,1,06,1.2,140.97,M,46.25,M,,*6D
$GPGLL,4611.951497,N,01258.217485,E,123941.00,A,A*63
$GPVTG,314.0,T,314.1,M,000.5,N,000.9,K,A*2E
$GPGSV,3,1,10,05,08,032,36,16,41,307,,31,19,216,,18,26,143,39*7B
$GPGSV,3,2,10,29,34,081,40,30,41,158,40,21,80,124,38,25,06,142,*77
$GPGSV,3,3,10,03,20,283,32,06,35,283,33,,,,,,,,*78
$GPGSA,M,3,05,18,29,30,21,06,,,,,,,2.3,1.2,1.9*35
Trace #21 at position 5.000000
$GPZDA,123940.04,06,10,2$GPGGA,123941.00,4611.951497,N,01258.217485,E,1,06,1.2,140.97,M,46.25,M,,*6D
$GPGLL,4611.951497,N,01258.217485,E,123941.00,A,A*63
$GPVTG,314.0,T,314.1,M,000.5,N,000.9,K,A*2E
$GPGSV,3,1,10,05,08,032,36,16,41,307,,31,19,216,,18,26,143,39*7B
$GPGSV,3,2,10,29,34,081,40,30,41,158,40,21,80,124,38,25,06,142,*77
$GPGSV,3,3,10,03,20,283,32,06,35,283,33,,,,,,,,*78
$GPGSA,M,3,05,18,29,30,21,06,,,,,,,2.3,1.2,1.9*35
Trace #22 at position 5.250000
$GPZDA,123941.04,06,10,2011,00,00*6B
$GPRMC,123941.00,A,4611.951497,N,01258.217485,E,000.5,314.0,$GPGGA,123942.00,4611.951663,N,01258.217469,E,1,05,2.5,141.01,M,46.25,M,,*6C
$GPGLL,4611.951663,N,01258.217469,E,123942.00,A,A*6B
$GPVTG,344.5,T,344.7,M,000.8,N,001.4,K,A*2C
$GPGSV,3,1,10,05,08,032,37,16,41,307,,31,19,216,,18,26,143,38*7B
$GPGSV,3,2,10,29,34,081,40,30,41,158,41,21,80,124,36,25,06,142,*78
$GPGSV,3,3,10,03,20,283,32,06,35,283,28,,,,,,,,*72
$GPGSA,M,3,05,18,29,30,21,,,,,,,,3.3,2.5,2.2*3E
Trace #23 at position 5.500000
$GPZDA,123942.03,06,10,2011,00,00*6F
$GPRMC,123942.00,A,4611.951663,N,01258.217469,E,000.8,344.5,06$GPGGA,123943.00,4611.951823,N,01258.217484,E,1,05,2.5,141.09,M,46.25,M,,*6C
$GPGLL,4611.951823,N,01258.217484,E,123943.00,A,A*63
$GPVTG,338.0,T,338.2,M,000.3,N,000.6,K,A*24
$GPGSV,3,1,10,05,08,032,35,16,41,307,,31,19,215,,18,26,143,37*75
$GPGSV,3,2,10,29,34,081,40,30,41,158,41,21,80,123,37,25,06,142,*7E
$GPGSV,3,3,10,03,20,283,31,06,35,283,31,,,,,,,,*79
$GPGSA,M,3,05,18,29,30,21,,,,,,,,3.3,2.5,2.2*3E
Trace #24 at position 5.750000
$GPZDA,123943.04,06,10,2011,00,00*69
$GPRMC,123943.00,A,4611.951823,N,01258.217484,E,000.3,338.0,06$GPGGA,123944.00,4611.951975,N,01258.217477,E,1,05,2.5,141.13,M,46.25,M,,*6E
$GPGLL,4611.951975,N,01258.217477,E,123944.00,A,A*6A
$GPVTG,338.1,T,338.3,M,000.7,N,001.3,K,A*24
$GPGSV,3,1,10,05,08,032,37,16,41,307,,31,19,215,,18,26,143,39*79
$GPGSV,3,2,10,29,34,081,40,30,41,158,40,21,80,123,37,25,06,142,*7F
$GPGSV,3,3,10,03,20,283,31,06,35,283,31,,,,,,,,*79
$GPGSA,M,3,05,18,29,30,21,,,,,,,,3.3,2.5,2.2*3E
Trace #25 at position 6.000000
$GPZDA,123944.03,06,10,2011,00,00*69
$GPRMC,123944.00,A,4611.951975,N,01258.217477,E,000.7,338.1,06$GPGGA,123945.00,4611.952159,N,01258.217368,E,1,05,2.5,141.06,M,46.25,M,,*67
$GPGLL,4611.952159,N,01258.217368,E,123945.00,A,A*67
$GPVTG,311.8,T,311.9,M,000.8,N,001.5,K,A*2E
$GPGSV,3,1,10,05,08,032,34,16,41,307,,31,19,215,,18,26,143,39*7A
$GPGSV,3,2,10,29,34,081,39,30,41,158,41,21,80,123,37,25,06,142,*70
$GPGSV,3,3,10,03,20,283,,06,35,283,,,,,,,,,*79
$GPGSA,M,3,05,18,29,30,21,,,,,,,,3.3,2.5,2.2*3E
Trace #26 at position 6.250000
$GPZDA,123944.03,06,10,2011,00,00*69
$GPRMC,123944.00,A,4611.951975,N,01258.217477,E,000.7,338.1,06$GPGGA,123945.00,4611.952159,N,01258.217368,E,1,05,2.5,141.06,M,46.25,M,,*67
$GPGLL,4611.952159,N,01258.217368,E,123945.00,A,A*67
$GPVTG,311.8,T,311.9,M,000.8,N,001.5,K,A*2E
$GPGSV,3,1,10,05,08,032,34,16,41,307,,31,19,215,,18,26,143,39*7A
$GPGSV,3,2,10,29,34,081,39,30,41,158,41,21,80,123,37,25,06,142,*70
$GPGSV,3,3,10,03,20,283,,06,35,283,,,,,,,,,*79
$GPGSA,M,3,05,18,29,30,21,,,,,,,,3.3,2.5,2.2*3E
Trace #27 at position 6.500000
$GPZDA,123945.03,06,10,2011,00,00*68
$GPRMC,123945.00,A,4611.952159,N,01258.217368,E,000.8,311.8,061011$GPGGA,123946.00,4611.952311,N,01258.217308,E,1,05,2.5,141.02,M,46.25,M,,*68
$GPGLL,4611.952311,N,01258.217308,E,123946.00,A,A*6C
$GPVTG,354.2,T,354.4,M,000.5,N,000.9,K,A*29
$GPGSV,3,1,10,05,08,032,33,16,41,307,,31,19,215,,18,26,143,40*73
$GPGSV,3,2,10,29,34,081,38,30,41,158,41,21,80,123,37,25,06,142,*71
$GPGSV,3,3,10,03,20,283,31,06,35,283,,,,,,,,,*7B
$GPGSA,M,3,05,18,29,30,21,,,,,,,,3.3,2.5,2.2*3E
Trace #28 at position 6.750000
$GPZDA,123946.03,06,10,2011,00,00*6B
$GPRMC,123946.00,A,4611.952311,N,01258.217308,E,000.5,354.2,0610$GPGGA,123947.00,4611.952504,N,01258.217275,E,1,05,2.5,140.90,M,46.25,M,,*6A
$GPGLL,4611.952504,N,01258.217275,E,123947.00,A,A*64
$GPVTG,334.4,T,334.6,M,000.9,N,001.6,K,A*2F
$GPGSV,3,1,10,05,08,032,32,16,41,307,,31,19,215,,18,26,143,39*7C
$GPGSV,3,2,10,29,34,081,39,30,41,158,41,21,80,123,37,25,06,142,*70
$GPGSV,3,3,10,03,20,283,29,06,36,283,29,,,,,,,,*7A
$GPGSA,M,3,05,18,29,30,21,,,,,,,,3.3,2.5,2.2*3E
Trace #29 at position 7.000000
$GPZDA,123947.03,06,10,2011,00,00*6A
$GPRMC,123947.00,A,4611.952504,N,01258.217275,E,000.9,334.4,0646.25,M,,*60
$GPGLL,4611.952701,N,01258.217298,E,123948.00,A,A*6F
$GPVTG,32.5,T,32.6,M,000.6,N,001.2,K,A*25
$GPGSV,3,1,10,05,08,032,,16,41,307,,31,19,215,,18,26,143,40*73
$GPGSV,3,2,10,29,34,081,39,30,41,158,41,21,80,123,37,25,06,142,*70
$GPGSV,3,3,10,03,20,283,31,06,36,283,31,,,,,,,,*7A
$GPGSA,M,3,05,18,29,30,21,,,,,,,,3.3,2.5,2.2*3E
Trace #30 at position 7.250000
$GPZDA,123948.03,06,10,2011,00,00*65
$GPRMC,123948.00,A,4611.952701,N,01258.217298,E,000.6,32.5,061011,0.2,E,A*04
$GPGGA,123949.00,4611.952881,N,01258.217353,E,1,05,248.5,M,000.7,N,001.3,K,A*20
$GPGSV,3,1,10,05,08,032,32,16,41,307,,31,19,215,,18,26,143,39*7C
$GPGSV,3,2,10,29,34,081,40,30,41,158,42,21,80,123,37,25,06,142,*7D
$GPGSV,3,3,10,03,20,283,30,06,36,283,30,,,,,,,,*7A
$GPGSA,M,3,05,18,29,30,21,,,,,,,,3.3,2.5,2.2*3E
Trace #31 at position 7.500000
$GPZDA,123948.03,06,10,2011,00,00*65
$GPRMC,123948.00,A,4611.952701,N,01258.217298,E,000.6,32.5,061011,0.2,E,A*04
$GPGGA,123949.00,4611.952881,N,01258.217353,E,1,05,248.5,M,000.7,N,001.3,K,A*20
$GPGSV,3,1,10,05,08,032,32,16,41,307,,31,19,215,,18,26,143,39*7C
$GPGSV,3,2,10,29,34,081,40,30,41,158,42,21,80,123,37,25,06,142,*7D
$GPGSV,3,3,10,03,20,283,30,06,36,283,30,,,,,,,,*7A
$GPGSA,M,3,05,18,29,30,21,,,,,,,,3.3,2.5,2.2*3E
Trace #32 at position 7.750000
$GPZDA,123949.03,06,10,2011,00,00*64
$GPRMC,123949.00,A,4611.952881,N,01258.217353,E,000.7,348.3,061011,0.2,E,A*3D
$GPGGA,123950.00,4611.953039,N,01258.217211,E,1,05,2.5,141.02,M,46.25,M,,*6E
$GPGLL,4611.953039,N,01258.217211,E,123950.00,A,A*6A3,37,25,06,142,*73
$GPGSV,3,3,10,03,20,283,32,06,36,283,32,,,,,,,,*7A
$GPGSA,M,3,05,18,29,30,21,,,,,,,,3.3,2.5,2.2*3E
Trace #33 at position 8.000000
$GPZDA,123949.03,06,10,2011,00,00*64
$GPRMC,123949.00,A,4611.952881,N,01258.217353,E,000.7,348.3,061011,0.2,E,A*3D
$GPGGA,123950.00,4611.953039,N,01258.217211,E,1,05,2.5,141.02,M,46.25,M,,*6E
$GPGLL,4611.953039,N,01258.217211,E,123950.00,A,A*6A3,37,25,06,142,*73
$GPGSV,3,3,10,03,20,283,32,06,36,283,32,,,,,,,,*7A
$GPGSA,M,3,05,18,29,30,21,,,,,,,,3.3,2.5,2.2*3E
Trace #34 at position 8.250000
$GPZDA,123950.03,06,10,2011,00,00*6C
$GPRMC,123950.00,A,4611.953039,N,01258.217211,E,000.8,299.4,061011,0.2,E,A*3D
$GPGGA,123951.00,4611.953164,N,01258.217078,E,1,05,2.5,140.96,M,46.25,M,,*67
$GPGLL,4611.953164,N,01258.217078,E,123951.00,A,A*6F
$GPVTG,340.2,T,340.4,M,000.4,N,000.8,K,A*29
$GPGSV,3,1,10,05,08,032,31,16,41,307,,31,19,215,,18,26,143,38*7E
$GPGSV,3,2,10,29,34,081,40,30,4011,00,00*6D
$GPRMC,123951.00,A,4611.953164,N,01258.217078,E,000.4,340.2,061011,0.2,E,A*37
$GPGGA,123952.00,4611.953304,N,01258.217074,E,1,05,2.5,140.99,M,46.25,M,,*63
$GPGLL,4611.953304,N,01258.217074,E,123952.00,A,A*64
$GPVTG,1.3,T,1.5,M,000.5,N,000.9,K,A*29
$GPGSV,3,1,10,05,08,032,32,16,41,307,,31,19,215,,18,26,143,38*7D
$GPGSV,3,2,10,29,34,081,40,30,41,158,42,21,80,123,37,25,06,142,*7D
$GPGSV,3,3,10,03,20,283,31,06,36,283,29,,,,,,,,*73
$GPGSA,M,3,05,18,29,30,21,,,,,,,,3.3,2.5,2.2*3E
Trace #35 at position 8.500000
$GPZDA,1239,1.3,061011,0.2,E,A*3A
$GPGGA,123953.00,4611.953485,N,01258.217076,E,1,05,2.5,141.06,M,46.25,M,,*69
$GPGLL,4611.953485,N,01258.217076,E,123953.00,A,A*69
$GPVTG,353.6,T,353.8,M,000.7,N,001.4,K,A*2F
$GPGSV,3,1,10,05,08,032,33,16,41,307,,31,19,215,,18,26,143,39*7D
$GPGSV,3,2,10,29,34,081,39,30,41,158,42,21,80,123,37,25,06,142,*73
$GPGSV,3,3,10,03,20,283,31,06,36,283,31,,,,,,,,*7A
$GPGSA,M,3,05,18,29,30,21,,,,,,,,3.3,2.5,2.2*3E
Trace #36 at position 8.750000
$GPZDA,1239,1.3,061011,0.2,E,A*3A
$GPGGA,123953.00,4611.953485,N,01258.217076,E,1,05,2.5,141.06,M,46.25,M,,*69
$GPGLL,4611.953485,N,01258.217076,E,123953.00,A,A*69
$GPVTG,353.6,T,353.8,M,000.7,N,001.4,K,A*2F
$GPGSV,3,1,10,05,08,032,33,16,41,307,,31,19,215,,18,26,143,39*7D
$GPGSV,3,2,10,29,34,081,39,30,41,158,42,21,80,123,37,25,06,142,*73
$GPGSV,3,3,10,03,20,283,31,06,36,283,31,,,,,,,,*7A
$GPGSA,M,3,05,18,29,30,21,,,,,,,,3.3,2.5,2.2*3E
Trace #37 at position 9.000000
$GPZDA,123953.04,06,10,2011,00,00*68
$GPRMC,123953.00,A,4611.953485,N,01258$GPGGA,123954.00,4611.953637,N,01258.217071,E,1,05,2.5,141.12,M,46.25,M,,*67
$GPGLL,4611.953637,N,01258.217071,E,123954.00,A,A*62
$GPVTG,8.6,T,8.8,M,000.3,N,000.5,K,A*2B
$GPGSV,3,1,10,05,08,032,31,16,41,307,,31,19,215,,18,26,143,39*7F
$GPGSV,3,2,10,29,34,081,40,30,41,158,42,21,80,123,36,25,06,142,*7C
$GPGSV,3,3,10,03,20,283,31,06,36,283,,,,,,,,,*78
$GPGSA,M,3,05,18,29,30,21,,,,,,,,3.3,2.5,2.2*3E
Trace #38 at position 9.250000
$GPZDA,123954.03,06,10,2011,00,00*68
$GPRMC,123954.00,A,4611.953637,N,01258.217071,E,000.3,8.6,061011,0.2$GPGGA,123955.00,4611.952364,N,01258.221034,E,1,04,60.8,148.08,M,46.25,M,,*5A
$GPGLL,4611.952364,N,01258.221034,E,123955.00,A,A*65
$GPVTG,337.2,T,337.4,M,000.8,N,001.5,K,A*29
$GPGSV,3,1,10,05,08,032,30,16,41,307,,31,19,215,,18,26,143,38*7F
$GPGSV,3,2,10,29,34,081,40,30,41,158,42,21,80,123,37,25,06,142,*7D
$GPGSV,3,3,10,03,20,283,30,06,36,283,31,,,,,,,,*7B
$GPGSA,M,3,18,29,30,21,,,,,,,,,94.3,60.8,72.1*08
Trace #39 at position 9.500000
$GPZDA,123955.03,06,10,2011,00,00*69
$GPRMC,123955.00,A,4611.952364,N,01258.221034,E,000.8,337.2,$GPGGA,123956.00,4611.951456,N,01258.224200,E,1,04,60.8,153.69,M,46.25,M,,*51
$GPGLL,4611.951456,N,01258.224200,E,123956.00,A,A*63
$GPVTG,317.6,T,317.8,M,002.5,N,004.6,K,A*28
$GPGSV,3,1,10,05,08,032,29,16,41,307,,31,19,215,,18,26,143,39*76
$GPGSV,3,2,10,29,34,081,40,30,41,158,42,21,80,123,37,25,06,142,*7D
$GPGSV,3,3,10,03,20,283,,06,36,283,32,,,,,,,,*7B
$GPGSA,M,3,18,29,30,21,,,,,,,,,94.3,60.8,72.1*08
Trace #40 at position 9.750000
$GPZDA,123955.03,06,10,2011,00,00*69
$GPRMC,123955.00,A,4611.952364,N,01258.221034,E,000.8,337.2,$GPGGA,123956.00,4611.951456,N,01258.224200,E,1,04,60.8,153.69,M,46.25,M,,*51
$GPGLL,4611.951456,N,01258.224200,E,123956.00,A,A*63
$GPVTG,317.6,T,317.8,M,002.5,N,004.6,K,A*28
$GPGSV,3,1,10,05,08,032,29,16,41,307,,31,19,215,,18,26,143,39*76
$GPGSV,3,2,10,29,34,081,40,30,41,158,42,21,80,123,37,25,06,142,*7D
$GPGSV,3,3,10,03,20,283,,06,36,283,32,,,,,,,,*7B
$GPGSA,M,3,18,29,30,21,,,,,,,,,94.3,60.8,72.1*08
Trace #41 at position 10.000000
$GPZDA,123956.03,06,10,2011,00,00*6A
$GPRMC,123956.00,A,4611.951456,N,01258.224200,E,002.5,317.6,06$GPGGA,123957.00,4611.950301,N,01258.228021,E,1,04,61.6,160.39,M,46.25,M,,*53
$GPGLL,4611.950301,N,01258.228021,E,123957.00,A,A*6B
$GPVTG,112.0,T,112.1,M,005.6,N,010.4,K,A*24
$GPGSV,3,1,10,05,08,032,28,16,41,307,,31,19,215,,18,26,143,38*76
$GPGSV,3,2,10,29,34,081,40,30,41,158,42,21,80,123,36,25,06,142,*7C
$GPGSV,3,3,10,03,20,283,,06,36,283,32,,,,,,,,*7B
$GPGSA,M,3,18,29,30,21,,,,,,,,,95.6,61.6,73.1*02
Trace #42 at position 10.250000
$GPZDA,123957.03,06,10,2011,00,00*6B
$GPRMC,123957.00,A,4611.950301,N,01258.228021,E,005.6,112.0,061258.231777,E,1,04,61.6,167.04,M,46.25,M,,*52
$GPGLL,4611.949100,N,01258.231777,E,123958.00,A,A*63
$GPVTG,16.5,T,16.7,M,000.4,N,000.8,K,A*2D
$GPGSV,3,1,10,05,08,032,29,16,41,307,,31,19,215,,18,26,143,38*77
$GPGSV,3,2,10,29,34,081,39,30,41,158,41,21,80,123,37,25,06,142,*70
$GPGSV,3,3,10,03,20,283,31,06,36,283,,,,,,,,,*78
$GPGSA,M,3,18,29,30,21,,,,,,,,,95.6,61.6,73.1*02
Trace #43 at position 10.500000
$GPZDA,123957.03,06,10,2011,00,00*6B
$GPRMC,123957.00,A,4611.950301,N,01258.228021,E,005.6,112.0,061258.231777,E,1,04,61.6,167.04,M,46.25,M,,*52
$GPGLL,4611.949100,N,01258.231777,E,123958.00,A,A*63
$GPVTG,16.5,T,16.7,M,000.4,N,000.8,K,A*2D
$GPGSV,3,1,10,05,08,032,29,16,41,307,,31,19,215,,18,26,143,38*77
$GPGSV,3,2,10,29,34,081,39,30,41,158,41,21,80,123,37,25,06,142,*70
$GPGSV,3,3,10,03,20,283,31,06,36,283,,,,,,,,,*78
$GPGSA,M,3,18,29,30,21,,,,,,,,,95.6,61.6,73.1*02
Trace #44 at position 10.750000
$GPZDA,123958.03,06,10,2011,00,00*64
$GPRMC,123958.00,A,4611.949100,N,01258.231777,E,000.4,16.5,061011,0.2,E,A*0C
$GPGGA,123959.00,4N,01258.233510,E,123959.00,A,A*66
$GPVTG,302.2,T,302.3,M,004.0,N,007.4,K,A*25
$GPGSV,3,1,10,05,08,032,30,16,41,307,,31,19,215,,18,26,143,38*7F
$GPGSV,3,2,10,29,34,081,40,30,41,158,41,21,80,123,38,25,06,142,*71
$GPGSV,3,3,10,03,20,283,31,06,36,283,31,,,,,,,,*7A
$GPGSA,M,3,18,29,30,21,,,,,,,,,97.1,62.6,74.2*00
Trace #45 at position 11.000000
$GPZDA,123959.03,06,10,2011,00,00*65
$GPRMC,123959.00,A,4611.948603,N,01258.233510,E,004.0,302.2,061011,0.2,E,A*38
$GPGGA,124000.00,4611.948200,N,01258.234891,E,1,04,62.6,173.01,M,46.24,M,,*53
3
$GPGSV,3,1,10,05,08,032,,16,41,307,,31,19,215,,18,26,143,38*7C
$GPGSV,3,2,10,29,34,081,39,30,41,158,41,21,80,123,37,25,06,142,*70
$GPGSV,3,3,10,03,20,283,31,06,36,283,31,,,,,,,,*7A
$GPGSA,M,3,18,29,30,21,,,,,,,,,97.1,62.6,74.2*00
Trace #46 at position 11.250000
$GPZDA,124000.03,06,10,2011,00,00*67
$GPRMC,124000.00,A,4611.948200,N,01258.234891,E,001.2,306.0,061011,0.2,E,A*3F
$GPGGA,124001.00,4611.947794,N,01258.236348,E,1,04,63.4,175.73,M,46.24,M,,*58
$GPGLL,4611.947794,N,01258.236348,E,124001.00,A,A*6B
$GPVTG,307.1,T,307.3,M,00,80,123,37,25,06,142,*70
$GPGSV,3,3,10,03,20,283,,06,36,283,33,,,,,,,,*7A
$GPGSA,M,3,18,29,30,21,,,,,,,,,98.3,63.4,75.2*0F
Trace #47 at position 11.500000
$GPZDA,124001.03,06,10,2011,00,00*66
$GPRMC,124001.00,A,4611.947794,N,01258.236348,E,002.7,307.1,061011,0.2,E,A*32
$GPGGA,124002.00,4611.947349,N,01258.237898,E,1,04,63.4,178.55,M,46.24,M,,*51
$GPGLL,4611.947349,N,01258.237898,E,124002.00,A,A*6B
$GPVTG,89.8,T,90.0,M,000.4,N,000.7,K,A*20
$GPGSV,3,1,10,05,08,032,30,16,41,307,,31,19,215,30,18,26,143,38*7C
$GPGSV,3,2,10,29,34,081,483,32,06,36,283,31,,,,,,,,*79
$GPGSA,M,3,18,29,30,21,,,,,,,,,98.3,63.4,75.2*0F
Trace #48 at position 11.750000
$GPZDA,124002.03,06,10,2011,00,00*65
$GPRMC,124002.00,A,4611.947349,N,01258.237898,E,000.4,89.8,061011,0.2,E,A*0F
$GPGGA,,,,,,0,04,,,M,,M,,*62
$GPGLL,,,,,,V,N*64
$GPVTG,,T,,,,N,,K,N*61
$GPGSV,3,1,10,05,08,032,31,16,41,307,,31,19,215,31,18,26,143,39*7D
$GPGSV,3,2,10,29,34,081,39,30,41,158,41,21,80,123,37,25,06,142,*70
$GPGSV,3,3,10,03,20,283,31,06,36,283,30,,,,,,,,*7B
$GPGSA,M,1,,,,,,,,,,,,,98.3,63.4,75.2*0F
Trace #49 at position 12.000000
$GPZDA,1240$GPGGA,,,,,,0,04,,,M,,M,,*62
$GPGLL,,,,,,V,N*64
$GPVTG,,T,,,,N,,K,N*61
$GPGSV,3,1,10,05,08,032,27,16,41,307,,31,19,215,26,18,26,143,39*7C
$GPGSV,3,2,10,29,34,081,39,30,41,158,41,21,80,123,37,25,06,142,*70
$GPGSV,3,3,10,03,20,283,30,06,36,283,,,,,,,,,*79
$GPGSA,M,1,,,,,,,,,,,,,98.3,63.4,75.2*0F
Trace #50 at position 12.250000
$GPZDA,124005.02,06,10,2011,00,00*63
$GPRMC,124002.00,V,,,,,,,,,,N*78
$GPGGA,,,,,,0,04,,,M,,M,,*62
$GPGLL,,,,,,V,N*64
$GPVTG,,T,,,,N,,K,N*61
$GPGSV,3,1,10,05,08,032,27,16,41,307,,31,19,215,30,18,26,143,38*7A
$GPGSV,3,2,10,29,34,081,40,30,41,158,41,21,80,123,36,25,06,142,*7F
$GPGSV,3,3,10,03,20,283,30,06,36,283,,,,,,,,,*79
$GPGSA,M,1,,,,,,,,,,,,,98.3,63.4,75.2*0F
Trace #51 at position 12.500000
$GPZDA,124007.02,06,10,2011,00,00*61
$GPRMC,124002.00,V,,,,,,,,,,N*78
$GPGGA,,,,,,0,04,,,M,,M,,*62
$GPGLL,,,,,,V,N*64
$GPVTG,,T,,,,N,,K,N*61
$GPGSV,3,1,10,05,08,032,29,16,41,307,,31,19,215,29,18,26,143,38*7C
$GPGSV,3,2,10,29,34,081,39,30,41,158,41,21,80,122,37,25,06,142,*71
$GPGSV,3,3,10,03,20,283,31,06,36,283,31,,,,,,,,*7A
$GPGSA,M,1,,,,,,,,,,,,,98.3,63.4,75.2*0F
Trace #52 at position 12.750000
$GPZDA,124009.02,06,10,2011,00,00*6F
$GPRMC,124002.00,V,,,,,,,,,,N*78
$GPGGA,,,,,,0,04,,,M,,M,,*62
$GPGLL,,,,,,V,N*64
$GPVTG,,T,,,,N,,K,N*61
$GPGSV,3,1,10,05,08,032,30,16,41,307,,31,19,215,29,18,26,143,37*7B
$GPGSV,3,2,10,29,34,081,39,30,41,158,41,21,80,122,36,25,06,142,*70
$GPGSV,3,3,10,03,20,283,32,06,36,283,31,,,,,,,,*79
$GPGSA,M,1,,,,,,,,,,,,,98.3,63.4,75.2*0F
Trace #53 at position 13.000000
$GPZDA,124010.02,06,10,2011,00,00*67
$GPRMC,124002.00,V,,,,,,,,,,N*78
$GPGGA,,,,,,0,04,,,M,,M,,*62
$GPGLL,,,,,,V,N*64
$GPVTG,,T,,,,N,,K,N*61
$GPGSV,3,1,10,05,08,032,26,16,41,307,,31,19,215,30,18,26,143,38*7B
$GPGSV,3,2,10,29,34,081,39,30,41,158,41,21,80,122,36,25,06,142,*70
$GPGSV,3,3,10,03,20,283,32,06,36,283,32,,,,,,,,*7A
$GPGSA,M,1,,,,,,,,,,,,,98.3,63.4,75.2*0F
Trace #54 at position 13.250000
$GPZDA,124011.02,06,10,2011,00,00*66
$GPRMC,124002.00,V,,,,,,,,,,N*78
$GPGGA,,,,,,0,04,,,M,,M,,*62
$GPGLL,,,,,,V,N*64
$GPVTG,,T,,,,N,,K,N*61
$GPGSV,3,1,10,05,08,032,30,16,41,307,,31,19,215,31,18,26,143,38*7D
$GPGSV,3,2,10,29,34,081,40,30,41,158,42,21,80,122,36,25,06,142,*7D
$GPGSV,3,3,10,03,20,283,30,06,36,283,31,,,,,,,,*7B
$GPGSA,M,1,,,,,,,,,,,,,98.3,63.4,75.2*0F
Trace #55 at position 13.500000
$GPZDA,124012.02,06,10,2011,00,00*65
$GPRMC,124002.00,V,,,,,,,,,,N*78
$GPGGA,,,,,,0,04,,,M,,M,,*62
$GPGLL,,,,,,V,N*64
$GPVTG,,T,,,,N,,K,N*61
$GPGSV,3,1,10,05,08,032,29,16,41,307,,31,19,215,31,18,26,143,38*75
$GPGSV,3,2,10,29,34,081,40,30,41,158,41,21,80,122,35,25,06,142,*7D
$GPGSV,3,3,10,03,20,283,28,06,36,283,31,,,,,,,,*72
$GPGSA,M,1,,,,,,,,,,,,,98.3,63.4,75.2*0F
Trace #56 at position 13.750000
$GPZDA,124013.02,06,10,2011,00,00*64
$GPRMC,124002.00,V,,,,,,,,,,N*78
$GPGGA,,,,,,0,04,,,M,,M,,*62
$GPGLL,,,,,,V,N*64
$GPVTG,,T,,,,N,,K,N*61
$GPGSV,3,1,10,05,08,032,29,16,41,307,,31,19,215,31,18,26,143,37*7A
$GPGSV,3,2,10,29,34,081,39,30,41,158,42,21,80,122,35,25,06,142,*70
$GPGSV,3,3,10,03,20,283,30,06,36,283,32,,,,,,,,*78
$GPGSA,M,1,,,,,,,,,,,,,98.3,63.4,75.2*0F
Trace #57 at position 14.000000
$GPZDA,124014.02,06,10,2011,00,00*63
$GPRMC,124002.00,V,,,,,,,,,,N*78
$GPGGA,,,,,,0,04,,,M,,M,,*62
$GPGLL,,,,,,V,N*64
$GPVTG,,T,,,,N,,K,N*61
$GPGSV,3,1,10,05,08,032,29,16,41,307,,31,19,215,29,18,26,143,35*71
$GPGSV,3,2,10,29,34,081,39,30,41,158,41,21,80,122,35,25,06,142,*73
$GPGSV,3,3,10,03,20,283,31,06,36,283,32,,,,,,,,*79
$GPGSA,M,1,,,,,,,,,,,,,98.3,63.4,75.2*0F
Trace #58 at position 14.250000
$GPZDA,124015.02,06,10,2011,00,00*62
$GPRMC,124002.00,V,,,,,,,,,,N*78
$GPGGA,124016.00,4611.957592,N,01258.213728,E,1,05,1.5,138.17,M,46.24,M,,*61
$GPGLL,4611.957592,N,01258.213728,E,124016.00,A,A*6D
$GPVTG,341.9,T,342.1,M,000.8,N,001.5,K,A*24
$GPGSV,3,1,10,05,08,032,30,16,41,307,,31,19,215,32,18,26,143,37*71
$GPGSV,3,2,10,29,34,081,39,30,41,158,41,21,80,122,35,25,06,142,*73
$GPGSV,3,3,10,03,20,283,32,06,36,283,34,,,,,,,,*7C
$GPGSA,M,3,18,29,30,21,06,,,,,,,,3.0,1.5,2.5*3A
Trace #59 at position 14.500000
$GPZDA,124015.02,06,10,2011,00,00*62
$GPRMC,124002.00,V,,,,,,,,,,N*78
$GPGGA,124016.00,4611.957592,N,01258.213728,E,1,05,1.5,138.17,M,46.24,M,,*61
$GPGLL,4611.957592,N,01258.213728,E,124016.00,A,A*6D
$GPVTG,341.9,T,342.1,M,000.8,N,001.5,K,A*24
$GPGSV,3,1,10,05,08,032,30,16,41,307,,31,19,215,32,18,26,143,37*71
$GPGSV,3,2,10,29,34,081,39,30,41,158,41,21,80,122,35,25,06,142,*73
$GPGSV,3,3,10,03,20,283,32,06,36,283,34,,,,,,,,*7C
$GPGSA,M,3,18,29,30,21,06,,,,,,,,3.0,1.5,2.5*3A
Trace #60 at position 14.750000
$GPZDA,124016.03,06,10,2011,00,00*60
$GPRMC,124016.00,A,4611.957592,N,01258.213728,E,000.8,341.9,061011,0.2,E,A*33
$GPGGA,124017.00,4611.957796,N,01258.213699,E,1,05,1.5,138.19,M,46.25,M,,*62
$GPGLL,4611.957796,N,01258.213699,E,124017.00,A,A*61
$GPVTG,357.7,T,357.8,M,000.9,N,001.6,K,A*22
$GPGSV,3,1,10,05,08,032,29,16,41,307,,31,19,215,30,18,26,143,37*7B
$GPGSV,3,2,10,29,34,081,39,30,41,158,41,21,80,122,36,25,06,142,*70
$GPGSV,3,3,10,03,20,283,32,06,36,283,31,,,,,,,,*79
$GPGSA,M,3,18,29,30,21,06,,,,,,,,3.0,1.5,2.5*3A
Trace #61 at position 15.000000
$GPZDA,124017.03,06,10,2011,00,00*61
$GPRMC,124017.00,A,4611.957796,N,01258.213699,E,000.9,357.7,061011,0.2,E,A*37
$GPGGA,124018.00,4611.957967,N,01258.213681,E,1,05,1.5,138.19,M,46.25,M,,*64
$GPGLL,4611.957967,N,01258.213681,E,124018.00,A,A*67
$GPVTG,3.2,T,3.3,M,000.5,N,000.9,K,A*2E
$GPGSV,3,1,10,05,08,032,31,16,41,307,,31,19,215,31,18,26,143,37*73
$GPGSV,3,2,10,29,34,081,39,30,41,158,42,21,80,122,36,25,06,142,*73
$GPGSV,3,3,10,03,20,283,29,06,36,283,31,,,,,,,,*73
$GPGSA,M,3,18,29,30,21,06,,,,,,,,3.0,1.5,2.5*3A
Trace #62 at position 15.250000
$GPZDA,124017.03,06,10,2011,00,00*61
$GPRMC,124017.00,A,4611.957796,N,01258.213699,E,000.9,357.7,061011,0.2,E,A*37
$GPGGA,124018.00,4611.957967,N,01258.213681,E,1,05,1.5,138.19,M,46.25,M,,*64
$GPGLL,4611.957967,N,01258.213681,E,124018.00,A,A*67
$GPVTG,3.2,T,3.3,M,000.5,N,000.9,K,A*2E
$GPGSV,3,1,10,05,08,032,31,16,41,307,,31,19,215,31,18,26,143,37*73
$GPGSV,3,2,10,29,34,081,39,30,41,158,42,21,80,122,36,25,06,142,*73
$GPGSV,3,3,10,03,20,283,29,06,36,283,31,,,,,,,,*73
$GPGSA,M,3,18,29,30,21,06,,,,,,,,3.0,1.5,2.5*3A
Trace #63 at position 15.500000
$GPZDA,124018.04,06,10,2011,00,00*69
$GPRMC,124018.00,A,4611.957967,N,01258.213681,E,000.5,3.2,061011,0.2,E,A*3A
$GPGGA,124019.00,4611.958117,N,01258.213614,E,1,05,1.5,138.14,M,46.25,M,,*64
$GPGLL,4611.958117,N,01258.213614,E,124019.00,A,A*6A
$GPVTG,331.6,T,331.8,M,000.7,N,001.4,K,A*2F
$GPGSV,3,1,10,05,08,032,28,16,41,307,,31,19,215,31,18,26,143,38*74
$GPGSV,3,2,10,29,34,081,39,30,41,158,41,21,80,122,37,25,06,142,*71
$GPGSV,3,3,10,03,20,283,31,06,36,283,30,,,,,,,,*7B
$GPGSA,M,3,18,29,30,21,06,,,,,,,,3.0,1.5,2.5*3A
Trace #64 at position 15.750000
$GPZDA,124019.03,06,10,2011,00,00*6F
$GPRMC,124019.00,A,4611.958117,N,01258.213614,E,000.7,331.6,061011,0.2,E,A*33
$GPGGA,124020.00,4611.958297,N,01258.213483,E,1,06,1.5,138.04,M,46.25,M,,*6B
$GPGLL,4611.958297,N,01258.213483,E,124020.00,A,A*67
$GPVTG,350.1,T,350.3,M,000.6,N,001.1,K,A*27
$GPGSV,3,1,10,05,08,032,29,16,41,307,,31,19,215,31,18,26,143,37*7A
$GPGSV,3,2,10,29,34,081,39,30,41,158,41,21,80,122,36,25,06,142,*70
$GPGSV,3,3,10,03,20,283,33,06,36,283,31,,,,,,,,*78
$GPGSA,M,3,18,29,30,21,03,06,,,,,,,2.6,1.5,2.1*3A
Trace #65 at position 16.000000
$GPZDA,124020.04,06,10,2011,00,00*62
$GPRMC,124020.00,A,4611.958297,N,01258.213483,E,000.6,350.1,061011,0.2,E,A*3F
$GPGGA,124021.00,4611.958448,N,01258.213442,E,1,06,1.5,137.92,M,46.25,M,,*63
$GPGLL,4611.958448,N,01258.213442,E,124021.00,A,A*6F
$GPVTG,9.6,T,9.8,M,000.4,N,000.8,K,A*21
$GPGSV,3,1,10,05,08,032,31,16,41,307,,31,19,215,30,18,26,143,38*7D
$GPGSV,3,2,10,29,34,081,39,30,41,158,41,21,80,122,36,25,06,142,*70
$GPGSV,3,3,10,03,20,283,31,06,36,283,31,,,,,,,,*7A
$GPGSA,M,3,18,29,30,21,03,06,,,,,,,2.6,1.5,2.1*3A
Trace #66 at position 16.250000
$GPZDA,124021.03,06,10,2011,00,00*64
$GPRMC,124021.00,A,4611.958448,N,01258.213442,E,000.4,9.6,061011,0.2,E,A*3D
$GPGGA,124022.00,4611.958596,N,01258.213395,E,1,05,1.5,137.92,M,46.25,M,,*6C
$GPGLL,4611.958596,N,01258.213395,E,124022.00,A,A*63
$GPVTG,337.0,T,337.1,M,000.8,N,001.4,K,A*2F
$GPGSV,3,1,10,05,08,032,30,16,41,307,,31,19,215,30,18,26,143,38*7C
$GPGSV,3,2,10,29,34,081,40,30,41,158,42,21,80,122,35,25,06,142,*7E
$GPGSV,3,3,10,03,20,283,30,06,36,283,31,,,,,,,,*7B
$GPGSA,M,3,18,29,30,21,06,,,,,,,,3.0,1.5,2.5*3A
Trace #67 at position 16.500000
$GPZDA,124022.03,06,10,2011,00,00*67
$GPRMC,124022.00,A,4611.958596,N,01258.213395,E,000.8,337.0,061011,0.2,E,A*35
$GPGGA,,,,,,0,04,,,M,,M,,*62
$GPGLL,,,,,,V,N*64
$GPVTG,,T,,,,N,,K,N*61
$GPGSV,3,1,10,05,08,032,32,16,41,307,,31,19,215,30,18,26,143,39*7F
$GPGSV,3,2,10,29,34,081,39,30,41,158,42,21,80,122,37,25,06,142,*72
$GPGSV,3,3,10,03,20,283,32,06,36,283,,,,,,,,,*7B
$GPGSA,M,1,,,,,,,,,,,,,3.0,1.5,2.5*3C
Trace #68 at position 16.750000
$GPZDA,124023.03,06,10,2011,00,00*66
$GPRMC,124022.00,V,,,,,,,,,,N*7A
$GPGGA,,,,,,0,04,,,M,,M,,*62
$GPGLL,,,,,,V,N*64
$GPVTG,,T,,,,N,,K,N*61
$GPGSV,3,1,10,05,08,032,31,16,41,307,,31,19,215,30,18,26,143,37*72
$GPGSV,3,2,10,29,34,081,40,30,41,158,41,21,80,122,36,25,06,142,*7E
$GPGSV,3,3,10,03,20,283,31,06,36,283,31,,,,,,,,*7A
$GPGSA,M,1,,,,,,,,,,,,,3.0,1.5,2.5*3C
Trace #69 at position 17.000000
$GPZDA,124024.02,06,10,2011,00,00*60
$GPRMC,124022.00,V,,,,,,,,,,N*7A
$GPGGA,124025.00,4611.959067,N,01258.212814,E,1,05,1.5,137.75,M,46.25,M,,*6B
$GPGLL,4611.959067,N,01258.212814,E,124025.00,A,A*6D
$GPVTG,300.5,T,300.6,M,000.9,N,001.6,K,A*2E
$GPGSV,3,1,10,05,08,032,31,16,41,307,,31,19,215,31,18,26,143,38*7C
$GPGSV,3,2,10,29,34,081,39,30,41,158,40,21,80,122,35,25,06,142,*72
$GPGSV,3,3,10,03,20,283,32,06,36,283,32,,,,,,,,*7A
$GPGSA,M,3,18,29,30,21,06,,,,,,,,3.0,1.5,2.5*3A
Trace #70 at position 17.250000
$GPZDA,124025.04,06,10,2011,00,00*67
$GPRMC,124025.00,A,4611.959067,N,01258.212814,E,000.9,300.5,061011,0.2,E,A*3B
$GPGGA,,,,,,0,04,,,M,,M,,*62
$GPGLL,,,,,,V,N*64
$GPVTG,,T,,,,N,,K,N*61
$GPGSV,3,1,10,05,08,032,29,16,41,307,,31,19,215,31,18,26,143,38*75
$GPGSV,3,2,10,29,34,081,39,30,41,158,41,21,80,122,36,25,06,142,*70
$GPGSV,3,3,10,03,20,283,31,06,36,283,32,,,,,,,,*79
$GPGSA,M,1,,,,,,,,,,,,,3.0,1.5,2.5*3C
Trace #71 at position 17.500000
$GPZDA,124026.02,06,10,2011,00,00*62
$GPRMC,124025.00,V,,,,,,,,,,N*7D
$GPGGA,124027.00,4611.959307,N,01258.212497,E,1,05,1.5,137.49,M,46.25,M,,*64
$GPGLL,4611.959307,N,01258.212497,E,124027.00,A,A*6D
$GPVTG,334.9,T,335.1,M,000.5,N,000.8,K,A*27
$GPGSV,3,1,10,05,08,032,30,16,41,307,,31,19,215,31,18,26,143,38*7D
$GPGSV,3,2,10,29,34,081,40,30,41,158,40,21,80,121,37,25,06,142,*7D
$GPGSV,3,3,10,03,20,283,29,06,36,283,32,,,,,,,,*70
$GPGSA,M,3,18,29,30,21,06,,,,,,,,3.0,1.5,2.5*3A
Trace #72 at position 17.750000
$GPZDA,124026.02,06,10,2011,00,00*62
$GPRMC,124025.00,V,,,,,,,,,,N*7D
$GPGGA,124027.00,4611.959307,N,01258.212497,E,1,05,1.5,137.49,M,46.25,M,,*64
$GPGLL,4611.959307,N,01258.212497,E,124027.00,A,A*6D
$GPVTG,334.9,T,335.1,M,000.5,N,000.8,K,A*27
$GPGSV,3,1,10,05,08,032,30,16,41,307,,31,19,215,31,18,26,143,38*7D
$GPGSV,3,2,10,29,34,081,40,30,41,158,40,21,80,121,37,25,06,142,*7D
$GPGSV,3,3,10,03,20,283,29,06,36,283,32,,,,,,,,*70
$GPGSA,M,3,18,29,30,21,06,,,,,,,,3.0,1.5,2.5*3A
Trace #73 at position 18.000000
$GPZDA,124027.03,06,10,2011,00,00*62
$GPRMC,124027.00,A,4611.959307,N,01258.212497,E,000.5,334.9,061011,0.2,E,A*3C
$GPGGA,124028.00,4611.959432,N,01258.212462,E,1,05,1.5,137.45,M,46.25,M,,*6C
$GPGLL,4611.959432,N,01258.212462,E,124028.00,A,A*69
$GPVTG,328.5,T,328.6,M,000.5,N,001.0,K,A*24
$GPGSV,3,1,10,05,08,032,31,16,41,307,,31,19,215,29,18,26,143,37*7A
$GPGSV,3,2,10,29,34,081,39,30,41,158,41,21,80,121,36,25,06,142,*73
$GPGSV,3,3,10,03,20,283,31,06,36,283,31,,,,,,,,*7A
$GPGSA,M,3,18,29,30,21,06,,,,,,,,3.0,1.5,2.5*3A
Trace #74 at position 18.250000
$GPZDA,124028.04,06,10,2011,00,00*6A
$GPRMC,124028.00,A,4611.959432,N,01258.212462,E,000.5,328.5,061011,0.2,E,A*39
$GPGGA,124029.00,4611.959568,N,01258.212442,E,1,05,1.5,137.48,M,46.25,M,,*6C
$GPGLL,4611.959568,N,01258.212442,E,124029.00,A,A*64
$GPVTG,347.9,T,348.1,M,000.5,N,001.0,K,A*20
$GPGSV,3,1,10,05,08,032,32,16,41,307,,31,19,215,30,18,26,143,37*71
$GPGSV,3,2,10,29,34,081,39,30,41,158,42,21,80,121,36,25,06,142,*70
$GPGSV,3,3,10,03,20,283,29,06,36,283,32,,,,,,,,*70
$GPGSA,M,3,18,29,30,21,06,,,,,,,,3.0,1.5,2.5*3A
Trace #75 at position 18.500000
$GPZDA,124029.03,06,10,2011,00,00*6C
$GPRMC,124029.00,A,4611.959568,N,01258.212442,E,000.5,347.9,061011,0.2,E,A*31
$GPGGA,,,,,,0,04,,,M,,M,,*62
$GPGLL,,,,,,V,N*64
$GPVTG,,T,,,,N,,K,N*61
$GPGSV,3,1,10,05,08,032,31,16,41,307,,31,19,215,29,18,26,143,38*75
$GPGSV,3,2,10,29,34,081,39,30,41,158,42,21,80,121,35,25,06,142,*73
$GPGSV,3,3,10,03,20,283,30,06,36,283,29,,,,,,,,*72
$GPGSA,M,1,,,,,,,,,,,,,3.0,1.5,2.5*3C
Trace #76 at position 18.750000
$GPZDA,124030.02,06,10,2011,00,00*65
$GPRMC,124029.00,V,,,,,,,,,,N*71
$GPGGA,,,,,,0,04,,,M,,M,,*62
$GPGLL,,,,,,V,N*64
$GPVTG,,T,,,,N,,K,N*61
$GPGSV,3,1,10,05,08,032,30,16,41,307,,31,19,215,,18,26,143,39*7E
$GPGSV,3,2,10,29,34,081,40,30,41,158,41,21,80,121,36,25,06,142,*7D
$GPGSV,3,3,10,03,20,283,31,06,36,283,32,,,,,,,,*79
$GPGSA,M,1,,,,,,,,,,,,,3.0,1.5,2.5*3C
Trace #77 at position 19.000000
$GPZDA,124031.02,06,10,2011,00,00*64
$GPRMC,124029.00,V,,,,,,,,,,N*71
$GPGGA,,,,,,0,04,,,M,,M,,*62
$GPGLL,,,,,,V,N*64
$GPVTG,,T,,,,N,,K,N*61
$GPGSV,3,1,10,05,08,032,29,16,41,307,,31,19,215,31,18,26,143,39*74
$GPGSV,3,2,10,29,34,081,39,30,41,158,42,21,80,121,32,25,06,142,*74
$GPGSV,3,3,10,03,20,283,30,06,36,283,29,,,,,,,,*72
$GPGSA,M,1,,,,,,,,,,,,,3.0,1.5,2.5*3C
Trace #78 at position 19.250000
$GPZDA,124032.02,06,10,2011,00,00*67
$GPRMC,124029.00,V,,,,,,,,,,N*71
$GPGGA,,,,,,0,04,,,M,,M,,*62
$GPGLL,,,,,,V,N*64
$GPVTG,,T,,,,N,,K,N*61
$GPGSV,3,1,10,05,08,032,32,16,41,307,,31,19,215,29,18,26,143,38*76
$GPGSV,3,2,10,29,34,081,39,30,41,158,41,21,80,121,33,25,06,142,*76
$GPGSV,3,3,10,03,20,283,30,06,36,283,32,,,,,,,,*78
$GPGSA,M,1,,,,,,,,,,,,,3.0,1.5,2.5*3C
Trace #79 at position 19.500000
$GPZDA,124033.02,06,10,2011,00,00*66
$GPRMC,124029.00,V,,,,,,,,,,N*71
$GPGGA,,,,,,0,04,,,M,,M,,*62
$GPGLL,,,,,,V,N*64
$GPVTG,,T,,,,N,,K,N*61
$GPGSV,3,1,10,05,08,032,31,16,41,307,,31,19,215,31,18,26,143,37*73
$GPGSV,3,2,10,29,34,081,39,30,41,158,41,21,80,121,34,25,06,142,*71
$GPGSV,3,3,10,03,20,283,30,06,36,283,33,,,,,,,,*79
$GPGSA,M,1,,,,,,,,,,,,,3.0,1.5,2.5*3C
Trace #80 at position 19.750000
$GPZDA,124034.02,06,10,2011,00,00*61
$GPRMC,124029.00,V,,,,,,,,,,N*71
$GPGGA,,,,,,0,04,,,M,,M,,*62
$GPGLL,,,,,,V,N*64
$GPVTG,,T,,,,N,,K,N*61
$GPGSV,3,1,10,05,08,032,32,16,41,307,,31,19,215,28,18,26,143,37*78
$GPGSV,3,2,10,29,34,082,40,30,41,158,41,21,80,121,35,25,05,142,*7E
$GPGSV,3,3,10,03,20,283,,06,36,283,31,,,,,,,,*78
$GPGSA,M,1,,,,,,,,,,,,,3.0,1.5,2.5*3C
Trace #81 at position 20.000000
$GPZDA,124034.02,06,10,2011,00,00*61
$GPRMC,124029.00,V,,,,,,,,,,N*71
$GPGGA,,,,,,0,04,,,M,,M,,*62
$GPGLL,,,,,,V,N*64
$GPVTG,,T,,,,N,,K,N*61
$GPGSV,3,1,10,05,08,032,32,16,41,307,,31,19,215,28,18,26,143,37*78
$GPGSV,3,2,10,29,34,082,40,30,41,158,41,21,80,121,35,25,05,142,*7E
$GPGSV,3,3,10,03,20,283,,06,36,283,31,,,,,,,,*78
$GPGSA,M,1,,,,,,,,,,,,,3.0,1.5,2.5*3C
Trace #82 at position 20.250000
$GPZDA,124035.02,06,10,2011,00,00*60
$GPRMC,124029.00,V,,,,,,,,,,N*71
$GPGGA,124036.00,4611.959997,N,01258.214313,E,1,05,2.5,141.43,M,46.25,M,,*62
$GPGLL,4611.959997,N,01258.214313,E,124036.00,A,A*63
$GPVTG,320.4,T,320.5,M,000.9,N,001.7,K,A*2D
$GPGSV,3,1,10,05,08,032,34,16,41,307,,31,19,215,26,18,26,143,39*7E
$GPGSV,3,2,10,29,34,082,39,30,41,158,41,21,80,121,35,25,05,142,*70
$GPGSV,3,3,10,03,20,283,30,06,36,283,30,,,,,,,,*7A
$GPGSA,M,3,05,18,29,30,21,,,,,,,,3.3,2.5,2.2*3E
Trace #83 at position 20.500000
$GPZDA,124036.03,06,10,2011,00,00*62
$GPRMC,124036.00,A,4611.959997,N,01258.214313,E,000.9,320.4,061011,0.2,E,A*36
$GPGGA,124037.00,4611.960158,N,01258.214164,E,1,05,2.5,141.49,M,46.25,M,,*6A
$GPGLL,4611.960158,N,01258.214164,E,124037.00,A,A*61
$GPVTG,319.7,T,319.9,M,000.5,N,000.9,K,A*21
$GPGSV,3,1,10,05,08,032,32,16,41,307,,31,19,215,27,18,26,143,39*79
$GPGSV,3,2,10,29,34,082,40,30,41,158,41,21,80,121,33,25,05,142,*78
$GPGSV,3,3,10,03,20,283,31,06,36,283,,,,,,,,,*78
$GPGSA,M,3,05,18,29,30,21,,,,,,,,3.3,2.5,2.2*3E
Trace #84 at position 20.750000
$GPZDA,124037.03,06,10,2011,00,00*63
$GPRMC,124037.00,A,4611.960158,N,01258.214164,E,000.5,319.7,061011,0.2,E,A*31
$GPGGA,124038.00,4611.960257,N,01258.214080,E,1,05,2.5,141.47,M,46.25,M,,*6C
$GPGLL,4611.960257,N,01258.214080,E,124038.00,A,A*69
$GPVTG,317.7,T,317.8,M,000.6,N,001.1,K,A*2A
$GPGSV,3,1,10,05,08,032,33,16,41,307,,31,19,215,30,18,26,143,38*7F
$GPGSV,3,2,10,29,34,082,40,30,41,158,40,21,80,121,33,25,05,142,*79
$GPGSV,3,3,10,03,20,283,32,06,36,283,31,,,,,,,,*79
$GPGSA,M,3,05,18,29,30,21,,,,,,,,3.3,2.5,2.2*3E
Trace #85 at position 21.000000
$GPZDA,124038.04,06,10,2011,00,00*6B
$GPRMC,124038.00,A,4611.960257,N,01258.214080,E,000.6,317.7,061011,0.2,E,A*34
$GPGGA,124039.00,4611.960344,N,01258.214084,E,1,05,2.5,141.90,M,46.25,M,,*60
$GPGLL,4611.960344,N,01258.214084,E,124039.00,A,A*6F
$GPVTG,73.6,T,73.7,M,000.4,N,000.8,K,A*2E
$GPGSV,3,1,10,05,08,032,31,16,41,307,,31,19,215,31,18,26,143,37*73
$GPGSV,3,2,10,29,34,082,40,30,41,158,41,21,80,121,34,25,05,142,*7F
$GPGSV,3,3,10,03,20,283,31,06,36,283,32,,,,,,,,*79
$GPGSA,M,3,05,18,29,30,21,,,,,,,,3.3,2.5,2.2*3E
Trace #86 at position 21.250000
$GPZDA,124039.03,06,10,2011,00,00*6D
$GPRMC,124039.00,A,4611.960344,N,01258.214084,E,000.4,73.6,061011,0.2,E,A*00
$GPGGA,,,,,,0,04,,,M,,M,,*62
$GPGLL,,,,,,V,N*64
$GPVTG,,T,,,,N,,K,N*61
$GPGSV,3,1,10,05,08,032,29,16,41,307,,31,19,215,29,18,26,143,38*7C
$GPGSV,3,2,10,29,34,082,39,30,41,158,41,21,80,121,34,25,05,142,*71
$GPGSV,3,3,10,03,20,283,32,06,36,283,,,,,,,,,*7B
$GPGSA,M,1,,,,,,,,,,,,,3.3,2.5,2.2*3B
Trace #87 at position 21.500000
$GPZDA,124040.02,06,10,2011,00,00*62
$GPRMC,124039.00,V,,,,,,,,,,N*70
$GPGGA,,,,,,0,04,,,M,,M,,*62
$GPGLL,,,,,,V,N*64
$GPVTG,,T,,,,N,,K,N*61
$GPGSV,3,1,10,05,08,032,31,16,41,307,,31,19,215,28,18,26,143,38*74
$GPGSV,3,2,10,29,34,082,39,30,41,158,41,21,80,121,35,25,05,142,*70
$GPGSV,3,3,10,03,20,283,31,06,36,283,31,,,,,,,,*7A
$GPGSA,M,1,,,,,,,,,,,,,3.3,2.5,2.2*3B
Trace #88 at position 21.750000
$GPZDA,124041.02,06,10,2011,00,00*63
$GPRMC,124039.00,V,,,,,,,,,,N*70
$GPGGA,124042.00,4611.960787,N,01258.213943,E,1,05,1.5,142.23,M,46.25,M,,*6A
$GPGLL,4611.960787,N,01258.213943,E,124042.00,A,A*6D
$GPVTG,347.0,T,347.1,M,000.7,N,001.3,K,A*27
$GPGSV,3,1,10,05,08,032,29,16,41,307,,31,19,215,29,18,26,143,39*7D
$GPGSV,3,2,10,29,34,082,39,30,41,158,41,21,80,121,36,25,05,142,*73
$GPGSV,3,3,10,03,20,283,30,06,36,283,33,,,,,,,,*79
$GPGSA,M,3,18,29,30,21,06,,,,,,,,3.0,1.5,2.6*39
Trace #89 at position 22.000000
$GPZDA,124042.04,06,10,2011,00,00*66
$GPRMC,124042.00,A,4611.960787,N,01258.213943,E,000.7,347.0,061011,0.2,E,A*33
$GPGGA,,,,,,0,04,,,M,,M,,*62
$GPGLL,,,,,,V,N*64
$GPVTG,,T,,,,N,,K,N*61
$GPGSV,3,1,10,05,08,032,31,16,41,307,,31,19,215,29,18,26,143,38*75
$GPGSV,3,2,10,29,34,082,39,30,41,158,41,21,80,121,35,25,05,142,*70
$GPGSV,3,3,10,03,20,283,30,06,36,283,29,,,,,,,,*72
$GPGSA,M,1,,,,,,,,,,,,,3.0,1.5,2.6*3F
Trace #90 at position 22.250000
$GPZDA,124043.03,06,10,2011,00,00*60
$GPRMC,124042.00,V,,,,,,,,,,N*7C
$GPGGA,124044.00,4611.961162,N,01258.213807,E,1,05,2.5,141.92,M,46.25,M,,*6B
$GPGLL,4611.961162,N,01258.213807,E,124044.00,A,A*66
$GPVTG,348.8,T,349.0,M,000.7,N,001.3,K,A*2F
$GPGSV,3,1,10,05,08,032,33,16,41,307,,31,19,215,31,18,26,143,38*7E
$GPGSV,3,2,10,29,34,082,40,30,41,158,41,21,80,121,37,25,05,142,*7C
$GPGSV,3,3,10,03,20,283,30,06,36,283,29,,,,,,,,*72
$GPGSA,M,3,05,18,29,30,21,,,,,,,,3.3,2.5,2.2*3E
Trace #91 at position 22.500000
$GPZDA,124043.03,06,10,2011,00,00*60
$GPRMC,124042.00,V,,,,,,,,,,N*7C
$GPGGA,124044.00,4611.961162,N,01258.213807,E,1,05,2.5,141.92,M,46.25,M,,*6B
$GPGLL,4611.961162,N,01258.213807,E,124044.00,A,A*66
$GPVTG,348.8,T,349.0,M,000.7,N,001.3,K,A*2F
$GPGSV,3,1,10,05,08,032,33,16,41,307,,31,19,215,31,18,26,143,38*7E
$GPGSV,3,2,10,29,34,082,40,30,41,158,41,21,80,121,37,25,05,142,*7C
$GPGSV,3,3,10,03,20,283,30,06,36,283,29,,,,,,,,*72
$GPGSA,M,3,05,18,29,30,21,,,,,,,,3.3,2.5,2.2*3E
Trace #92 at position 22.750000
$GPZDA,124044.04,06,10,2011,00,00*60
$GPRMC,124044.00,A,4611.961162,N,01258.213807,E,000.7,348.8,061011,0.2,E,A*3F
$GPGGA,124045.00,4611.961309,N,01258.213689,E,1,05,2.5,141.89,M,46.25,M,,*67
$GPGLL,4611.961309,N,01258.213689,E,124045.00,A,A*60
$GPVTG,313.0,T,313.2,M,000.5,N,001.0,K,A*25
$GPGSV,3,1,10,05,08,032,33,16,41,307,,31,19,215,28,18,26,143,38*76
$GPGSV,3,2,10,29,34,082,40,30,41,158,41,21,80,121,36,25,05,142,*7D
$GPGSV,3,3,10,03,20,283,29,06,36,283,27,,,,,,,,*74
$GPGSA,M,3,05,18,29,30,21,,,,,,,,3.3,2.5,2.2*3E
Trace #93 at position 23.000000
$GPZDA,124045.03,06,10,2011,00,00*66
$GPRMC,124045.00,A,4611.961309,N,01258.213689,E,000.5,313.0,061011,0.2,E,A*3D
$GPGGA,124046.00,4611.961482,N,01258.213564,E,1,05,2.5,141.83,M,46.25,M,,*6A
$GPGLL,4611.961482,N,01258.213564,E,124046.00,A,A*67
$GPVTG,350.3,T,350.4,M,000.9,N,001.6,K,A*2A
$GPGSV,3,1,10,05,08,032,34,16,41,307,,31,19,215,30,18,26,143,38*78
$GPGSV,3,2,10,29,34,082,40,30,41,158,42,21,80,121,36,25,05,142,*7E
$GPGSV,3,3,10,03,20,283,31,06,36,283,30,,,,,,,,*7B
$GPGSA,M,3,05,18,29,30,21,,,,,,,,3.3,2.5,2.2*3E
Trace #94 at position 23.250000
$GPZDA,124046.03,06,10,2011,00,00*65
$GPRMC,124046.00,A,4611.961482,N,01258.213564,E,000.9,350.3,061011,0.2,E,A*32
$GPGGA,124047.00,4611.961728,N,01258.213442,E,1,05,2.5,141.68,M,46.25,M,,*68
$GPGLL,4611.961728,N,01258.213442,E,124047.00,A,A*60
$GPVTG,340.2,T,340.3,M,001.0,N,001.9,K,A*2B
$GPGSV,3,1,10,05,08,032,31,16,41,307,,31,19,215,31,18,26,143,38*7C
$GPGSV,3,2,10,29,34,082,40,30,41,158,41,21,80,121,36,25,05,142,*7D
$GPGSV,3,3,10,03,20,283,,06,36,283,,,,,,,,,*7A
$GPGSA,M,3,05,18,29,30,21,,,,,,,,3.3,2.5,2.2*3E
Trace #95 at position 23.500000
$GPZDA,124047.03,06,10,2011,00,00*64
$GPRMC,124047.00,A,4611.961728,N,01258.213442,E,001.0,340.2,061011,0.2,E,A*3D
$GPGGA,124048.00,4611.961916,N,01258.213358,E,1,05,2.5,141.65,M,46.25,M,,*65
$GPGLL,4611.961916,N,01258.213358,E,124048.00,A,A*60
$GPVTG,355.4,T,355.6,M,000.5,N,000.9,K,A*2D
$GPGSV,3,1,10,05,08,032,31,16,41,307,,31,19,215,30,18,26,143,37*72
$GPGSV,3,2,10,29,34,082,39,30,41,158,42,21,80,121,37,25,05,142,*71
$GPGSV,3,3,10,03,20,283,31,06,36,283,31,,,,,,,,*7A
$GPGSA,M,3,05,18,29,30,21,,,,,,,,3.3,2.5,2.2*3E
Trace #96 at position 23.750000
$GPZDA,124047.03,06,10,2011,00,00*64
$GPRMC,124047.00,A,4611.961728,N,01258.213442,E,001.0,340.2,061011,0.2,E,A*3D
$GPGGA,124048.00,4611.961916,N,01258.213358,E,1,05,2.5,141.65,M,46.25,M,,*65
$GPGLL,4611.961916,N,01258.213358,E,124048.00,A,A*60
$GPVTG,355.4,T,355.6,M,000.5,N,000.9,K,A*2D
$GPGSV,3,1,10,05,08,032,31,16,41,307,,31,19,215,30,18,26,143,37*72
$GPGSV,3,2,10,29,34,082,39,30,41,158,42,21,80,121,37,25,05,142,*71
$GPGSV,3,3,10,03,20,283,31,06,36,283,31,,,,,,,,*7A
$GPGSA,M,3,05,18,29,30,21,,,,,,,,3.3,2.5,2.2*3E
Trace #97 at position 24.000000
$GPZDA,124048.04,06,10,2011,00,00*6C
$GPRMC,124048.00,A,4611.961916,N,01258.213358,E,000.5,355.4,061011,0.2,E,A*3B
$GPGGA,124049.00,4611.962008,N,01258.213246,E,1,05,2.5,141.57,M,46.25,M,,*6E
$GPGLL,4611.962008,N,01258.213246,E,124049.00,A,A*6A
$GPVTG,294.9,T,295.0,M,000.6,N,001.0,K,A*2C
$GPGSV,3,1,10,05,08,032,,16,41,307,,31,19,215,,18,26,143,39*7D
$GPGSV,3,2,10,29,34,082,39,30,41,158,41,21,80,121,37,25,05,142,*72
$GPGSV,3,3,10,03,20,283,31,06,36,283,31,,,,,,,,*7A
$GPGSA,M,3,05,18,29,30,21,,,,,,,,3.3,2.5,2.2*3E
Trace #98 at position 24.250000
$GPZDA,124050.02,06,10,2011,00,00*63
$GPRMC,124049.00,V,,,,,,,,,,N*77
$GPGGA,,,,,,0,04,,,M,,M,,*62
$GPGLL,,,,,,V,N*64
$GPVTG,,T,,,,N,,K,N*61
$GPGSV,3,1,10,05,08,031,33,16,41,307,,31,19,215,27,18,26,143,39*7B
$GPGSV,3,2,10,29,34,082,38,30,41,158,42,21,80,120,36,25,05,142,*70
$GPGSV,3,3,10,03,20,283,30,06,36,283,31,,,,,,,,*7B
$GPGSA,M,1,,,,,,,,,,,,,3.3,2.5,2.2*3B
Trace #99 at position 24.500000
$GPZDA,124050.02,06,10,2011,00,00*63
$GPRMC,124049.00,V,,,,,,,,,,N*77
$GPGGA,,,,,,0,04,,,M,,M,,*62
$GPGLL,,,,,,V,N*64
$GPVTG,,T,,,,N,,K,N*61
$GPGSV,3,1,10,05,08,031,33,16,41,307,,31,19,215,27,18,26,143,39*7B
$GPGSV,3,2,10,29,34,082,38,30,41,158,42,21,80,120,36,25,05,142,*70
$GPGSV,3,3,10,03,20,283,30,06,36,283,31,,,,,,,,*7B
$GPGSA,M,1,,,,,,,,,,,,,3.3,2.5,2.2*3B
Trace #100 at position 24.750000
$GPZDA,124051.02,06,10,2011,00,00*62
$GPRMC,124049.00,V,,,,,,,,,,N*77
$GPGGA,124052.00,4611.962372,N,01258.212497,E,1,06,1.2,141.07,M,46.25,M,,*63
$GPGLL,4611.962372,N,01258.212497,E,124052.00,A,A*65
$GPVTG,324.5,T,324.7,M,000.7,N,001.2,K,A*25
$GPGSV,3,1,10,05,08,031,32,16,41,307,,31,19,215,30,18,26,143,39*7C
$GPGSV,3,2,10,29,34,082,39,30,41,158,41,21,80,120,35,25,05,142,*71
$GPGSV,3,3,10,03,20,283,29,06,36,283,33,,,,,,,,*71
$GPGSA,M,3,05,18,29,30,21,06,,,,,,,2.3,1.2,2.0*3F
Trace #101 at position 25.000000
$GPZDA,124052.04,06,10,2011,00,00*67
$GPRMC,124052.00,A,4611.962372,N,01258.212497,E,000.7,324.5,061011,0.2,E,A*3B
$GPGGA,124053.00,4611.962601,N,01258.212208,E,1,05,1.5,140.79,M,46.25,M,,*6F
$GPGLL,4611.962601,N,01258.212208,E,124053.00,A,A*65
$GPVTG,335.5,T,335.7,M,000.6,N,001.1,K,A*27
$GPGSV,3,1,10,05,08,031,34,16,41,307,,31,19,215,31,18,26,143,37*75
$GPGSV,3,2,10,29,34,082,40,30,41,158,42,21,80,120,35,25,05,142,*7C
$GPGSV,3,3,10,03,20,283,31,06,36,283,34,,,,,,,,*7F
$GPGSA,M,3,18,29,30,21,06,,,,,,,,3.0,1.5,2.6*39
Trace #102 at position 25.250000
$GPZDA,124052.04,06,10,2011,00,00*67
$GPRMC,124052.00,A,4611.962372,N,01258.212497,E,000.7,324.5,061011,0.2,E,A*3B
$GPGGA,124053.00,4611.962601,N,01258.212208,E,1,05,1.5,140.79,M,46.25,M,,*6F
$GPGLL,4611.962601,N,01258.212208,E,124053.00,A,A*65
$GPVTG,335.5,T,335.7,M,000.6,N,001.1,K,A*27
$GPGSV,3,1,10,05,08,031,34,16,41,307,,31,19,215,31,18,26,143,37*75
$GPGSV,3,2,10,29,34,082,40,30,41,158,42,21,80,120,35,25,05,142,*7C
$GPGSV,3,3,10,03,20,283,31,06,36,283,34,,,,,,,,*7F
$GPGSA,M,3,18,29,30,21,06,,,,,,,,3.0,1.5,2.6*39
Trace #103 at position 25.500000
$GPZDA,124100.03,06,10,2011,00,00*66
$GPRMC,124100.00,A,4611.963479,N,01258.212000,E,000.1,267.5,061011,0.2,E,A*3A
$GPGGA,124101.00,4611.963458,N,01258.212044,E,1,05,2.5,140.95,M,46.25,M,,*6D
$GPGLL,4611.963458,N,01258.212044,E,124101.00,A,A*66
$GPVTG,224.9,T,225.1,M,000.0,N,000.1,K,A*2B
$GPGSV,3,1,10,05,08,031,33,16,41,307,,31,19,215,31,18,26,143,38*7D
$GPGSV,3,2,10,29,34,082,40,30,41,158,41,21,80,120,36,25,05,142,*7C
$GPGSV,3,3,10,03,20,283,,06,36,283,,,,,,,,,*7A
$GPGSA,M,3,05,18,29,30,21,,,,,,,,3.3,2.5,2.2*3E
Trace #104 at position 25.750000
$GPZDA,124100.03,06,10,2011,00,00*66
$GPRMC,124100.00,A,4611.963479,N,01258.212000,E,000.1,267.5,061011,0.2,E,A*3A
$GPGGA,124101.00,4611.963458,N,01258.212044,E,1,05,2.5,140.95,M,46.25,M,,*6D
$GPGLL,4611.963458,N,01258.212044,E,124101.00,A,A*66
$GPVTG,224.9,T,225.1,M,000.0,N,000.1,K,A*2B
$GPGSV,3,1,10,05,08,031,33,16,41,307,,31,19,215,31,18,26,143,38*7D
$GPGSV,3,2,10,29,34,082,40,30,41,158,41,21,80,120,36,25,05,142,*7C
$GPGSV,3,3,10,03,20,283,,06,36,283,,,,,,,,,*7A
$GPGSA,M,3,05,18,29,30,21,,,,,,,,3.3,2.5,2.2*3E
Trace #105 at position 26.000000
$GPZDA,124101.03,06,10,2011,00,00*67
$GPRMC,124101.00,A,4611.963458,N,01258.212044,E,000.0,224.9,061011,0.2,E,A*32
$GPGGA,124102.00,4611.963436,N,01258.212103,E,1,05,2.5,141.01,M,46.25,M,,*68
$GPGLL,4611.963436,N,01258.212103,E,124102.00,A,A*6F
$GPVTG,147.2,T,147.4,M,000.0,N,000.1,K,A*24
$GPGSV,3,1,10,05,08,031,33,16,41,307,,31,19,215,31,18,26,143,38*7D
$GPGSV,3,2,10,29,34,082,40,30,41,158,41,21,80,120,36,25,05,142,*7C
$GPGSV,3,3,10,03,20,283,,06,36,283,,,,,,,,,*7A
$GPGSA,M,3,05,18,29,30,21,,,,,,,,3.3,2.5,2.2*3E
Trace #106 at position 26.250000
$GPZDA,124102.03,06,10,2011,00,00*64
$GPRMC,124102.00,A,4611.963436,N,01258.212103,E,000.0,147.2,061011,0.2,E,A*36
$GPGGA,124103.00,4611.963419,N,01258.212170,E,1,05,2.5,141.09,M,46.25,M,,*68
$GPGLL,4611.963419,N,01258.212170,E,124103.00,A,A*67
$GPVTG,80.1,T,80.3,M,000.0,N,000.1,K,A*20
$GPGSV,3,1,10,05,08,031,33,16,41,307,,31,19,215,30,18,26,143,39*7D
$GPGSV,3,2,10,29,34,082,40,30,41,158,41,21,80,120,39,25,05,142,*73
$GPGSV,3,3,10,03,21,283,,06,36,283,,,,,,,,,*7B
$GPGSA,M,3,05,18,29,30,21,,,,,,,,3.3,2.5,2.2*3E
Trace #107 at position 26.500000
$GPZDA,124103.04,06,10,2011,00,00*62
$GPRMC,124103.00,A,4611.963419,N,01258.212170,E,000.0,80.1,061011,0.2,E,A*07
$GPGGA,124104.00,4611.963411,N,01258.212242,E,1,05,2.5,141.20,M,46.25,M,,*6E
$GPGLL,4611.963411,N,01258.212242,E,124104.00,A,A*6A
$GPVTG,75.2,T,75.4,M,000.1,N,000.2,K,A*26
$GPGSV,3,1,10,05,08,031,33,16,41,307,,31,19,215,30,18,26,143,38*7C
$GPGSV,3,2,10,29,34,082,39,30,41,158,42,21,80,120,37,25,05,142,*70
$GPGSV,3,3,10,03,21,283,,06,36,283,,,,,,,,,*7B
$GPGSA,M,3,05,18,29,30,21,,,,,,,,3.3,2.5,2.2*3E
Trace #108 at position 26.750000
$GPZDA,124104.03,06,10,2011,00,00*62
$GPRMC,124104.00,A,4611.963411,N,01258.212242,E,000.1,75.2,061011,0.2,E,A*02
$GPGGA,124105.00,4611.963464,N,01258.212331,E,1,05,2.5,141.30,M,46.25,M,,*69
$GPGLL,4611.963464,N,01258.212331,E,124105.00,A,A*6C
$GPVTG,21.6,T,21.8,M,000.5,N,000.9,K,A*21
$GPGSV,3,1,10,05,08,031,35,16,41,307,,31,19,215,31,18,26,143,38*7B
$GPGSV,3,2,10,29,34,082,39,30,41,158,41,21,80,120,36,25,05,142,*72
$GPGSV,3,3,10,03,21,283,,06,36,283,,,,,,,,,*7B
$GPGSA,M,3,05,18,29,30,21,,,,,,,,3.3,2.5,2.2*3E
Trace #109 at position 27.000000
$GPZDA,124104.03,06,10,2011,00,00*62
$GPRMC,124104.00,A,4611.963411,N,01258.212242,E,000.1,75.2,061011,0.2,E,A*02
$GPGGA,124105.00,4611.963464,N,01258.212331,E,1,05,2.5,141.30,M,46.25,M,,*69
$GPGLL,4611.963464,N,01258.212331,E,124105.00,A,A*6C
$GPVTG,21.6,T,21.8,M,000.5,N,000.9,K,A*21
$GPGSV,3,1,10,05,08,031,35,16,41,307,,31,19,215,31,18,26,143,38*7B
$GPGSV,3,2,10,29,34,082,39,30,41,158,41,21,80,120,36,25,05,142,*72
$GPGSV,3,3,10,03,21,283,,06,36,283,,,,,,,,,*7B
$GPGSA,M,3,05,18,29,30,21,,,,,,,,3.3,2.5,2.2*3E
Trace #110 at position 27.250000
$GPZDA,124105.03,06,10,2011,00,00*63
$GPRMC,124105.00,A,4611.963464,N,01258.212331,E,000.5,21.6,061011,0.2,E,A*05
$GPGGA,124106.00,4611.963599,N,01258.212375,E,1,05,2.5,141.38,M,46.25,M,,*61
$GPGLL,4611.963599,N,01258.212375,E,124106.00,A,A*6C
$GPVTG,350.5,T,350.7,M,000.6,N,001.1,K,A*27
$GPGSV,3,1,10,05,08,031,34,16,41,307,,31,19,215,30,18,26,143,37*74
$GPGSV,3,2,10,29,34,082,39,30,41,158,40,21,80,120,37,25,05,142,*72
$GPGSV,3,3,10,03,21,283,,06,36,283,,,,,,,,,*7B
$GPGSA,M,3,05,18,29,30,21,,,,,,,,3.3,2.5,2.2*3E
Trace #111 at position 27.500000
$GPZDA,124106.03,06,10,2011,00,00*60
$GPRMC,124106.00,A,4611.963599,N,01258.212375,E,000.6,350.5,061011,0.2,E,A*30
$GPGGA,124107.00,4611.963722,N,01258.212232,E,1,05,2.5,141.27,M,46.25,M,,*6E
$GPGLL,4611.963722,N,01258.212232,E,124107.00,A,A*6D
$GPVTG,295.2,T,295.4,M,000.8,N,001.5,K,A*29
$GPGSV,3,1,10,05,08,031,31,16,41,307,,31,19,215,32,18,26,143,38*7C
$GPGSV,3,2,10,29,34,082,39,30,41,158,41,21,80,120,36,25,05,142,*72
$GPGSV,3,3,10,03,21,283,,06,36,283,,,,,,,,,*7B
$GPGSA,M,3,05,18,29,30,21,,,,,,,,3.3,2.5,2.2*3E
Trace #112 at position 27.750000
$GPZDA,124107.03,06,10,2011,00,00*61
$GPRMC,124107.00,A,4611.963722,N,01258.212232,E,000.8,295.2,061011,0.2,E,A*30
$GPGGA,124108.00,4611.963797,N,01258.212080,E,1,05,2.5,141.19,M,46.25,M,,*69
$GPGLL,4611.963797,N,01258.212080,E,124108.00,A,A*67
$GPVTG,316.0,T,316.2,M,000.3,N,000.6,K,A*24
$GPGSV,3,1,10,05,08,031,31,16,41,307,,31,19,215,30,18,26,143,38*7E
$GPGSV,3,2,10,29,34,082,40,30,41,158,41,21,80,120,36,25,05,142,*7C
$GPGSV,3,3,10,03,21,283,,06,36,283,,,,,,,,,*7B
$GPGSA,M,3,05,18,29,30,21,,,,,,,,3.3,2.5,2.2*3E
Trace #113 at position 28.000000
$GPZDA,124108.04,06,10,2011,00,00*69
$GPRMC,124108.00,A,4611.963797,N,01258.212080,E,000.3,316.0,061011,0.2,E,A*39
$GPGGA,124109.00,4611.963811,N,01258.212077,E,1,05,2.5,141.33,M,46.25,M,,*69
$GPGLL,4611.963811,N,01258.212077,E,124109.00,A,A*6F
$GPVTG,169.0,T,169.2,M,000.2,N,000.4,K,A*27
$GPGSV,3,1,10,05,08,031,32,16,41,307,,31,19,215,29,18,26,143,39*74
$GPGSV,3,2,10,29,34,082,39,30,41,158,41,21,80,120,36,25,05,142,*72
$GPGSV,3,3,10,03,21,283,,06,36,283,,,,,,,,,*7B
$GPGSA,M,3,05,18,29,30,21,,,,,,,,3.3,2.5,2.2*3E
Trace #114 at position 28.250000
$GPZDA,124109.03,06,10,2011,00,00*6F
$GPRMC,124109.00,A,4611.963811,N,01258.212077,E,000.2,169.0,061011,0.2,E,A*3A
$GPGGA,,,,,,0,04,,,M,,M,,*62
$GPGLL,,,,,,V,N*64
$GPVTG,,T,,,,N,,K,N*61
$GPGSV,3,1,10,05,08,031,33,16,41,307,,31,19,215,31,18,26,143,38*7D
$GPGSV,3,2,10,29,34,082,39,30,41,158,40,21,80,120,36,25,05,142,*73
$GPGSV,3,3,10,03,21,283,,06,36,283,,,,,,,,,*7B
$GPGSA,M,1,,,,,,,,,,,,,3.3,2.5,2.2*3B
Trace #115 at position 28.500000
$GPZDA,124109.03,06,10,2011,00,00*6F
$GPRMC,124109.00,A,4611.963811,N,01258.212077,E,000.2,169.0,061011,0.2,E,A*3A
$GPGGA,,,,,,0,04,,,M,,M,,*62
$GPGLL,,,,,,V,N*64
$GPVTG,,T,,,,N,,K,N*61
$GPGSV,3,1,10,05,08,031,33,16,41,307,,31,19,215,31,18,26,143,38*7D
$GPGSV,3,2,10,29,34,082,39,30,41,158,40,21,80,120,36,25,05,142,*73
$GPGSV,3,3,10,03,21,283,,06,36,283,,,,,,,,,*7B
$GPGSA,M,1,,,,,,,,,,,,,3.3,2.5,2.2*3B
Trace #116 at position 28.750000
$GPZDA,124110.02,06,10,2011,00,00*66
$GPRMC,124109.00,V,,,,,,,,,,N*72
$GPGGA,124111.00,4611.964104,N,01258.211865,E,1,05,2.5,141.10,M,46.25,M,,*63
$GPGLL,4611.964104,N,01258.211865,E,124111.00,A,A*64
$GPVTG,333.8,T,334.0,M,001.3,N,002.4,K,A*28
