Trace #1 at position 0.000000
$GPZDA,100336.02,08,10,2011,00,00*68
$GPRMC,100330.00,V,,,,,,,,,,N*7C
$GPGGA,,,,,,0,03,,,M,,M,,*65
$GPGLL,,,,,,V,N*64
$GPVTG,,T,,,,N,,K,N*61
$GPGSV,2,1,07,21,17,186,32,02,27,049,38,12,33,104,39,25,67,093,43*70
$GPGSV,2,2,07,29,81,266,40,30,62,305,34,31,48,295,,,,,*4C
$GPGSA,M,1,,,,,,,,,,,,,7.3,4.1,6.0*3B
Trace #2 at position 0.250000
$GPZDA,100340.03,08,10,2011,00,00*68
$GPRMC,100340.00,A,4611.951626,N,01258.220438,E,000.2,90.2,081011,0.2,E,A*0D
$GPGGA,100341.00,4611.951660,N,01258.220420,E,1,04,4.1,138.00,M,46.25,M,,*62
$GPGLL,4611.951660,N,01258.220420,E,100341.00,A,A*69
$GPVTG,299.9,T,300.1,M,000.3,N,000.6,K,A*2F
$GPGSV,2,1,07,21,17,186,32,02,27,049,37,12,33,104,40,25,67,094,45*70
$GPGSV,2,2,07,29,81,267,41,30,62,305,37,31,48,295,,,,,*4F
$GPGSA,M,3,02,12,25,29,,,,,,,,,7.3,4.1,6.0*34
Trace #3 at position 0.500000
$GPZDA,100340.03,08,10,2011,00,00*68
$GPRMC,100340.00,A,4611.951626,N,01258.220438,E,000.2,90.2,081011,0.2,E,A*0D
$GPGGA,100341.00,4611.951660,N,01258.220420,E,1,04,4.1,138.00,M,46.25,M,,*62
$GPGLL,4611.951660,N,01258.220420,E,100341.00,A,A*69
$GPVTG,299.9,T,300.1,M,000.3,N,000.6,K,A*2F
$GPGSV,2,1,07,21,17,186,32,02,27,049,37,12,33,104,40,25,67,094,45*70
$GPGSV,2,2,07,29,81,267,41,30,62,305,37,31,48,295,,,,,*4F
$GPGSA,M,3,02,12,25,29,,,,,,,,,7.3,4.1,6.0*34
Trace #4 at position 0.750000
$GPZDA,100342.03,08,10,2011,00,00*6A
$GPRMC,100342.00,A,4611.951749,N,01258.220375,E,000.4,3.3,081011,0.2,E,A*34
$GPGGA,100343.00,4611.951928,N,01258.220437,E,1,04,4.1,138.18,M,46.25,M,,*6C
$GPGLL,4611.951928,N,01258.220437,E,100343.00,A,A*6E
$GPVTG,23.8,T,23.9,M,000.9,N,001.7,K,A*2D
$GPGSV,2,1,07,21,17,186,32,02,27,049,40,12,33,104,42,25,67,094,44*73
$GPGSV,2,2,07,29,81,267,41,30,62,305,37,31,48,295,31,,,,*4D
$GPGSA,M,3,02,12,25,29,,,,,,,,,7.3,4.1,6.0*34
Trace #5 at position 1.000000
$GPZDA,100343.03,08,10,2011,00,00*6B
$GPRMC,100343.00,A,4611.951928,N,01258.220437,E,000.9,23.8,081011,0.2,E,A*09
$GPGGA,100344.00,4611.952028,N,01258.220612,E,1,05,3.1,138.55,M,46.25,M,,*6B
$GPGLL,4611.952028,N,01258.220612,E,100344.00,A,A*66
$GPVTG,245.2,T,245.3,M,000.2,N,000.4,K,A*24
$GPGSV,2,1,07,21,17,186,32,02,27,049,37,12,33,104,41,25,67,094,44*70
$GPGSV,2,2,07,29,81,267,41,30,62,305,39,31,48,295,34,,,,*46
$GPGSA,M,3,02,12,25,29,30,,,,,,,,5.7,3.1,4.8*3C
Trace #6 at position 1.250000
$GPZDA,100344.03,08,10,2011,00,00*6C
$GPRMC,100344.00,A,4611.952028,N,01258.220612,E,000.2,245.2,081011,0.2,E,A*32
$GPGGA,100345.00,4611.951601,N,01258.220500,E,1,04,7.9,138.87,M,46.25,M,,*66
$GPGLL,4611.951601,N,01258.220500,E,100345.00,A,A*69
$GPVTG,206.9,T,207.1,M,000.6,N,001.2,K,A*2F
$GPGSV,2,1,07,21,17,186,35,02,27,049,36,12,33,104,42,25,67,094,47*76
$GPGSV,2,2,07,29,81,267,39,30,62,305,39,31,48,295,39,,,,*44
$GPGSA,M,3,12,25,29,30,,,,,,,,,9.2,7.9,4.8*3B
Trace #7 at position 1.500000
$GPZDA,100344.03,08,10,2011,00,00*6C
$GPRMC,100344.00,A,4611.952028,N,01258.220612,E,000.2,245.2,081011,0.2,E,A*32
$GPGGA,100345.00,4611.951601,N,01258.220500,E,1,04,7.9,138.87,M,46.25,M,,*66
$GPGLL,4611.951601,N,01258.220500,E,100345.00,A,A*69
$GPVTG,206.9,T,207.1,M,000.6,N,001.2,K,A*2F
$GPGSV,2,1,07,21,17,186,35,02,27,049,36,12,33,104,42,25,67,094,47*76
$GPGSV,2,2,07,29,81,267,39,30,62,305,39,31,48,295,39,,,,*44
$GPGSA,M,3,12,25,29,30,,,,,,,,,9.2,7.9,4.8*3B
Trace #8 at position 1.750000
$GPZDA,100345.03,08,10,2011,00,00*6D
$GPRMC,100345.00,A,4611.951601,N,01258.220500,E,000.6,206.9,081011,0.2,E,A*35
$GPGGA,100346.00,4611.951308,N,01258.220515,E,1,04,7.9,139.30,M,46.25,M,,*60
$GPGLL,4611.951308,N,01258.220515,E,100346.00,A,A*62
$GPVTG,27.5,T,27.7,M,001.2,N,002.2,K,A*22
$GPGSV,2,1,07,21,17,186,36,02,27,049,37,12,33,104,42,25,67,094,44*77
$GPGSV,2,2,07,29,81,267,41,30,62,305,39,31,48,295,38,,,,*4A
$GPGSA,M,3,12,25,29,30,,,,,,,,,9.2,7.9,4.8*3B
Trace #9 at position 2.000000
$GPZDA,100345.03,08,10,2011,00,00*6D
$GPRMC,100345.00,A,4611.951601,N,01258.220500,E,000.6,206.9,081011,0.2,E,A*35
$GPGGA,100346.00,4611.951308,N,01258.220515,E,1,04,7.9,139.30,M,46.25,M,,*60
$GPGLL,4611.951308,N,01258.220515,E,100346.00,A,A*62
$GPVTG,27.5,T,27.7,M,001.2,N,002.2,K,A*22
$GPGSV,2,1,07,21,17,186,36,02,27,049,37,12,33,104,42,25,67,094,44*77
$GPGSV,2,2,07,29,81,267,41,30,62,305,39,31,48,295,38,,,,*4A
$GPGSA,M,3,12,25,29,30,,,,,,,,,9.2,7.9,4.8*3B
Trace #10 at position 2.250000
$GPZDA,100346.03,08,10,2011,00,00*6E
$GPRMC,100346.00,A,4611.951308,N,01258.220515,E,001.2,27.5,081011,0.2,E,A*06
$GPGGA,100347.00,4611.951220,N,01258.220413,E,1,04,7.9,139.51,M,46.25,M,,*6A
$GPGLL,4611.951220,N,01258.220413,E,100347.00,A,A*6F
$GPVTG,305.8,T,306.0,M,001.1,N,002.0,K,A*2A
$GPGSV,2,1,07,21,17,186,34,02,27,049,37,12,33,104,41,25,67,094,45*77
$GPGSV,2,2,07,29,81,267,40,30,62,305,37,31,48,295,37,,,,*4A
$GPGSA,M,3,12,25,29,30,,,,,,,,,9.2,7.9,4.8*3B
Trace #11 at position 2.500000
$GPZDA,100346.03,08,10,2011,00,00*6E
$GPRMC,100346.00,A,4611.951308,N,01258.220515,E,001.2,27.5,081011,0.2,E,A*06
$GPGGA,100347.00,4611.951220,N,01258.220413,E,1,04,7.9,139.51,M,46.25,M,,*6A
$GPGLL,4611.951220,N,01258.220413,E,100347.00,A,A*6F
$GPVTG,305.8,T,306.0,M,001.1,N,002.0,K,A*2A
$GPGSV,2,1,07,21,17,186,34,02,27,049,37,12,33,104,41,25,67,094,45*77
$GPGSV,2,2,07,29,81,267,40,30,62,305,37,31,48,295,37,,,,*4A
$GPGSA,M,3,12,25,29,30,,,,,,,,,9.2,7.9,4.8*3B
Trace #12 at position 2.750000
$GPZDA,100347.03,08,10,2011,00,00*6F
$GPRMC,100347.00,A,4611.951220,N,01258.220413,E,001.1,305.8,081011,0.2,E,A*36
$GPGGA,100348.00,4611.951188,N,01258.220319,E,1,04,7.9,139.70,M,46.25,M,,*6A
$GPGLL,4611.951188,N,01258.220319,E,100348.00,A,A*6C
$GPVTG,24.0,T,24.1,M,001.5,N,002.7,K,A*23
$GPGSV,2,1,07,21,17,186,34,02,27,049,37,12,33,104,40,25,67,094,45*76
$GPGSV,2,2,07,29,81,267,40,30,62,305,37,31,48,295,36,,,,*4B
$GPGSA,M,3,12,25,29,30,,,,,,,,,9.2,7.9,4.8*3B
Trace #13 at position 3.000000
$GPZDA,100347.03,08,10,2011,00,00*6F
$GPRMC,100347.00,A,4611.951220,N,01258.220413,E,001.1,305.8,081011,0.2,E,A*36
$GPGGA,100348.00,4611.951188,N,01258.220319,E,1,04,7.9,139.70,M,46.25,M,,*6A
$GPGLL,4611.951188,N,01258.220319,E,100348.00,A,A*6C
$GPVTG,24.0,T,24.1,M,001.5,N,002.7,K,A*23
$GPGSV,2,1,07,21,17,186,34,02,27,049,37,12,33,104,40,25,67,094,45*76
$GPGSV,2,2,07,29,81,267,40,30,62,305,37,31,48,295,36,,,,*4B
$GPGSA,M,3,12,25,29,30,,,,,,,,,9.2,7.9,4.8*3B
Trace #14 at position 3.250000
$GPZDA,100348.03,08,10,2011,00,00*60
$GPRMC,100348.00,A,4611.951188,N,01258.220319,E,001.5,24.0,081011,0.2,E,A*09
$GPGGA,100349.00,4611.951357,N,01258.220351,E,1,04,7.9,140.08,M,46.25,M,,*66
$GPGLL,4611.951357,N,01258.220351,E,100349.00,A,A*61
$GPVTG,357.8,T,357.9,M,002.0,N,003.8,K,A*2B
$GPGSV,2,1,07,21,17,186,35,02,27,049,37,12,33,104,41,25,67,094,43*70
$GPGSV,2,2,07,29,81,267,40,30,62,305,38,31,48,295,36,,,,*44
$GPGSA,M,3,12,25,29,30,,,,,,,,,9.2,7.9,4.8*3B
Trace #15 at position 3.500000
$GPZDA,100348.03,08,10,2011,00,00*60
$GPRMC,100348.00,A,4611.951188,N,01258.220319,E,001.5,24.0,081011,0.2,E,A*09
$GPGGA,100349.00,4611.951357,N,01258.220351,E,1,04,7.9,140.08,M,46.25,M,,*66
$GPGLL,4611.951357,N,01258.220351,E,100349.00,A,A*61
$GPVTG,357.8,T,357.9,M,002.0,N,003.8,K,A*2B
$GPGSV,2,1,07,21,17,186,35,02,27,049,37,12,33,104,41,25,67,094,43*70
$GPGSV,2,2,07,29,81,267,40,30,62,305,38,31,48,295,36,,,,*44
$GPGSA,M,3,12,25,29,30,,,,,,,,,9.2,7.9,4.8*3B
Trace #16 at position 3.750000
$GPZDA,100348.03,08,10,2011,00,00*60
$GPRMC,100348.00,A,4611.951188,N,01258.220319,E,001.5,24.0,081011,0.2,E,A*09
$GPGGA,100349.00,4611.951357,N,01258.220351,E,1,04,7.9,140.08,M,46.25,M,,*66
$GPGLL,4611.951357,N,01258.220351,E,100349.00,A,A*61
$GPVTG,357.8,T,357.9,M,002.0,N,003.8,K,A*2B
$GPGSV,2,1,07,21,17,186,35,02,27,049,37,12,33,104,41,25,67,094,43*70
$GPGSV,2,2,07,29,81,267,40,30,62,305,38,31,48,295,36,,,,*44
$GPGSA,M,3,12,25,29,30,,,,,,,,,9.2,7.9,4.8*3B
Trace #17 at position 4.000000
$GPZDA,100349.03,08,10,2011,00,00*61
$GPRMC,100349.00,A,4611.951357,N,01258.220351,E,002.0,357.8,081011,0.2,E,A*3D
$GPGGA,100350.00,4611.951522,N,01258.220072,E,1,04,7.9,140.37,M,46.25,M,,*64
$GPGLL,4611.951522,N,01258.220072,E,100350.00,A,A*6F
$GPVTG,320.4,T,320.5,M,001.7,N,003.1,K,A*26
$GPGSV,2,1,07,21,17,186,36,02,27,049,35,12,33,104,40,25,67,094,43*70
$GPGSV,2,2,07,29,81,267,42,30,62,305,38,31,48,295,35,,,,*45
$GPGSA,M,3,12,25,29,30,,,,,,,,,9.2,7.9,4.8*3B
Trace #18 at position 4.250000
$GPZDA,100349.03,08,10,2011,00,00*61
$GPRMC,100349.00,A,4611.951357,N,01258.220351,E,002.0,357.8,081011,0.2,E,A*3D
$GPGGA,100350.00,4611.951522,N,01258.220072,E,1,04,7.9,140.37,M,46.25,M,,*64
$GPGLL,4611.951522,N,01258.220072,E,100350.00,A,A*6F
$GPVTG,320.4,T,320.5,M,001.7,N,003.1,K,A*26
$GPGSV,2,1,07,21,17,186,36,02,27,049,35,12,33,104,40,25,67,094,43*70
$GPGSV,2,2,07,29,81,267,42,30,62,305,38,31,48,295,35,,,,*45
$GPGSA,M,3,12,25,29,30,,,,,,,,,9.2,7.9,4.8*3B
Trace #19 at position 4.500000
$GPZDA,100349.03,08,10,2011,00,00*61
$GPRMC,100349.00,A,4611.951357,N,01258.220351,E,002.0,357.8,081011,0.2,E,A*3D
$GPGGA,100350.00,4611.951522,N,01258.220072,E,1,04,7.9,140.37,M,46.25,M,,*64
$GPGLL,4611.951522,N,01258.220072,E,100350.00,A,A*6F
$GPVTG,320.4,T,320.5,M,001.7,N,003.1,K,A*26
$GPGSV,2,1,07,21,17,186,36,02,27,049,35,12,33,104,40,25,67,094,43*70
$GPGSV,2,2,07,29,81,267,42,30,62,305,38,31,48,295,35,,,,*45
$GPGSA,M,3,12,25,29,30,,,,,,,,,9.2,7.9,4.8*3B
Trace #20 at position 4.750000
$GPZDA,100349.03,08,10,2011,00,00*61
$GPRMC,100349.00,A,4611.951357,N,01258.220351,E,002.0,357.8,081011,0.2,E,A*3D
$GPGGA,100350.00,4611.951522,N,01258.220072,E,1,04,7.9,140.37,M,46.25,M,,*64
$GPGLL,4611.951522,N,01258.220072,E,100350.00,A,A*6F
$GPVTG,320.4,T,320.5,M,001.7,N,003.1,K,A*26
$GPGSV,2,1,07,21,17,186,36,02,27,049,35,12,33,104,40,25,67,094,43*70
$GPGSV,2,2,07,29,81,267,42,30,62,305,38,31,48,295,35,,,,*45
$GPGSA,M,3,12,25,29,30,,,,,,,,,9.2,7.9,4.8*3B
Trace #21 at position 5.000000
$GPZDA,100350.03,08,10,2011,00,00*69
$GPRMC,100350.00,A,4611.951522,N,01258.220072,E,001.7,320.4,081011,0.2,E,A*3B
$GPGGA,100351.00,4611.951945,N,01258.219928,E,1,05,2.6,140.88,M,46.25,M,,*6B
$GPGLL,4611.951945,N,01258.219928,E,100351.00,A,A*6F
$GPVTG,337.1,T,337.3,M,001.3,N,002.5,K,A*24
$GPGSV,2,1,07,21,17,186,39,02,27,049,36,12,33,104,40,25,67,094,41*7E
$GPGSV,2,2,07,29,81,267,40,30,62,305,38,31,48,295,33,,,,*41
$GPGSA,M,3,21,12,25,29,30,,,,,,,,4.7,2.6,3.8*3D
Trace #22 at position 5.250000
$GPZDA,100350.03,08,10,2011,00,00*69
$GPRMC,100350.00,A,4611.951522,N,01258.220072,E,001.7,320.4,081011,0.2,E,A*3B
$GPGGA,100351.00,4611.951945,N,01258.219928,E,1,05,2.6,140.88,M,46.25,M,,*6B
$GPGLL,4611.951945,N,01258.219928,E,100351.00,A,A*6F
$GPVTG,337.1,T,337.3,M,001.3,N,002.5,K,A*24
$GPGSV,2,1,07,21,17,186,39,02,27,049,36,12,33,104,40,25,67,094,41*7E
$GPGSV,2,2,07,29,81,267,40,30,62,305,38,31,48,295,33,,,,*41
$GPGSA,M,3,21,12,25,29,30,,,,,,,,4.7,2.6,3.8*3D
Trace #23 at position 5.500000
$GPZDA,100350.03,08,10,2011,00,00*69
$GPRMC,100350.00,A,4611.951522,N,01258.220072,E,001.7,320.4,081011,0.2,E,A*3B
$GPGGA,100351.00,4611.951945,N,01258.219928,E,1,05,2.6,140.88,M,46.25,M,,*6B
$GPGLL,4611.951945,N,01258.219928,E,100351.00,A,A*6F
$GPVTG,337.1,T,337.3,M,001.3,N,002.5,K,A*24
$GPGSV,2,1,07,21,17,186,39,02,27,049,36,12,33,104,40,25,67,094,41*7E
$GPGSV,2,2,07,29,81,267,40,30,62,305,38,31,48,295,33,,,,*41
$GPGSA,M,3,21,12,25,29,30,,,,,,,,4.7,2.6,3.8*3D
Trace #24 at position 5.750000
$GPZDA,100351.03,08,10,2011,00,00*68
$GPRMC,100351.00,A,4611.951945,N,01258.219928,E,001.3,337.1,081011,0.2,E,A*3C
$GPGGA,100352.00,4611.952239,N,01258.220042,E,1,05,2.6,141.62,M,46.25,M,,*61
$GPGLL,4611.952239,N,01258.220042,E,100352.00,A,A*60
$GPVTG,45.3,T,45.5,M,000.5,N,001.0,K,A*21
$GPGSV,2,1,07,21,17,186,39,02,27,049,35,12,33,104,41,25,67,094,40*7D
$GPGSV,2,2,07,29,81,267,40,30,62,305,36,31,48,295,31,,,,*4D
$GPGSA,M,3,21,12,25,29,30,,,,,,,,4.7,2.6,3.9*3C
Trace #25 at position 6.000000
$GPZDA,100351.03,08,10,2011,00,00*68
$GPRMC,100351.00,A,4611.951945,N,01258.219928,E,001.3,337.1,081011,0.2,E,A*3C
$GPGGA,100352.00,4611.952239,N,01258.220042,E,1,05,2.6,141.62,M,46.25,M,,*61
$GPGLL,4611.952239,N,01258.220042,E,100352.00,A,A*60
$GPVTG,45.3,T,45.5,M,000.5,N,001.0,K,A*21
$GPGSV,2,1,07,21,17,186,39,02,27,049,35,12,33,104,41,25,67,094,40*7D
$GPGSV,2,2,07,29,81,267,40,30,62,305,36,31,48,295,31,,,,*4D
$GPGSA,M,3,21,12,25,29,30,,,,,,,,4.7,2.6,3.9*3C
Trace #26 at position 6.250000
$GPZDA,100351.03,08,10,2011,00,00*68
$GPRMC,100351.00,A,4611.951945,N,01258.219928,E,001.3,337.1,081011,0.2,E,A*3C
$GPGGA,100352.00,4611.952239,N,01258.220042,E,1,05,2.6,141.62,M,46.25,M,,*61
$GPGLL,4611.952239,N,01258.220042,E,100352.00,A,A*60
$GPVTG,45.3,T,45.5,M,000.5,N,001.0,K,A*21
$GPGSV,2,1,07,21,17,186,39,02,27,049,35,12,33,104,41,25,67,094,40*7D
$GPGSV,2,2,07,29,81,267,40,30,62,305,36,31,48,295,31,,,,*4D
$GPGSA,M,3,21,12,25,29,30,,,,,,,,4.7,2.6,3.9*3C
Trace #27 at position 6.500000
$GPZDA,100351.03,08,10,2011,00,00*68
$GPRMC,100351.00,A,4611.951945,N,01258.219928,E,001.3,337.1,081011,0.2,E,A*3C
$GPGGA,100352.00,4611.952239,N,01258.220042,E,1,05,2.6,141.62,M,46.25,M,,*61
$GPGLL,4611.952239,N,01258.220042,E,100352.00,A,A*60
$GPVTG,45.3,T,45.5,M,000.5,N,001.0,K,A*21
$GPGSV,2,1,07,21,17,186,39,02,27,049,35,12,33,104,41,25,67,094,40*7D
$GPGSV,2,2,07,29,81,267,40,30,62,305,36,31,48,295,31,,,,*4D
$GPGSA,M,3,21,12,25,29,30,,,,,,,,4.7,2.6,3.9*3C
Trace #28 at position 6.750000
$GPZDA,100352.03,08,10,2011,00,00*6B
$GPRMC,100352.00,A,4611.952239,N,01258.220042,E,000.5,45.3,081011,0.2,E,A*00
$GPGGA,100353.00,4611.952582,N,01258.220121,E,1,05,2.6,142.20,M,46.25,M,,*66
$GPGLL,4611.952582,N,01258.220121,E,100353.00,A,A*62
$GPVTG,342.8,T,342.9,M,001.6,N,003.0,K,A*26
$GPGSV,2,1,07,21,17,186,40,02,27,049,35,12,33,104,40,25,67,094,42*70
$GPGSV,2,2,07,29,81,267,41,30,62,305,37,31,48,295,30,,,,*4C
$GPGSA,M,3,21,12,25,29,30,,,,,,,,4.7,2.6,3.9*3C
Trace #29 at position 7.000000
$GPZDA,100352.03,08,10,2011,00,00*6B
$GPRMC,100352.00,A,4611.952239,N,01258.220042,E,000.5,45.3,081011,0.2,E,A*00
$GPGGA,100353.00,4611.952582,N,01258.220121,E,1,05,2.6,142.20,M,46.25,M,,*66
$GPGLL,4611.952582,N,01258.220121,E,100353.00,A,A*62
$GPVTG,342.8,T,342.9,M,001.6,N,003.0,K,A*26
$GPGSV,2,1,07,21,17,186,40,02,27,049,35,12,33,104,40,25,67,094,42*70
$GPGSV,2,2,07,29,81,267,41,30,62,305,37,31,48,295,30,,,,*4C
$GPGSA,M,3,21,12,25,29,30,,,,,,,,4.7,2.6,3.9*3C
Trace #30 at position 7.250000
$GPZDA,100352.03,08,10,2011,00,00*6B
$GPRMC,100352.00,A,4611.952239,N,01258.220042,E,000.5,45.3,081011,0.2,E,A*00
$GPGGA,100353.00,4611.952582,N,01258.220121,E,1,05,2.6,142.20,M,46.25,M,,*66
$GPGLL,4611.952582,N,01258.220121,E,100353.00,A,A*62
$GPVTG,342.8,T,342.9,M,001.6,N,003.0,K,A*26
$GPGSV,2,1,07,21,17,186,40,02,27,049,35,12,33,104,40,25,67,094,42*70
$GPGSV,2,2,07,29,81,267,41,30,62,305,37,31,48,295,30,,,,*4C
$GPGSA,M,3,21,12,25,29,30,,,,,,,,4.7,2.6,3.9*3C
Trace #31 at position 7.500000
$GPZDA,100353.04,08,10,2011,00,00*6D
$GPRMC,100353.00,A,4611.952582,N,01258.220121,E,001.6,342.8,081011,0.2,E,A*3F
$GPGGA,100354.00,4611.953410,N,01258.219832,E,1,04,9.4,141.64,M,46.25,M,,*60
$GPGLL,4611.953410,N,01258.219832,E,100354.00,A,A*6F
$GPVTG,342.6,T,342.7,M,001.0,N,001.8,K,A*2A
$GPGSV,2,1,07,21,17,186,42,02,27,049,37,12,33,104,40,25,67,094,41*73
$GPGSV,2,2,07,29,81,267,41,30,62,305,35,31,48,295,28,,,,*47
$GPGSA,M,3,21,12,25,29,,,,,,,,,14.6,9.4,11.2*3E
Trace #32 at position 7.750000
$GPZDA,100353.04,08,10,2011,00,00*6D
$GPRMC,100353.00,A,4611.952582,N,01258.220121,E,001.6,342.8,081011,0.2,E,A*3F
$GPGGA,100354.00,4611.953410,N,01258.219832,E,1,04,9.4,141.64,M,46.25,M,,*60
$GPGLL,4611.953410,N,01258.219832,E,100354.00,A,A*6F
$GPVTG,342.6,T,342.7,M,001.0,N,001.8,K,A*2A
$GPGSV,2,1,07,21,17,186,42,02,27,049,37,12,33,104,40,25,67,094,41*73
$GPGSV,2,2,07,29,81,267,41,30,62,305,35,31,48,295,28,,,,*47
$GPGSA,M,3,21,12,25,29,,,,,,,,,14.6,9.4,11.2*3E
Trace #33 at position 8.000000
$GPZDA,100353.04,08,10,2011,00,00*6D
$GPRMC,100353.00,A,4611.952582,N,01258.220121,E,001.6,342.8,081011,0.2,E,A*3F
$GPGGA,100354.00,4611.953410,N,01258.219832,E,1,04,9.4,141.64,M,46.25,M,,*60
$GPGLL,4611.953410,N,01258.219832,E,100354.00,A,A*6F
$GPVTG,342.6,T,342.7,M,001.0,N,001.8,K,A*2A
$GPGSV,2,1,07,21,17,186,42,02,27,049,37,12,33,104,40,25,67,094,41*73
$GPGSV,2,2,07,29,81,267,41,30,62,305,35,31,48,295,28,,,,*47
$GPGSA,M,3,21,12,25,29,,,,,,,,,14.6,9.4,11.2*3E
Trace #34 at position 8.250000
$GPZDA,100354.03,08,10,2011,00,00*6D
$GPRMC,100354.00,A,4611.953410,N,01258.219832,E,001.0,342.6,081011,0.2,E,A*3A
$GPGGA,100355.00,4611.954156,N,01258.219523,E,1,04,9.4,141.20,M,46.25,M,,*6C
$GPGLL,4611.954156,N,01258.219523,E,100355.00,A,A*63
$GPVTG,332.6,T,332.7,M,001.5,N,002.8,K,A*2C
$GPGSV,2,1,07,21,17,186,41,02,27,049,36,12,33,104,40,25,67,094,41*71
$GPGSV,2,2,07,29,81,267,42,30,62,305,38,31,48,295,29,,,,*48
$GPGSA,M,3,21,12,25,29,,,,,,,,,14.6,9.4,11.2*3E
Trace #35 at position 8.500000
$GPZDA,100354.03,08,10,2011,00,00*6D
$GPRMC,100354.00,A,4611.953410,N,01258.219832,E,001.0,342.6,081011,0.2,E,A*3A
$GPGGA,100355.00,4611.954156,N,01258.219523,E,1,04,9.4,141.20,M,46.25,M,,*6C
$GPGLL,4611.954156,N,01258.219523,E,100355.00,A,A*63
$GPVTG,332.6,T,332.7,M,001.5,N,002.8,K,A*2C
$GPGSV,2,1,07,21,17,186,41,02,27,049,36,12,33,104,40,25,67,094,41*71
$GPGSV,2,2,07,29,81,267,42,30,62,305,38,31,48,295,29,,,,*48
$GPGSA,M,3,21,12,25,29,,,,,,,,,14.6,9.4,11.2*3E
Trace #36 at position 8.750000
$GPZDA,100354.03,08,10,2011,00,00*6D
$GPRMC,100354.00,A,4611.953410,N,01258.219832,E,001.0,342.6,081011,0.2,E,A*3A
$GPGGA,100355.00,4611.954156,N,01258.219523,E,1,04,9.4,141.20,M,46.25,M,,*6C
$GPGLL,4611.954156,N,01258.219523,E,100355.00,A,A*63
$GPVTG,332.6,T,332.7,M,001.5,N,002.8,K,A*2C
$GPGSV,2,1,07,21,17,186,41,02,27,049,36,12,33,104,40,25,67,094,41*71
$GPGSV,2,2,07,29,81,267,42,30,62,305,38,31,48,295,29,,,,*48
$GPGSA,M,3,21,12,25,29,,,,,,,,,14.6,9.4,11.2*3E
Trace #37 at position 9.000000
$GPZDA,100355.03,08,10,2011,00,00*6C
$GPRMC,100355.00,A,4611.954156,N,01258.219523,E,001.5,332.6,081011,0.2,E,A*34
$GPGGA,100356.00,4611.955165,N,01258.218916,E,1,04,9.4,140.06,M,46.25,M,,*60
$GPGLL,4611.955165,N,01258.218916,E,100356.00,A,A*6A
$GPVTG,328.3,T,328.4,M,003.9,N,007.2,K,A*2B
$GPGSV,2,1,07,21,17,186,41,02,27,049,37,12,33,104,40,25,67,094,41*70
$GPGSV,2,2,07,29,81,267,42,30,62,305,36,31,48,295,31,,,,*4F
$GPGSA,M,3,21,12,25,29,,,,,,,,,14.6,9.4,11.2*3E
Trace #38 at position 9.250000
$GPZDA,100355.03,08,10,2011,00,00*6C
$GPRMC,100355.00,A,4611.954156,N,01258.219523,E,001.5,332.6,081011,0.2,E,A*34
$GPGGA,100356.00,4611.955165,N,01258.218916,E,1,04,9.4,140.06,M,46.25,M,,*60
$GPGLL,4611.955165,N,01258.218916,E,100356.00,A,A*6A
$GPVTG,328.3,T,328.4,M,003.9,N,007.2,K,A*2B
$GPGSV,2,1,07,21,17,186,41,02,27,049,37,12,33,104,40,25,67,094,41*70
$GPGSV,2,2,07,29,81,267,42,30,62,305,36,31,48,295,31,,,,*4F
$GPGSA,M,3,21,12,25,29,,,,,,,,,14.6,9.4,11.2*3E
Trace #39 at position 9.500000
$GPZDA,100355.03,08,10,2011,00,00*6C
$GPRMC,100355.00,A,4611.954156,N,01258.219523,E,001.5,332.6,081011,0.2,E,A*34
$GPGGA,100356.00,4611.955165,N,01258.218916,E,1,04,9.4,140.06,M,46.25,M,,*60
$GPGLL,4611.955165,N,01258.218916,E,100356.00,A,A*6A
$GPVTG,328.3,T,328.4,M,003.9,N,007.2,K,A*2B
$GPGSV,2,1,07,21,17,186,41,02,27,049,37,12,33,104,40,25,67,094,41*70
$GPGSV,2,2,07,29,81,267,42,30,62,305,36,31,48,295,31,,,,*4F
$GPGSA,M,3,21,12,25,29,,,,,,,,,14.6,9.4,11.2*3E
Trace #40 at position 9.750000
$GPZDA,100356.03,08,10,2011,00,00*6F
$GPRMC,100356.00,A,4611.955165,N,01258.218916,E,003.9,328.3,081011,0.2,E,A*3D
$GPGGA,100357.00,4611.956012,N,01258.218428,E,1,04,9.4,139.21,M,46.25,M,,*68
$GPGLL,4611.956012,N,01258.218428,E,100357.00,A,A*69
$GPVTG,334.3,T,334.5,M,000.8,N,001.6,K,A*2A
$GPGSV,2,1,07,21,17,186,36,02,27,049,37,12,33,104,40,25,67,094,41*70
$GPGSV,2,2,07,29,81,267,41,30,62,305,34,31,48,295,31,,,,*4E
$GPGSA,M,3,21,12,25,29,,,,,,,,,14.6,9.4,11.2*3E
Trace #41 at position 10.000000
$GPZDA,100356.03,08,10,2011,00,00*6F
$GPRMC,100356.00,A,4611.955165,N,01258.218916,E,003.9,328.3,081011,0.2,E,A*3D
$GPGGA,100357.00,4611.956012,N,01258.218428,E,1,04,9.4,139.21,M,46.25,M,,*68
$GPGLL,4611.956012,N,01258.218428,E,100357.00,A,A*69
$GPVTG,334.3,T,334.5,M,000.8,N,001.6,K,A*2A
$GPGSV,2,1,07,21,17,186,36,02,27,049,37,12,33,104,40,25,67,094,41*70
$GPGSV,2,2,07,29,81,267,41,30,62,305,34,31,48,295,31,,,,*4E
$GPGSA,M,3,21,12,25,29,,,,,,,,,14.6,9.4,11.2*3E
Trace #42 at position 10.250000
$GPZDA,100356.03,08,10,2011,00,00*6F
$GPRMC,100356.00,A,4611.955165,N,01258.218916,E,003.9,328.3,081011,0.2,E,A*3D
$GPGGA,100357.00,4611.956012,N,01258.218428,E,1,04,9.4,139.21,M,46.25,M,,*68
$GPGLL,4611.956012,N,01258.218428,E,100357.00,A,A*69
$GPVTG,334.3,T,334.5,M,000.8,N,001.6,K,A*2A
$GPGSV,2,1,07,21,17,186,36,02,27,049,37,12,33,104,40,25,67,094,41*70
$GPGSV,2,2,07,29,81,267,41,30,62,305,34,31,48,295,31,,,,*4E
$GPGSA,M,3,21,12,25,29,,,,,,,,,14.6,9.4,11.2*3E
Trace #43 at position 10.500000
$GPZDA,100357.03,08,10,2011,00,00*6E
$GPRMC,100357.00,A,4611.956012,N,01258.218428,E,000.8,334.3,081011,0.2,E,A*31
$GPGGA,100358.00,4611.956504,N,01258.218309,E,1,04,9.3,139.19,M,46.25,M,,*6D
$GPGLL,4611.956504,N,01258.218309,E,100358.00,A,A*60
$GPVTG,348.5,T,348.7,M,001.0,N,001.9,K,A*28
$GPGSV,2,1,07,21,17,186,37,02,27,049,35,12,33,104,40,25,67,094,41*73
$GPGSV,2,2,07,29,81,267,41,30,62,305,35,31,48,295,29,,,,*46
$GPGSA,M,3,21,12,25,29,,,,,,,,,14.6,9.3,11.2*39
Trace #44 at position 10.750000
$GPZDA,100357.03,08,10,2011,00,00*6E
$GPRMC,100357.00,A,4611.956012,N,01258.218428,E,000.8,334.3,081011,0.2,E,A*31
$GPGGA,100358.00,4611.956504,N,01258.218309,E,1,04,9.3,139.19,M,46.25,M,,*6D
$GPGLL,4611.956504,N,01258.218309,E,100358.00,A,A*60
$GPVTG,348.5,T,348.7,M,001.0,N,001.9,K,A*28
$GPGSV,2,1,07,21,17,186,37,02,27,049,35,12,33,104,40,25,67,094,41*73
$GPGSV,2,2,07,29,81,267,41,30,62,305,35,31,48,295,29,,,,*46
$GPGSA,M,3,21,12,25,29,,,,,,,,,14.6,9.3,11.2*39
Trace #45 at position 11.000000
$GPZDA,100357.03,08,10,2011,00,00*6E
$GPRMC,100357.00,A,4611.956012,N,01258.218428,E,000.8,334.3,081011,0.2,E,A*31
$GPGGA,100358.00,4611.956504,N,01258.218309,E,1,04,9.3,139.19,M,46.25,M,,*6D
$GPGLL,4611.956504,N,01258.218309,E,100358.00,A,A*60
$GPVTG,348.5,T,348.7,M,001.0,N,001.9,K,A*28
$GPGSV,2,1,07,21,17,186,37,02,27,049,35,12,33,104,40,25,67,094,41*73
$GPGSV,2,2,07,29,81,267,41,30,62,305,35,31,48,295,29,,,,*46
$GPGSA,M,3,21,12,25,29,,,,,,,,,14.6,9.3,11.2*39
Trace #46 at position 11.250000
$GPZDA,100358.03,08,10,2011,00,00*61
$GPRMC,100358.00,A,4611.956504,N,01258.218309,E,001.0,348.5,081011,0.2,E,A*3C
$GPGGA,100359.00,4611.957134,N,01258.218128,E,1,04,9.3,138.82,M,46.25,M,,*68
$GPGLL,4611.957134,N,01258.218128,E,100359.00,A,A*66
$GPVTG,342.1,T,342.2,M,002.2,N,004.0,K,A*24
$GPGSV,2,1,07,21,17,186,40,02,27,049,37,12,33,104,43,25,67,094,43*70
$GPGSV,2,2,07,29,81,267,41,30,62,305,32,31,48,295,30,,,,*49
$GPGSA,M,3,21,12,25,29,,,,,,,,,14.6,9.3,11.2*39
Trace #47 at position 11.500000
$GPZDA,100358.03,08,10,2011,00,00*61
$GPRMC,100358.00,A,4611.956504,N,01258.218309,E,001.0,348.5,081011,0.2,E,A*3C
$GPGGA,100359.00,4611.957134,N,01258.218128,E,1,04,9.3,138.82,M,46.25,M,,*68
$GPGLL,4611.957134,N,01258.218128,E,100359.00,A,A*66
$GPVTG,342.1,T,342.2,M,002.2,N,004.0,K,A*24
$GPGSV,2,1,07,21,17,186,40,02,27,049,37,12,33,104,43,25,67,094,43*70
$GPGSV,2,2,07,29,81,267,41,30,62,305,32,31,48,295,30,,,,*49
$GPGSA,M,3,21,12,25,29,,,,,,,,,14.6,9.3,11.2*39
Trace #48 at position 11.750000
$GPZDA,100359.03,08,10,2011,00,00*60
$GPRMC,100359.00,A,4611.957134,N,01258.218128,E,002.2,342.1,081011,0.2,E,A*35
$GPGGA,100400.00,4611.957717,N,01258.218029,E,1,04,9.3,138.49,M,46.25,M,,*63
$GPGLL,4611.957717,N,01258.218029,E,100400.00,A,A*6A
$GPVTG,16.4,T,16.5,M,000.9,N,001.7,K,A*2D
$GPGSV,2,1,07,21,17,186,41,02,27,049,35,12,33,104,41,25,67,094,40*72
$GPGSV,2,2,07,29,81,267,41,30,62,305,34,31,48,295,31,,,,*4E
$GPGSA,M,3,21,12,25,29,,,,,,,,,14.5,9.3,11.1*39
Trace #49 at position 12.000000
$GPZDA,100359.03,08,10,2011,00,00*60
$GPRMC,100359.00,A,4611.957134,N,01258.218128,E,002.2,342.1,081011,0.2,E,A*35
$GPGGA,100400.00,4611.957717,N,01258.218029,E,1,04,9.3,138.49,M,46.25,M,,*63
$GPGLL,4611.957717,N,01258.218029,E,100400.00,A,A*6A
$GPVTG,16.4,T,16.5,M,000.9,N,001.7,K,A*2D
$GPGSV,2,1,07,21,17,186,41,02,27,049,35,12,33,104,41,25,67,094,40*72
$GPGSV,2,2,07,29,81,267,41,30,62,305,34,31,48,295,31,,,,*4E
$GPGSA,M,3,21,12,25,29,,,,,,,,,14.5,9.3,11.1*39
Trace #50 at position 12.250000
$GPZDA,100400.03,08,10,2011,00,00*6B
$GPRMC,100400.00,A,4611.957717,N,01258.218029,E,000.9,16.4,081011,0.2,E,A*07
$GPGGA,100401.00,4611.958071,N,01258.218003,E,1,04,9.3,138.58,M,46.25,M,,*62
$GPGLL,4611.958071,N,01258.218003,E,100401.00,A,A*6B
$GPVTG,333.8,T,334.0,M,000.5,N,000.9,K,A*20
$GPGSV,2,1,07,21,17,186,42,02,27,049,36,12,33,104,40,25,67,094,42*71
$GPGSV,2,2,07,29,81,267,41,30,62,305,35,31,48,295,32,,,,*4C
$GPGSA,M,3,21,12,25,29,,,,,,,,,14.5,9.3,11.1*39
Trace #51 at position 12.500000
$GPZDA,100400.03,08,10,2011,00,00*6B
$GPRMC,100400.00,A,4611.957717,N,01258.218029,E,000.9,16.4,081011,0.2,E,A*07
$GPGGA,100401.00,4611.958071,N,01258.218003,E,1,04,9.3,138.58,M,46.25,M,,*62
$GPGLL,4611.958071,N,01258.218003,E,100401.00,A,A*6B
$GPVTG,333.8,T,334.0,M,000.5,N,000.9,K,A*20
$GPGSV,2,1,07,21,17,186,42,02,27,049,36,12,33,104,40,25,67,094,42*71
$GPGSV,2,2,07,29,81,267,41,30,62,305,35,31,48,295,32,,,,*4C
$GPGSA,M,3,21,12,25,29,,,,,,,,,14.5,9.3,11.1*39
Trace #52 at position 12.750000
$GPZDA,100400.03,08,10,2011,00,00*6B
$GPRMC,100400.00,A,4611.957717,N,01258.218029,E,000.9,16.4,081011,0.2,E,A*07
$GPGGA,100401.00,4611.958071,N,01258.218003,E,1,04,9.3,138.58,M,46.25,M,,*62
$GPGLL,4611.958071,N,01258.218003,E,100401.00,A,A*6B
$GPVTG,333.8,T,334.0,M,000.5,N,000.9,K,A*20
$GPGSV,2,1,07,21,17,186,42,02,27,049,36,12,33,104,40,25,67,094,42*71
$GPGSV,2,2,07,29,81,267,41,30,62,305,35,31,48,295,32,,,,*4C
$GPGSA,M,3,21,12,25,29,,,,,,,,,14.5,9.3,11.1*39
Trace #53 at position 13.000000
$GPZDA,100401.03,08,10,2011,00,00*6A
$GPRMC,100401.00,A,4611.958071,N,01258.218003,E,000.5,333.8,081011,0.2,E,A*32
$GPGGA,100402.00,4611.958528,N,01258.217889,E,1,04,9.3,138.19,M,46.25,M,,*68
$GPGLL,4611.958528,N,01258.217889,E,100402.00,A,A*64
$GPVTG,354.7,T,354.8,M,001.8,N,003.3,K,A*25
$GPGSV,2,1,07,21,17,186,41,02,27,049,36,12,33,104,41,25,67,094,39*7F
$GPGSV,2,2,07,29,81,267,39,30,62,305,33,31,48,295,30,,,,*47
$GPGSA,M,3,21,12,25,29,,,,,,,,,14.5,9.3,11.1*39
Trace #54 at position 13.250000
$GPZDA,100401.03,08,10,2011,00,00*6A
$GPRMC,100401.00,A,4611.958071,N,01258.218003,E,000.5,333.8,081011,0.2,E,A*32
$GPGGA,100402.00,4611.958528,N,01258.217889,E,1,04,9.3,138.19,M,46.25,M,,*68
$GPGLL,4611.958528,N,01258.217889,E,100402.00,A,A*64
$GPVTG,354.7,T,354.8,M,001.8,N,003.3,K,A*25
$GPGSV,2,1,07,21,17,186,41,02,27,049,36,12,33,104,41,25,67,094,39*7F
$GPGSV,2,2,07,29,81,267,39,30,62,305,33,31,48,295,30,,,,*47
$GPGSA,M,3,21,12,25,29,,,,,,,,,14.5,9.3,11.1*39
Trace #55 at position 13.500000
$GPZDA,100402.03,08,10,2011,00,00*69
$GPRMC,100402.00,A,4611.958528,N,01258.217889,E,001.8,354.7,081011,0.2,E,A*3F
$GPGGA,100403.00,4611.958979,N,01258.217834,E,1,04,9.3,137.85,M,46.25,M,,*6D
$GPGLL,4611.958979,N,01258.217834,E,100403.00,A,A*6B
$GPVTG,11.2,T,11.4,M,000.6,N,001.0,K,A*22
$GPGSV,2,1,07,21,17,186,41,02,27,049,37,12,33,104,40,25,67,094,40*71
$GPGSV,2,2,07,29,81,267,40,30,62,305,34,31,48,295,28,,,,*47
$GPGSA,M,3,21,12,25,29,,,,,,,,,14.5,9.3,11.1*39
Trace #56 at position 13.750000
$GPZDA,100402.03,08,10,2011,00,00*69
$GPRMC,100402.00,A,4611.958528,N,01258.217889,E,001.8,354.7,081011,0.2,E,A*3F
$GPGGA,100403.00,4611.958979,N,01258.217834,E,1,04,9.3,137.85,M,46.25,M,,*6D
$GPGLL,4611.958979,N,01258.217834,E,100403.00,A,A*6B
$GPVTG,11.2,T,11.4,M,000.6,N,001.0,K,A*22
$GPGSV,2,1,07,21,17,186,41,02,27,049,37,12,33,104,40,25,67,094,40*71
$GPGSV,2,2,07,29,81,267,40,30,62,305,34,31,48,295,28,,,,*47
$GPGSA,M,3,21,12,25,29,,,,,,,,,14.5,9.3,11.1*39
Trace #57 at position 14.000000
$GPZDA,100403.03,08,10,2011,00,00*68
$GPRMC,100403.00,A,4611.958979,N,01258.217834,E,000.6,11.2,081011,0.2,E,A*08
$GPGGA,100404.00,4611.959206,N,01258.217628,E,1,04,9.3,138.11,M,46.25,M,,*69
$GPGLL,4611.959206,N,01258.217628,E,100404.00,A,A*6D
$GPVTG,276.3,T,276.4,M,001.0,N,001.8,K,A*2C
$GPGSV,2,1,07,21,17,186,42,02,27,049,37,12,33,104,39,25,67,094,40*7C
$GPGSV,2,2,07,29,81,267,40,30,62,305,35,31,48,295,,,,,*4C
$GPGSA,M,3,21,12,25,29,,,,,,,,,14.5,9.3,11.1*39
Trace #58 at position 14.250000
$GPZDA,100403.03,08,10,2011,00,00*68
$GPRMC,100403.00,A,4611.958979,N,01258.217834,E,000.6,11.2,081011,0.2,E,A*08
$GPGGA,100404.00,4611.959206,N,01258.217628,E,1,04,9.3,138.11,M,46.25,M,,*69
$GPGLL,4611.959206,N,01258.217628,E,100404.00,A,A*6D
$GPVTG,276.3,T,276.4,M,001.0,N,001.8,K,A*2C
$GPGSV,2,1,07,21,17,186,42,02,27,049,37,12,33,104,39,25,67,094,40*7C
$GPGSV,2,2,07,29,81,267,40,30,62,305,35,31,48,295,,,,,*4C
$GPGSA,M,3,21,12,25,29,,,,,,,,,14.5,9.3,11.1*39
Trace #59 at position 14.500000
$GPZDA,100403.03,08,10,2011,00,00*68
$GPRMC,100403.00,A,4611.958979,N,01258.217834,E,000.6,11.2,081011,0.2,E,A*08
$GPGGA,100404.00,4611.959206,N,01258.217628,E,1,04,9.3,138.11,M,46.25,M,,*69
$GPGLL,4611.959206,N,01258.217628,E,100404.00,A,A*6D
$GPVTG,276.3,T,276.4,M,001.0,N,001.8,K,A*2C
$GPGSV,2,1,07,21,17,186,42,02,27,049,37,12,33,104,39,25,67,094,40*7C
$GPGSV,2,2,07,29,81,267,40,30,62,305,35,31,48,295,,,,,*4C
$GPGSA,M,3,21,12,25,29,,,,,,,,,14.5,9.3,11.1*39
Trace #60 at position 14.750000
$GPZDA,100404.03,08,10,2011,00,00*6F
$GPRMC,100404.00,A,4611.959206,N,01258.217628,E,001.0,276.3,081011,0.2,E,A*3B
$GPGGA,100405.00,4611.959589,N,01258.217311,E,1,04,9.3,138.07,M,46.25,M,,*60
$GPGLL,4611.959589,N,01258.217311,E,100405.00,A,A*63
$GPVTG,341.9,T,342.1,M,001.9,N,003.5,K,A*26
$GPGSV,2,1,07,21,17,186,41,02,27,049,35,12,33,104,40,25,67,094,39*7D
$GPGSV,2,2,07,29,81,267,40,30,62,305,36,31,48,295,,,,,*4F
$GPGSA,M,3,21,12,25,29,,,,,,,,,14.5,9.3,11.1*39
Trace #61 at position 15.000000
$GPZDA,100404.03,08,10,2011,00,00*6F
$GPRMC,100404.00,A,4611.959206,N,01258.217628,E,001.0,276.3,081011,0.2,E,A*3B
$GPGGA,100405.00,4611.959589,N,01258.217311,E,1,04,9.3,138.07,M,46.25,M,,*60
$GPGLL,4611.959589,N,01258.217311,E,100405.00,A,A*63
$GPVTG,341.9,T,342.1,M,001.9,N,003.5,K,A*26
$GPGSV,2,1,07,21,17,186,41,02,27,049,35,12,33,104,40,25,67,094,39*7D
$GPGSV,2,2,07,29,81,267,40,30,62,305,36,31,48,295,,,,,*4F
$GPGSA,M,3,21,12,25,29,,,,,,,,,14.5,9.3,11.1*39
Trace #62 at position 15.250000
$GPZDA,100404.03,08,10,2011,00,00*6F
$GPRMC,100404.00,A,4611.959206,N,01258.217628,E,001.0,276.3,081011,0.2,E,A*3B
$GPGGA,100405.00,4611.959589,N,01258.217311,E,1,04,9.3,138.07,M,46.25,M,,*60
$GPGLL,4611.959589,N,01258.217311,E,100405.00,A,A*63
$GPVTG,341.9,T,342.1,M,001.9,N,003.5,K,A*26
$GPGSV,2,1,07,21,17,186,41,02,27,049,35,12,33,104,40,25,67,094,39*7D
$GPGSV,2,2,07,29,81,267,40,30,62,305,36,31,48,295,,,,,*4F
$GPGSA,M,3,21,12,25,29,,,,,,,,,14.5,9.3,11.1*39
Trace #63 at position 15.500000
$GPZDA,100405.03,08,10,2011,00,00*6E
$GPRMC,100405.00,A,4611.959589,N,01258.217311,E,001.9,341.9,081011,0.2,E,A*33
$GPGGA,100406.00,4611.960115,N,01258.217096,E,1,04,9.3,137.78,M,46.25,M,,*63
$GPGLL,4611.960115,N,01258.217096,E,100406.00,A,A*67
$GPVTG,339.6,T,339.7,M,001.4,N,002.7,K,A*22
$GPGSV,2,1,07,21,17,186,40,02,27,049,35,12,33,104,40,25,67,094,42*70
$GPGSV,2,2,07,29,81,267,41,30,62,305,37,31,48,295,32,,,,*4E
$GPGSA,M,3,21,12,25,29,,,,,,,,,14.5,9.3,11.1*39
Trace #64 at position 15.750000
$GPZDA,100405.03,08,10,2011,00,00*6E
$GPRMC,100405.00,A,4611.959589,N,01258.217311,E,001.9,341.9,081011,0.2,E,A*33
$GPGGA,100406.00,4611.960115,N,01258.217096,E,1,04,9.3,137.78,M,46.25,M,,*63
$GPGLL,4611.960115,N,01258.217096,E,100406.00,A,A*67
$GPVTG,339.6,T,339.7,M,001.4,N,002.7,K,A*22
$GPGSV,2,1,07,21,17,186,40,02,27,049,35,12,33,104,40,25,67,094,42*70
$GPGSV,2,2,07,29,81,267,41,30,62,305,37,31,48,295,32,,,,*4E
$GPGSA,M,3,21,12,25,29,,,,,,,,,14.5,9.3,11.1*39
Trace #65 at position 16.000000
$GPZDA,100405.03,08,10,2011,00,00*6E
$GPRMC,100405.00,A,4611.959589,N,01258.217311,E,001.9,341.9,081011,0.2,E,A*33
$GPGGA,100406.00,4611.960115,N,01258.217096,E,1,04,9.3,137.78,M,46.25,M,,*63
$GPGLL,4611.960115,N,01258.217096,E,100406.00,A,A*67
$GPVTG,339.6,T,339.7,M,001.4,N,002.7,K,A*22
$GPGSV,2,1,07,21,17,186,40,02,27,049,35,12,33,104,40,25,67,094,42*70
$GPGSV,2,2,07,29,81,267,41,30,62,305,37,31,48,295,32,,,,*4E
$GPGSA,M,3,21,12,25,29,,,,,,,,,14.5,9.3,11.1*39
Trace #66 at position 16.250000
$GPZDA,100406.03,08,10,2011,00,00*6D
$GPRMC,100406.00,A,4611.960115,N,01258.217096,E,001.4,339.6,081011,0.2,E,A*3A
$GPGGA,100407.00,4611.960586,N,01258.216955,E,1,04,9.3,137.56,M,46.25,M,,*67
$GPGLL,4611.960586,N,01258.216955,E,100407.00,A,A*6F
$GPVTG,351.4,T,351.5,M,001.5,N,002.9,K,A*2D
$GPGSV,2,1,07,21,17,186,40,02,27,049,37,12,33,104,41,25,67,094,40*71
$GPGSV,2,2,07,29,81,267,41,30,62,305,36,31,48,295,36,,,,*4B
$GPGSA,M,3,21,12,25,29,,,,,,,,,14.4,9.3,11.1*38
Trace #67 at position 16.500000
$GPZDA,100406.03,08,10,2011,00,00*6D
$GPRMC,100406.00,A,4611.960115,N,01258.217096,E,001.4,339.6,081011,0.2,E,A*3A
$GPGGA,100407.00,4611.960586,N,01258.216955,E,1,04,9.3,137.56,M,46.25,M,,*67
$GPGLL,4611.960586,N,01258.216955,E,100407.00,A,A*6F
$GPVTG,351.4,T,351.5,M,001.5,N,002.9,K,A*2D
$GPGSV,2,1,07,21,17,186,40,02,27,049,37,12,33,104,41,25,67,094,40*71
$GPGSV,2,2,07,29,81,267,41,30,62,305,36,31,48,295,36,,,,*4B
$GPGSA,M,3,21,12,25,29,,,,,,,,,14.4,9.3,11.1*38
Trace #68 at position 16.750000
$GPZDA,100406.03,08,10,2011,00,00*6D
$GPRMC,100406.00,A,4611.960115,N,01258.217096,E,001.4,339.6,081011,0.2,E,A*3A
$GPGGA,100407.00,4611.960586,N,01258.216955,E,1,04,9.3,137.56,M,46.25,M,,*67
$GPGLL,4611.960586,N,01258.216955,E,100407.00,A,A*6F
$GPVTG,351.4,T,351.5,M,001.5,N,002.9,K,A*2D
$GPGSV,2,1,07,21,17,186,40,02,27,049,37,12,33,104,41,25,67,094,40*71
$GPGSV,2,2,07,29,81,267,41,30,62,305,36,31,48,295,36,,,,*4B
$GPGSA,M,3,21,12,25,29,,,,,,,,,14.4,9.3,11.1*38
Trace #69 at position 17.000000
$GPZDA,100407.03,08,10,2011,00,00*6C
$GPRMC,100407.00,A,4611.960586,N,01258.216955,E,001.5,351.4,081011,0.2,E,A*3F
$GPGGA,100408.00,4611.961035,N,01258.216865,E,1,04,9.3,137.48,M,46.25,M,,*69
$GPGLL,4611.961035,N,01258.216865,E,100408.00,A,A*6E
$GPVTG,350.8,T,351.0,M,001.3,N,002.5,K,A*2F
$GPGSV,2,1,07,21,17,186,42,02,27,049,36,12,33,104,40,25,67,094,41*72
$GPGSV,2,2,07,29,81,267,41,30,62,305,36,31,48,295,32,,,,*4F
$GPGSA,M,3,21,12,25,29,,,,,,,,,14.4,9.3,11.1*38
Trace #70 at position 17.250000
$GPZDA,100407.03,08,10,2011,00,00*6C
$GPRMC,100407.00,A,4611.960586,N,01258.216955,E,001.5,351.4,081011,0.2,E,A*3F
$GPGGA,100408.00,4611.961035,N,01258.216865,E,1,04,9.3,137.48,M,46.25,M,,*69
$GPGLL,4611.961035,N,01258.216865,E,100408.00,A,A*6E
$GPVTG,350.8,T,351.0,M,001.3,N,002.5,K,A*2F
$GPGSV,2,1,07,21,17,186,42,02,27,049,36,12,33,104,40,25,67,094,41*72
$GPGSV,2,2,07,29,81,267,41,30,62,305,36,31,48,295,32,,,,*4F
$GPGSA,M,3,21,12,25,29,,,,,,,,,14.4,9.3,11.1*38
Trace #71 at position 17.500000
$GPZDA,100407.03,08,10,2011,00,00*6C
$GPRMC,100407.00,A,4611.960586,N,01258.216955,E,001.5,351.4,081011,0.2,E,A*3F
$GPGGA,100408.00,4611.961035,N,01258.216865,E,1,04,9.3,137.48,M,46.25,M,,*69
$GPGLL,4611.961035,N,01258.216865,E,100408.00,A,A*6E
$GPVTG,350.8,T,351.0,M,001.3,N,002.5,K,A*2F
$GPGSV,2,1,07,21,17,186,42,02,27,049,36,12,33,104,40,25,67,094,41*72
$GPGSV,2,2,07,29,81,267,41,30,62,305,36,31,48,295,32,,,,*4F
$GPGSA,M,3,21,12,25,29,,,,,,,,,14.4,9.3,11.1*38
Trace #72 at position 17.750000
$GPZDA,100408.03,08,10,2011,00,00*63
$GPRMC,100408.00,A,4611.961035,N,01258.216865,E,001.3,350.8,081011,0.2,E,A*35
$GPGGA,100409.00,4611.961467,N,01258.216682,E,1,04,9.2,137.55,M,46.25,M,,*61
$GPGLL,4611.961467,N,01258.216682,E,100409.00,A,A*6B
$GPVTG,335.3,T,335.5,M,001.6,N,003.0,K,A*21
$GPGSV,2,1,07,21,17,186,40,02,27,049,36,12,33,104,40,25,67,094,41*70
$GPGSV,2,2,07,29,81,268,40,30,62,305,32,31,48,295,30,,,,*47
$GPGSA,M,3,21,12,25,29,,,,,,,,,14.4,9.2,11.1*39
Trace #73 at position 18.000000
$GPZDA,100408.03,08,10,2011,00,00*63
$GPRMC,100408.00,A,4611.961035,N,01258.216865,E,001.3,350.8,081011,0.2,E,A*35
$GPGGA,100409.00,4611.961467,N,01258.216682,E,1,04,9.2,137.55,M,46.25,M,,*61
$GPGLL,4611.961467,N,01258.216682,E,100409.00,A,A*6B
$GPVTG,335.3,T,335.5,M,001.6,N,003.0,K,A*21
$GPGSV,2,1,07,21,17,186,40,02,27,049,36,12,33,104,40,25,67,094,41*70
$GPGSV,2,2,07,29,81,268,40,30,62,305,32,31,48,295,30,,,,*47
$GPGSA,M,3,21,12,25,29,,,,,,,,,14.4,9.2,11.1*39
Trace #74 at position 18.250000
$GPZDA,100408.03,08,10,2011,00,00*63
$GPRMC,100408.00,A,4611.961035,N,01258.216865,E,001.3,350.8,081011,0.2,E,A*35
$GPGGA,100409.00,4611.961467,N,01258.216682,E,1,04,9.2,137.55,M,46.25,M,,*61
$GPGLL,4611.961467,N,01258.216682,E,100409.00,A,A*6B
$GPVTG,335.3,T,335.5,M,001.6,N,003.0,K,A*21
$GPGSV,2,1,07,21,17,186,40,02,27,049,36,12,33,104,40,25,67,094,41*70
$GPGSV,2,2,07,29,81,268,40,30,62,305,32,31,48,295,30,,,,*47
$GPGSA,M,3,21,12,25,29,,,,,,,,,14.4,9.2,11.1*39
Trace #75 at position 18.500000
$GPZDA,100409.03,08,10,2011,00,00*62
$GPRMC,100409.00,A,4611.961467,N,01258.216682,E,001.6,335.3,081011,0.2,E,A*3D
$GPGGA,100410.00,4611.961946,N,01258.216462,E,1,04,9.2,137.40,M,46.25,M,,*6F
$GPGLL,4611.961946,N,01258.216462,E,100410.00,A,A*61
$GPVTG,345.0,T,345.2,M,001.7,N,003.2,K,A*26
$GPGSV,2,1,07,21,17,186,39,02,27,049,36,12,33,104,40,25,67,094,39*71
$GPGSV,2,2,07,29,81,268,39,30,62,305,32,31,48,295,29,,,,*41
$GPGSA,M,3,21,12,25,29,,,,,,,,,14.4,9.2,11.1*39
Trace #76 at position 18.750000
$GPZDA,100409.03,08,10,2011,00,00*62
$GPRMC,100409.00,A,4611.961467,N,01258.216682,E,001.6,335.3,081011,0.2,E,A*3D
$GPGGA,100410.00,4611.961946,N,01258.216462,E,1,04,9.2,137.40,M,46.25,M,,*6F
$GPGLL,4611.961946,N,01258.216462,E,100410.00,A,A*61
$GPVTG,345.0,T,345.2,M,001.7,N,003.2,K,A*26
$GPGSV,2,1,07,21,17,186,39,02,27,049,36,12,33,104,40,25,67,094,39*71
$GPGSV,2,2,07,29,81,268,39,30,62,305,32,31,48,295,29,,,,*41
$GPGSA,M,3,21,12,25,29,,,,,,,,,14.4,9.2,11.1*39
Trace #77 at position 19.000000
$GPZDA,100409.03,08,10,2011,00,00*62
$GPRMC,100409.00,A,4611.961467,N,01258.216682,E,001.6,335.3,081011,0.2,E,A*3D
$GPGGA,100410.00,4611.961946,N,01258.216462,E,1,04,9.2,137.40,M,46.25,M,,*6F
$GPGLL,4611.961946,N,01258.216462,E,100410.00,A,A*61
$GPVTG,345.0,T,345.2,M,001.7,N,003.2,K,A*26
$GPGSV,2,1,07,21,17,186,39,02,27,049,36,12,33,104,40,25,67,094,39*71
$GPGSV,2,2,07,29,81,268,39,30,62,305,32,31,48,295,29,,,,*41
$GPGSA,M,3,21,12,25,29,,,,,,,,,14.4,9.2,11.1*39
Trace #78 at position 19.250000
$GPZDA,100410.03,08,10,2011,00,00*6A
$GPRMC,100410.00,A,4611.961946,N,01258.216462,E,001.7,345.0,081011,0.2,E,A*32
$GPGGA,100411.00,4611.962324,N,01258.216389,E,1,04,9.2,137.42,M,46.25,M,,*63
$GPGLL,4611.962324,N,01258.216389,E,100411.00,A,A*6F
$GPVTG,10.4,T,10.5,M,000.8,N,001.4,K,A*2F
$GPGSV,2,1,07,21,17,186,43,02,27,049,36,12,33,104,39,25,67,094,39*72
$GPGSV,2,2,07,29,81,268,40,30,62,305,34,31,48,295,,,,,*42
$GPGSA,M,3,21,12,25,29,,,,,,,,,14.4,9.2,11.0*38
Trace #79 at position 19.500000
$GPZDA,100410.03,08,10,2011,00,00*6A
$GPRMC,100410.00,A,4611.961946,N,01258.216462,E,001.7,345.0,081011,0.2,E,A*32
$GPGGA,100411.00,4611.962324,N,01258.216389,E,1,04,9.2,137.42,M,46.25,M,,*63
$GPGLL,4611.962324,N,01258.216389,E,100411.00,A,A*6F
$GPVTG,10.4,T,10.5,M,000.8,N,001.4,K,A*2F
$GPGSV,2,1,07,21,17,186,43,02,27,049,36,12,33,104,39,25,67,094,39*72
$GPGSV,2,2,07,29,81,268,40,30,62,305,34,31,48,295,,,,,*42
$GPGSA,M,3,21,12,25,29,,,,,,,,,14.4,9.2,11.0*38
Trace #80 at position 19.750000
$GPZDA,100410.03,08,10,2011,00,00*6A
$GPRMC,100410.00,A,4611.961946,N,01258.216462,E,001.7,345.0,081011,0.2,E,A*32
$GPGGA,100411.00,4611.962324,N,01258.216389,E,1,04,9.2,137.42,M,46.25,M,,*63
$GPGLL,4611.962324,N,01258.216389,E,100411.00,A,A*6F
$GPVTG,10.4,T,10.5,M,000.8,N,001.4,K,A*2F
$GPGSV,2,1,07,21,17,186,43,02,27,049,36,12,33,104,39,25,67,094,39*72
$GPGSV,2,2,07,29,81,268,40,30,62,305,34,31,48,295,,,,,*42
$GPGSA,M,3,21,12,25,29,,,,,,,,,14.4,9.2,11.0*38
Trace #81 at position 20.000000
$GPZDA,100411.03,08,10,2011,00,00*6B
$GPRMC,100411.00,A,4611.962324,N,01258.216389,E,000.8,10.4,081011,0.2,E,A*05
$GPGGA,100412.00,4611.962612,N,01258.216258,E,1,04,9.2,137.75,M,46.25,M,,*69
$GPGLL,4611.962612,N,01258.216258,E,100412.00,A,A*61
$GPVTG,323.0,T,323.1,M,001.1,N,002.1,K,A*21
$GPGSV,2,1,07,21,17,186,42,02,27,049,36,12,33,104,40,25,67,094,40*73
$GPGSV,2,2,07,29,81,268,40,30,62,305,35,31,48,295,31,,,,*41
$GPGSA,M,3,21,12,25,29,,,,,,,,,14.4,9.2,11.0*38
Trace #82 at position 20.250000
$GPZDA,100411.03,08,10,2011,00,00*6B
$GPRMC,100411.00,A,4611.962324,N,01258.216389,E,000.8,10.4,081011,0.2,E,A*05
$GPGGA,100412.00,4611.962612,N,01258.216258,E,1,04,9.2,137.75,M,46.25,M,,*69
$GPGLL,4611.962612,N,01258.216258,E,100412.00,A,A*61
$GPVTG,323.0,T,323.1,M,001.1,N,002.1,K,A*21
$GPGSV,2,1,07,21,17,186,42,02,27,049,36,12,33,104,40,25,67,094,40*73
$GPGSV,2,2,07,29,81,268,40,30,62,305,35,31,48,295,31,,,,*41
$GPGSA,M,3,21,12,25,29,,,,,,,,,14.4,9.2,11.0*38
Trace #83 at position 20.500000
$GPZDA,100411.03,08,10,2011,00,00*6B
$GPRMC,100411.00,A,4611.962324,N,01258.216389,E,000.8,10.4,081011,0.2,E,A*05
$GPGGA,100412.00,4611.962612,N,01258.216258,E,1,04,9.2,137.75,M,46.25,M,,*69
$GPGLL,4611.962612,N,01258.216258,E,100412.00,A,A*61
$GPVTG,323.0,T,323.1,M,001.1,N,002.1,K,A*21
$GPGSV,2,1,07,21,17,186,42,02,27,049,36,12,33,104,40,25,67,094,40*73
$GPGSV,2,2,07,29,81,268,40,30,62,305,35,31,48,295,31,,,,*41
$GPGSA,M,3,21,12,25,29,,,,,,,,,14.4,9.2,11.0*38
Trace #84 at position 20.750000
$GPZDA,100411.03,08,10,2011,00,00*6B
$GPRMC,100411.00,A,4611.962324,N,01258.216389,E,000.8,10.4,081011,0.2,E,A*05
$GPGGA,100412.00,4611.962612,N,01258.216258,E,1,04,9.2,137.75,M,46.25,M,,*69
$GPGLL,4611.962612,N,01258.216258,E,100412.00,A,A*61
$GPVTG,323.0,T,323.1,M,001.1,N,002.1,K,A*21
$GPGSV,2,1,07,21,17,186,42,02,27,049,36,12,33,104,40,25,67,094,40*73
$GPGSV,2,2,07,29,81,268,40,30,62,305,35,31,48,295,31,,,,*41
$GPGSA,M,3,21,12,25,29,,,,,,,,,14.4,9.2,11.0*38
Trace #85 at position 21.000000
$GPZDA,100412.03,08,10,2011,00,00*68
$GPRMC,100412.00,A,4611.962612,N,01258.216258,E,001.1,323.0,081011,0.2,E,A*34
$GPGGA,100413.00,4611.962855,N,01258.216119,E,1,04,9.2,138.20,M,46.25,M,,*6C
$GPGLL,4611.962855,N,01258.216119,E,100413.00,A,A*6B
$GPVTG,7.6,T,7.8,M,000.4,N,000.7,K,A*2E
$GPGSV,2,1,07,21,17,186,41,02,27,049,35,12,33,104,40,25,67,094,41*72
$GPGSV,2,2,07,29,81,268,40,30,62,305,36,31,48,295,32,,,,*41
$GPGSA,M,3,21,12,25,29,,,,,,,,,14.4,9.2,11.0*38
Trace #86 at position 21.250000
$GPZDA,100412.03,08,10,2011,00,00*68
$GPRMC,100412.00,A,4611.962612,N,01258.216258,E,001.1,323.0,081011,0.2,E,A*34
$GPGGA,100413.00,4611.962855,N,01258.216119,E,1,04,9.2,138.20,M,46.25,M,,*6C
$GPGLL,4611.962855,N,01258.216119,E,100413.00,A,A*6B
$GPVTG,7.6,T,7.8,M,000.4,N,000.7,K,A*2E
$GPGSV,2,1,07,21,17,186,41,02,27,049,35,12,33,104,40,25,67,094,41*72
$GPGSV,2,2,07,29,81,268,40,30,62,305,36,31,48,295,32,,,,*41
$GPGSA,M,3,21,12,25,29,,,,,,,,,14.4,9.2,11.0*38
Trace #87 at position 21.500000
$GPZDA,100412.03,08,10,2011,00,00*68
$GPRMC,100412.00,A,4611.962612,N,01258.216258,E,001.1,323.0,081011,0.2,E,A*34
$GPGGA,100413.00,4611.962855,N,01258.216119,E,1,04,9.2,138.20,M,46.25,M,,*6C
$GPGLL,4611.962855,N,01258.216119,E,100413.00,A,A*6B
$GPVTG,7.6,T,7.8,M,000.4,N,000.7,K,A*2E
$GPGSV,2,1,07,21,17,186,41,02,27,049,35,12,33,104,40,25,67,094,41*72
$GPGSV,2,2,07,29,81,268,40,30,62,305,36,31,48,295,32,,,,*41
$GPGSA,M,3,21,12,25,29,,,,,,,,,14.4,9.2,11.0*38
Trace #88 at position 21.750000
$GPZDA,100413.03,08,10,2011,00,00*69
$GPRMC,100413.00,A,4611.962855,N,01258.216119,E,000.4,7.6,081011,0.2,E,A*39
$GPGGA,100414.00,4611.963251,N,01258.215961,E,1,04,9.2,138.44,M,46.25,M,,*62
$GPGLL,4611.963251,N,01258.215961,E,100414.00,A,A*67
$GPVTG,339.2,T,339.4,M,002.0,N,003.8,K,A*2C
$GPGSV,2,1,07,21,17,186,43,02,27,049,36,12,33,104,40,25,67,094,40*72
$GPGSV,2,2,07,29,81,268,40,30,62,305,34,31,48,295,29,,,,*49
$GPGSA,M,3,21,12,25,29,,,,,,,,,14.4,9.2,11.0*38
Trace #89 at position 22.000000
$GPZDA,100413.03,08,10,2011,00,00*69
$GPRMC,100413.00,A,4611.962855,N,01258.216119,E,000.4,7.6,081011,0.2,E,A*39
$GPGGA,100414.00,4611.963251,N,01258.215961,E,1,04,9.2,138.44,M,46.25,M,,*62
$GPGLL,4611.963251,N,01258.215961,E,100414.00,A,A*67
$GPVTG,339.2,T,339.4,M,002.0,N,003.8,K,A*2C
$GPGSV,2,1,07,21,17,186,43,02,27,049,36,12,33,104,40,25,67,094,40*72
$GPGSV,2,2,07,29,81,268,40,30,62,305,34,31,48,295,29,,,,*49
$GPGSA,M,3,21,12,25,29,,,,,,,,,14.4,9.2,11.0*38
Trace #90 at position 22.250000
$GPZDA,100413.03,08,10,2011,00,00*69
$GPRMC,100413.00,A,4611.962855,N,01258.216119,E,000.4,7.6,081011,0.2,E,A*39
$GPGGA,100414.00,4611.963251,N,01258.215961,E,1,04,9.2,138.44,M,46.25,M,,*62
$GPGLL,4611.963251,N,01258.215961,E,100414.00,A,A*67
$GPVTG,339.2,T,339.4,M,002.0,N,003.8,K,A*2C
$GPGSV,2,1,07,21,17,186,43,02,27,049,36,12,33,104,40,25,67,094,40*72
$GPGSV,2,2,07,29,81,268,40,30,62,305,34,31,48,295,29,,,,*49
$GPGSA,M,3,21,12,25,29,,,,,,,,,14.4,9.2,11.0*38
Trace #91 at position 22.500000
$GPZDA,100413.03,08,10,2011,00,00*69
$GPRMC,100413.00,A,4611.962855,N,01258.216119,E,000.4,7.6,081011,0.2,E,A*39
$GPGGA,100414.00,4611.963251,N,01258.215961,E,1,04,9.2,138.44,M,46.25,M,,*62
$GPGLL,4611.963251,N,01258.215961,E,100414.00,A,A*67
$GPVTG,339.2,T,339.4,M,002.0,N,003.8,K,A*2C
$GPGSV,2,1,07,21,17,186,43,02,27,049,36,12,33,104,40,25,67,094,40*72
$GPGSV,2,2,07,29,81,268,40,30,62,305,34,31,48,295,29,,,,*49
$GPGSA,M,3,21,12,25,29,,,,,,,,,14.4,9.2,11.0*38
Trace #92 at position 22.750000
$GPZDA,100414.03,08,10,2011,00,00*6E
$GPRMC,100414.00,A,4611.963251,N,01258.215961,E,002.0,339.2,081011,0.2,E,A*39
$GPGGA,100415.00,4611.963835,N,01258.215744,E,1,04,9.2,138.29,M,46.25,M,,*69
$GPGLL,4611.963835,N,01258.215744,E,100415.00,A,A*67
$GPVTG,351.9,T,352.1,M,001.9,N,003.4,K,A*27
$GPGSV,2,1,07,21,17,186,42,02,27,049,35,12,33,104,40,25,67,094,40*70
$GPGSV,2,2,07,29,81,268,40,30,62,305,34,31,48,295,31,,,,*40
$GPGSA,M,3,21,12,25,29,,,,,,,,,14.4,9.2,11.0*38
Trace #93 at position 23.000000
$GPZDA,100414.03,08,10,2011,00,00*6E
$GPRMC,100414.00,A,4611.963251,N,01258.215961,E,002.0,339.2,081011,0.2,E,A*39
$GPGGA,100415.00,4611.963835,N,01258.215744,E,1,04,9.2,138.29,M,46.25,M,,*69
$GPGLL,4611.963835,N,01258.215744,E,100415.00,A,A*67
$GPVTG,351.9,T,352.1,M,001.9,N,003.4,K,A*27
$GPGSV,2,1,07,21,17,186,42,02,27,049,35,12,33,104,40,25,67,094,40*70
$GPGSV,2,2,07,29,81,268,40,30,62,305,34,31,48,295,31,,,,*40
$GPGSA,M,3,21,12,25,29,,,,,,,,,14.4,9.2,11.0*38
Trace #94 at position 23.250000
$GPZDA,100414.03,08,10,2011,00,00*6E
$GPRMC,100414.00,A,4611.963251,N,01258.215961,E,002.0,339.2,081011,0.2,E,A*39
$GPGGA,100415.00,4611.963835,N,01258.215744,E,1,04,9.2,138.29,M,46.25,M,,*69
$GPGLL,4611.963835,N,01258.215744,E,100415.00,A,A*67
$GPVTG,351.9,T,352.1,M,001.9,N,003.4,K,A*27
$GPGSV,2,1,07,21,17,186,42,02,27,049,35,12,33,104,40,25,67,094,40*70
$GPGSV,2,2,07,29,81,268,40,30,62,305,34,31,48,295,31,,,,*40
$GPGSA,M,3,21,12,25,29,,,,,,,,,14.4,9.2,11.0*38
Trace #95 at position 23.500000
$GPZDA,100414.03,08,10,2011,00,00*6E
$GPRMC,100414.00,A,4611.963251,N,01258.215961,E,002.0,339.2,081011,0.2,E,A*39
$GPGGA,100415.00,4611.963835,N,01258.215744,E,1,04,9.2,138.29,M,46.25,M,,*69
$GPGLL,4611.963835,N,01258.215744,E,100415.00,A,A*67
$GPVTG,351.9,T,352.1,M,001.9,N,003.4,K,A*27
$GPGSV,2,1,07,21,17,186,42,02,27,049,35,12,33,104,40,25,67,094,40*70
$GPGSV,2,2,07,29,81,268,40,30,62,305,34,31,48,295,31,,,,*40
$GPGSA,M,3,21,12,25,29,,,,,,,,,14.4,9.2,11.0*38
Trace #96 at position 23.750000
$GPZDA,100415.03,08,10,2011,00,00*6F
$GPRMC,100415.00,A,4611.963835,N,01258.215744,E,001.9,351.9,081011,0.2,E,A*36
$GPGGA,100416.00,4611.964599,N,01258.215617,E,1,04,9.2,137.67,M,46.25,M,,*64
$GPGLL,4611.964599,N,01258.215617,E,100416.00,A,A*6F
$GPVTG,357.1,T,357.3,M,003.5,N,006.4,K,A*25
$GPGSV,2,1,07,21,17,186,40,02,27,049,36,12,33,104,40,25,67,094,40*71
$GPGSV,2,2,07,29,81,268,39,30,62,305,34,31,48,295,30,,,,*4F
$GPGSA,M,3,21,12,25,29,,,,,,,,,14.3,9.2,11.0*3F
Trace #97 at position 24.000000
$GPZDA,100415.03,08,10,2011,00,00*6F
$GPRMC,100415.00,A,4611.963835,N,01258.215744,E,001.9,351.9,081011,0.2,E,A*36
$GPGGA,100416.00,4611.964599,N,01258.215617,E,1,04,9.2,137.67,M,46.25,M,,*64
$GPGLL,4611.964599,N,01258.215617,E,100416.00,A,A*6F
$GPVTG,357.1,T,357.3,M,003.5,N,006.4,K,A*25
$GPGSV,2,1,07,21,17,186,40,02,27,049,36,12,33,104,40,25,67,094,40*71
$GPGSV,2,2,07,29,81,268,39,30,62,305,34,31,48,295,30,,,,*4F
$GPGSA,M,3,21,12,25,29,,,,,,,,,14.3,9.2,11.0*3F
Trace #98 at position 24.250000
$GPZDA,100415.03,08,10,2011,00,00*6F
$GPRMC,100415.00,A,4611.963835,N,01258.215744,E,001.9,351.9,081011,0.2,E,A*36
$GPGGA,100416.00,4611.964599,N,01258.215617,E,1,04,9.2,137.67,M,46.25,M,,*64
$GPGLL,4611.964599,N,01258.215617,E,100416.00,A,A*6F
$GPVTG,357.1,T,357.3,M,003.5,N,006.4,K,A*25
$GPGSV,2,1,07,21,17,186,40,02,27,049,36,12,33,104,40,25,67,094,40*71
$GPGSV,2,2,07,29,81,268,39,30,62,305,34,31,48,295,30,,,,*4F
$GPGSA,M,3,21,12,25,29,,,,,,,,,14.3,9.2,11.0*3F
Trace #99 at position 24.500000
$GPZDA,100416.03,08,10,2011,00,00*6C
$GPRMC,100416.00,A,4611.964599,N,01258.215617,E,003.5,357.1,081011,0.2,E,A*3E
$GPGGA,100417.00,4611.965303,N,01258.215398,E,1,04,9.2,137.19,M,46.25,M,,*6A
$GPGLL,4611.965303,N,01258.215398,E,100417.00,A,A*68
$GPVTG,335.4,T,335.5,M,001.9,N,003.5,K,A*2C
$GPGSV,2,1,07,21,17,186,41,02,27,049,34,12,33,104,40,25,67,094,40*72
$GPGSV,2,2,07,29,81,268,40,30,62,305,35,31,48,295,32,,,,*42
$GPGSA,M,3,21,12,25,29,,,,,,,,,14.3,9.2,11.0*3F
Trace #100 at position 24.750000
$GPZDA,100416.03,08,10,2011,00,00*6C
$GPRMC,100416.00,A,4611.964599,N,01258.215617,E,003.5,357.1,081011,0.2,E,A*3E
$GPGGA,100417.00,4611.965303,N,01258.215398,E,1,04,9.2,137.19,M,46.25,M,,*6A
$GPGLL,4611.965303,N,01258.215398,E,100417.00,A,A*68
$GPVTG,335.4,T,335.5,M,001.9,N,003.5,K,A*2C
$GPGSV,2,1,07,21,17,186,41,02,27,049,34,12,33,104,40,25,67,094,40*72
$GPGSV,2,2,07,29,81,268,40,30,62,305,35,31,48,295,32,,,,*42
$GPGSA,M,3,21,12,25,29,,,,,,,,,14.3,9.2,11.0*3F
Trace #101 at position 25.000000
$GPZDA,100419.03,08,10,2011,00,00*63
$GPRMC,100419.00,A,4611.966124,N,01258.215100,E,001.3,344.9,081011,0.2,E,A*3E
$GPGGA,100420.00,4611.966321,N,01258.214975,E,1,04,9.2,137.25,M,46.25,M,,*6A
$GPGLL,4611.966321,N,01258.214975,E,100420.00,A,A*67
$GPVTG,337.3,T,337.5,M,000.5,N,000.8,K,A*28
$GPGSV,2,1,07,21,18,186,39,02,27,049,,12,33,104,40,25,67,094,41*74
$GPGSV,2,2,07,29,81,268,38,30,62,305,32,31,48,295,24,,,,*4D
$GPGSA,M,3,21,12,25,29,,,,,,,,,14.3,9.2,11.0*3F
Trace #102 at position 25.250000
$GPZDA,100419.03,08,10,2011,00,00*63
$GPRMC,100419.00,A,4611.966124,N,01258.215100,E,001.3,344.9,081011,0.2,E,A*3E
$GPGGA,100420.00,4611.966321,N,01258.214975,E,1,04,9.2,137.25,M,46.25,M,,*6A
$GPGLL,4611.966321,N,01258.214975,E,100420.00,A,A*67
$GPVTG,337.3,T,337.5,M,000.5,N,000.8,K,A*28
$GPGSV,2,1,07,21,18,186,39,02,27,049,,12,33,104,40,25,67,094,41*74
$GPGSV,2,2,07,29,81,268,38,30,62,305,32,31,48,295,24,,,,*4D
$GPGSA,M,3,21,12,25,29,,,,,,,,,14.3,9.2,11.0*3F
Trace #103 at position 25.500000
$GPZDA,100420.03,08,10,2011,00,00*69
$GPRMC,100420.00,A,4611.966321,N,01258.214975,E,000.5,337.3,081011,0.2,E,A*31
$GPGGA,100421.00,4611.966337,N,01258.214931,E,1,04,9.2,137.12,M,46.25,M,,*68
$GPGLL,4611.966337,N,01258.214931,E,100421.00,A,A*61
$GPVTG,157.2,T,157.4,M,000.1,N,000.2,K,A*26
$GPGSV,2,1,07,21,18,186,37,02,27,049,,12,33,104,41,25,67,094,41*7B
$GPGSV,2,2,07,29,81,268,38,30,62,305,31,31,48,295,,,,,*48
$GPGSA,M,3,21,12,25,29,,,,,,,,,14.3,9.2,11.0*3F
Trace #104 at position 25.750000
$GPZDA,100420.03,08,10,2011,00,00*69
$GPRMC,100420.00,A,4611.966321,N,01258.214975,E,000.5,337.3,081011,0.2,E,A*31
$GPGGA,100421.00,4611.966337,N,01258.214931,E,1,04,9.2,137.12,M,46.25,M,,*68
$GPGLL,4611.966337,N,01258.214931,E,100421.00,A,A*61
$GPVTG,157.2,T,157.4,M,000.1,N,000.2,K,A*26
$GPGSV,2,1,07,21,18,186,37,02,27,049,,12,33,104,41,25,67,094,41*7B
$GPGSV,2,2,07,29,81,268,38,30,62,305,31,31,48,295,,,,,*48
$GPGSA,M,3,21,12,25,29,,,,,,,,,14.3,9.2,11.0*3F
Trace #105 at position 26.000000
$GPZDA,100420.03,08,10,2011,00,00*69
$GPRMC,100420.00,A,4611.966321,N,01258.214975,E,000.5,337.3,081011,0.2,E,A*31
$GPGGA,100421.00,4611.966337,N,01258.214931,E,1,04,9.2,137.12,M,46.25,M,,*68
$GPGLL,4611.966337,N,01258.214931,E,100421.00,A,A*61
$GPVTG,157.2,T,157.4,M,000.1,N,000.2,K,A*26
$GPGSV,2,1,07,21,18,186,37,02,27,049,,12,33,104,41,25,67,094,41*7B
$GPGSV,2,2,07,29,81,268,38,30,62,305,31,31,48,295,,,,,*48
$GPGSA,M,3,21,12,25,29,,,,,,,,,14.3,9.2,11.0*3F
Trace #106 at position 26.250000
$GPZDA,100421.03,08,10,2011,00,00*68
$GPRMC,100421.00,A,4611.966337,N,01258.214931,E,000.1,157.2,081011,0.2,E,A*36
$GPGGA,100422.00,4611.966548,N,01258.214751,E,1,04,9.2,137.00,M,46.25,M,,*6E
$GPGLL,4611.966548,N,01258.214751,E,100422.00,A,A*64
$GPVTG,334.2,T,334.3,M,002.0,N,003.8,K,A*2B
$GPGSV,2,1,07,21,18,186,39,02,27,049,,12,33,104,41,25,67,094,42*76
$GPGSV,2,2,07,29,81,268,40,30,62,305,37,31,48,294,,,,,*40
$GPGSA,M,3,21,12,25,29,,,,,,,,,14.3,9.2,11.0*3F
Trace #107 at position 26.500000
$GPZDA,100421.03,08,10,2011,00,00*68
$GPRMC,100421.00,A,4611.966337,N,01258.214931,E,000.1,157.2,081011,0.2,E,A*36
$GPGGA,100422.00,4611.966548,N,01258.214751,E,1,04,9.2,137.00,M,46.25,M,,*6E
$GPGLL,4611.966548,N,01258.214751,E,100422.00,A,A*64
$GPVTG,334.2,T,334.3,M,002.0,N,003.8,K,A*2B
$GPGSV,2,1,07,21,18,186,39,02,27,049,,12,33,104,41,25,67,094,42*76
$GPGSV,2,2,07,29,81,268,40,30,62,305,37,31,48,294,,,,,*40
$GPGSA,M,3,21,12,25,29,,,,,,,,,14.3,9.2,11.0*3F
Trace #108 at position 26.750000
$GPZDA,100421.03,08,10,2011,00,00*68
$GPRMC,100421.00,A,4611.966337,N,01258.214931,E,000.1,157.2,081011,0.2,E,A*36
$GPGGA,100422.00,4611.966548,N,01258.214751,E,1,04,9.2,137.00,M,46.25,M,,*6E
$GPGLL,4611.966548,N,01258.214751,E,100422.00,A,A*64
$GPVTG,334.2,T,334.3,M,002.0,N,003.8,K,A*2B
$GPGSV,2,1,07,21,18,186,39,02,27,049,,12,33,104,41,25,67,094,42*76
$GPGSV,2,2,07,29,81,268,40,30,62,305,37,31,48,294,,,,,*40
$GPGSA,M,3,21,12,25,29,,,,,,,,,14.3,9.2,11.0*3F
Trace #109 at position 27.000000
$GPZDA,100421.03,08,10,2011,00,00*68
$GPRMC,100421.00,A,4611.966337,N,01258.214931,E,000.1,157.2,081011,0.2,E,A*36
$GPGGA,100422.00,4611.966548,N,01258.214751,E,1,04,9.2,137.00,M,46.25,M,,*6E
$GPGLL,4611.966548,N,01258.214751,E,100422.00,A,A*64
$GPVTG,334.2,T,334.3,M,002.0,N,003.8,K,A*2B
$GPGSV,2,1,07,21,18,186,39,02,27,049,,12,33,104,41,25,67,094,42*76
$GPGSV,2,2,07,29,81,268,40,30,62,305,37,31,48,294,,,,,*40
$GPGSA,M,3,21,12,25,29,,,,,,,,,14.3,9.2,11.0*3F
Trace #110 at position 27.250000
$GPZDA,100422.03,08,10,2011,00,00*6B
$GPRMC,100422.00,A,4611.966548,N,01258.214751,E,002.0,334.2,081011,0.2,E,A*37
$GPGGA,100423.00,4611.967085,N,01258.214358,E,1,04,9.2,136.77,M,46.25,M,,*66
$GPGLL,4611.967085,N,01258.214358,E,100423.00,A,A*6D
$GPVTG,333.7,T,333.9,M,002.7,N,005.0,K,A*2D
$GPGSV,2,1,07,21,18,186,41,02,27,049,,12,33,104,41,25,67,094,42*79
$GPGSV,2,2,07,29,81,268,41,30,62,305,37,31,48,294,,,,,*41
$GPGSA,M,3,21,12,25,29,,,,,,,,,14.3,9.2,11.0*3F
Trace #111 at position 27.500000
$GPZDA,100422.03,08,10,2011,00,00*6B
$GPRMC,100422.00,A,4611.966548,N,01258.214751,E,002.0,334.2,081011,0.2,E,A*37
$GPGGA,100423.00,4611.967085,N,01258.214358,E,1,04,9.2,136.77,M,46.25,M,,*66
$GPGLL,4611.967085,N,01258.214358,E,100423.00,A,A*6D
$GPVTG,333.7,T,333.9,M,002.7,N,005.0,K,A*2D
$GPGSV,2,1,07,21,18,186,41,02,27,049,,12,33,104,41,25,67,094,42*79
$GPGSV,2,2,07,29,81,268,41,30,62,305,37,31,48,294,,,,,*41
$GPGSA,M,3,21,12,25,29,,,,,,,,,14.3,9.2,11.0*3F
Trace #112 at position 27.750000
$GPZDA,100422.03,08,10,2011,00,00*6B
$GPRMC,100422.00,A,4611.966548,N,01258.214751,E,002.0,334.2,081011,0.2,E,A*37
$GPGGA,100423.00,4611.967085,N,01258.214358,E,1,04,9.2,136.77,M,46.25,M,,*66
$GPGLL,4611.967085,N,01258.214358,E,100423.00,A,A*6D
$GPVTG,333.7,T,333.9,M,002.7,N,005.0,K,A*2D
$GPGSV,2,1,07,21,18,186,41,02,27,049,,12,33,104,41,25,67,094,42*79
$GPGSV,2,2,07,29,81,268,41,30,62,305,37,31,48,294,,,,,*41
$GPGSA,M,3,21,12,25,29,,,,,,,,,14.3,9.2,11.0*3F
Trace #113 at position 28.000000
$GPZDA,100422.03,08,10,2011,00,00*6B
$GPRMC,100422.00,A,4611.966548,N,01258.214751,E,002.0,334.2,081011,0.2,E,A*37
$GPGGA,100423.00,4611.967085,N,01258.214358,E,1,04,9.2,136.77,M,46.25,M,,*66
$GPGLL,4611.967085,N,01258.214358,E,100423.00,A,A*6D
$GPVTG,333.7,T,333.9,M,002.7,N,005.0,K,A*2D
$GPGSV,2,1,07,21,18,186,41,02,27,049,,12,33,104,41,25,67,094,42*79
$GPGSV,2,2,07,29,81,268,41,30,62,305,37,31,48,294,,,,,*41
$GPGSA,M,3,21,12,25,29,,,,,,,,,14.3,9.2,11.0*3F
Trace #114 at position 28.250000
$GPZDA,100423.03,08,10,2011,00,00*6A
$GPRMC,100423.00,A,4611.967085,N,01258.214358,E,002.7,333.7,081011,0.2,E,A*3B
$GPGGA,100424.00,4611.967532,N,01258.214050,E,1,04,9.1,136.96,M,46.25,M,,*6F
$GPGLL,4611.967532,N,01258.214050,E,100424.00,A,A*68
$GPVTG,335.3,T,335.4,M,001.3,N,002.4,K,A*20
$GPGSV,2,1,07,21,18,186,41,02,27,049,34,12,33,104,39,25,67,094,42*71
$GPGSV,2,2,07,29,81,268,40,30,62,305,37,31,48,294,,,,,*40
$GPGSA,M,3,21,12,25,29,,,,,,,,,14.3,9.1,10.9*34
Trace #115 at position 28.500000
$GPZDA,100423.03,08,10,2011,00,00*6A
$GPRMC,100423.00,A,4611.967085,N,01258.214358,E,002.7,333.7,081011,0.2,E,A*3B
$GPGGA,100424.00,4611.967532,N,01258.214050,E,1,04,9.1,136.96,M,46.25,M,,*6F
$GPGLL,4611.967532,N,01258.214050,E,100424.00,A,A*68
$GPVTG,335.3,T,335.4,M,001.3,N,002.4,K,A*20
$GPGSV,2,1,07,21,18,186,41,02,27,049,34,12,33,104,39,25,67,094,42*71
$GPGSV,2,2,07,29,81,268,40,30,62,305,37,31,48,294,,,,,*40
$GPGSA,M,3,21,12,25,29,,,,,,,,,14.3,9.1,10.9*34
Trace #116 at position 28.750000
$GPZDA,100423.03,08,10,2011,00,00*6A
$GPRMC,100423.00,A,4611.967085,N,01258.214358,E,002.7,333.7,081011,0.2,E,A*3B
$GPGGA,100424.00,4611.967532,N,01258.214050,E,1,04,9.1,136.96,M,46.25,M,,*6F
$GPGLL,4611.967532,N,01258.214050,E,100424.00,A,A*68
$GPVTG,335.3,T,335.4,M,001.3,N,002.4,K,A*20
$GPGSV,2,1,07,21,18,186,41,02,27,049,34,12,33,104,39,25,67,094,42*71
$GPGSV,2,2,07,29,81,268,40,30,62,305,37,31,48,294,,,,,*40
$GPGSA,M,3,21,12,25,29,,,,,,,,,14.3,9.1,10.9*34
Trace #117 at position 29.000000
$GPZDA,100424.03,08,10,2011,00,00*6D
$GPRMC,100424.00,A,4611.967532,N,01258.214050,E,001.3,335.3,081011,0.2,E,A*3B
$GPGGA,100425.00,4611.967828,N,01258.213896,E,1,04,9.1,137.31,M,46.25,M,,*61
$GPGLL,4611.967828,N,01258.213896,E,100425.00,A,A*6A
$GPVTG,341.2,T,341.3,M,001.2,N,002.2,K,A*21
$GPGSV,2,1,07,21,18,186,42,02,27,049,33,12,33,104,40,25,67,094,41*78
$GPGSV,2,2,07,29,81,268,40,30,62,305,35,31,48,294,31,,,,*40
$GPGSA,M,3,21,12,25,29,,,,,,,,,14.3,9.1,10.9*34
Trace #118 at position 29.250000
$GPZDA,100424.03,08,10,2011,00,00*6D
