Trace #1 at position 0.000000
$GPZDA,095443.03,08,10,2011,00,00*61
$GPRMC,095443.00,A,4611.951927,N,01258.220179,E,000.1,280.3,081011,0.2,E,A*3B
$GPGGA,095444.00,4611.951924,N,01258.220166,E,1,04,3.8,139.13,M,46.25,M,,*68
$GPGLL,4611.951924,N,01258.220166,E,095444.00,A,A*6E
$GPVTG,183.8,T,184.0,M,000.1,N,000.2,K,A*2F
$GPGSV,2,1,06,02,29,052,38,12,36,101,42,25,71,086,45,29,77,252,42*7F
$GPGSV,2,2,06,30,58,303,,31,45,299,,,,,,,,,*70
$GPGSA,M,3,02,12,25,29,,,,,,,,,7.0,3.8,5.9*33
Trace #2 at position 0.250000
$GPZDA,095448.03,08,10,2011,00,00*6A
$GPRMC,095448.00,A,4611.951946,N,01258.220168,E,000.1,80.0,081011,0.2,E,A*06
$GPGGA,095449.00,4611.951962,N,01258.220198,E,1,04,3.8,139.17,M,46.25,M,,*62
$GPGLL,4611.951962,N,01258.220198,E,095449.00,A,A*60
$GPVTG,47.3,T,47.5,M,000.1,N,000.2,K,A*26
$GPGSV,2,1,06,02,29,052,39,12,36,101,44,25,71,086,46,29,78,252,41*77
$GPGSV,2,2,06,30,58,303,32,31,45,299,,,,,,,,,*71
$GPGSA,M,3,02,12,25,29,,,,,,,,,7.0,3.8,5.9*33
Trace #3 at position 0.500000
$GPZDA,095449.03,08,10,2011,00,00*6B
$GPRMC,095449.00,A,4611.951962,N,01258.220198,E,000.1,47.3,081011,0.2,E,A*06
$GPGGA,095450.00,4611.952028,N,01258.220189,E,1,04,3.8,139.19,M,46.25,M,,*60
$GPGLL,4611.952028,N,01258.220189,E,095450.00,A,A*6C
$GPVTG,353.9,T,354.1,M,000.4,N,000.8,K,A*20
$GPGSV,2,1,06,02,29,052,38,12,36,101,44,25,71,086,46,29,78,252,43*74
$GPGSV,2,2,06,30,58,303,38,31,45,299,,,,,,,,,*7B
$GPGSA,M,3,02,12,25,29,,,,,,,,,7.0,3.8,5.9*33
Trace #4 at position 0.750000
$GPZDA,095450.03,08,10,2011,00,00*63
$GPRMC,095450.00,A,4611.952028,N,01258.220189,E,000.4,353.9,081011,0.2,E,A*33
$GPGGA,095451.00,4611.952199,N,01258.220122,E,1,04,3.8,139.20,M,46.25,M,,*61
$GPGLL,4611.952199,N,01258.220122,E,095451.00,A,A*67
$GPVTG,345.0,T,345.1,M,000.8,N,001.6,K,A*2D
$GPGSV,2,1,06,02,29,052,38,12,36,101,43,25,71,086,45,29,78,252,43*70
$GPGSV,2,2,06,30,58,303,37,31,45,299,,,,,,,,,*74
$GPGSA,M,3,02,12,25,29,,,,,,,,,7.0,3.8,5.9*33
Trace #5 at position 1.000000
$GPZDA,095450.03,08,10,2011,00,00*63
$GPRMC,095450.00,A,4611.952028,N,01258.220189,E,000.4,353.9,081011,0.2,E,A*33
$GPGGA,095451.00,4611.952199,N,01258.220122,E,1,04,3.8,139.20,M,46.25,M,,*61
$GPGLL,4611.952199,N,01258.220122,E,095451.00,A,A*67
$GPVTG,345.0,T,345.1,M,000.8,N,001.6,K,A*2D
$GPGSV,2,1,06,02,29,052,38,12,36,101,43,25,71,086,45,29,78,252,43*70
$GPGSV,2,2,06,30,58,303,37,31,45,299,,,,,,,,,*74
$GPGSA,M,3,02,12,25,29,,,,,,,,,7.0,3.8,5.9*33
Trace #6 at position 1.250000
$GPZDA,095451.03,08,10,2011,00,00*62
$GPRMC,095451.00,A,4611.952199,N,01258.220122,E,000.8,345.0,081011,0.2,E,A*3A
$GPGGA,095452.00,4611.952393,N,01258.220016,E,1,04,3.8,139.17,M,46.25,M,,*68
$GPGLL,4611.952393,N,01258.220016,E,095452.00,A,A*6A
$GPVTG,336.1,T,336.3,M,000.7,N,001.3,K,A*24
$GPGSV,2,1,06,02,29,052,39,12,36,101,43,25,71,086,47,29,78,252,43*73
$GPGSV,2,2,06,30,58,303,37,31,45,299,,,,,,,,,*74
$GPGSA,M,3,02,12,25,29,,,,,,,,,7.0,3.8,5.9*33
Trace #7 at position 1.500000
$GPZDA,095451.03,08,10,2011,00,00*62
$GPRMC,095451.00,A,4611.952199,N,01258.220122,E,000.8,345.0,081011,0.2,E,A*3A
$GPGGA,095452.00,4611.952393,N,01258.220016,E,1,04,3.8,139.17,M,46.25,M,,*68
$GPGLL,4611.952393,N,01258.220016,E,095452.00,A,A*6A
$GPVTG,336.1,T,336.3,M,000.7,N,001.3,K,A*24
$GPGSV,2,1,06,02,29,052,39,12,36,101,43,25,71,086,47,29,78,252,43*73
$GPGSV,2,2,06,30,58,303,37,31,45,299,,,,,,,,,*74
$GPGSA,M,3,02,12,25,29,,,,,,,,,7.0,3.8,5.9*33
Trace #8 at position 1.750000
$GPZDA,095452.03,08,10,2011,00,00*61
$GPRMC,095452.00,A,4611.952393,N,01258.220016,E,000.7,336.1,081011,0.2,E,A*3D
$GPGGA,095453.00,4611.952630,N,01258.219815,E,1,04,3.8,139.12,M,46.25,M,,*61
$GPGLL,4611.952630,N,01258.219815,E,095453.00,A,A*66
$GPVTG,327.3,T,327.4,M,001.3,N,002.5,K,A*21
$GPGSV,2,1,06,02,29,052,39,12,36,101,42,25,71,086,47,29,78,252,41*70
$GPGSV,2,2,06,30,58,303,38,31,46,299,,,,,,,,,*78
$GPGSA,M,3,02,12,25,29,,,,,,,,,7.0,3.8,5.9*33
Trace #9 at position 2.000000
$GPZDA,095452.03,08,10,2011,00,00*61
$GPRMC,095452.00,A,4611.952393,N,01258.220016,E,000.7,336.1,081011,0.2,E,A*3D
$GPGGA,095453.00,4611.952630,N,01258.219815,E,1,04,3.8,139.12,M,46.25,M,,*61
$GPGLL,4611.952630,N,01258.219815,E,095453.00,A,A*66
$GPVTG,327.3,T,327.4,M,001.3,N,002.5,K,A*21
$GPGSV,2,1,06,02,29,052,39,12,36,101,42,25,71,086,47,29,78,252,41*70
$GPGSV,2,2,06,30,58,303,38,31,46,299,,,,,,,,,*78
$GPGSA,M,3,02,12,25,29,,,,,,,,,7.0,3.8,5.9*33
Trace #10 at position 2.250000
$GPZDA,095453.03,08,10,2011,00,00*60
$GPRMC,095453.00,A,4611.952630,N,01258.219815,E,001.3,327.3,081011,0.2,E,A*36
$GPGGA,095454.00,4611.952861,N,01258.219482,E,1,04,3.8,139.17,M,46.25,M,,*6B
$GPGLL,4611.952861,N,01258.219482,E,095454.00,A,A*69
$GPVTG,296.4,T,296.6,M,001.2,N,002.2,K,A*22
$GPGSV,2,1,06,02,29,052,38,12,36,101,42,25,71,086,43,29,78,252,41*75
$GPGSV,2,2,06,30,58,303,38,31,46,299,,,,,,,,,*78
$GPGSA,M,3,02,12,25,29,,,,,,,,,7.0,3.8,5.9*33
Trace #11 at position 2.500000
$GPZDA,095453.03,08,10,2011,00,00*60
$GPRMC,095453.00,A,4611.952630,N,01258.219815,E,001.3,327.3,081011,0.2,E,A*36
$GPGGA,095454.00,4611.952861,N,01258.219482,E,1,04,3.8,139.17,M,46.25,M,,*6B
$GPGLL,4611.952861,N,01258.219482,E,095454.00,A,A*69
$GPVTG,296.4,T,296.6,M,001.2,N,002.2,K,A*22
$GPGSV,2,1,06,02,29,052,38,12,36,101,42,25,71,086,43,29,78,252,41*75
$GPGSV,2,2,06,30,58,303,38,31,46,299,,,,,,,,,*78
$GPGSA,M,3,02,12,25,29,,,,,,,,,7.0,3.8,5.9*33
Trace #12 at position 2.750000
$GPZDA,095454.03,08,10,2011,00,00*67
$GPRMC,095454.00,A,4611.952861,N,01258.219482,E,001.2,296.4,081011,0.2,E,A*34
$GPGGA,095455.00,4611.953128,N,01258.219192,E,1,04,3.8,138.99,M,46.25,M,,*6C
$GPGLL,4611.953128,N,01258.219192,E,095455.00,A,A*69
$GPVTG,337.8,T,338.0,M,001.5,N,002.7,K,A*25
$GPGSV,2,1,06,02,29,052,39,12,36,101,42,25,71,086,44,29,78,252,41*73
$GPGSV,2,2,06,30,58,303,35,31,46,299,,,,,,,,,*75
$GPGSA,M,3,02,12,25,29,,,,,,,,,7.0,3.8,5.9*33
Trace #13 at position 3.000000
$GPZDA,095454.03,08,10,2011,00,00*67
$GPRMC,095454.00,A,4611.952861,N,01258.219482,E,001.2,296.4,081011,0.2,E,A*34
$GPGGA,095455.00,4611.953128,N,01258.219192,E,1,04,3.8,138.99,M,46.25,M,,*6C
$GPGLL,4611.953128,N,01258.219192,E,095455.00,A,A*69
$GPVTG,337.8,T,338.0,M,001.5,N,002.7,K,A*25
$GPGSV,2,1,06,02,29,052,39,12,36,101,42,25,71,086,44,29,78,252,41*73
$GPGSV,2,2,06,30,58,303,35,31,46,299,,,,,,,,,*75
$GPGSA,M,3,02,12,25,29,,,,,,,,,7.0,3.8,5.9*33
Trace #14 at position 3.250000
$GPZDA,095454.03,08,10,2011,00,00*67
$GPRMC,095454.00,A,4611.952861,N,01258.219482,E,001.2,296.4,081011,0.2,E,A*34
$GPGGA,095455.00,4611.953128,N,01258.219192,E,1,04,3.8,138.99,M,46.25,M,,*6C
$GPGLL,4611.953128,N,01258.219192,E,095455.00,A,A*69
$GPVTG,337.8,T,338.0,M,001.5,N,002.7,K,A*25
$GPGSV,2,1,06,02,29,052,39,12,36,101,42,25,71,086,44,29,78,252,41*73
$GPGSV,2,2,06,30,58,303,35,31,46,299,,,,,,,,,*75
$GPGSA,M,3,02,12,25,29,,,,,,,,,7.0,3.8,5.9*33
Trace #15 at position 3.500000
$GPZDA,095455.03,08,10,2011,00,00*66
$GPRMC,095455.00,A,4611.953128,N,01258.219192,E,001.5,337.8,081011,0.2,E,A*35
$GPGGA,095456.00,4611.953450,N,01258.219127,E,1,04,3.8,138.87,M,46.25,M,,*64
$GPGLL,4611.953450,N,01258.219127,E,095456.00,A,A*6E
$GPVTG,3.3,T,3.5,M,001.0,N,001.8,K,A*2D
$GPGSV,2,1,06,02,29,052,39,12,36,101,41,25,71,086,41,29,78,252,40*74
$GPGSV,2,2,06,30,58,303,35,31,46,299,,,,,,,,,*75
$GPGSA,M,3,02,12,25,29,,,,,,,,,7.0,3.8,5.9*33
Trace #16 at position 3.750000
$GPZDA,095455.03,08,10,2011,00,00*66
$GPRMC,095455.00,A,4611.953128,N,01258.219192,E,001.5,337.8,081011,0.2,E,A*35
$GPGGA,095456.00,4611.953450,N,01258.219127,E,1,04,3.8,138.87,M,46.25,M,,*64
$GPGLL,4611.953450,N,01258.219127,E,095456.00,A,A*6E
$GPVTG,3.3,T,3.5,M,001.0,N,001.8,K,A*2D
$GPGSV,2,1,06,02,29,052,39,12,36,101,41,25,71,086,41,29,78,252,40*74
$GPGSV,2,2,06,30,58,303,35,31,46,299,,,,,,,,,*75
$GPGSA,M,3,02,12,25,29,,,,,,,,,7.0,3.8,5.9*33
Trace #17 at position 4.000000
$GPZDA,095456.03,08,10,2011,00,00*65
$GPRMC,095456.00,A,4611.953450,N,01258.219127,E,001.0,3.3,081011,0.2,E,A*38
$GPGGA,095457.00,4611.953782,N,01258.219075,E,1,04,3.8,138.94,M,46.25,M,,*6D
$GPGLL,4611.953782,N,01258.219075,E,095457.00,A,A*65
$GPVTG,343.7,T,343.8,M,001.5,N,002.8,K,A*22
$GPGSV,2,1,06,02,29,052,40,12,36,101,41,25,71,086,41,29,78,252,41*7B
$GPGSV,2,2,06,30,58,303,35,31,46,299,,,,,,,,,*75
$GPGSA,M,3,02,12,25,29,,,,,,,,,7.0,3.8,5.9*33
Trace #18 at position 4.250000
$GPZDA,095456.03,08,10,2011,00,00*65
$GPRMC,095456.00,A,4611.953450,N,01258.219127,E,001.0,3.3,081011,0.2,E,A*38
$GPGGA,095457.00,4611.953782,N,01258.219075,E,1,04,3.8,138.94,M,46.25,M,,*6D
$GPGLL,4611.953782,N,01258.219075,E,095457.00,A,A*65
$GPVTG,343.7,T,343.8,M,001.5,N,002.8,K,A*22
$GPGSV,2,1,06,02,29,052,40,12,36,101,41,25,71,086,41,29,78,252,41*7B
$GPGSV,2,2,06,30,58,303,35,31,46,299,,,,,,,,,*75
$GPGSA,M,3,02,12,25,29,,,,,,,,,7.0,3.8,5.9*33
Trace #19 at position 4.500000
$GPZDA,095456.03,08,10,2011,00,00*65
$GPRMC,095456.00,A,4611.953450,N,01258.219127,E,001.0,3.3,081011,0.2,E,A*38
$GPGGA,095457.00,4611.953782,N,01258.219075,E,1,04,3.8,138.94,M,46.25,M,,*6D
$GPGLL,4611.953782,N,01258.219075,E,095457.00,A,A*65
$GPVTG,343.7,T,343.8,M,001.5,N,002.8,K,A*22
$GPGSV,2,1,06,02,29,052,40,12,36,101,41,25,71,086,41,29,78,252,41*7B
$GPGSV,2,2,06,30,58,303,35,31,46,299,,,,,,,,,*75
$GPGSA,M,3,02,12,25,29,,,,,,,,,7.0,3.8,5.9*33
Trace #20 at position 4.750000
$GPZDA,095457.03,08,10,2011,00,00*64
$GPRMC,095457.00,A,4611.953782,N,01258.219075,E,001.5,343.7,081011,0.2,E,A*35
$GPGGA,095458.00,4611.954140,N,01258.218903,E,1,04,3.8,138.96,M,46.25,M,,*66
$GPGLL,4611.954140,N,01258.218903,E,095458.00,A,A*6C
$GPVTG,333.4,T,333.5,M,001.3,N,002.4,K,A*26
$GPGSV,2,1,06,02,29,052,40,12,36,101,40,25,71,086,40,29,78,252,42*78
$GPGSV,2,2,06,30,58,303,35,31,46,299,,,,,,,,,*75
$GPGSA,M,3,02,12,25,29,,,,,,,,,7.0,3.8,5.9*33
Trace #21 at position 5.000000
$GPZDA,095457.03,08,10,2011,00,00*64
$GPRMC,095457.00,A,4611.953782,N,01258.219075,E,001.5,343.7,081011,0.2,E,A*35
$GPGGA,095458.00,4611.954140,N,01258.218903,E,1,04,3.8,138.96,M,46.25,M,,*66
$GPGLL,4611.954140,N,01258.218903,E,095458.00,A,A*6C
$GPVTG,333.4,T,333.5,M,001.3,N,002.4,K,A*26
$GPGSV,2,1,06,02,29,052,40,12,36,101,40,25,71,086,40,29,78,252,42*78
$GPGSV,2,2,06,30,58,303,35,31,46,299,,,,,,,,,*75
$GPGSA,M,3,02,12,25,29,,,,,,,,,7.0,3.8,5.9*33
Trace #22 at position 5.250000
$GPZDA,095457.03,08,10,2011,00,00*64
$GPRMC,095457.00,A,4611.953782,N,01258.219075,E,001.5,343.7,081011,0.2,E,A*35
$GPGGA,095458.00,4611.954140,N,01258.218903,E,1,04,3.8,138.96,M,46.25,M,,*66
$GPGLL,4611.954140,N,01258.218903,E,095458.00,A,A*6C
$GPVTG,333.4,T,333.5,M,001.3,N,002.4,K,A*26
$GPGSV,2,1,06,02,29,052,40,12,36,101,40,25,71,086,40,29,78,252,42*78
$GPGSV,2,2,06,30,58,303,35,31,46,299,,,,,,,,,*75
$GPGSA,M,3,02,12,25,29,,,,,,,,,7.0,3.8,5.9*33
Trace #23 at position 5.500000
$GPZDA,095458.03,08,10,2011,00,00*6B
$GPRMC,095458.00,A,4611.954140,N,01258.218903,E,001.3,333.4,081011,0.2,E,A*3E
$GPGGA,095459.00,4611.954473,N,01258.218685,E,1,04,3.8,138.96,M,46.25,M,,*63
$GPGLL,4611.954473,N,01258.218685,E,095459.00,A,A*69
$GPVTG,330.1,T,330.3,M,001.4,N,002.6,K,A*20
$GPGSV,2,1,06,02,29,052,40,12,36,101,41,25,71,086,43,29,78,252,41*79
$GPGSV,2,2,06,30,58,303,36,31,46,299,,,,,,,,,*76
$GPGSA,M,3,02,12,25,29,,,,,,,,,7.0,3.8,5.9*33
Trace #24 at position 5.750000
$GPZDA,095458.03,08,10,2011,00,00*6B
$GPRMC,095458.00,A,4611.954140,N,01258.218903,E,001.3,333.4,081011,0.2,E,A*3E
$GPGGA,095459.00,4611.954473,N,01258.218685,E,1,04,3.8,138.96,M,46.25,M,,*63
$GPGLL,4611.954473,N,01258.218685,E,095459.00,A,A*69
$GPVTG,330.1,T,330.3,M,001.4,N,002.6,K,A*20
$GPGSV,2,1,06,02,29,052,40,12,36,101,41,25,71,086,43,29,78,252,41*79
$GPGSV,2,2,06,30,58,303,36,31,46,299,,,,,,,,,*76
$GPGSA,M,3,02,12,25,29,,,,,,,,,7.0,3.8,5.9*33
Trace #25 at position 6.000000
$GPZDA,095458.03,08,10,2011,00,00*6B
$GPRMC,095458.00,A,4611.954140,N,01258.218903,E,001.3,333.4,081011,0.2,E,A*3E
$GPGGA,095459.00,4611.954473,N,01258.218685,E,1,04,3.8,138.96,M,46.25,M,,*63
$GPGLL,4611.954473,N,01258.218685,E,095459.00,A,A*69
$GPVTG,330.1,T,330.3,M,001.4,N,002.6,K,A*20
$GPGSV,2,1,06,02,29,052,40,12,36,101,41,25,71,086,43,29,78,252,41*79
$GPGSV,2,2,06,30,58,303,36,31,46,299,,,,,,,,,*76
$GPGSA,M,3,02,12,25,29,,,,,,,,,7.0,3.8,5.9*33
Trace #26 at position 6.250000
$GPZDA,095459.03,08,10,2011,00,00*6A
$GPRMC,095459.00,A,4611.954473,N,01258.218685,E,001.4,330.1,081011,0.2,E,A*3A
$GPGGA,095500.00,4611.954822,N,01258.218497,E,1,04,3.8,138.77,M,46.25,M,,*68
$GPGLL,4611.954822,N,01258.218497,E,095500.00,A,A*6D
$GPVTG,340.3,T,340.4,M,001.4,N,002.6,K,A*25
$GPGSV,2,1,06,02,29,052,39,12,36,101,41,25,70,086,42,29,78,252,42*74
$GPGSV,2,2,06,30,58,303,35,31,46,299,32,,,,,,,,*74
$GPGSA,M,3,02,12,25,29,,,,,,,,,7.0,3.8,5.9*33
Trace #27 at position 6.500000
$GPZDA,095459.03,08,10,2011,00,00*6A
$GPRMC,095459.00,A,4611.954473,N,01258.218685,E,001.4,330.1,081011,0.2,E,A*3A
$GPGGA,095500.00,4611.954822,N,01258.218497,E,1,04,3.8,138.77,M,46.25,M,,*68
$GPGLL,4611.954822,N,01258.218497,E,095500.00,A,A*6D
$GPVTG,340.3,T,340.4,M,001.4,N,002.6,K,A*25
$GPGSV,2,1,06,02,29,052,39,12,36,101,41,25,70,086,42,29,78,252,42*74
$GPGSV,2,2,06,30,58,303,35,31,46,299,32,,,,,,,,*74
$GPGSA,M,3,02,12,25,29,,,,,,,,,7.0,3.8,5.9*33
Trace #28 at position 6.750000
$GPZDA,095459.03,08,10,2011,00,00*6A
$GPRMC,095459.00,A,4611.954473,N,01258.218685,E,001.4,330.1,081011,0.2,E,A*3A
$GPGGA,095500.00,4611.954822,N,01258.218497,E,1,04,3.8,138.77,M,46.25,M,,*68
$GPGLL,4611.954822,N,01258.218497,E,095500.00,A,A*6D
$GPVTG,340.3,T,340.4,M,001.4,N,002.6,K,A*25
$GPGSV,2,1,06,02,29,052,39,12,36,101,41,25,70,086,42,29,78,252,42*74
$GPGSV,2,2,06,30,58,303,35,31,46,299,32,,,,,,,,*74
$GPGSA,M,3,02,12,25,29,,,,,,,,,7.0,3.8,5.9*33
Trace #29 at position 7.000000
$GPZDA,095500.03,08,10,2011,00,00*67
$GPRMC,095500.00,A,4611.954822,N,01258.218497,E,001.4,340.3,081011,0.2,E,A*3B
$GPGGA,095501.00,4611.955218,N,01258.218372,E,1,04,3.8,138.65,M,46.25,M,,*64
$GPGLL,4611.955218,N,01258.218372,E,095501.00,A,A*62
$GPVTG,346.5,T,346.7,M,001.6,N,003.0,K,A*25
$GPGSV,2,1,06,02,29,052,39,12,36,101,40,25,70,086,43,29,78,252,42*74
$GPGSV,2,2,06,30,58,303,37,31,46,299,31,,,,,,,,*75
$GPGSA,M,3,02,12,25,29,,,,,,,,,7.0,3.8,5.9*33
Trace #30 at position 7.250000
$GPZDA,095500.03,08,10,2011,00,00*67
$GPRMC,095500.00,A,4611.954822,N,01258.218497,E,001.4,340.3,081011,0.2,E,A*3B
$GPGGA,095501.00,4611.955218,N,01258.218372,E,1,04,3.8,138.65,M,46.25,M,,*64
$GPGLL,4611.955218,N,01258.218372,E,095501.00,A,A*62
$GPVTG,346.5,T,346.7,M,001.6,N,003.0,K,A*25
$GPGSV,2,1,06,02,29,052,39,12,36,101,40,25,70,086,43,29,78,252,42*74
$GPGSV,2,2,06,30,58,303,37,31,46,299,31,,,,,,,,*75
$GPGSA,M,3,02,12,25,29,,,,,,,,,7.0,3.8,5.9*33
Trace #31 at position 7.500000
$GPZDA,095500.03,08,10,2011,00,00*67
$GPRMC,095500.00,A,4611.954822,N,01258.218497,E,001.4,340.3,081011,0.2,E,A*3B
$GPGGA,095501.00,4611.955218,N,01258.218372,E,1,04,3.8,138.65,M,46.25,M,,*64
$GPGLL,4611.955218,N,01258.218372,E,095501.00,A,A*62
$GPVTG,346.5,T,346.7,M,001.6,N,003.0,K,A*25
$GPGSV,2,1,06,02,29,052,39,12,36,101,40,25,70,086,43,29,78,252,42*74
$GPGSV,2,2,06,30,58,303,37,31,46,299,31,,,,,,,,*75
$GPGSA,M,3,02,12,25,29,,,,,,,,,7.0,3.8,5.9*33
Trace #32 at position 7.750000
$GPZDA,095501.03,08,10,2011,00,00*66
$GPRMC,095501.00,A,4611.955218,N,01258.218372,E,001.6,346.5,081011,0.2,E,A*36
$GPGGA,095502.00,4611.955655,N,01258.218288,E,1,04,3.8,138.88,M,46.25,M,,*6D
$GPGLL,4611.955655,N,01258.218288,E,095502.00,A,A*68
$GPVTG,354.4,T,354.5,M,001.6,N,003.0,K,A*26
$GPGSV,2,1,06,02,29,052,41,12,36,101,43,25,70,086,43,29,78,252,42*78
$GPGSV,2,2,06,30,58,303,34,31,46,299,30,,,,,,,,*77
$GPGSA,M,3,02,12,25,29,,,,,,,,,7.0,3.8,5.9*33
Trace #33 at position 8.000000
$GPZDA,095501.03,08,10,2011,00,00*66
$GPRMC,095501.00,A,4611.955218,N,01258.218372,E,001.6,346.5,081011,0.2,E,A*36
$GPGGA,095502.00,4611.955655,N,01258.218288,E,1,04,3.8,138.88,M,46.25,M,,*6D
$GPGLL,4611.955655,N,01258.218288,E,095502.00,A,A*68
$GPVTG,354.4,T,354.5,M,001.6,N,003.0,K,A*26
$GPGSV,2,1,06,02,29,052,41,12,36,101,43,25,70,086,43,29,78,252,42*78
$GPGSV,2,2,06,30,58,303,34,31,46,299,30,,,,,,,,*77
$GPGSA,M,3,02,12,25,29,,,,,,,,,7.0,3.8,5.9*33
Trace #34 at position 8.250000
$GPZDA,095501.03,08,10,2011,00,00*66
$GPRMC,095501.00,A,4611.955218,N,01258.218372,E,001.6,346.5,081011,0.2,E,A*36
$GPGGA,095502.00,4611.955655,N,01258.218288,E,1,04,3.8,138.88,M,46.25,M,,*6D
$GPGLL,4611.955655,N,01258.218288,E,095502.00,A,A*68
$GPVTG,354.4,T,354.5,M,001.6,N,003.0,K,A*26
$GPGSV,2,1,06,02,29,052,41,12,36,101,43,25,70,086,43,29,78,252,42*78
$GPGSV,2,2,06,30,58,303,34,31,46,299,30,,,,,,,,*77
$GPGSA,M,3,02,12,25,29,,,,,,,,,7.0,3.8,5.9*33
Trace #35 at position 8.500000
$GPZDA,095501.03,08,10,2011,00,00*66
$GPRMC,095501.00,A,4611.955218,N,01258.218372,E,001.6,346.5,081011,0.2,E,A*36
$GPGGA,095502.00,4611.955655,N,01258.218288,E,1,04,3.8,138.88,M,46.25,M,,*6D
$GPGLL,4611.955655,N,01258.218288,E,095502.00,A,A*68
$GPVTG,354.4,T,354.5,M,001.6,N,003.0,K,A*26
$GPGSV,2,1,06,02,29,052,41,12,36,101,43,25,70,086,43,29,78,252,42*78
$GPGSV,2,2,06,30,58,303,34,31,46,299,30,,,,,,,,*77
$GPGSA,M,3,02,12,25,29,,,,,,,,,7.0,3.8,5.9*33
Trace #36 at position 8.750000
$GPZDA,095502.03,08,10,2011,00,00*65
$GPRMC,095502.00,A,4611.955655,N,01258.218288,E,001.6,354.4,081011,0.2,E,A*3E
$GPGGA,095503.00,4611.956123,N,01258.218144,E,1,04,3.8,138.86,M,46.25,M,,*64
$GPGLL,4611.956123,N,01258.218144,E,095503.00,A,A*6F
$GPVTG,340.4,T,340.5,M,001.9,N,003.6,K,A*2F
$GPGSV,2,1,06,02,29,052,39,12,36,101,41,25,70,086,41,29,78,252,41*74
$GPGSV,2,2,06,30,58,303,33,31,46,299,,,,,,,,,*73
$GPGSA,M,3,02,12,25,29,,,,,,,,,7.0,3.8,5.9*33
Trace #37 at position 9.000000
$GPZDA,095502.03,08,10,2011,00,00*65
$GPRMC,095502.00,A,4611.955655,N,01258.218288,E,001.6,354.4,081011,0.2,E,A*3E
$GPGGA,095503.00,4611.956123,N,01258.218144,E,1,04,3.8,138.86,M,46.25,M,,*64
$GPGLL,4611.956123,N,01258.218144,E,095503.00,A,A*6F
$GPVTG,340.4,T,340.5,M,001.9,N,003.6,K,A*2F
$GPGSV,2,1,06,02,29,052,39,12,36,101,41,25,70,086,41,29,78,252,41*74
$GPGSV,2,2,06,30,58,303,33,31,46,299,,,,,,,,,*73
$GPGSA,M,3,02,12,25,29,,,,,,,,,7.0,3.8,5.9*33
Trace #38 at position 9.250000
$GPZDA,095502.03,08,10,2011,00,00*65
$GPRMC,095502.00,A,4611.955655,N,01258.218288,E,001.6,354.4,081011,0.2,E,A*3E
$GPGGA,095503.00,4611.956123,N,01258.218144,E,1,04,3.8,138.86,M,46.25,M,,*64
$GPGLL,4611.956123,N,01258.218144,E,095503.00,A,A*6F
$GPVTG,340.4,T,340.5,M,001.9,N,003.6,K,A*2F
$GPGSV,2,1,06,02,29,052,39,12,36,101,41,25,70,086,41,29,78,252,41*74
$GPGSV,2,2,06,30,58,303,33,31,46,299,,,,,,,,,*73
$GPGSA,M,3,02,12,25,29,,,,,,,,,7.0,3.8,5.9*33
Trace #39 at position 9.500000
$GPZDA,095503.03,08,10,2011,00,00*64
$GPRMC,095503.00,A,4611.956123,N,01258.218144,E,001.9,340.4,081011,0.2,E,A*33
$GPGGA,095504.00,4611.956610,N,01258.217934,E,1,04,3.8,138.65,M,46.25,M,,*69
$GPGLL,4611.956610,N,01258.217934,E,095504.00,A,A*6F
$GPVTG,345.1,T,345.2,M,001.8,N,003.4,K,A*2E
$GPGSV,2,1,06,02,29,052,40,12,36,101,43,25,70,086,43,29,78,252,41*7A
$GPGSV,2,2,06,30,58,303,34,31,46,299,28,,,,,,,,*7E
$GPGSA,M,3,02,12,25,29,,,,,,,,,7.0,3.8,5.9*33
Trace #40 at position 9.750000
$GPZDA,095503.03,08,10,2011,00,00*64
$GPRMC,095503.00,A,4611.956123,N,01258.218144,E,001.9,340.4,081011,0.2,E,A*33
$GPGGA,095504.00,4611.956610,N,01258.217934,E,1,04,3.8,138.65,M,46.25,M,,*69
$GPGLL,4611.956610,N,01258.217934,E,095504.00,A,A*6F
$GPVTG,345.1,T,345.2,M,001.8,N,003.4,K,A*2E
$GPGSV,2,1,06,02,29,052,40,12,36,101,43,25,70,086,43,29,78,252,41*7A
$GPGSV,2,2,06,30,58,303,34,31,46,299,28,,,,,,,,*7E
$GPGSA,M,3,02,12,25,29,,,,,,,,,7.0,3.8,5.9*33
Trace #41 at position 10.000000
$GPZDA,095503.03,08,10,2011,00,00*64
$GPRMC,095503.00,A,4611.956123,N,01258.218144,E,001.9,340.4,081011,0.2,E,A*33
$GPGGA,095504.00,4611.956610,N,01258.217934,E,1,04,3.8,138.65,M,46.25,M,,*69
$GPGLL,4611.956610,N,01258.217934,E,095504.00,A,A*6F
$GPVTG,345.1,T,345.2,M,001.8,N,003.4,K,A*2E
$GPGSV,2,1,06,02,29,052,40,12,36,101,43,25,70,086,43,29,78,252,41*7A
$GPGSV,2,2,06,30,58,303,34,31,46,299,28,,,,,,,,*7E
$GPGSA,M,3,02,12,25,29,,,,,,,,,7.0,3.8,5.9*33
Trace #42 at position 10.250000
$GPZDA,095503.03,08,10,2011,00,00*64
$GPRMC,095503.00,A,4611.956123,N,01258.218144,E,001.9,340.4,081011,0.2,E,A*33
$GPGGA,095504.00,4611.956610,N,01258.217934,E,1,04,3.8,138.65,M,46.25,M,,*69
$GPGLL,4611.956610,N,01258.217934,E,095504.00,A,A*6F
$GPVTG,345.1,T,345.2,M,001.8,N,003.4,K,A*2E
$GPGSV,2,1,06,02,29,052,40,12,36,101,43,25,70,086,43,29,78,252,41*7A
$GPGSV,2,2,06,30,58,303,34,31,46,299,28,,,,,,,,*7E
$GPGSA,M,3,02,12,25,29,,,,,,,,,7.0,3.8,5.9*33
Trace #43 at position 10.500000
$GPZDA,095504.03,08,10,2011,00,00*63
$GPRMC,095504.00,A,4611.956610,N,01258.217934,E,001.8,345.1,081011,0.2,E,A*32
$GPGGA,095505.00,4611.957065,N,01258.217696,E,1,04,3.8,138.80,M,46.25,M,,*61
$GPGLL,4611.957065,N,01258.217696,E,095505.00,A,A*6C
$GPVTG,333.4,T,333.6,M,001.8,N,003.4,K,A*2F
$GPGSV,2,1,06,02,29,052,39,12,36,101,41,25,70,086,42,29,78,252,41*77
$GPGSV,2,2,06,30,58,303,35,31,46,299,,,,,,,,,*75
$GPGSA,M,3,02,12,25,29,,,,,,,,,7.0,3.8,5.9*33
Trace #44 at position 10.750000
$GPZDA,095504.03,08,10,2011,00,00*63
$GPRMC,095504.00,A,4611.956610,N,01258.217934,E,001.8,345.1,081011,0.2,E,A*32
$GPGGA,095505.00,4611.957065,N,01258.217696,E,1,04,3.8,138.80,M,46.25,M,,*61
$GPGLL,4611.957065,N,01258.217696,E,095505.00,A,A*6C
$GPVTG,333.4,T,333.6,M,001.8,N,003.4,K,A*2F
$GPGSV,2,1,06,02,29,052,39,12,36,101,41,25,70,086,42,29,78,252,41*77
$GPGSV,2,2,06,30,58,303,35,31,46,299,,,,,,,,,*75
$GPGSA,M,3,02,12,25,29,,,,,,,,,7.0,3.8,5.9*33
Trace #45 at position 11.000000
$GPZDA,095504.03,08,10,2011,00,00*63
$GPRMC,095504.00,A,4611.956610,N,01258.217934,E,001.8,345.1,081011,0.2,E,A*32
$GPGGA,095505.00,4611.957065,N,01258.217696,E,1,04,3.8,138.80,M,46.25,M,,*61
$GPGLL,4611.957065,N,01258.217696,E,095505.00,A,A*6C
$GPVTG,333.4,T,333.6,M,001.8,N,003.4,K,A*2F
$GPGSV,2,1,06,02,29,052,39,12,36,101,41,25,70,086,42,29,78,252,41*77
$GPGSV,2,2,06,30,58,303,35,31,46,299,,,,,,,,,*75
$GPGSA,M,3,02,12,25,29,,,,,,,,,7.0,3.8,5.9*33
Trace #46 at position 11.250000
$GPZDA,095505.03,08,10,2011,00,00*62
$GPRMC,095505.00,A,4611.957065,N,01258.217696,E,001.8,333.4,081011,0.2,E,A*35
$GPGGA,095506.00,4611.957493,N,01258.217549,E,1,04,3.8,139.11,M,46.25,M,,*67
$GPGLL,4611.957493,N,01258.217549,E,095506.00,A,A*63
$GPVTG,1.7,T,1.8,M,001.5,N,002.8,K,A*22
$GPGSV,2,1,06,02,29,052,39,12,36,101,40,25,70,086,39,29,78,253,41*7B
$GPGSV,2,2,06,30,58,303,35,31,46,299,31,,,,,,,,*77
$GPGSA,M,3,02,12,25,29,,,,,,,,,7.0,3.8,5.9*33
Trace #47 at position 11.500000
$GPZDA,095505.03,08,10,2011,00,00*62
$GPRMC,095505.00,A,4611.957065,N,01258.217696,E,001.8,333.4,081011,0.2,E,A*35
$GPGGA,095506.00,4611.957493,N,01258.217549,E,1,04,3.8,139.11,M,46.25,M,,*67
$GPGLL,4611.957493,N,01258.217549,E,095506.00,A,A*63
$GPVTG,1.7,T,1.8,M,001.5,N,002.8,K,A*22
$GPGSV,2,1,06,02,29,052,39,12,36,101,40,25,70,086,39,29,78,253,41*7B
$GPGSV,2,2,06,30,58,303,35,31,46,299,31,,,,,,,,*77
$GPGSA,M,3,02,12,25,29,,,,,,,,,7.0,3.8,5.9*33
Trace #48 at position 11.750000
$GPZDA,095505.03,08,10,2011,00,00*62
$GPRMC,095505.00,A,4611.957065,N,01258.217696,E,001.8,333.4,081011,0.2,E,A*35
$GPGGA,095506.00,4611.957493,N,01258.217549,E,1,04,3.8,139.11,M,46.25,M,,*67
$GPGLL,4611.957493,N,01258.217549,E,095506.00,A,A*63
$GPVTG,1.7,T,1.8,M,001.5,N,002.8,K,A*22
$GPGSV,2,1,06,02,29,052,39,12,36,101,40,25,70,086,39,29,78,253,41*7B
$GPGSV,2,2,06,30,58,303,35,31,46,299,31,,,,,,,,*77
$GPGSA,M,3,02,12,25,29,,,,,,,,,7.0,3.8,5.9*33
Trace #49 at position 12.000000
$GPZDA,095506.03,08,10,2011,00,00*61
$GPRMC,095506.00,A,4611.957493,N,01258.217549,E,001.5,1.7,081011,0.2,E,A*36
$GPGGA,095507.00,4611.957891,N,01258.217473,E,1,04,3.8,139.31,M,46.25,M,,*62
$GPGLL,4611.957891,N,01258.217473,E,095507.00,A,A*64
$GPVTG,344.2,T,344.4,M,001.5,N,002.7,K,A*24
$GPGSV,2,1,06,02,29,052,39,12,36,101,42,25,70,086,42,29,78,253,42*76
$GPGSV,2,2,06,30,58,303,34,31,46,299,31,,,,,,,,*76
$GPGSA,M,3,02,12,25,29,,,,,,,,,7.0,3.8,5.9*33
Trace #50 at position 12.250000
$GPZDA,095506.03,08,10,2011,00,00*61
$GPRMC,095506.00,A,4611.957493,N,01258.217549,E,001.5,1.7,081011,0.2,E,A*36
$GPGGA,095507.00,4611.957891,N,01258.217473,E,1,04,3.8,139.31,M,46.25,M,,*62
$GPGLL,4611.957891,N,01258.217473,E,095507.00,A,A*64
$GPVTG,344.2,T,344.4,M,001.5,N,002.7,K,A*24
$GPGSV,2,1,06,02,29,052,39,12,36,101,42,25,70,086,42,29,78,253,42*76
$GPGSV,2,2,06,30,58,303,34,31,46,299,31,,,,,,,,*76
$GPGSA,M,3,02,12,25,29,,,,,,,,,7.0,3.8,5.9*33
Trace #51 at position 12.500000
$GPZDA,095507.03,08,10,2011,00,00*60
$GPRMC,095507.00,A,4611.957891,N,01258.217473,E,001.5,344.2,081011,0.2,E,A*36
$GPGGA,095508.00,4611.958262,N,01258.217325,E,1,04,3.8,139.34,M,46.25,M,,*65
$GPGLL,4611.958262,N,01258.217325,E,095508.00,A,A*66
$GPVTG,345.8,T,346.0,M,001.4,N,002.6,K,A*29
$GPGSV,2,1,06,02,29,052,38,12,36,101,41,25,70,086,41,29,78,253,41*74
$GPGSV,2,2,06,30,58,303,36,31,46,299,28,,,,,,,,*7C
$GPGSA,M,3,02,12,25,29,,,,,,,,,7.0,3.8,5.9*33
Trace #52 at position 12.750000
$GPZDA,095507.03,08,10,2011,00,00*60
$GPRMC,095507.00,A,4611.957891,N,01258.217473,E,001.5,344.2,081011,0.2,E,A*36
$GPGGA,095508.00,4611.958262,N,01258.217325,E,1,04,3.8,139.34,M,46.25,M,,*65
$GPGLL,4611.958262,N,01258.217325,E,095508.00,A,A*66
$GPVTG,345.8,T,346.0,M,001.4,N,002.6,K,A*29
$GPGSV,2,1,06,02,29,052,38,12,36,101,41,25,70,086,41,29,78,253,41*74
$GPGSV,2,2,06,30,58,303,36,31,46,299,28,,,,,,,,*7C
$GPGSA,M,3,02,12,25,29,,,,,,,,,7.0,3.8,5.9*33
Trace #53 at position 13.000000
$GPZDA,095507.03,08,10,2011,00,00*60
$GPRMC,095507.00,A,4611.957891,N,01258.217473,E,001.5,344.2,081011,0.2,E,A*36
$GPGGA,095508.00,4611.958262,N,01258.217325,E,1,04,3.8,139.34,M,46.25,M,,*65
$GPGLL,4611.958262,N,01258.217325,E,095508.00,A,A*66
$GPVTG,345.8,T,346.0,M,001.4,N,002.6,K,A*29
$GPGSV,2,1,06,02,29,052,38,12,36,101,41,25,70,086,41,29,78,253,41*74
$GPGSV,2,2,06,30,58,303,36,31,46,299,28,,,,,,,,*7C
$GPGSA,M,3,02,12,25,29,,,,,,,,,7.0,3.8,5.9*33
Trace #54 at position 13.250000
$GPZDA,095508.03,08,10,2011,00,00*6F
$GPRMC,095508.00,A,4611.958262,N,01258.217325,E,001.4,345.8,081011,0.2,E,A*3E
$GPGGA,095509.00,4611.958557,N,01258.217243,E,1,04,3.8,139.61,M,46.25,M,,*64
$GPGLL,4611.958557,N,01258.217243,E,095509.00,A,A*67
$GPVTG,358.6,T,358.8,M,000.9,N,001.6,K,A*23
$GPGSV,2,1,06,02,29,052,38,12,36,101,41,25,70,086,42,29,78,253,41*77
$GPGSV,2,2,06,30,58,303,33,31,46,299,28,,,,,,,,*79
$GPGSA,M,3,02,12,25,29,,,,,,,,,7.0,3.8,5.9*33
Trace #55 at position 13.500000
$GPZDA,095508.03,08,10,2011,00,00*6F
$GPRMC,095508.00,A,4611.958262,N,01258.217325,E,001.4,345.8,081011,0.2,E,A*3E
$GPGGA,095509.00,4611.958557,N,01258.217243,E,1,04,3.8,139.61,M,46.25,M,,*64
$GPGLL,4611.958557,N,01258.217243,E,095509.00,A,A*67
$GPVTG,358.6,T,358.8,M,000.9,N,001.6,K,A*23
$GPGSV,2,1,06,02,29,052,38,12,36,101,41,25,70,086,42,29,78,253,41*77
$GPGSV,2,2,06,30,58,303,33,31,46,299,28,,,,,,,,*79
$GPGSA,M,3,02,12,25,29,,,,,,,,,7.0,3.8,5.9*33
Trace #56 at position 13.750000
$GPZDA,095508.03,08,10,2011,00,00*6F
$GPRMC,095508.00,A,4611.958262,N,01258.217325,E,001.4,345.8,081011,0.2,E,A*3E
$GPGGA,095509.00,4611.958557,N,01258.217243,E,1,04,3.8,139.61,M,46.25,M,,*64
$GPGLL,4611.958557,N,01258.217243,E,095509.00,A,A*67
$GPVTG,358.6,T,358.8,M,000.9,N,001.6,K,A*23
$GPGSV,2,1,06,02,29,052,38,12,36,101,41,25,70,086,42,29,78,253,41*77
$GPGSV,2,2,06,30,58,303,33,31,46,299,28,,,,,,,,*79
$GPGSA,M,3,02,12,25,29,,,,,,,,,7.0,3.8,5.9*33
Trace #57 at position 14.000000
$GPZDA,095509.03,08,10,2011,00,00*6E
$GPRMC,095509.00,A,4611.958557,N,01258.217243,E,000.9,358.6,081011,0.2,E,A*31
$GPGGA,095510.00,4611.958868,N,01258.217042,E,1,04,3.8,139.69,M,46.25,M,,*66
$GPGLL,4611.958868,N,01258.217042,E,095510.00,A,A*6D
$GPVTG,327.1,T,327.2,M,001.8,N,003.3,K,A*29
$GPGSV,2,1,06,02,29,052,37,12,36,101,41,25,70,086,41,29,78,253,40*7A
$GPGSV,2,2,06,30,58,303,34,31,46,299,,,,,,,,,*74
$GPGSA,M,3,02,12,25,29,,,,,,,,,7.0,3.8,5.9*33
Trace #58 at position 14.250000
$GPZDA,095509.03,08,10,2011,00,00*6E
$GPRMC,095509.00,A,4611.958557,N,01258.217243,E,000.9,358.6,081011,0.2,E,A*31
$GPGGA,095510.00,4611.958868,N,01258.217042,E,1,04,3.8,139.69,M,46.25,M,,*66
$GPGLL,4611.958868,N,01258.217042,E,095510.00,A,A*6D
$GPVTG,327.1,T,327.2,M,001.8,N,003.3,K,A*29
$GPGSV,2,1,06,02,29,052,37,12,36,101,41,25,70,086,41,29,78,253,40*7A
$GPGSV,2,2,06,30,58,303,34,31,46,299,,,,,,,,,*74
$GPGSA,M,3,02,12,25,29,,,,,,,,,7.0,3.8,5.9*33
Trace #59 at position 14.500000
$GPZDA,095509.03,08,10,2011,00,00*6E
$GPRMC,095509.00,A,4611.958557,N,01258.217243,E,000.9,358.6,081011,0.2,E,A*31
$GPGGA,095510.00,4611.958868,N,01258.217042,E,1,04,3.8,139.69,M,46.25,M,,*66
$GPGLL,4611.958868,N,01258.217042,E,095510.00,A,A*6D
$GPVTG,327.1,T,327.2,M,001.8,N,003.3,K,A*29
$GPGSV,2,1,06,02,29,052,37,12,36,101,41,25,70,086,41,29,78,253,40*7A
$GPGSV,2,2,06,30,58,303,34,31,46,299,,,,,,,,,*74
$GPGSA,M,3,02,12,25,29,,,,,,,,,7.0,3.8,5.9*33
Trace #60 at position 14.750000
$GPZDA,095510.03,08,10,2011,00,00*66
$GPRMC,095510.00,A,4611.958868,N,01258.217042,E,001.8,327.1,081011,0.2,E,A*34
$GPGGA,095511.00,4611.959225,N,01258.216722,E,1,04,3.8,139.47,M,46.25,M,,*69
$GPGLL,4611.959225,N,01258.216722,E,095511.00,A,A*6E
$GPVTG,329.2,T,329.3,M,001.4,N,002.6,K,A*23
$GPGSV,2,1,06,02,29,052,38,12,36,101,39,25,70,086,43,29,78,253,41*79
$GPGSV,2,2,06,30,58,303,36,31,46,299,,,,,,,,,*76
$GPGSA,M,3,02,12,25,29,,,,,,,,,7.0,3.8,5.9*33
Trace #61 at position 15.000000
$GPZDA,095510.03,08,10,2011,00,00*66
$GPRMC,095510.00,A,4611.958868,N,01258.217042,E,001.8,327.1,081011,0.2,E,A*34
$GPGGA,095511.00,4611.959225,N,01258.216722,E,1,04,3.8,139.47,M,46.25,M,,*69
$GPGLL,4611.959225,N,01258.216722,E,095511.00,A,A*6E
$GPVTG,329.2,T,329.3,M,001.4,N,002.6,K,A*23
$GPGSV,2,1,06,02,29,052,38,12,36,101,39,25,70,086,43,29,78,253,41*79
$GPGSV,2,2,06,30,58,303,36,31,46,299,,,,,,,,,*76
$GPGSA,M,3,02,12,25,29,,,,,,,,,7.0,3.8,5.9*33
Trace #62 at position 15.250000
$GPZDA,095510.03,08,10,2011,00,00*66
$GPRMC,095510.00,A,4611.958868,N,01258.217042,E,001.8,327.1,081011,0.2,E,A*34
$GPGGA,095511.00,4611.959225,N,01258.216722,E,1,04,3.8,139.47,M,46.25,M,,*69
$GPGLL,4611.959225,N,01258.216722,E,095511.00,A,A*6E
$GPVTG,329.2,T,329.3,M,001.4,N,002.6,K,A*23
$GPGSV,2,1,06,02,29,052,38,12,36,101,39,25,70,086,43,29,78,253,41*79
$GPGSV,2,2,06,30,58,303,36,31,46,299,,,,,,,,,*76
$GPGSA,M,3,02,12,25,29,,,,,,,,,7.0,3.8,5.9*33
Trace #63 at position 15.500000
$GPZDA,095511.03,08,10,2011,00,00*67
$GPRMC,095511.00,A,4611.959225,N,01258.216722,E,001.4,329.2,081011,0.2,E,A*36
$GPGGA,095512.00,4611.959565,N,01258.216424,E,1,04,3.8,139.32,M,46.25,M,,*6E
$GPGLL,4611.959565,N,01258.216424,E,095512.00,A,A*6B
$GPVTG,323.8,T,323.9,M,001.6,N,003.0,K,A*26
$GPGSV,2,1,06,02,29,052,39,12,36,101,41,25,70,086,40,29,78,253,41*74
$GPGSV,2,2,06,30,58,303,34,31,46,299,,,,,,,,,*74
$GPGSA,M,3,02,12,25,29,,,,,,,,,7.0,3.8,5.9*33
Trace #64 at position 15.750000
$GPZDA,095511.03,08,10,2011,00,00*67
$GPRMC,095511.00,A,4611.959225,N,01258.216722,E,001.4,329.2,081011,0.2,E,A*36
$GPGGA,095512.00,4611.959565,N,01258.216424,E,1,04,3.8,139.32,M,46.25,M,,*6E
$GPGLL,4611.959565,N,01258.216424,E,095512.00,A,A*6B
$GPVTG,323.8,T,323.9,M,001.6,N,003.0,K,A*26
$GPGSV,2,1,06,02,29,052,39,12,36,101,41,25,70,086,40,29,78,253,41*74
$GPGSV,2,2,06,30,58,303,34,31,46,299,,,,,,,,,*74
$GPGSA,M,3,02,12,25,29,,,,,,,,,7.0,3.8,5.9*33
Trace #65 at position 16.000000
$GPZDA,095511.03,08,10,2011,00,00*67
$GPRMC,095511.00,A,4611.959225,N,01258.216722,E,001.4,329.2,081011,0.2,E,A*36
$GPGGA,095512.00,4611.959565,N,01258.216424,E,1,04,3.8,139.32,M,46.25,M,,*6E
$GPGLL,4611.959565,N,01258.216424,E,095512.00,A,A*6B
$GPVTG,323.8,T,323.9,M,001.6,N,003.0,K,A*26
$GPGSV,2,1,06,02,29,052,39,12,36,101,41,25,70,086,40,29,78,253,41*74
$GPGSV,2,2,06,30,58,303,34,31,46,299,,,,,,,,,*74
$GPGSA,M,3,02,12,25,29,,,,,,,,,7.0,3.8,5.9*33
Trace #66 at position 16.250000
$GPZDA,095512.03,08,10,2011,00,00*64
$GPRMC,095512.00,A,4611.959565,N,01258.216424,E,001.6,323.8,081011,0.2,E,A*31
$GPGGA,095513.00,4611.959988,N,01258.216188,E,1,04,3.8,139.27,M,46.25,M,,*67
$GPGLL,4611.959988,N,01258.216188,E,095513.00,A,A*66
$GPVTG,346.4,T,346.6,M,001.9,N,003.5,K,A*2F
$GPGSV,2,1,06,02,29,052,39,12,36,101,41,25,70,086,40,29,78,253,40*75
$GPGSV,2,2,06,30,58,303,34,31,46,299,,,,,,,,,*74
$GPGSA,M,3,02,12,25,29,,,,,,,,,7.0,3.8,5.9*33
Trace #67 at position 16.500000
$GPZDA,095512.03,08,10,2011,00,00*64
$GPRMC,095512.00,A,4611.959565,N,01258.216424,E,001.6,323.8,081011,0.2,E,A*31
$GPGGA,095513.00,4611.959988,N,01258.216188,E,1,04,3.8,139.27,M,46.25,M,,*67
$GPGLL,4611.959988,N,01258.216188,E,095513.00,A,A*66
$GPVTG,346.4,T,346.6,M,001.9,N,003.5,K,A*2F
$GPGSV,2,1,06,02,29,052,39,12,36,101,41,25,70,086,40,29,78,253,40*75
$GPGSV,2,2,06,30,58,303,34,31,46,299,,,,,,,,,*74
$GPGSA,M,3,02,12,25,29,,,,,,,,,7.0,3.8,5.9*33
Trace #68 at position 16.750000
$GPZDA,095512.03,08,10,2011,00,00*64
$GPRMC,095512.00,A,4611.959565,N,01258.216424,E,001.6,323.8,081011,0.2,E,A*31
$GPGGA,095513.00,4611.959988,N,01258.216188,E,1,04,3.8,139.27,M,46.25,M,,*67
$GPGLL,4611.959988,N,01258.216188,E,095513.00,A,A*66
$GPVTG,346.4,T,346.6,M,001.9,N,003.5,K,A*2F
$GPGSV,2,1,06,02,29,052,39,12,36,101,41,25,70,086,40,29,78,253,40*75
$GPGSV,2,2,06,30,58,303,34,31,46,299,,,,,,,,,*74
$GPGSA,M,3,02,12,25,29,,,,,,,,,7.0,3.8,5.9*33
Trace #69 at position 17.000000
$GPZDA,095513.03,08,10,2011,00,00*65
$GPRMC,095513.00,A,4611.959988,N,01258.216188,E,001.9,346.4,081011,0.2,E,A*3C
$GPGGA,095514.00,4611.960418,N,01258.216062,E,1,04,3.8,139.53,M,46.25,M,,*68
$GPGLL,4611.960418,N,01258.216062,E,095514.00,A,A*6A
$GPVTG,344.0,T,344.2,M,001.4,N,002.5,K,A*23
$GPGSV,2,1,06,02,29,052,39,12,36,101,40,25,70,086,40,29,78,253,41*75
$GPGSV,2,2,06,30,58,303,35,31,46,299,,,,,,,,,*75
$GPGSA,M,3,02,12,25,29,,,,,,,,,7.0,3.8,5.9*33
Trace #70 at position 17.250000
$GPZDA,095513.03,08,10,2011,00,00*65
$GPRMC,095513.00,A,4611.959988,N,01258.216188,E,001.9,346.4,081011,0.2,E,A*3C
$GPGGA,095514.00,4611.960418,N,01258.216062,E,1,04,3.8,139.53,M,46.25,M,,*68
$GPGLL,4611.960418,N,01258.216062,E,095514.00,A,A*6A
$GPVTG,344.0,T,344.2,M,001.4,N,002.5,K,A*23
$GPGSV,2,1,06,02,29,052,39,12,36,101,40,25,70,086,40,29,78,253,41*75
$GPGSV,2,2,06,30,58,303,35,31,46,299,,,,,,,,,*75
$GPGSA,M,3,02,12,25,29,,,,,,,,,7.0,3.8,5.9*33
Trace #71 at position 17.500000
$GPZDA,095513.03,08,10,2011,00,00*65
$GPRMC,095513.00,A,4611.959988,N,01258.216188,E,001.9,346.4,081011,0.2,E,A*3C
$GPGGA,095514.00,4611.960418,N,01258.216062,E,1,04,3.8,139.53,M,46.25,M,,*68
$GPGLL,4611.960418,N,01258.216062,E,095514.00,A,A*6A
$GPVTG,344.0,T,344.2,M,001.4,N,002.5,K,A*23
$GPGSV,2,1,06,02,29,052,39,12,36,101,40,25,70,086,40,29,78,253,41*75
$GPGSV,2,2,06,30,58,303,35,31,46,299,,,,,,,,,*75
$GPGSA,M,3,02,12,25,29,,,,,,,,,7.0,3.8,5.9*33
Trace #72 at position 17.750000
$GPZDA,095514.03,08,10,2011,00,00*62
$GPRMC,095514.00,A,4611.960418,N,01258.216062,E,001.4,344.0,081011,0.2,E,A*3B
$GPGGA,095515.00,4611.960789,N,01258.215982,E,1,04,3.8,139.68,M,46.25,M,,*6E
$GPGLL,4611.960789,N,01258.215982,E,095515.00,A,A*64
$GPVTG,353.6,T,353.8,M,001.4,N,002.5,K,A*2F
$GPGSV,2,1,06,02,29,052,39,12,36,101,40,25,70,086,39,29,78,253,40*7A
$GPGSV,2,2,06,30,58,303,34,31,46,299,,,,,,,,,*74
$GPGSA,M,3,02,12,25,29,,,,,,,,,7.0,3.8,5.9*33
Trace #73 at position 18.000000
$GPZDA,095514.03,08,10,2011,00,00*62
$GPRMC,095514.00,A,4611.960418,N,01258.216062,E,001.4,344.0,081011,0.2,E,A*3B
$GPGGA,095515.00,4611.960789,N,01258.215982,E,1,04,3.8,139.68,M,46.25,M,,*6E
$GPGLL,4611.960789,N,01258.215982,E,095515.00,A,A*64
$GPVTG,353.6,T,353.8,M,001.4,N,002.5,K,A*2F
$GPGSV,2,1,06,02,29,052,39,12,36,101,40,25,70,086,39,29,78,253,40*7A
$GPGSV,2,2,06,30,58,303,34,31,46,299,,,,,,,,,*74
$GPGSA,M,3,02,12,25,29,,,,,,,,,7.0,3.8,5.9*33
Trace #74 at position 18.250000
$GPZDA,095514.03,08,10,2011,00,00*62
$GPRMC,095514.00,A,4611.960418,N,01258.216062,E,001.4,344.0,081011,0.2,E,A*3B
$GPGGA,095515.00,4611.960789,N,01258.215982,E,1,04,3.8,139.68,M,46.25,M,,*6E
$GPGLL,4611.960789,N,01258.215982,E,095515.00,A,A*64
$GPVTG,353.6,T,353.8,M,001.4,N,002.5,K,A*2F
$GPGSV,2,1,06,02,29,052,39,12,36,101,40,25,70,086,39,29,78,253,40*7A
$GPGSV,2,2,06,30,58,303,34,31,46,299,,,,,,,,,*74
$GPGSA,M,3,02,12,25,29,,,,,,,,,7.0,3.8,5.9*33
Trace #75 at position 18.500000
$GPZDA,095514.03,08,10,2011,00,00*62
$GPRMC,095514.00,A,4611.960418,N,01258.216062,E,001.4,344.0,081011,0.2,E,A*3B
$GPGGA,095515.00,4611.960789,N,01258.215982,E,1,04,3.8,139.68,M,46.25,M,,*6E
$GPGLL,4611.960789,N,01258.215982,E,095515.00,A,A*64
$GPVTG,353.6,T,353.8,M,001.4,N,002.5,K,A*2F
$GPGSV,2,1,06,02,29,052,39,12,36,101,40,25,70,086,39,29,78,253,40*7A
$GPGSV,2,2,06,30,58,303,34,31,46,299,,,,,,,,,*74
$GPGSA,M,3,02,12,25,29,,,,,,,,,7.0,3.8,5.9*33
Trace #76 at position 18.750000
$GPZDA,095515.03,08,10,2011,00,00*63
$GPRMC,095515.00,A,4611.960789,N,01258.215982,E,001.4,353.6,081011,0.2,E,A*35
$GPGGA,095516.00,4611.961183,N,01258.215946,E,1,04,3.8,139.78,M,46.25,M,,*69
$GPGLL,4611.961183,N,01258.215946,E,095516.00,A,A*62
$GPVTG,357.0,T,357.2,M,001.5,N,002.8,K,A*2F
$GPGSV,2,1,06,02,29,052,38,12,36,101,39,25,70,086,41,29,78,253,41*7B
$GPGSV,2,2,06,30,58,303,35,31,46,299,,,,,,,,,*75
$GPGSA,M,3,02,12,25,29,,,,,,,,,7.0,3.8,5.9*33
Trace #77 at position 19.000000
$GPZDA,095515.03,08,10,2011,00,00*63
$GPRMC,095515.00,A,4611.960789,N,01258.215982,E,001.4,353.6,081011,0.2,E,A*35
$GPGGA,095516.00,4611.961183,N,01258.215946,E,1,04,3.8,139.78,M,46.25,M,,*69
$GPGLL,4611.961183,N,01258.215946,E,095516.00,A,A*62
$GPVTG,357.0,T,357.2,M,001.5,N,002.8,K,A*2F
$GPGSV,2,1,06,02,29,052,38,12,36,101,39,25,70,086,41,29,78,253,41*7B
$GPGSV,2,2,06,30,58,303,35,31,46,299,,,,,,,,,*75
$GPGSA,M,3,02,12,25,29,,,,,,,,,7.0,3.8,5.9*33
Trace #78 at position 19.250000
$GPZDA,095515.03,08,10,2011,00,00*63
$GPRMC,095515.00,A,4611.960789,N,01258.215982,E,001.4,353.6,081011,0.2,E,A*35
$GPGGA,095516.00,4611.961183,N,01258.215946,E,1,04,3.8,139.78,M,46.25,M,,*69
$GPGLL,4611.961183,N,01258.215946,E,095516.00,A,A*62
$GPVTG,357.0,T,357.2,M,001.5,N,002.8,K,A*2F
$GPGSV,2,1,06,02,29,052,38,12,36,101,39,25,70,086,41,29,78,253,41*7B
$GPGSV,2,2,06,30,58,303,35,31,46,299,,,,,,,,,*75
$GPGSA,M,3,02,12,25,29,,,,,,,,,7.0,3.8,5.9*33
Trace #79 at position 19.500000
$GPZDA,095516.03,08,10,2011,00,00*60
$GPRMC,095516.00,A,4611.961183,N,01258.215946,E,001.5,357.0,081011,0.2,E,A*30
$GPGGA,095517.00,4611.961490,N,01258.215820,E,1,04,3.8,140.02,M,46.25,M,,*6D
$GPGLL,4611.961490,N,01258.215820,E,095517.00,A,A*65
$GPVTG,320.8,T,320.9,M,000.8,N,001.6,K,A*2D
$GPGSV,2,1,06,02,29,052,38,12,36,101,41,25,70,086,43,29,78,253,40*77
$GPGSV,2,2,06,30,58,303,34,31,46,299,,,,,,,,,*74
$GPGSA,M,3,02,12,25,29,,,,,,,,,7.0,3.8,5.9*33
Trace #80 at position 19.750000
$GPZDA,095516.03,08,10,2011,00,00*60
$GPRMC,095516.00,A,4611.961183,N,01258.215946,E,001.5,357.0,081011,0.2,E,A*30
$GPGGA,095517.00,4611.961490,N,01258.215820,E,1,04,3.8,140.02,M,46.25,M,,*6D
$GPGLL,4611.961490,N,01258.215820,E,095517.00,A,A*65
$GPVTG,320.8,T,320.9,M,000.8,N,001.6,K,A*2D
$GPGSV,2,1,06,02,29,052,38,12,36,101,41,25,70,086,43,29,78,253,40*77
$GPGSV,2,2,06,30,58,303,34,31,46,299,,,,,,,,,*74
$GPGSA,M,3,02,12,25,29,,,,,,,,,7.0,3.8,5.9*33
Trace #81 at position 20.000000
$GPZDA,095517.03,08,10,2011,00,00*61
$GPRMC,095517.00,A,4611.961490,N,01258.215820,E,000.8,320.8,081011,0.2,E,A*33
$GPGGA,095518.00,4611.961812,N,01258.215627,E,1,04,3.8,140.11,M,46.25,M,,*6F
$GPGLL,4611.961812,N,01258.215627,E,095518.00,A,A*65
$GPVTG,344.5,T,344.7,M,001.6,N,002.9,K,A*2D
$GPGSV,2,1,06,02,29,052,39,12,36,101,41,25,70,086,41,29,78,253,41*75
$GPGSV,2,2,06,30,58,303,35,31,46,299,,,,,,,,,*75
$GPGSA,M,3,02,12,25,29,,,,,,,,,7.0,3.8,5.9*33
Trace #82 at position 20.250000
$GPZDA,095517.03,08,10,2011,00,00*61
$GPRMC,095517.00,A,4611.961490,N,01258.215820,E,000.8,320.8,081011,0.2,E,A*33
$GPGGA,095518.00,4611.961812,N,01258.215627,E,1,04,3.8,140.11,M,46.25,M,,*6F
$GPGLL,4611.961812,N,01258.215627,E,095518.00,A,A*65
$GPVTG,344.5,T,344.7,M,001.6,N,002.9,K,A*2D
$GPGSV,2,1,06,02,29,052,39,12,36,101,41,25,70,086,41,29,78,253,41*75
$GPGSV,2,2,06,30,58,303,35,31,46,299,,,,,,,,,*75
$GPGSA,M,3,02,12,25,29,,,,,,,,,7.0,3.8,5.9*33
Trace #83 at position 20.500000
$GPZDA,095517.03,08,10,2011,00,00*61
$GPRMC,095517.00,A,4611.961490,N,01258.215820,E,000.8,320.8,081011,0.2,E,A*33
$GPGGA,095518.00,4611.961812,N,01258.215627,E,1,04,3.8,140.11,M,46.25,M,,*6F
$GPGLL,4611.961812,N,01258.215627,E,095518.00,A,A*65
$GPVTG,344.5,T,344.7,M,001.6,N,002.9,K,A*2D
$GPGSV,2,1,06,02,29,052,39,12,36,101,41,25,70,086,41,29,78,253,41*75
$GPGSV,2,2,06,30,58,303,35,31,46,299,,,,,,,,,*75
$GPGSA,M,3,02,12,25,29,,,,,,,,,7.0,3.8,5.9*33
Trace #84 at position 20.750000
$GPZDA,095518.03,08,10,2011,00,00*6E
$GPRMC,095518.00,A,4611.961812,N,01258.215627,E,001.6,344.5,081011,0.2,E,A*33
$GPGGA,095519.00,4611.962169,N,01258.215535,E,1,04,3.8,140.12,M,46.25,M,,*6B
$GPGLL,4611.962169,N,01258.215535,E,095519.00,A,A*62
$GPVTG,0.0,T,0.2,M,000.9,N,001.7,K,A*2E
$GPGSV,2,1,06,02,29,052,38,12,36,101,40,25,70,086,42,29,78,253,41*76
$GPGSV,2,2,06,30,58,303,35,31,46,299,,,,,,,,,*75
$GPGSA,M,3,02,12,25,29,,,,,,,,,7.0,3.8,5.9*33
Trace #85 at position 21.000000
$GPZDA,095518.03,08,10,2011,00,00*6E
$GPRMC,095518.00,A,4611.961812,N,01258.215627,E,001.6,344.5,081011,0.2,E,A*33
$GPGGA,095519.00,4611.962169,N,01258.215535,E,1,04,3.8,140.12,M,46.25,M,,*6B
$GPGLL,4611.962169,N,01258.215535,E,095519.00,A,A*62
$GPVTG,0.0,T,0.2,M,000.9,N,001.7,K,A*2E
$GPGSV,2,1,06,02,29,052,38,12,36,101,40,25,70,086,42,29,78,253,41*76
$GPGSV,2,2,06,30,58,303,35,31,46,299,,,,,,,,,*75
$GPGSA,M,3,02,12,25,29,,,,,,,,,7.0,3.8,5.9*33
Trace #86 at position 21.250000
$GPZDA,095519.03,08,10,2011,00,00*6F
$GPRMC,095519.00,A,4611.962169,N,01258.215535,E,000.9,0.0,081011,0.2,E,A*3C
$GPGGA,095520.00,4611.962445,N,01258.215432,E,1,04,3.8,139.99,M,46.25,M,,*61
$GPGLL,4611.962445,N,01258.215432,E,095520.00,A,A*65
$GPVTG,334.3,T,334.4,M,001.0,N,001.9,K,A*2D
$GPGSV,2,1,06,02,29,052,39,12,36,101,39,25,70,086,41,29,78,253,41*7A
$GPGSV,2,2,06,30,58,303,35,31,46,299,,,,,,,,,*75
$GPGSA,M,3,02,12,25,29,,,,,,,,,7.0,3.8,5.9*33
Trace #87 at position 21.500000
$GPZDA,095519.03,08,10,2011,00,00*6F
$GPRMC,095519.00,A,4611.962169,N,01258.215535,E,000.9,0.0,081011,0.2,E,A*3C
$GPGGA,095520.00,4611.962445,N,01258.215432,E,1,04,3.8,139.99,M,46.25,M,,*61
$GPGLL,4611.962445,N,01258.215432,E,095520.00,A,A*65
$GPVTG,334.3,T,334.4,M,001.0,N,001.9,K,A*2D
$GPGSV,2,1,06,02,29,052,39,12,36,101,39,25,70,086,41,29,78,253,41*7A
$GPGSV,2,2,06,30,58,303,35,31,46,299,,,,,,,,,*75
$GPGSA,M,3,02,12,25,29,,,,,,,,,7.0,3.8,5.9*33
Trace #88 at position 21.750000
$GPZDA,095519.03,08,10,2011,00,00*6F
$GPRMC,095519.00,A,4611.962169,N,01258.215535,E,000.9,0.0,081011,0.2,E,A*3C
$GPGGA,095520.00,4611.962445,N,01258.215432,E,1,04,3.8,139.99,M,46.25,M,,*61
$GPGLL,4611.962445,N,01258.215432,E,095520.00,A,A*65
$GPVTG,334.3,T,334.4,M,001.0,N,001.9,K,A*2D
$GPGSV,2,1,06,02,29,052,39,12,36,101,39,25,70,086,41,29,78,253,41*7A
$GPGSV,2,2,06,30,58,303,35,31,46,299,,,,,,,,,*75
$GPGSA,M,3,02,12,25,29,,,,,,,,,7.0,3.8,5.9*33
Trace #89 at position 22.000000
$GPZDA,095520.03,08,10,2011,00,00*65
$GPRMC,095520.00,A,4611.962445,N,01258.215432,E,001.0,334.3,081011,0.2,E,A*34
$GPGGA,095521.00,4611.962817,N,01258.215225,E,1,04,3.8,139.84,M,46.25,M,,*67
$GPGLL,4611.962817,N,01258.215225,E,095521.00,A,A*6F
$GPVTG,341.4,T,341.6,M,001.7,N,003.2,K,A*26
$GPGSV,2,1,06,02,29,052,38,12,36,101,40,25,70,086,42,29,78,253,40*77
$GPGSV,2,2,06,30,58,303,35,31,46,299,,,,,,,,,*75
$GPGSA,M,3,02,12,25,29,,,,,,,,,7.0,3.8,5.9*33
Trace #90 at position 22.250000
$GPZDA,095520.03,08,10,2011,00,00*65
$GPRMC,095520.00,A,4611.962445,N,01258.215432,E,001.0,334.3,081011,0.2,E,A*34
$GPGGA,095521.00,4611.962817,N,01258.215225,E,1,04,3.8,139.84,M,46.25,M,,*67
$GPGLL,4611.962817,N,01258.215225,E,095521.00,A,A*6F
$GPVTG,341.4,T,341.6,M,001.7,N,003.2,K,A*26
$GPGSV,2,1,06,02,29,052,38,12,36,101,40,25,70,086,42,29,78,253,40*77
$GPGSV,2,2,06,30,58,303,35,31,46,299,,,,,,,,,*75
$GPGSA,M,3,02,12,25,29,,,,,,,,,7.0,3.8,5.9*33
Trace #91 at position 22.500000
$GPZDA,095520.03,08,10,2011,00,00*65
$GPRMC,095520.00,A,4611.962445,N,01258.215432,E,001.0,334.3,081011,0.2,E,A*34
$GPGGA,095521.00,4611.962817,N,01258.215225,E,1,04,3.8,139.84,M,46.25,M,,*67
$GPGLL,4611.962817,N,01258.215225,E,095521.00,A,A*6F
$GPVTG,341.4,T,341.6,M,001.7,N,003.2,K,A*26
$GPGSV,2,1,06,02,29,052,38,12,36,101,40,25,70,086,42,29,78,253,40*77
$GPGSV,2,2,06,30,58,303,35,31,46,299,,,,,,,,,*75
$GPGSA,M,3,02,12,25,29,,,,,,,,,7.0,3.8,5.9*33
Trace #92 at position 22.750000
$GPZDA,095521.03,08,10,2011,00,00*64
$GPRMC,095521.00,A,4611.962817,N,01258.215225,E,001.7,341.4,081011,0.2,E,A*3C
$GPGGA,095522.00,4611.963229,N,01258.215040,E,1,04,3.8,139.81,M,46.25,M,,*66
$GPGLL,4611.963229,N,01258.215040,E,095522.00,A,A*6B
$GPVTG,344.2,T,344.3,M,001.3,N,002.4,K,A*26
$GPGSV,2,1,06,02,29,052,39,12,36,101,40,25,70,086,42,29,78,253,41*77
$GPGSV,2,2,06,30,58,303,35,31,46,299,,,,,,,,,*75
$GPGSA,M,3,02,12,25,29,,,,,,,,,7.0,3.8,5.9*33
Trace #93 at position 23.000000
$GPZDA,095521.03,08,10,2011,00,00*64
$GPRMC,095521.00,A,4611.962817,N,01258.215225,E,001.7,341.4,081011,0.2,E,A*3C
$GPGGA,095522.00,4611.963229,N,01258.215040,E,1,04,3.8,139.81,M,46.25,M,,*66
$GPGLL,4611.963229,N,01258.215040,E,095522.00,A,A*6B
$GPVTG,344.2,T,344.3,M,001.3,N,002.4,K,A*26
$GPGSV,2,1,06,02,29,052,39,12,36,101,40,25,70,086,42,29,78,253,41*77
$GPGSV,2,2,06,30,58,303,35,31,46,299,,,,,,,,,*75
$GPGSA,M,3,02,12,25,29,,,,,,,,,7.0,3.8,5.9*33
Trace #94 at position 23.250000
$GPZDA,095521.03,08,10,2011,00,00*64
$GPRMC,095521.00,A,4611.962817,N,01258.215225,E,001.7,341.4,081011,0.2,E,A*3C
$GPGGA,095522.00,4611.963229,N,01258.215040,E,1,04,3.8,139.81,M,46.25,M,,*66
$GPGLL,4611.963229,N,01258.215040,E,095522.00,A,A*6B
$GPVTG,344.2,T,344.3,M,001.3,N,002.4,K,A*26
$GPGSV,2,1,06,02,29,052,39,12,36,101,40,25,70,086,42,29,78,253,41*77
$GPGSV,2,2,06,30,58,303,35,31,46,299,,,,,,,,,*75
$GPGSA,M,3,02,12,25,29,,,,,,,,,7.0,3.8,5.9*33
Trace #95 at position 23.500000
$GPZDA,095522.03,08,10,2011,00,00*67
$GPRMC,095522.00,A,4611.963229,N,01258.215040,E,001.3,344.2,081011,0.2,E,A*3F
$GPGGA,095523.00,4611.963618,N,01258.214816,E,1,04,3.8,139.68,M,46.25,M,,*6C
$GPGLL,4611.963618,N,01258.214816,E,095523.00,A,A*66
$GPVTG,330.9,T,331.1,M,001.7,N,003.1,K,A*2E
$GPGSV,2,1,06,02,29,052,38,12,36,101,39,25,70,086,40,29,78,253,40*7B
$GPGSV,2,2,06,30,58,303,36,31,46,299,,,,,,,,,*76
$GPGSA,M,3,02,12,25,29,,,,,,,,,7.0,3.8,5.9*33
Trace #96 at position 23.750000
$GPZDA,095522.03,08,10,2011,00,00*67
$GPRMC,095522.00,A,4611.963229,N,01258.215040,E,001.3,344.2,081011,0.2,E,A*3F
$GPGGA,095523.00,4611.963618,N,01258.214816,E,1,04,3.8,139.68,M,46.25,M,,*6C
$GPGLL,4611.963618,N,01258.214816,E,095523.00,A,A*66
$GPVTG,330.9,T,331.1,M,001.7,N,003.1,K,A*2E
$GPGSV,2,1,06,02,29,052,38,12,36,101,39,25,70,086,40,29,78,253,40*7B
$GPGSV,2,2,06,30,58,303,36,31,46,299,,,,,,,,,*76
$GPGSA,M,3,02,12,25,29,,,,,,,,,7.0,3.8,5.9*33
Trace #97 at position 24.000000
$GPZDA,095522.03,08,10,2011,00,00*67
$GPRMC,095522.00,A,4611.963229,N,01258.215040,E,001.3,344.2,081011,0.2,E,A*3F
$GPGGA,095523.00,4611.963618,N,01258.214816,E,1,04,3.8,139.68,M,46.25,M,,*6C
$GPGLL,4611.963618,N,01258.214816,E,095523.00,A,A*66
$GPVTG,330.9,T,331.1,M,001.7,N,003.1,K,A*2E
$GPGSV,2,1,06,02,29,052,38,12,36,101,39,25,70,086,40,29,78,253,40*7B
$GPGSV,2,2,06,30,58,303,36,31,46,299,,,,,,,,,*76
$GPGSA,M,3,02,12,25,29,,,,,,,,,7.0,3.8,5.9*33
Trace #98 at position 24.250000
$GPZDA,095523.03,08,10,2011,00,00*66
$GPRMC,095523.00,A,4611.963618,N,01258.214816,E,001.7,330.9,081011,0.2,E,A*3E
$GPGGA,095524.00,4611.964074,N,01258.214726,E,1,04,3.8,139.66,M,46.25,M,,*62
$GPGLL,4611.964074,N,01258.214726,E,095524.00,A,A*66
$GPVTG,10.5,T,10.6,M,001.8,N,003.3,K,A*29
$GPGSV,2,1,06,02,29,052,37,12,36,101,40,25,70,086,41,29,78,253,40*7B
$GPGSV,2,2,06,30,58,303,36,31,46,299,,,,,,,,,*76
$GPGSA,M,3,02,12,25,29,,,,,,,,,7.0,3.8,5.9*33
Trace #99 at position 24.500000
$GPZDA,095523.03,08,10,2011,00,00*66
$GPRMC,095523.00,A,4611.963618,N,01258.214816,E,001.7,330.9,081011,0.2,E,A*3E
$GPGGA,095524.00,4611.964074,N,01258.214726,E,1,04,3.8,139.66,M,46.25,M,,*62
$GPGLL,4611.964074,N,01258.214726,E,095524.00,A,A*66
$GPVTG,10.5,T,10.6,M,001.8,N,003.3,K,A*29
$GPGSV,2,1,06,02,29,052,37,12,36,101,40,25,70,086,41,29,78,253,40*7B
$GPGSV,2,2,06,30,58,303,36,31,46,299,,,,,,,,,*76
$GPGSA,M,3,02,12,25,29,,,,,,,,,7.0,3.8,5.9*33
Trace #100 at position 24.750000
$GPZDA,095523.03,08,10,2011,00,00*66
$GPRMC,095523.00,A,4611.963618,N,01258.214816,E,001.7,330.9,081011,0.2,E,A*3E
$GPGGA,095524.00,4611.964074,N,01258.214726,E,1,04,3.8,139.66,M,46.25,M,,*62
$GPGLL,4611.964074,N,01258.214726,E,095524.00,A,A*66
$GPVTG,10.5,T,10.6,M,001.8,N,003.3,K,A*29
$GPGSV,2,1,06,02,29,052,37,12,36,101,40,25,70,086,41,29,78,253,40*7B
$GPGSV,2,2,06,30,58,303,36,31,46,299,,,,,,,,,*76
$GPGSA,M,3,02,12,25,29,,,,,,,,,7.0,3.8,5.9*33
Trace #101 at position 25.000000
$GPZDA,095524.03,08,10,2011,00,00*61
$GPRMC,095524.00,A,4611.964074,N,01258.214726,E,001.8,10.5,081011,0.2,E,A*0C
$GPGGA,095525.00,4611.964429,N,01258.214589,E,1,04,3.8,139.69,M,46.25,M,,*67
$GPGLL,4611.964429,N,01258.214589,E,095525.00,A,A*6C
$GPVTG,305.7,T,305.9,M,001.3,N,002.3,K,A*2E
$GPGSV,2,1,06,02,29,052,38,12,36,101,40,25,70,086,42,29,78,253,40*77
$GPGSV,2,2,06,30,58,303,36,31,46,299,,,,,,,,,*76
$GPGSA,M,3,02,12,25,29,,,,,,,,,7.0,3.8,5.9*33
Trace #102 at position 25.250000
$GPZDA,095527.03,08,10,2011,00,00*62
$GPRMC,095527.00,A,4611.964714,N,01258.214270,E,000.2,177.0,081011,0.2,E,A*36
$GPGGA,095528.00,4611.964698,N,01258.214286,E,1,04,3.8,139.59,M,46.25,M,,*69
$GPGLL,4611.964698,N,01258.214286,E,095528.00,A,A*61
$GPVTG,229.0,T,229.2,M,000.0,N,000.1,K,A*20
$GPGSV,2,1,06,02,29,052,38,12,36,101,40,25,70,086,44,29,78,253,41*70
$GPGSV,2,2,06,30,58,303,32,31,46,299,,,,,,,,,*72
$GPGSA,M,3,02,12,25,29,,,,,,,,,7.0,3.8,5.9*33
Trace #103 at position 25.500000
$GPZDA,095527.03,08,10,2011,00,00*62
$GPRMC,095527.00,A,4611.964714,N,01258.214270,E,000.2,177.0,081011,0.2,E,A*36
$GPGGA,095528.00,4611.964698,N,01258.214286,E,1,04,3.8,139.59,M,46.25,M,,*69
$GPGLL,4611.964698,N,01258.214286,E,095528.00,A,A*61
$GPVTG,229.0,T,229.2,M,000.0,N,000.1,K,A*20
$GPGSV,2,1,06,02,29,052,38,12,36,101,40,25,70,086,44,29,78,253,41*70
$GPGSV,2,2,06,30,58,303,32,31,46,299,,,,,,,,,*72
$GPGSA,M,3,02,12,25,29,,,,,,,,,7.0,3.8,5.9*33
Trace #104 at position 25.750000
$GPZDA,095527.03,08,10,2011,00,00*62
$GPRMC,095527.00,A,4611.964714,N,01258.214270,E,000.2,177.0,081011,0.2,E,A*36
$GPGGA,095528.00,4611.964698,N,01258.214286,E,1,04,3.8,139.59,M,46.25,M,,*69
$GPGLL,4611.964698,N,01258.214286,E,095528.00,A,A*61
$GPVTG,229.0,T,229.2,M,000.0,N,000.1,K,A*20
$GPGSV,2,1,06,02,29,052,38,12,36,101,40,25,70,086,44,29,78,253,41*70
$GPGSV,2,2,06,30,58,303,32,31,46,299,,,,,,,,,*72
$GPGSA,M,3,02,12,25,29,,,,,,,,,7.0,3.8,5.9*33
Trace #105 at position 26.000000
$GPZDA,095527.03,08,10,2011,00,00*62
$GPRMC,095527.00,A,4611.964714,N,01258.214270,E,000.2,177.0,081011,0.2,E,A*36
$GPGGA,095528.00,4611.964698,N,01258.214286,E,1,04,3.8,139.59,M,46.25,M,,*69
$GPGLL,4611.964698,N,01258.214286,E,095528.00,A,A*61
$GPVTG,229.0,T,229.2,M,000.0,N,000.1,K,A*20
$GPGSV,2,1,06,02,29,052,38,12,36,101,40,25,70,086,44,29,78,253,41*70
$GPGSV,2,2,06,30,58,303,32,31,46,299,,,,,,,,,*72
$GPGSA,M,3,02,12,25,29,,,,,,,,,7.0,3.8,5.9*33
Trace #106 at position 26.250000
$GPZDA,095528.03,08,10,2011,00,00*6D
$GPRMC,095528.00,A,4611.964698,N,01258.214286,E,000.0,229.0,081011,0.2,E,A*3F
$GPGGA,095529.00,4611.964926,N,01258.214157,E,1,04,3.8,139.61,M,46.25,M,,*66
$GPGLL,4611.964926,N,01258.214157,E,095529.00,A,A*65
$GPVTG,335.2,T,335.4,M,001.8,N,003.2,K,A*2D
$GPGSV,2,1,06,02,29,052,37,12,36,101,39,25,70,086,43,29,78,253,41*76
$GPGSV,2,2,06,30,58,303,38,31,46,299,,,,,,,,,*78
$GPGSA,M,3,02,12,25,29,,,,,,,,,7.0,3.8,5.9*33
Trace #107 at position 26.500000
$GPZDA,095528.03,08,10,2011,00,00*6D
$GPRMC,095528.00,A,4611.964698,N,01258.214286,E,000.0,229.0,081011,0.2,E,A*3F
$GPGGA,095529.00,4611.964926,N,01258.214157,E,1,04,3.8,139.61,M,46.25,M,,*66
$GPGLL,4611.964926,N,01258.214157,E,095529.00,A,A*65
$GPVTG,335.2,T,335.4,M,001.8,N,003.2,K,A*2D
$GPGSV,2,1,06,02,29,052,37,12,36,101,39,25,70,086,43,29,78,253,41*76
$GPGSV,2,2,06,30,58,303,38,31,46,299,,,,,,,,,*78
$GPGSA,M,3,02,12,25,29,,,,,,,,,7.0,3.8,5.9*33
Trace #108 at position 26.750000
$GPZDA,095528.03,08,10,2011,00,00*6D
$GPRMC,095528.00,A,4611.964698,N,01258.214286,E,000.0,229.0,081011,0.2,E,A*3F
$GPGGA,095529.00,4611.964926,N,01258.214157,E,1,04,3.8,139.61,M,46.25,M,,*66
$GPGLL,4611.964926,N,01258.214157,E,095529.00,A,A*65
$GPVTG,335.2,T,335.4,M,001.8,N,003.2,K,A*2D
$GPGSV,2,1,06,02,29,052,37,12,36,101,39,25,70,086,43,29,78,253,41*76
$GPGSV,2,2,06,30,58,303,38,31,46,299,,,,,,,,,*78
$GPGSA,M,3,02,12,25,29,,,,,,,,,7.0,3.8,5.9*33
Trace #109 at position 27.000000
$GPZDA,095528.03,08,10,2011,00,00*6D
$GPRMC,095528.00,A,4611.964698,N,01258.214286,E,000.0,229.0,081011,0.2,E,A*3F
$GPGGA,095529.00,4611.964926,N,01258.214157,E,1,04,3.8,139.61,M,46.25,M,,*66
$GPGLL,4611.964926,N,01258.214157,E,095529.00,A,A*65
$GPVTG,335.2,T,335.4,M,001.8,N,003.2,K,A*2D
$GPGSV,2,1,06,02,29,052,37,12,36,101,39,25,70,086,43,29,78,253,41*76
$GPGSV,2,2,06,30,58,303,38,31,46,299,,,,,,,,,*78
$GPGSA,M,3,02,12,25,29,,,,,,,,,7.0,3.8,5.9*33
Trace #110 at position 27.250000
$GPZDA,095529.03,08,10,2011,00,00*6C
$GPRMC,095529.00,A,4611.964926,N,01258.214157,E,001.8,335.2,081011,0.2,E,A*3C
$GPGGA,095530.00,4611.965397,N,01258.213988,E,1,04,3.8,139.70,M,46.25,M,,*62
$GPGLL,4611.965397,N,01258.213988,E,095530.00,A,A*61
$GPVTG,352.1,T,352.3,M,001.7,N,003.2,K,A*26
$GPGSV,2,1,06,02,29,052,37,12,36,101,39,25,70,087,42,29,78,253,41*76
$GPGSV,2,2,06,30,58,303,37,31,46,299,,,,,,,,,*77
$GPGSA,M,3,02,12,25,29,,,,,,,,,7.0,3.8,5.9*33
Trace #111 at position 27.500000
$GPZDA,095529.03,08,10,2011,00,00*6C
$GPRMC,095529.00,A,4611.964926,N,01258.214157,E,001.8,335.2,081011,0.2,E,A*3C
$GPGGA,095530.00,4611.965397,N,01258.213988,E,1,04,3.8,139.70,M,46.25,M,,*62
$GPGLL,4611.965397,N,01258.213988,E,095530.00,A,A*61
$GPVTG,352.1,T,352.3,M,001.7,N,003.2,K,A*26
$GPGSV,2,1,06,02,29,052,37,12,36,101,39,25,70,087,42,29,78,253,41*76
$GPGSV,2,2,06,30,58,303,37,31,46,299,,,,,,,,,*77
$GPGSA,M,3,02,12,25,29,,,,,,,,,7.0,3.8,5.9*33
Trace #112 at position 27.750000
$GPZDA,095529.03,08,10,2011,00,00*6C
$GPRMC,095529.00,A,4611.964926,N,01258.214157,E,001.8,335.2,081011,0.2,E,A*3C
$GPGGA,095530.00,4611.965397,N,01258.213988,E,1,04,3.8,139.70,M,46.25,M,,*62
$GPGLL,4611.965397,N,01258.213988,E,095530.00,A,A*61
$GPVTG,352.1,T,352.3,M,001.7,N,003.2,K,A*26
$GPGSV,2,1,06,02,29,052,37,12,36,101,39,25,70,087,42,29,78,253,41*76
$GPGSV,2,2,06,30,58,303,37,31,46,299,,,,,,,,,*77
$GPGSA,M,3,02,12,25,29,,,,,,,,,7.0,3.8,5.9*33
Trace #113 at position 28.000000
$GPZDA,095530.03,08,10,2011,00,00*64
$GPRMC,095530.00,A,4611.965397,N,01258.213988,E,001.7,352.1,081011,0.2,E,A*35
$GPGGA,095531.00,4611.965823,N,01258.213795,E,1,04,3.8,139.66,M,46.25,M,,*62
$GPGLL,4611.965823,N,01258.213795,E,095531.00,A,A*66
$GPVTG,326.8,T,326.9,M,001.5,N,002.8,K,A*2C
$GPGSV,2,1,06,02,29,052,39,12,36,101,41,25,70,087,41,29,78,253,41*74
$GPGSV,2,2,06,30,58,303,36,31,46,299,,,,,,,,,*76
$GPGSA,M,3,02,12,25,29,,,,,,,,,7.0,3.8,5.9*33
Trace #114 at position 28.250000
$GPZDA,095530.03,08,10,2011,00,00*64
$GPRMC,095530.00,A,4611.965397,N,01258.213988,E,001.7,352.1,081011,0.2,E,A*35
$GPGGA,095531.00,4611.965823,N,01258.213795,E,1,04,3.8,139.66,M,46.25,M,,*62
$GPGLL,4611.965823,N,01258.213795,E,095531.00,A,A*66
$GPVTG,326.8,T,326.9,M,001.5,N,002.8,K,A*2C
$GPGSV,2,1,06,02,29,052,39,12,36,101,41,25,70,087,41,29,78,253,41*74
$GPGSV,2,2,06,30,58,303,36,31,46,299,,,,,,,,,*76
$GPGSA,M,3,02,12,25,29,,,,,,,,,7.0,3.8,5.9*33
Trace #115 at position 28.500000
$GPZDA,095530.03,08,10,2011,00,00*64
$GPRMC,095530.00,A,4611.965397,N,01258.213988,E,001.7,352.1,081011,0.2,E,A*35
$GPGGA,095531.00,4611.965823,N,01258.213795,E,1,04,3.8,139.66,M,46.25,M,,*62
$GPGLL,4611.965823,N,01258.213795,E,095531.00,A,A*66
$GPVTG,326.8,T,326.9,M,001.5,N,002.8,K,A*2C
$GPGSV,2,1,06,02,29,052,39,12,36,101,41,25,70,087,41,29,78,253,41*74
$GPGSV,2,2,06,30,58,303,36,31,46,299,,,,,,,,,*76
$GPGSA,M,3,02,12,25,29,,,,,,,,,7.0,3.8,5.9*33
Trace #116 at position 28.750000
$GPZDA,095531.03,08,10,2011,00,00*65
$GPRMC,095531.00,A,4611.965823,N,01258.213795,E,001.5,326.8,081011,0.2,E,A*3A
$GPGGA,095532.00,4611.966229,N,01258.213695,E,1,04,3.8,139.55,M,46.25,M,,*63
$GPGLL,4611.966229,N,01258.213695,E,095532.00,A,A*67
$GPVTG,10.8,T,11.0,M,001.6,N,002.9,K,A*26
$GPGSV,2,1,06,02,29,052,38,12,36,101,41,25,70,087,42,29,78,253,41*76
$GPGSV,2,2,06,30,58,303,35,31,46,299,,,,,,,,,*75
$GPGSA,M,3,02,12,25,29,,,,,,,,,7.0,3.8,5.9*33
Trace #117 at position 29.000000
$GPZDA,095531.03,08,10,2011,00,00*65
$GPRMC,095531.00,A,4611.965823,N,01258.213795,E,001.5,326.8,081011,0.2,E,A*3A
$GPGGA,095532.00,4611.966229,N,01258.213695,E,1,04,3.8,139.55,M,46.25,M,,*63
$GPGLL,4611.966229,N,01258.213695,E,095532.00,A,A*67
$GPVTG,10.8,T,11.0,M,001.6,N,002.9,K,A*26
$GPGSV,2,1,06,02,29,052,38,12,36,101,41,25,70,087,42,29,78,253,41*76
$GPGSV,2,2,06,30,58,303,35,31,46,299,,,,,,,,,*75
$GPGSA,M,3,02,12,25,29,,,,,,,,,7.0,3.8,5.9*33
Trace #118 at position 29.250000
$GPZDA,095531.03,08,10,2011,00,00*65
$GPRMC,095531.00,A,4611.965823,N,01258.213795,E,001.5,326.8,081011,0.2,E,A*3A
$GPGGA,095532.00,4611.966229,N,01258.213695,E,1,04,3.8,139.55,M,46.25,M,,*63
$GPGLL,4611.966229,N,01258.213695,E,095532.00,A,A*67
$GPVTG,10.8,T,11.0,M,001.6,N,002.9,K,A*26
$GPGSV,2,1,06,02,29,052,38,12,36,101,41,25,70,087,42,29,78,253,41*76
$GPGSV,2,2,06,30,58,303,35,31,46,299,,,,,,,,,*75
$GPGSA,M,3,02,12,25,29,,,,,,,,,7.0,3.8,5.9*33
Trace #119 at position 29.500000
$GPZDA,095531.03,08,10,2011,00,00*65
$GPRMC,095531.00,A,4611.965823,N,01258.213795,E,001.5,326.8,081011,0.2,E,A*3A
$GPGGA,095532.00,4611.966229,N,01258.213695,E,1,04,3.8,139.55,M,46.25,M,,*63
$GPGLL,4611.966229,N,01258.213695,E,095532.00,A,A*67
$GPVTG,10.8,T,11.0,M,001.6,N,002.9,K,A*26
$GPGSV,2,1,06,02,29,052,38,12,36,101,41,25,70,087,42,29,78,253,41*76
$GPGSV,2,2,06,30,58,303,35,31,46,299,,,,,,,,,*75
$GPGSA,M,3,02,12,25,29,,,,,,,,,7.0,3.8,5.9*33
Trace #120 at position 29.750000
$GPZDA,095532.03,08,10,2011,00,00*66
$GPRMC,095532.00,A,4611.966229,N,01258.213695,E,001.6,10.8,081011,0.2,E,A*0E
$GPGGA,095533.00,4611.966666,N,01258.213501,E,1,04,3.8,139.54,M,46.25,M,,*62
$GPGLL,4611.966666,N,01258.213501,E,095533.00,A,A*67
