Trace #1 at position 0.000000
$GPZDA,083539.04,09,10,2011,00,00*6C
$GPRMC,083539.00,A,4611.978676,N,01258.215964,E,000.0,79.6,091011,0.2,E,A*03
$GPGGA,083540.00,4611.978672,N,01258.215924,E,1,07,1.4,141.21,M,46.25,M,,*66
$GPGLL,4611.978672,N,01258.215924,E,083540.00,A,A*63
$GPVTG,241.2,T,241.3,M,000.0,N,000.1,K,A*22,09,14,33,262,42,25,70,312,47,29,43,218,43,30,26,285,40*7B
$GPGSV,3,3,09,31,17,314,40,,,,,,,,,,,,*46
$GPGSA,M,3,02,12,14,25,29,30,31,,,,,,2.6,1.4,2.2*36
Trace #2 at position 0.250000
$GPGGA,083543.00,4611.979336,N,01258.214012,E,1,04,13.5,143.87,M,46.25,M,,*53
$GPGLL,4611.979336,N,01258.214012,E,083543.00,A,A*69
$GPVTG,110.8,T,110.9,M,000.1,N,000.3,K,A*20
$GPGSV,3,1,09,02,38,089,22,04,17,044,35,09,27,149,,12,64,065,35*7A
$GPGSV,3,2,09,14,33,262,46,25,70,312,40,29,43,218,34,30,26,285,44*7C
$GPGSV,3,3,09,31,17,314,39,,,,,,,,,,,,*48
$GPGSA,M,3,14,25,30,31,,,,,,,,,18.9,13.5,13.3*0B
Trace #3 at position 0.500000
$GPZDA,083543.04,09,10,2011,00,00*61
$GPRMC,083543.0$GPGGA,083544.00,4611.979230,N,01258.214199,E,1,05,3.8,143.48,M,46.25,M,,*6F
$GPGLL,4611.979230,N,01258.214199,E,083544.00,A,A*6B
$GPVTG,211.9,T,212.0,M,000.1,N,000.1,K,A*29
$GPGSV,3,1,09,02,38,089,,04,17,044,37,09,27,149,,12,64,065,34*79
$GPGSV,3,2,09,14,33,262,47,25,70,312,45,29,43,218,39,30,26,285,44*75
$GPGSV,3,3,09,31,17,314,41,,,,,,,,,,,,*47
$GPGSA,M,3,14,25,29,30,31,,,,,,,,5.7,3.8,4.2*39
Trace #4 at position 0.750000
$GPZDA,083543.04,09,10,2011,00,00*61
$GPRMC,083543.0$GPGGA,083544.00,4611.979230,N,01258.214199,E,1,05,3.8,143.48,M,46.25,M,,*6F
$GPGLL,4611.979230,N,01258.214199,E,083544.00,A,A*6B
$GPVTG,211.9,T,212.0,M,000.1,N,000.1,K,A*29
$GPGSV,3,1,09,02,38,089,,04,17,044,37,09,27,149,,12,64,065,34*79
$GPGSV,3,2,09,14,33,262,47,25,70,312,45,29,43,218,39,30,26,285,44*75
$GPGSV,3,3,09,31,17,314,41,,,,,,,,,,,,*47
$GPGSA,M,3,14,25,29,30,31,,,,,,,,5.7,3.8,4.2*39
Trace #5 at position 1.000000
$GPZDA,083544.04,09,10,2011,00,00*66
$GPRMC,083544.00,A,4611.979230,N,01258.214199,E,000.1,211.9,091011,0.$GPGGA,083545.00,4611.979136,N,01258.214437,E,1,06,2.1,143.11,M,46.25,M,,*6D
$GPGLL,4611.979136,N,01258.214437,E,083545.00,A,A*6E
$GPVTG,107.0,T,107.1,M,000.1,N,000.2,K,A*21
$GPGSV,3,1,09,02,38,089,,04,17,044,36,09,27,149,,12,64,065,42*79
$GPGSV,3,2,09,14,33,262,44,25,70,312,48,29,43,218,40,30,26,285,42*73
$GPGSV,3,3,09,31,17,314,38,,,,,,,,,,,,*49
$GPGSA,M,3,12,14,25,29,30,31,,,,,,,4.0,2.1,3.4*35
Trace #6 at position 1.250000
$GPZDA,083544.04,09,10,2011,00,00*66
$GPRMC,083544.00,A,4611.979230,N,01258.214199,E,000.1,211.9,091011,0.$GPGGA,083545.00,4611.979136,N,01258.214437,E,1,06,2.1,143.11,M,46.25,M,,*6D
$GPGLL,4611.979136,N,01258.214437,E,083545.00,A,A*6E
$GPVTG,107.0,T,107.1,M,000.1,N,000.2,K,A*21
$GPGSV,3,1,09,02,38,089,,04,17,044,36,09,27,149,,12,64,065,42*79
$GPGSV,3,2,09,14,33,262,44,25,70,312,48,29,43,218,40,30,26,285,42*73
$GPGSV,3,3,09,31,17,314,38,,,,,,,,,,,,*49
$GPGSA,M,3,12,14,25,29,30,31,,,,,,,4.0,2.1,3.4*35
Trace #7 at position 1.500000
$GPZDA,083544.04,09,10,2011,00,00*66
$GPRMC,083544.00,A,4611.979230,N,01258.214199,E,000.1,211.9,091011,0.$GPGGA,083545.00,4611.979136,N,01258.214437,E,1,06,2.1,143.11,M,46.25,M,,*6D
$GPGLL,4611.979136,N,01258.214437,E,083545.00,A,A*6E
$GPVTG,107.0,T,107.1,M,000.1,N,000.2,K,A*21
$GPGSV,3,1,09,02,38,089,,04,17,044,36,09,27,149,,12,64,065,42*79
$GPGSV,3,2,09,14,33,262,44,25,70,312,48,29,43,218,40,30,26,285,42*73
$GPGSV,3,3,09,31,17,314,38,,,,,,,,,,,,*49
$GPGSA,M,3,12,14,25,29,30,31,,,,,,,4.0,2.1,3.4*35
Trace #8 at position 1.750000
$GPZDA,083544.04,09,10,2011,00,00*66
$GPRMC,083544.00,A,4611.979230,N,01258.214199,E,000.1,211.9,091011,0.$GPGGA,083545.00,4611.979136,N,01258.214437,E,1,06,2.1,143.11,M,46.25,M,,*6D
$GPGLL,4611.979136,N,01258.214437,E,083545.00,A,A*6E
$GPVTG,107.0,T,107.1,M,000.1,N,000.2,K,A*21
$GPGSV,3,1,09,02,38,089,,04,17,044,36,09,27,149,,12,64,065,42*79
$GPGSV,3,2,09,14,33,262,44,25,70,312,48,29,43,218,40,30,26,285,42*73
$GPGSV,3,3,09,31,17,314,38,,,,,,,,,,,,*49
$GPGSA,M,3,12,14,25,29,30,31,,,,,,,4.0,2.1,3.4*35
Trace #9 at position 2.000000
$GPZDA,083545.04,09,10,2011,00,00*67
$GPRMC,083545.00,A,4611.979136,N,01258.214437,E,000.1,107.0,091011,$GPGGA,083546.00,4611.979064,N,01258.214642,E,1,06,2.1,142.81,M,46.25,M,,*60
$GPGLL,4611.979064,N,01258.214642,E,083546.00,A,A*6B
$GPVTG,290.1,T,290.3,M,000.1,N,000.1,K,A*21
$GPGSV,3,1,09,02,38,089,,04,17,044,37,09,27,149,,12,64,065,43*79
$GPGSV,3,2,09,14,33,262,44,25,70,312,47,29,43,218,43,30,26,285,42*7F
$GPGSV,3,3,09,31,18,314,40,,,,,,,,,,,,*49
$GPGSA,M,3,12,14,25,29,30,31,,,,,,,4.0,2.1,3.4*35
Trace #10 at position 2.250000
$GPZDA,083545.04,09,10,2011,00,00*67
$GPRMC,083545.00,A,4611.979136,N,01258.214437,E,000.1,107.0,091011,$GPGGA,083546.00,4611.979064,N,01258.214642,E,1,06,2.1,142.81,M,46.25,M,,*60
$GPGLL,4611.979064,N,01258.214642,E,083546.00,A,A*6B
$GPVTG,290.1,T,290.3,M,000.1,N,000.1,K,A*21
$GPGSV,3,1,09,02,38,089,,04,17,044,37,09,27,149,,12,64,065,43*79
$GPGSV,3,2,09,14,33,262,44,25,70,312,47,29,43,218,43,30,26,285,42*7F
$GPGSV,3,3,09,31,18,314,40,,,,,,,,,,,,*49
$GPGSA,M,3,12,14,25,29,30,31,,,,,,,4.0,2.1,3.4*35
Trace #11 at position 2.500000
$GPZDA,083545.04,09,10,2011,00,00*67
$GPRMC,083545.00,A,4611.979136,N,01258.214437,E,000.1,107.0,091011,$GPGGA,083546.00,4611.979064,N,01258.214642,E,1,06,2.1,142.81,M,46.25,M,,*60
$GPGLL,4611.979064,N,01258.214642,E,083546.00,A,A*6B
$GPVTG,290.1,T,290.3,M,000.1,N,000.1,K,A*21
$GPGSV,3,1,09,02,38,089,,04,17,044,37,09,27,149,,12,64,065,43*79
$GPGSV,3,2,09,14,33,262,44,25,70,312,47,29,43,218,43,30,26,285,42*7F
$GPGSV,3,3,09,31,18,314,40,,,,,,,,,,,,*49
$GPGSA,M,3,12,14,25,29,30,31,,,,,,,4.0,2.1,3.4*35
Trace #12 at position 2.750000
$GPZDA,083546.04,09,10,2011,00,00*64
$GPRMC,083546.00,A,4611.979064,N,01258.214642,E,000.1,290.1,091011,$GPGGA,083547.00,4611.979005,N,01258.214806,E,1,06,2.1,142.56,M,46.25,M,,*62
$GPGLL,4611.979005,N,01258.214806,E,083547.00,A,A*63
$GPVTG,320.1,T,320.3,M,000.0,N,000.0,K,A*21
$GPGSV,3,1,09,02,38,089,39,04,17,044,36,09,27,149,,12,64,065,43*72
$GPGSV,3,2,09,14,33,262,43,25,70,312,48,29,43,218,43,30,26,285,42*77
$GPGSV,3,3,09,31,18,314,38,,,,,,,,,,,,*46
$GPGSA,M,3,12,14,25,29,30,31,,,,,,,4.0,2.1,3.4*35
Trace #13 at position 3.000000
$GPZDA,083546.04,09,10,2011,00,00*64
$GPRMC,083546.00,A,4611.979064,N,01258.214642,E,000.1,290.1,091011,$GPGGA,083547.00,4611.979005,N,01258.214806,E,1,06,2.1,142.56,M,46.25,M,,*62
$GPGLL,4611.979005,N,01258.214806,E,083547.00,A,A*63
$GPVTG,320.1,T,320.3,M,000.0,N,000.0,K,A*21
$GPGSV,3,1,09,02,38,089,39,04,17,044,36,09,27,149,,12,64,065,43*72
$GPGSV,3,2,09,14,33,262,43,25,70,312,48,29,43,218,43,30,26,285,42*77
$GPGSV,3,3,09,31,18,314,38,,,,,,,,,,,,*46
$GPGSA,M,3,12,14,25,29,30,31,,,,,,,4.0,2.1,3.4*35
Trace #14 at position 3.250000
$GPZDA,083546.04,09,10,2011,00,00*64
$GPRMC,083546.00,A,4611.979064,N,01258.214642,E,000.1,290.1,091011,$GPGGA,083547.00,4611.979005,N,01258.214806,E,1,06,2.1,142.56,M,46.25,M,,*62
$GPGLL,4611.979005,N,01258.214806,E,083547.00,A,A*63
$GPVTG,320.1,T,320.3,M,000.0,N,000.0,K,A*21
$GPGSV,3,1,09,02,38,089,39,04,17,044,36,09,27,149,,12,64,065,43*72
$GPGSV,3,2,09,14,33,262,43,25,70,312,48,29,43,218,43,30,26,285,42*77
$GPGSV,3,3,09,31,18,314,38,,,,,,,,,,,,*46
$GPGSA,M,3,12,14,25,29,30,31,,,,,,,4.0,2.1,3.4*35
Trace #15 at position 3.500000
$GPZDA,083547.04,09,10,2011,00,00*65
$GPRMC,083547.00,A,4611.979005,N,01258.214806,E,000.0,320.1,0910146.25,M,,*6A
$GPGLL,4611.978950,N,01258.214968,E,083548.00,A,A*6D
$GPVTG,79.8,T,79.9,M,000.0,N,000.0,K,A*22
$GPGSV,3,1,09,02,38,089,40,04,17,044,38,09,27,149,,12,64,065,42*73
$GPGSV,3,2,09,14,33,262,43,25,70,312,48,29,43,218,44,30,26,285,42*70
$GPGSV,3,3,09,31,18,314,40,,,,,,,,,,,,*49
$GPGSA,M,3,02,12,14,25,29,30,31,,,,,,2.6,1.4,2.2*36
Trace #16 at position 3.750000
$GPZDA,083547.04,09,10,2011,00,00*65
$GPRMC,083547.00,A,4611.979005,N,01258.214806,E,000.0,320.1,0910146.25,M,,*6A
$GPGLL,4611.978950,N,01258.214968,E,083548.00,A,A*6D
$GPVTG,79.8,T,79.9,M,000.0,N,000.0,K,A*22
$GPGSV,3,1,09,02,38,089,40,04,17,044,38,09,27,149,,12,64,065,42*73
$GPGSV,3,2,09,14,33,262,43,25,70,312,48,29,43,218,44,30,26,285,42*70
$GPGSV,3,3,09,31,18,314,40,,,,,,,,,,,,*49
$GPGSA,M,3,02,12,14,25,29,30,31,,,,,,2.6,1.4,2.2*36
Trace #17 at position 4.000000
$GPZDA,083547.04,09,10,2011,00,00*65
$GPRMC,083547.00,A,4611.979005,N,01258.214806,E,000.0,320.1,0910146.25,M,,*6A
$GPGLL,4611.978950,N,01258.214968,E,083548.00,A,A*6D
$GPVTG,79.8,T,79.9,M,000.0,N,000.0,K,A*22
$GPGSV,3,1,09,02,38,089,40,04,17,044,38,09,27,149,,12,64,065,42*73
$GPGSV,3,2,09,14,33,262,43,25,70,312,48,29,43,218,44,30,26,285,42*70
$GPGSV,3,3,09,31,18,314,40,,,,,,,,,,,,*49
$GPGSA,M,3,02,12,14,25,29,30,31,,,,,,2.6,1.4,2.2*36
Trace #18 at position 4.250000
$GPZDA,083548.04,09,10,2011,00,00*6A
$GPRMC,083548.00,A,4611.978950,N,01258.214968,E,000.0,79.8,091011,0.2,E,A*0D
$GPGGA,083549.00,4611.978919,N,01258.215137,E,1,08,83549.00,A,A*62
$GPVTG,35.7,T,35.9,M,000.1,N,000.2,K,A*2E
$GPGSV,3,1,09,02,38,089,40,04,17,044,39,09,27,149,,12,64,065,43*73
$GPGSV,3,2,09,14,33,262,43,25,70,312,47,29,43,218,44,30,26,285,42*7F
$GPGSV,3,3,09,31,18,314,39,,,,,,,,,,,,*47
$GPGSA,M,3,02,04,12,14,25,29,30,31,,,,,2.2,1.3,1.9*39
Trace #19 at position 4.500000
$GPZDA,083548.04,09,10,2011,00,00*6A
$GPRMC,083548.00,A,4611.978950,N,01258.214968,E,000.0,79.8,091011,0.2,E,A*0D
$GPGGA,083549.00,4611.978919,N,01258.215137,E,1,08,83549.00,A,A*62
$GPVTG,35.7,T,35.9,M,000.1,N,000.2,K,A*2E
$GPGSV,3,1,09,02,38,089,40,04,17,044,39,09,27,149,,12,64,065,43*73
$GPGSV,3,2,09,14,33,262,43,25,70,312,47,29,43,218,44,30,26,285,42*7F
$GPGSV,3,3,09,31,18,314,39,,,,,,,,,,,,*47
$GPGSA,M,3,02,04,12,14,25,29,30,31,,,,,2.2,1.3,1.9*39
Trace #20 at position 4.750000
$GPZDA,083548.04,09,10,2011,00,00*6A
$GPRMC,083548.00,A,4611.978950,N,01258.214968,E,000.0,79.8,091011,0.2,E,A*0D
$GPGGA,083549.00,4611.978919,N,01258.215137,E,1,08,83549.00,A,A*62
$GPVTG,35.7,T,35.9,M,000.1,N,000.2,K,A*2E
$GPGSV,3,1,09,02,38,089,40,04,17,044,39,09,27,149,,12,64,065,43*73
$GPGSV,3,2,09,14,33,262,43,25,70,312,47,29,43,218,44,30,26,285,42*7F
$GPGSV,3,3,09,31,18,314,39,,,,,,,,,,,,*47
$GPGSA,M,3,02,04,12,14,25,29,30,31,,,,,2.2,1.3,1.9*39
Trace #21 at position 5.000000
$GPZDA,083548.04,09,10,2011,00,00*6A
$GPRMC,083548.00,A,4611.978950,N,01258.214968,E,000.0,79.8,091011,0.2,E,A*0D
$GPGGA,083549.00,4611.978919,N,01258.215137,E,1,08,83549.00,A,A*62
$GPVTG,35.7,T,35.9,M,000.1,N,000.2,K,A*2E
$GPGSV,3,1,09,02,38,089,40,04,17,044,39,09,27,149,,12,64,065,43*73
$GPGSV,3,2,09,14,33,262,43,25,70,312,47,29,43,218,44,30,26,285,42*7F
$GPGSV,3,3,09,31,18,314,39,,,,,,,,,,,,*47
$GPGSA,M,3,02,04,12,14,25,29,30,31,,,,,2.2,1.3,1.9*39
Trace #22 at position 5.250000
$GPZDA,083549.04,09,10,2011,00,00*6B
$GPRMC,083549.00,A,4611.978919,N,01258.215137,E,000.1,35.7,091011,0.2,E,A*04
$GPGGA,083550.00,4611.978786,N,01258.215380,E,1,08,1.3,142.01,M,46.25,M,,*60
$GPGLL,4611.978786,N,0,089,37,04,17,044,39,09,27,149,,12,64,065,44*74
$GPGSV,3,2,09,14,33,262,43,25,70,312,49,29,43,218,43,30,26,285,42*76
$GPGSV,3,3,09,31,18,314,39,,,,,,,,,,,,*47
$GPGSA,M,3,02,04,12,14,25,29,30,31,,,,,2.2,1.3,1.9*39
Trace #23 at position 5.500000
$GPZDA,083549.04,09,10,2011,00,00*6B
$GPRMC,083549.00,A,4611.978919,N,01258.215137,E,000.1,35.7,091011,0.2,E,A*04
$GPGGA,083550.00,4611.978786,N,01258.215380,E,1,08,1.3,142.01,M,46.25,M,,*60
$GPGLL,4611.978786,N,0,089,37,04,17,044,39,09,27,149,,12,64,065,44*74
$GPGSV,3,2,09,14,33,262,43,25,70,312,49,29,43,218,43,30,26,285,42*76
$GPGSV,3,3,09,31,18,314,39,,,,,,,,,,,,*47
$GPGSA,M,3,02,04,12,14,25,29,30,31,,,,,2.2,1.3,1.9*39
Trace #24 at position 5.750000
$GPZDA,083549.04,09,10,2011,00,00*6B
$GPRMC,083549.00,A,4611.978919,N,01258.215137,E,000.1,35.7,091011,0.2,E,A*04
$GPGGA,083550.00,4611.978786,N,01258.215380,E,1,08,1.3,142.01,M,46.25,M,,*60
$GPGLL,4611.978786,N,0,089,37,04,17,044,39,09,27,149,,12,64,065,44*74
$GPGSV,3,2,09,14,33,262,43,25,70,312,49,29,43,218,43,30,26,285,42*76
$GPGSV,3,3,09,31,18,314,39,,,,,,,,,,,,*47
$GPGSA,M,3,02,04,12,14,25,29,30,31,,,,,2.2,1.3,1.9*39
Trace #25 at position 6.000000
$GPZDA,083550.04,09,10,2011,00,00*63
$GPRMC,083550.00,A,4611.978786,N,01258.215380,E,000.9,145.1,091011,0.2,E,A*32
$GPGGA,083551.00,4611.978399,N,01258.215653,E,1,07,1.5,141.83,M,46.25,M,,*60
$GPGLL,4611.978399,N,01258.215653,E,083551.00,A,A*6C
$GPVTG,172.6,T,172.8,M,001.7,N,003.1,K,A*29
$5,41*74
$GPGSV,3,3,09,31,18,314,41,,,,,,,,,,,,*48
$GPGSA,M,3,04,12,14,25,29,30,31,,,,,,2.4,1.5,1.9*3B
Trace #26 at position 6.250000
$GPZDA,083550.04,09,10,2011,00,00*63
$GPRMC,083550.00,A,4611.978786,N,01258.215380,E,000.9,145.1,091011,0.2,E,A*32
$GPGGA,083551.00,4611.978399,N,01258.215653,E,1,07,1.5,141.83,M,46.25,M,,*60
$GPGLL,4611.978399,N,01258.215653,E,083551.00,A,A*6C
$GPVTG,172.6,T,172.8,M,001.7,N,003.1,K,A*29
$5,41*74
$GPGSV,3,3,09,31,18,314,41,,,,,,,,,,,,*48
$GPGSA,M,3,04,12,14,25,29,30,31,,,,,,2.4,1.5,1.9*3B
Trace #27 at position 6.500000
$GPZDA,083550.04,09,10,2011,00,00*63
$GPRMC,083550.00,A,4611.978786,N,01258.215380,E,000.9,145.1,091011,0.2,E,A*32
$GPGGA,083551.00,4611.978399,N,01258.215653,E,1,07,1.5,141.83,M,46.25,M,,*60
$GPGLL,4611.978399,N,01258.215653,E,083551.00,A,A*6C
$GPVTG,172.6,T,172.8,M,001.7,N,003.1,K,A*29
$5,41*74
$GPGSV,3,3,09,31,18,314,41,,,,,,,,,,,,*48
$GPGSA,M,3,04,12,14,25,29,30,31,,,,,,2.4,1.5,1.9*3B
Trace #28 at position 6.750000
$GPZDA,083550.04,09,10,2011,00,00*63
$GPRMC,083550.00,A,4611.978786,N,01258.215380,E,000.9,145.1,091011,0.2,E,A*32
$GPGGA,083551.00,4611.978399,N,01258.215653,E,1,07,1.5,141.83,M,46.25,M,,*60
$GPGLL,4611.978399,N,01258.215653,E,083551.00,A,A*6C
$GPVTG,172.6,T,172.8,M,001.7,N,003.1,K,A*29
$5,41*74
$GPGSV,3,3,09,31,18,314,41,,,,,,,,,,,,*48
$GPGSA,M,3,04,12,14,25,29,30,31,,,,,,2.4,1.5,1.9*3B
Trace #29 at position 7.000000
$GPZDA,083550.04,09,10,2011,00,00*63
$GPRMC,083550.00,A,4611.978786,N,01258.215380,E,000.9,145.1,091011,0.2,E,A*32
$GPGGA,083551.00,4611.978399,N,01258.215653,E,1,07,1.5,141.83,M,46.25,M,,*60
$GPGLL,4611.978399,N,01258.215653,E,083551.00,A,A*6C
$GPVTG,172.6,T,172.8,M,001.7,N,003.1,K,A*29
$5,41*74
$GPGSV,3,3,09,31,18,314,41,,,,,,,,,,,,*48
$GPGSA,M,3,04,12,14,25,29,30,31,,,,,,2.4,1.5,1.9*3B
Trace #30 at position 7.250000
$GPZDA,083550.04,09,10,2011,00,00*63
$GPRMC,083550.00,A,4611.978786,N,01258.215380,E,000.9,145.1,091011,0.2,E,A*32
$GPGGA,083551.00,4611.978399,N,01258.215653,E,1,07,1.5,141.83,M,46.25,M,,*60
$GPGLL,4611.978399,N,01258.215653,E,083551.00,A,A*6C
$GPVTG,172.6,T,172.8,M,001.7,N,003.1,K,A*29
$5,41*74
$GPGSV,3,3,09,31,18,314,41,,,,,,,,,,,,*48
$GPGSA,M,3,04,12,14,25,29,30,31,,,,,,2.4,1.5,1.9*3B
Trace #31 at position 7.500000
$GPZDA,083550.04,09,10,2011,00,00*63
$GPRMC,083550.00,A,4611.978786,N,01258.215380,E,000.9,145.1,091011,0.2,E,A*32
$GPGGA,083551.00,4611.978399,N,01258.215653,E,1,07,1.5,141.83,M,46.25,M,,*60
$GPGLL,4611.978399,N,01258.215653,E,083551.00,A,A*6C
$GPVTG,172.6,T,172.8,M,001.7,N,003.1,K,A*29
$5,41*74
$GPGSV,3,3,09,31,18,314,41,,,,,,,,,,,,*48
$GPGSA,M,3,04,12,14,25,29,30,31,,,,,,2.4,1.5,1.9*3B
Trace #32 at position 7.750000
$GPZDA,083550.04,09,10,2011,00,00*63
$GPRMC,083550.00,A,4611.978786,N,01258.215380,E,000.9,145.1,091011,0.2,E,A*32
$GPGGA,083551.00,4611.978399,N,01258.215653,E,1,07,1.5,141.83,M,46.25,M,,*60
$GPGLL,4611.978399,N,01258.215653,E,083551.00,A,A*6C
$GPVTG,172.6,T,172.8,M,001.7,N,003.1,K,A*29
$5,41*74
$GPGSV,3,3,09,31,18,314,41,,,,,,,,,,,,*48
$GPGSA,M,3,04,12,14,25,29,30,31,,,,,,2.4,1.5,1.9*3B
Trace #33 at position 8.000000
$GPZDA,083551.04,09,10,2011,00,00*62
$GPRMC,083551.00,A,4611.978399,N,01258.215653,E,001.7,172.6,091011,0.2,E,A*3E
$GPGGA,083552.00,4611.977923,N,01258.215882,E,1,07,1.5,141.61,M,46.25,M,,*69
$GPGLL,4611.977923,N,01258.215882,E,083552.00,A,A*69
$GPVTG,167.9,T,168.1,M,001.4,N,002.7,K,A*24
$GPGSV,3,1,09,02,38,089,36,04,17,044,40,09,27,149,,12,64,065,41*7E
$GPGSV,3,2,09,14,33,262,43,25,70,312,48,29,43,1.9*3B
$GPZDA,083552.04,09,10,2011,00,00*61
$GPRMC,083552.00,A,4611.977923,N,01258.215882,E,001.4,167.9,091011,0.2,E,A*33
$GPGGA,083553.00,4611.977424,N,01258.216249,E,1,07,1.5,141.43,M,46.25,M,,*6C
$GPGLL,4611.977424,N,01258.216249,E,083553.00,A,A*6C
$GPVTG,151.9,T,152.1,M,002.2,N,004.0,K,A*2C
$GPGSV,3,1,09,02,38,089,37,04,17,044,41,09,27,149,36,12,64,065,42*78
$GPGSV,3,2,09,14,33,262,42,25,70,312,47,29,43,218,42,30,26,285,40*7A
$GPGSV,3,3,09,31,18,314,37,,,,,,,,,,,,*49
$GPGSA,M,3,04,12,14,25,29,
Trace #34 at position 8.250000
$GPZDA,083551.04,09,10,2011,00,00*62
$GPRMC,083551.00,A,4611.978399,N,01258.215653,E,001.7,172.6,091011,0.2,E,A*3E
$GPGGA,083552.00,4611.977923,N,01258.215882,E,1,07,1.5,141.61,M,46.25,M,,*69
$GPGLL,4611.977923,N,01258.215882,E,083552.00,A,A*69
$GPVTG,167.9,T,168.1,M,001.4,N,002.7,K,A*24
$GPGSV,3,1,09,02,38,089,36,04,17,044,40,09,27,149,,12,64,065,41*7E
$GPGSV,3,2,09,14,33,262,43,25,70,312,48,29,43,1.9*3B
$GPZDA,083552.04,09,10,2011,00,00*61
$GPRMC,083552.00,A,4611.977923,N,01258.215882,E,001.4,167.9,091011,0.2,E,A*33
$GPGGA,083553.00,4611.977424,N,01258.216249,E,1,07,1.5,141.43,M,46.25,M,,*6C
$GPGLL,4611.977424,N,01258.216249,E,083553.00,A,A*6C
$GPVTG,151.9,T,152.1,M,002.2,N,004.0,K,A*2C
$GPGSV,3,1,09,02,38,089,37,04,17,044,41,09,27,149,36,12,64,065,42*78
$GPGSV,3,2,09,14,33,262,42,25,70,312,47,29,43,218,42,30,26,285,40*7A
$GPGSV,3,3,09,31,18,314,37,,,,,,,,,,,,*49
$GPGSA,M,3,04,12,14,25,29,
Trace #35 at position 8.500000
$GPZDA,083551.04,09,10,2011,00,00*62
$GPRMC,083551.00,A,4611.978399,N,01258.215653,E,001.7,172.6,091011,0.2,E,A*3E
$GPGGA,083552.00,4611.977923,N,01258.215882,E,1,07,1.5,141.61,M,46.25,M,,*69
$GPGLL,4611.977923,N,01258.215882,E,083552.00,A,A*69
$GPVTG,167.9,T,168.1,M,001.4,N,002.7,K,A*24
$GPGSV,3,1,09,02,38,089,36,04,17,044,40,09,27,149,,12,64,065,41*7E
$GPGSV,3,2,09,14,33,262,43,25,70,312,48,29,43,1.9*3B
$GPZDA,083552.04,09,10,2011,00,00*61
$GPRMC,083552.00,A,4611.977923,N,01258.215882,E,001.4,167.9,091011,0.2,E,A*33
$GPGGA,083553.00,4611.977424,N,01258.216249,E,1,07,1.5,141.43,M,46.25,M,,*6C
$GPGLL,4611.977424,N,01258.216249,E,083553.00,A,A*6C
$GPVTG,151.9,T,152.1,M,002.2,N,004.0,K,A*2C
$GPGSV,3,1,09,02,38,089,37,04,17,044,41,09,27,149,36,12,64,065,42*78
$GPGSV,3,2,09,14,33,262,42,25,70,312,47,29,43,218,42,30,26,285,40*7A
$GPGSV,3,3,09,31,18,314,37,,,,,,,,,,,,*49
$GPGSA,M,3,04,12,14,25,29,
Trace #36 at position 8.750000
$GPRMC,083553.00,A,4611.977424,N,01258.216249,E,002.2,151.9,091011,0.2,E,A*36
$GPGGA,083554.00,4611.976917,N,01258.216664,E,1,07,1.5,141.22,M,46.25,M,,*6B
$GPGLL,4611.976917,N,01258.216664,E,083554.00,A,A*6C
$GPVTG,156.3,T,156.4,M,001.7,N,003.2,K,A*23
$GPGSV,3,1,09,02,38,089,39,04,17,044,40,09,27,149,39,12,64,065,42*78
$GPGSV,3,2,09,14,33,262,44,25,70,312,47,29,43,218,41,30,26,285,41*7E
$GPGSV,3,3,09,31,18,314,39,,,,,,,,,,,,*47
$GPGSA,M,3,04,12,14,25,29,30,31,,,,,,2.4,1.5,1.9*3B
Trace #37 at position 9.000000
$GPRMC,083553.00,A,4611.977424,N,01258.216249,E,002.2,151.9,091011,0.2,E,A*36
$GPGGA,083554.00,4611.976917,N,01258.216664,E,1,07,1.5,141.22,M,46.25,M,,*6B
$GPGLL,4611.976917,N,01258.216664,E,083554.00,A,A*6C
$GPVTG,156.3,T,156.4,M,001.7,N,003.2,K,A*23
$GPGSV,3,1,09,02,38,089,39,04,17,044,40,09,27,149,39,12,64,065,42*78
$GPGSV,3,2,09,14,33,262,44,25,70,312,47,29,43,218,41,30,26,285,41*7E
$GPGSV,3,3,09,31,18,314,39,,,,,,,,,,,,*47
$GPGSA,M,3,04,12,14,25,29,30,31,,,,,,2.4,1.5,1.9*3B
Trace #38 at position 9.250000
$GPRMC,083553.00,A,4611.977424,N,01258.216249,E,002.2,151.9,091011,0.2,E,A*36
$GPGGA,083554.00,4611.976917,N,01258.216664,E,1,07,1.5,141.22,M,46.25,M,,*6B
$GPGLL,4611.976917,N,01258.216664,E,083554.00,A,A*6C
$GPVTG,156.3,T,156.4,M,001.7,N,003.2,K,A*23
$GPGSV,3,1,09,02,38,089,39,04,17,044,40,09,27,149,39,12,64,065,42*78
$GPGSV,3,2,09,14,33,262,44,25,70,312,47,29,43,218,41,30,26,285,41*7E
$GPGSV,3,3,09,31,18,314,39,,,,,,,,,,,,*47
$GPGSA,M,3,04,12,14,25,29,30,31,,,,,,2.4,1.5,1.9*3B
Trace #39 at position 9.500000
$GPRMC,083553.00,A,4611.977424,N,01258.216249,E,002.2,151.9,091011,0.2,E,A*36
$GPGGA,083554.00,4611.976917,N,01258.216664,E,1,07,1.5,141.22,M,46.25,M,,*6B
$GPGLL,4611.976917,N,01258.216664,E,083554.00,A,A*6C
$GPVTG,156.3,T,156.4,M,001.7,N,003.2,K,A*23
$GPGSV,3,1,09,02,38,089,39,04,17,044,40,09,27,149,39,12,64,065,42*78
$GPGSV,3,2,09,14,33,262,44,25,70,312,47,29,43,218,41,30,26,285,41*7E
$GPGSV,3,3,09,31,18,314,39,,,,,,,,,,,,*47
$GPGSA,M,3,04,12,14,25,29,30,31,,,,,,2.4,1.5,1.9*3B
Trace #40 at position 9.750000
$GPZDA,083554.04,09
$GPGGA,083555.00,4611.976515,N,01258.216919,E,1,09,0.9,141.09,M,46.25,M,,*6B
$GPGLL,4611.976515,N,01258.216919,E,083555.00,A,A*66
$GPVTG,161.8,T,162.0,M,001.4,N,002.5,K,A*2A
$GPGSV,3,1,09,02,38,089,39,04,17,044,40,09,27,149,39,12,64,065,42*78
$GPGSV,3,2,09,14,33,262,43,25,70,312,46,29,43,218,42,30,26,285,40*7A
$GPGSV,3,3,09,31,18,314,39,,,,,,,,,,,,*47
$GPGSA,M,3,02,04,09,12,14,25,29,30,31,,,,1.8,0.9,1.6*3D
Trace #41 at position 10.000000
$GPZDA,083554.04,09
$GPGGA,083555.00,4611.976515,N,01258.216919,E,1,09,0.9,141.09,M,46.25,M,,*6B
$GPGLL,4611.976515,N,01258.216919,E,083555.00,A,A*66
$GPVTG,161.8,T,162.0,M,001.4,N,002.5,K,A*2A
$GPGSV,3,1,09,02,38,089,39,04,17,044,40,09,27,149,39,12,64,065,42*78
$GPGSV,3,2,09,14,33,262,43,25,70,312,46,29,43,218,42,30,26,285,40*7A
$GPGSV,3,3,09,31,18,314,39,,,,,,,,,,,,*47
$GPGSA,M,3,02,04,09,12,14,25,29,30,31,,,,1.8,0.9,1.6*3D
Trace #42 at position 10.250000
$GPZDA,083554.04,09
$GPGGA,083555.00,4611.976515,N,01258.216919,E,1,09,0.9,141.09,M,46.25,M,,*6B
$GPGLL,4611.976515,N,01258.216919,E,083555.00,A,A*66
$GPVTG,161.8,T,162.0,M,001.4,N,002.5,K,A*2A
$GPGSV,3,1,09,02,38,089,39,04,17,044,40,09,27,149,39,12,64,065,42*78
$GPGSV,3,2,09,14,33,262,43,25,70,312,46,29,43,218,42,30,26,285,40*7A
$GPGSV,3,3,09,31,18,314,39,,,,,,,,,,,,*47
$GPGSA,M,3,02,04,09,12,14,25,29,30,31,,,,1.8,0.9,1.6*3D
Trace #43 at position 10.500000
$GPZDA,083554.04,09
$GPGGA,083555.00,4611.976515,N,01258.216919,E,1,09,0.9,141.09,M,46.25,M,,*6B
$GPGLL,4611.976515,N,01258.216919,E,083555.00,A,A*66
$GPVTG,161.8,T,162.0,M,001.4,N,002.5,K,A*2A
$GPGSV,3,1,09,02,38,089,39,04,17,044,40,09,27,149,39,12,64,065,42*78
$GPGSV,3,2,09,14,33,262,43,25,70,312,46,29,43,218,42,30,26,285,40*7A
$GPGSV,3,3,09,31,18,314,39,,,,,,,,,,,,*47
$GPGSA,M,3,02,04,09,12,14,25,29,30,31,,,,1.8,0.9,1.6*3D
Trace #44 at position 10.750000
$GPZDA,083555.04,09,10,2011,00,00*66
$GPRMC,083555.00,A,4611.976515,N,01258.216919,E,001.4,1$GPGGA,083556.00,4611.976134,N,01258.217102,E,1,09,0.9,141.09,M,46.25,M,,*6C
$GPGLL,4611.976134,N,01258.217102,E,083556.00,A,A*61
$GPVTG,166.8,T,167.0,M,001.4,N,002.6,K,A*2B
$GPGSV,3,1,09,02,38,089,38,04,17,044,41,09,27,149,40,12,64,065,43*77
$GPGSV,3,2,09,14,33,262,42,25,70,312,46,29,43,218,43,30,26,285,41*7B
$GPGSV,3,3,09,31,18,314,40,,,,,,,,,,,,*49
$GPGSA,M,3,02,04,09,12,14,25,29,30,31,,,,1.8,0.9,1.6*3D
Trace #45 at position 11.000000
$GPZDA,083555.04,09,10,2011,00,00*66
$GPRMC,083555.00,A,4611.976515,N,01258.216919,E,001.4,1$GPGGA,083556.00,4611.976134,N,01258.217102,E,1,09,0.9,141.09,M,46.25,M,,*6C
$GPGLL,4611.976134,N,01258.217102,E,083556.00,A,A*61
$GPVTG,166.8,T,167.0,M,001.4,N,002.6,K,A*2B
$GPGSV,3,1,09,02,38,089,38,04,17,044,41,09,27,149,40,12,64,065,43*77
$GPGSV,3,2,09,14,33,262,42,25,70,312,46,29,43,218,43,30,26,285,41*7B
$GPGSV,3,3,09,31,18,314,40,,,,,,,,,,,,*49
$GPGSA,M,3,02,04,09,12,14,25,29,30,31,,,,1.8,0.9,1.6*3D
Trace #46 at position 11.250000
$GPZDA,083555.04,09,10,2011,00,00*66
$GPRMC,083555.00,A,4611.976515,N,01258.216919,E,001.4,1$GPGGA,083556.00,4611.976134,N,01258.217102,E,1,09,0.9,141.09,M,46.25,M,,*6C
$GPGLL,4611.976134,N,01258.217102,E,083556.00,A,A*61
$GPVTG,166.8,T,167.0,M,001.4,N,002.6,K,A*2B
$GPGSV,3,1,09,02,38,089,38,04,17,044,41,09,27,149,40,12,64,065,43*77
$GPGSV,3,2,09,14,33,262,42,25,70,312,46,29,43,218,43,30,26,285,41*7B
$GPGSV,3,3,09,31,18,314,40,,,,,,,,,,,,*49
$GPGSA,M,3,02,04,09,12,14,25,29,30,31,,,,1.8,0.9,1.6*3D
Trace #47 at position 11.500000
$GPZDA,083555.04,09,10,2011,00,00*66
$GPRMC,083555.00,A,4611.976515,N,01258.216919,E,001.4,1$GPGGA,083556.00,4611.976134,N,01258.217102,E,1,09,0.9,141.09,M,46.25,M,,*6C
$GPGLL,4611.976134,N,01258.217102,E,083556.00,A,A*61
$GPVTG,166.8,T,167.0,M,001.4,N,002.6,K,A*2B
$GPGSV,3,1,09,02,38,089,38,04,17,044,41,09,27,149,40,12,64,065,43*77
$GPGSV,3,2,09,14,33,262,42,25,70,312,46,29,43,218,43,30,26,285,41*7B
$GPGSV,3,3,09,31,18,314,40,,,,,,,,,,,,*49
$GPGSA,M,3,02,04,09,12,14,25,29,30,31,,,,1.8,0.9,1.6*3D
Trace #48 at position 11.750000
$GPZDA,083556.04,09,10,2011,00,00*65
$GPRMC,083556.00,A,4611.976134,N,01258.217102,E,001.4,166$GPGGA,083557.00,4611.975631,N,01258.217293,E,1,09,0.9,141.02,M,46.25,M,,*6C
$GPGLL,4611.975631,N,01258.217293,E,083557.00,A,A*6A
$GPVTG,169.2,T,169.3,M,002.2,N,004.1,K,A*27
$GPGSV,3,1,09,02,38,089,37,04,17,044,41,09,27,149,39,12,64,065,43*76
$GPGSV,3,2,09,14,33,262,43,25,70,312,47,29,43,218,43,30,26,285,40*7A
$GPGSV,3,3,09,31,18,314,39,,,,,,,,,,,,*47
$GPGSA,M,3,02,04,09,12,14,25,29,30,31,,,,1.8,0.9,1.6*3D
Trace #49 at position 12.000000
$GPZDA,083556.04,09,10,2011,00,00*65
$GPRMC,083556.00,A,4611.976134,N,01258.217102,E,001.4,166$GPGGA,083557.00,4611.975631,N,01258.217293,E,1,09,0.9,141.02,M,46.25,M,,*6C
$GPGLL,4611.975631,N,01258.217293,E,083557.00,A,A*6A
$GPVTG,169.2,T,169.3,M,002.2,N,004.1,K,A*27
$GPGSV,3,1,09,02,38,089,37,04,17,044,41,09,27,149,39,12,64,065,43*76
$GPGSV,3,2,09,14,33,262,43,25,70,312,47,29,43,218,43,30,26,285,40*7A
$GPGSV,3,3,09,31,18,314,39,,,,,,,,,,,,*47
$GPGSA,M,3,02,04,09,12,14,25,29,30,31,,,,1.8,0.9,1.6*3D
Trace #50 at position 12.250000
$GPZDA,083556.04,09,10,2011,00,00*65
$GPRMC,083556.00,A,4611.976134,N,01258.217102,E,001.4,166$GPGGA,083557.00,4611.975631,N,01258.217293,E,1,09,0.9,141.02,M,46.25,M,,*6C
$GPGLL,4611.975631,N,01258.217293,E,083557.00,A,A*6A
$GPVTG,169.2,T,169.3,M,002.2,N,004.1,K,A*27
$GPGSV,3,1,09,02,38,089,37,04,17,044,41,09,27,149,39,12,64,065,43*76
$GPGSV,3,2,09,14,33,262,43,25,70,312,47,29,43,218,43,30,26,285,40*7A
$GPGSV,3,3,09,31,18,314,39,,,,,,,,,,,,*47
$GPGSA,M,3,02,04,09,12,14,25,29,30,31,,,,1.8,0.9,1.6*3D
Trace #51 at position 12.500000
$GPZDA,083557.04,09,10,2011,00,00*64
$GPRMC,083557.00,A,4611.975631,N,01258.217293,E,002.2,169$GPGGA,083558.00,4611.975068,N,01258.217487,E,1,09,0.9,141.04,M,46.25,M,,*6C
$GPGLL,4611.975068,N,01258.217487,E,083558.00,A,A*6C
$GPVTG,169.4,T,169.6,M,001.9,N,003.5,K,A*2F
$GPGSV,3,1,09,02,38,089,37,04,17,044,42,09,27,149,39,12,64,065,43*75
$GPGSV,3,2,09,14,33,262,42,25,70,312,47,29,43,218,44,30,26,285,41*7D
$GPGSV,3,3,09,31,18,314,40,,,,,,,,,,,,*49
$GPGSA,M,3,02,04,09,12,14,25,29,30,31,,,,1.8,0.9,1.6*3D
Trace #52 at position 12.750000
$GPZDA,083557.04,09,10,2011,00,00*64
$GPRMC,083557.00,A,4611.975631,N,01258.217293,E,002.2,169$GPGGA,083558.00,4611.975068,N,01258.217487,E,1,09,0.9,141.04,M,46.25,M,,*6C
$GPGLL,4611.975068,N,01258.217487,E,083558.00,A,A*6C
$GPVTG,169.4,T,169.6,M,001.9,N,003.5,K,A*2F
$GPGSV,3,1,09,02,38,089,37,04,17,044,42,09,27,149,39,12,64,065,43*75
$GPGSV,3,2,09,14,33,262,42,25,70,312,47,29,43,218,44,30,26,285,41*7D
$GPGSV,3,3,09,31,18,314,40,,,,,,,,,,,,*49
$GPGSA,M,3,02,04,09,12,14,25,29,30,31,,,,1.8,0.9,1.6*3D
Trace #53 at position 13.000000
$GPZDA,083557.04,09,10,2011,00,00*64
$GPRMC,083557.00,A,4611.975631,N,01258.217293,E,002.2,169$GPGGA,083558.00,4611.975068,N,01258.217487,E,1,09,0.9,141.04,M,46.25,M,,*6C
$GPGLL,4611.975068,N,01258.217487,E,083558.00,A,A*6C
$GPVTG,169.4,T,169.6,M,001.9,N,003.5,K,A*2F
$GPGSV,3,1,09,02,38,089,37,04,17,044,42,09,27,149,39,12,64,065,43*75
$GPGSV,3,2,09,14,33,262,42,25,70,312,47,29,43,218,44,30,26,285,41*7D
$GPGSV,3,3,09,31,18,314,40,,,,,,,,,,,,*49
$GPGSA,M,3,02,04,09,12,14,25,29,30,31,,,,1.8,0.9,1.6*3D
Trace #54 at position 13.250000
$GPZDA,083558.05,09,10,2011,00,00*6A
$GPRMC,083558.00,A,4611.975068,N,01258.217487,E,001.9,169$GPGGA,083559.00,4611.974569,N,01258.217570,E,1,09,0.9,141.07,M,46.25,M,,*62
$GPGLL,4611.974569,N,01258.217570,E,083559.00,A,A*61
$GPVTG,188.2,T,188.4,M,001.7,N,003.2,K,A*22
$GPGSV,3,1,09,02,38,089,39,04,17,044,41,09,27,149,39,12,64,065,42*79
$GPGSV,3,2,09,14,33,262,42,25,70,312,47,29,43,218,43,30,26,285,41*7A
$GPGSV,3,3,09,31,18,314,40,,,,,,,,,,,,*49
$GPGSA,M,3,02,04,09,12,14,25,29,30,31,,,,1.8,0.9,1.6*3D
Trace #55 at position 13.500000
$GPZDA,083558.05,09,10,2011,00,00*6A
$GPRMC,083558.00,A,4611.975068,N,01258.217487,E,001.9,169$GPGGA,083559.00,4611.974569,N,01258.217570,E,1,09,0.9,141.07,M,46.25,M,,*62
$GPGLL,4611.974569,N,01258.217570,E,083559.00,A,A*61
$GPVTG,188.2,T,188.4,M,001.7,N,003.2,K,A*22
$GPGSV,3,1,09,02,38,089,39,04,17,044,41,09,27,149,39,12,64,065,42*79
$GPGSV,3,2,09,14,33,262,42,25,70,312,47,29,43,218,43,30,26,285,41*7A
$GPGSV,3,3,09,31,18,314,40,,,,,,,,,,,,*49
$GPGSA,M,3,02,04,09,12,14,25,29,30,31,,,,1.8,0.9,1.6*3D
Trace #56 at position 13.750000
$GPZDA,083558.05,09,10,2011,00,00*6A
$GPRMC,083558.00,A,4611.975068,N,01258.217487,E,001.9,169$GPGGA,083559.00,4611.974569,N,01258.217570,E,1,09,0.9,141.07,M,46.25,M,,*62
$GPGLL,4611.974569,N,01258.217570,E,083559.00,A,A*61
$GPVTG,188.2,T,188.4,M,001.7,N,003.2,K,A*22
$GPGSV,3,1,09,02,38,089,39,04,17,044,41,09,27,149,39,12,64,065,42*79
$GPGSV,3,2,09,14,33,262,42,25,70,312,47,29,43,218,43,30,26,285,41*7A
$GPGSV,3,3,09,31,18,314,40,,,,,,,,,,,,*49
$GPGSA,M,3,02,04,09,12,14,25,29,30,31,,,,1.8,0.9,1.6*3D
Trace #57 at position 14.000000
$GPZDA,083558.05,09,10,2011,00,00*6A
$GPRMC,083558.00,A,4611.975068,N,01258.217487,E,001.9,169$GPGGA,083559.00,4611.974569,N,01258.217570,E,1,09,0.9,141.07,M,46.25,M,,*62
$GPGLL,4611.974569,N,01258.217570,E,083559.00,A,A*61
$GPVTG,188.2,T,188.4,M,001.7,N,003.2,K,A*22
$GPGSV,3,1,09,02,38,089,39,04,17,044,41,09,27,149,39,12,64,065,42*79
$GPGSV,3,2,09,14,33,262,42,25,70,312,47,29,43,218,43,30,26,285,41*7A
$GPGSV,3,3,09,31,18,314,40,,,,,,,,,,,,*49
$GPGSA,M,3,02,04,09,12,14,25,29,30,31,,,,1.8,0.9,1.6*3D
Trace #58 at position 14.250000
$GPZDA,083559.04,09,10,2011,00,00*6A
$GPRMC,083559.00,A,4611.974569,N,01258.217570,E,001.7,18846.25,M,,*62
$GPGLL,4611.974187,N,01258.217700,E,083600.00,A,A*6F
$GPVTG,150.4,T,150.6,M,001.0,N,001.9,K,A*28
$GPGSV,3,1,09,02,38,089,39,04,17,044,41,09,27,149,38,12,64,065,43*79
$GPGSV,3,2,09,14,33,262,42,25,70,312,46,29,43,218,44,30,26,285,42*7F
$GPGSV,3,3,09,31,18,314,41,,,,,,,,,,,,*48
$GPGSA,M,3,02,04,09,12,14,25,29,30,31,,,,1.8,0.9,1.6*3D
Trace #59 at position 14.500000
$GPZDA,083559.04,09,10,2011,00,00*6A
$GPRMC,083559.00,A,4611.974569,N,01258.217570,E,001.7,18846.25,M,,*62
$GPGLL,4611.974187,N,01258.217700,E,083600.00,A,A*6F
$GPVTG,150.4,T,150.6,M,001.0,N,001.9,K,A*28
$GPGSV,3,1,09,02,38,089,39,04,17,044,41,09,27,149,38,12,64,065,43*79
$GPGSV,3,2,09,14,33,262,42,25,70,312,46,29,43,218,44,30,26,285,42*7F
$GPGSV,3,3,09,31,18,314,41,,,,,,,,,,,,*48
$GPGSA,M,3,02,04,09,12,14,25,29,30,31,,,,1.8,0.9,1.6*3D
Trace #60 at position 14.750000
$GPZDA,083559.04,09,10,2011,00,00*6A
$GPRMC,083559.00,A,4611.974569,N,01258.217570,E,001.7,18846.25,M,,*62
$GPGLL,4611.974187,N,01258.217700,E,083600.00,A,A*6F
$GPVTG,150.4,T,150.6,M,001.0,N,001.9,K,A*28
$GPGSV,3,1,09,02,38,089,39,04,17,044,41,09,27,149,38,12,64,065,43*79
$GPGSV,3,2,09,14,33,262,42,25,70,312,46,29,43,218,44,30,26,285,42*7F
$GPGSV,3,3,09,31,18,314,41,,,,,,,,,,,,*48
$GPGSA,M,3,02,04,09,12,14,25,29,30,31,,,,1.8,0.9,1.6*3D
Trace #61 at position 15.000000
$GPZDA,083600.04,09,10,2011,00,00*65
$GPRMC,083600.00,A,4611.974187,N,01258.217700,E,001.0,150.4,091011,0.2,E,A*38
$GPGGA,083601.00,4611.973799,N,01258.217908,04,17,044,41,09,27,149,38,12,64,065,43*78
$GPGSV,3,2,09,14,33,262,43,25,70,312,46,29,43,218,43,30,26,285,41*7A
$GPGSV,3,3,09,31,18,314,40,,,,,,,,,,,,*49
$GPGSA,M,3,02,04,09,12,14,25,29,30,31,,,,1.8,0.9,1.6*3D
Trace #62 at position 15.250000
$GPZDA,083600.04,09,10,2011,00,00*65
$GPRMC,083600.00,A,4611.974187,N,01258.217700,E,001.0,150.4,091011,0.2,E,A*38
$GPGGA,083601.00,4611.973799,N,01258.217908,04,17,044,41,09,27,149,38,12,64,065,43*78
$GPGSV,3,2,09,14,33,262,43,25,70,312,46,29,43,218,43,30,26,285,41*7A
$GPGSV,3,3,09,31,18,314,40,,,,,,,,,,,,*49
$GPGSA,M,3,02,04,09,12,14,25,29,30,31,,,,1.8,0.9,1.6*3D
Trace #63 at position 15.500000
$GPZDA,083600.04,09,10,2011,00,00*65
$GPRMC,083600.00,A,4611.974187,N,01258.217700,E,001.0,150.4,091011,0.2,E,A*38
$GPGGA,083601.00,4611.973799,N,01258.217908,04,17,044,41,09,27,149,38,12,64,065,43*78
$GPGSV,3,2,09,14,33,262,43,25,70,312,46,29,43,218,43,30,26,285,41*7A
$GPGSV,3,3,09,31,18,314,40,,,,,,,,,,,,*49
$GPGSA,M,3,02,04,09,12,14,25,29,30,31,,,,1.8,0.9,1.6*3D
Trace #64 at position 15.750000
$GPZDA,083601.04,09,10,2011,00,00*64
$GPRMC,083601.00,A,4611.973799,N,01258.217906,E,001.7,174.9,091011,0.2,E,A*33
$GPGGA,083602.00,4611.973244,N,01258.218244,E,1,09,0.9,140.94,M,46.25,M,,*64
$GPGLL,4611.973244,N,01258.218244,E,083602.00,A,A*6C
$GPVTG,150.4,T,150.6,M,002.5,N,004.6,K,A*24
$GP,14,33,262,43,25,70,312,46,29,43,218,43,30,26,286,41*79
$GPGSV,3,3,09,31,18,314,39,,,,,,,,,,,,*47
$GPGSA,M,3,02,04,09,12,14,25,29,30,31,,,,1.8,0.9,1.6*3D
Trace #65 at position 16.000000
$GPZDA,083601.04,09,10,2011,00,00*64
$GPRMC,083601.00,A,4611.973799,N,01258.217906,E,001.7,174.9,091011,0.2,E,A*33
$GPGGA,083602.00,4611.973244,N,01258.218244,E,1,09,0.9,140.94,M,46.25,M,,*64
$GPGLL,4611.973244,N,01258.218244,E,083602.00,A,A*6C
$GPVTG,150.4,T,150.6,M,002.5,N,004.6,K,A*24
$GP,14,33,262,43,25,70,312,46,29,43,218,43,30,26,286,41*79
$GPGSV,3,3,09,31,18,314,39,,,,,,,,,,,,*47
$GPGSA,M,3,02,04,09,12,14,25,29,30,31,,,,1.8,0.9,1.6*3D
Trace #66 at position 16.250000
$GPZDA,083601.04,09,10,2011,00,00*64
$GPRMC,083601.00,A,4611.973799,N,01258.217906,E,001.7,174.9,091011,0.2,E,A*33
$GPGGA,083602.00,4611.973244,N,01258.218244,E,1,09,0.9,140.94,M,46.25,M,,*64
$GPGLL,4611.973244,N,01258.218244,E,083602.00,A,A*6C
$GPVTG,150.4,T,150.6,M,002.5,N,004.6,K,A*24
$GP,14,33,262,43,25,70,312,46,29,43,218,43,30,26,286,41*79
$GPGSV,3,3,09,31,18,314,39,,,,,,,,,,,,*47
$GPGSA,M,3,02,04,09,12,14,25,29,30,31,,,,1.8,0.9,1.6*3D
Trace #67 at position 16.500000
$GPZDA,083601.04,09,10,2011,00,00*64
$GPRMC,083601.00,A,4611.973799,N,01258.217906,E,001.7,174.9,091011,0.2,E,A*33
$GPGGA,083602.00,4611.973244,N,01258.218244,E,1,09,0.9,140.94,M,46.25,M,,*64
$GPGLL,4611.973244,N,01258.218244,E,083602.00,A,A*6C
$GPVTG,150.4,T,150.6,M,002.5,N,004.6,K,A*24
$GP,14,33,262,43,25,70,312,46,29,43,218,43,30,26,286,41*79
$GPGSV,3,3,09,31,18,314,39,,,,,,,,,,,,*47
$GPGSA,M,3,02,04,09,12,14,25,29,30,31,,,,1.8,0.9,1.6*3D
Trace #68 at position 16.750000
$GPZDA,083601.04,09,10,2011,00,00*64
$GPRMC,083601.00,A,4611.973799,N,01258.217906,E,001.7,174.9,091011,0.2,E,A*33
$GPGGA,083602.00,4611.973244,N,01258.218244,E,1,09,0.9,140.94,M,46.25,M,,*64
$GPGLL,4611.973244,N,01258.218244,E,083602.00,A,A*6C
$GPVTG,150.4,T,150.6,M,002.5,N,004.6,K,A*24
$GP,14,33,262,43,25,70,312,46,29,43,218,43,30,26,286,41*79
$GPGSV,3,3,09,31,18,314,39,,,,,,,,,,,,*47
$GPGSA,M,3,02,04,09,12,14,25,29,30,31,,,,1.8,0.9,1.6*3D
Trace #69 at position 17.000000
$GPZDA,083601.04,09,10,2011,00,00*64
$GPRMC,083601.00,A,4611.973799,N,01258.217906,E,001.7,174.9,091011,0.2,E,A*33
$GPGGA,083602.00,4611.973244,N,01258.218244,E,1,09,0.9,140.94,M,46.25,M,,*64
$GPGLL,4611.973244,N,01258.218244,E,083602.00,A,A*6C
$GPVTG,150.4,T,150.6,M,002.5,N,004.6,K,A*24
$GP,14,33,262,43,25,70,312,46,29,43,218,43,30,26,286,41*79
$GPGSV,3,3,09,31,18,314,39,,,,,,,,,,,,*47
$GPGSA,M,3,02,04,09,12,14,25,29,30,31,,,,1.8,0.9,1.6*3D
Trace #70 at position 17.250000
$GPZDA,083601.04,09,10,2011,00,00*64
$GPRMC,083601.00,A,4611.973799,N,01258.217906,E,001.7,174.9,091011,0.2,E,A*33
$GPGGA,083602.00,4611.973244,N,01258.218244,E,1,09,0.9,140.94,M,46.25,M,,*64
$GPGLL,4611.973244,N,01258.218244,E,083602.00,A,A*6C
$GPVTG,150.4,T,150.6,M,002.5,N,004.6,K,A*24
$GP,14,33,262,43,25,70,312,46,29,43,218,43,30,26,286,41*79
$GPGSV,3,3,09,31,18,314,39,,,,,,,,,,,,*47
$GPGSA,M,3,02,04,09,12,14,25,29,30,31,,,,1.8,0.9,1.6*3D
Trace #71 at position 17.500000
$GPZDA,083602.04,09,10,2011,00,00*67
$GPRMC,083602.00,A,4611.973244,N,01258.218244,E,002.5,150.4,091011,0.2,E,A*3D
$GPGGA,083603.00,4611.972727,N,01258.218583,E,1,09,0.9,140.81,M,46.25,M,,*6C
$GPGLL,4611.972727,N,01258.218583,E,083603.00,A,A*60
$GPVTG,169.7,T,169.9,M,001.5,N,002.8,K,A*23
$GPGSV,3,1,09,02,38,089,37,04,17,044,39,09,27,149,38,12,64,06D
$GPZDA,083603.04,09,10,2011,00,00*66
$GPRMC,083603.00,A,4611.972727,N,01258.218583,E,001.5,169.7,091011,0.2,E,A*3B
$GPGGA,083604.00,4611.972319,N,01258.218834,E,1,09,0.9,140.84,M,46.25,M,,*66
$GPGLL,4611.972319,N,01258.218834,E,083604.00,A,A*6F
$GPVTG,149.0,T,149.2,M,001.6,N,002.9,K,A*2D
$GPGSV,3,1,09,02,38,089,37,04,17,044,41,09,27,149,37,12,64,065,42*79
$GPGSV,3,2,09,14,33,262,42,25,70,312,46,29,43,218,42,30,26,286,42*7A
$GPGSV,3,3,09,31,18,314,39,,,,,,,,,,,,*47
$GPGSA,M,3,02,04,09,12,14,25,29,01.6,149.0,091011,0.2,E,A*32
Trace #72 at position 17.750000
$GPZDA,083602.04,09,10,2011,00,00*67
$GPRMC,083602.00,A,4611.973244,N,01258.218244,E,002.5,150.4,091011,0.2,E,A*3D
$GPGGA,083603.00,4611.972727,N,01258.218583,E,1,09,0.9,140.81,M,46.25,M,,*6C
$GPGLL,4611.972727,N,01258.218583,E,083603.00,A,A*60
$GPVTG,169.7,T,169.9,M,001.5,N,002.8,K,A*23
$GPGSV,3,1,09,02,38,089,37,04,17,044,39,09,27,149,38,12,64,06D
$GPZDA,083603.04,09,10,2011,00,00*66
$GPRMC,083603.00,A,4611.972727,N,01258.218583,E,001.5,169.7,091011,0.2,E,A*3B
$GPGGA,083604.00,4611.972319,N,01258.218834,E,1,09,0.9,140.84,M,46.25,M,,*66
$GPGLL,4611.972319,N,01258.218834,E,083604.00,A,A*6F
$GPVTG,149.0,T,149.2,M,001.6,N,002.9,K,A*2D
$GPGSV,3,1,09,02,38,089,37,04,17,044,41,09,27,149,37,12,64,065,42*79
$GPGSV,3,2,09,14,33,262,42,25,70,312,46,29,43,218,42,30,26,286,42*7A
$GPGSV,3,3,09,31,18,314,39,,,,,,,,,,,,*47
$GPGSA,M,3,02,04,09,12,14,25,29,01.6,149.0,091011,0.2,E,A*32
Trace #73 at position 18.000000
$GPZDA,083602.04,09,10,2011,00,00*67
$GPRMC,083602.00,A,4611.973244,N,01258.218244,E,002.5,150.4,091011,0.2,E,A*3D
$GPGGA,083603.00,4611.972727,N,01258.218583,E,1,09,0.9,140.81,M,46.25,M,,*6C
$GPGLL,4611.972727,N,01258.218583,E,083603.00,A,A*60
$GPVTG,169.7,T,169.9,M,001.5,N,002.8,K,A*23
$GPGSV,3,1,09,02,38,089,37,04,17,044,39,09,27,149,38,12,64,06D
$GPZDA,083603.04,09,10,2011,00,00*66
$GPRMC,083603.00,A,4611.972727,N,01258.218583,E,001.5,169.7,091011,0.2,E,A*3B
$GPGGA,083604.00,4611.972319,N,01258.218834,E,1,09,0.9,140.84,M,46.25,M,,*66
$GPGLL,4611.972319,N,01258.218834,E,083604.00,A,A*6F
$GPVTG,149.0,T,149.2,M,001.6,N,002.9,K,A*2D
$GPGSV,3,1,09,02,38,089,37,04,17,044,41,09,27,149,37,12,64,065,42*79
$GPGSV,3,2,09,14,33,262,42,25,70,312,46,29,43,218,42,30,26,286,42*7A
$GPGSV,3,3,09,31,18,314,39,,,,,,,,,,,,*47
$GPGSA,M,3,02,04,09,12,14,25,29,01.6,149.0,091011,0.2,E,A*32
Trace #74 at position 18.250000
$GPGGA,083605.00,4611.971883,N,01258.218992,E,1,09,0.9,140.85,M,46.25,M,,*60
$GPGLL,4611.971883,N,01258.218992,E,083605.00,A,A*68
$GPVTG,186.2,T,186.3,M,001.8,N,003.3,K,A*2B
$GPGSV,3,1,09,02,38,089,38,04,17,044,39,09,27,149,36,12,64,065,42*78
$GPGSV,3,2,09,14,33,262,42,25,70,312,46,29,43,218,43,30,26,286,42*7B
$GPGSV,3,3,09,31,18,314,39,,,,,,,,,,,,*47
$GPGSA,M,3,02,04,09,12,14,25,29,30,31,,,,1.8,0.9,1.6*3D
Trace #75 at position 18.500000
$GPGGA,083605.00,4611.971883,N,01258.218992,E,1,09,0.9,140.85,M,46.25,M,,*60
$GPGLL,4611.971883,N,01258.218992,E,083605.00,A,A*68
$GPVTG,186.2,T,186.3,M,001.8,N,003.3,K,A*2B
$GPGSV,3,1,09,02,38,089,38,04,17,044,39,09,27,149,36,12,64,065,42*78
$GPGSV,3,2,09,14,33,262,42,25,70,312,46,29,43,218,43,30,26,286,42*7B
$GPGSV,3,3,09,31,18,314,39,,,,,,,,,,,,*47
$GPGSA,M,3,02,04,09,12,14,25,29,30,31,,,,1.8,0.9,1.6*3D
Trace #76 at position 18.750000
$GPGGA,083605.00,4611.971883,N,01258.218992,E,1,09,0.9,140.85,M,46.25,M,,*60
$GPGLL,4611.971883,N,01258.218992,E,083605.00,A,A*68
$GPVTG,186.2,T,186.3,M,001.8,N,003.3,K,A*2B
$GPGSV,3,1,09,02,38,089,38,04,17,044,39,09,27,149,36,12,64,065,42*78
$GPGSV,3,2,09,14,33,262,42,25,70,312,46,29,43,218,43,30,26,286,42*7B
$GPGSV,3,3,09,31,18,314,39,,,,,,,,,,,,*47
$GPGSA,M,3,02,04,09,12,14,25,29,30,31,,,,1.8,0.9,1.6*3D
Trace #77 at position 19.000000
$GPZDA,083605.04,09,10,2011,00,00*60
$GPRMC,083605.00,A,4611.971$GPGGA,083606.00,4611.971364,N,01258.219105,E,1,08,1.3,140.79,M,46.25,M,,*6F
$GPGLL,4611.971364,N,01258.219105,E,083606.00,A,A*6E
$GPVTG,165.5,T,165.6,M,001.9,N,003.5,K,A*2E
$GPGSV,3,1,09,02,38,089,37,04,17,044,40,09,27,149,35,12,64,065,43*7B
$GPGSV,3,2,09,14,33,262,42,25,70,312,47,29,43,218,43,30,26,286,42*7A
$GPGSV,3,3,09,31,18,314,39,,,,,,,,,,,,*47
$GPGSA,M,3,02,04,12,14,25,29,30,31,,,,,2.2,1.3,1.9*39
Trace #78 at position 19.250000
$GPZDA,083605.04,09,10,2011,00,00*60
$GPRMC,083605.00,A,4611.971$GPGGA,083606.00,4611.971364,N,01258.219105,E,1,08,1.3,140.79,M,46.25,M,,*6F
$GPGLL,4611.971364,N,01258.219105,E,083606.00,A,A*6E
$GPVTG,165.5,T,165.6,M,001.9,N,003.5,K,A*2E
$GPGSV,3,1,09,02,38,089,37,04,17,044,40,09,27,149,35,12,64,065,43*7B
$GPGSV,3,2,09,14,33,262,42,25,70,312,47,29,43,218,43,30,26,286,42*7A
$GPGSV,3,3,09,31,18,314,39,,,,,,,,,,,,*47
$GPGSA,M,3,02,04,12,14,25,29,30,31,,,,,2.2,1.3,1.9*39
Trace #79 at position 19.500000
$GPZDA,083605.04,09,10,2011,00,00*60
$GPRMC,083605.00,A,4611.971$GPGGA,083606.00,4611.971364,N,01258.219105,E,1,08,1.3,140.79,M,46.25,M,,*6F
$GPGLL,4611.971364,N,01258.219105,E,083606.00,A,A*6E
$GPVTG,165.5,T,165.6,M,001.9,N,003.5,K,A*2E
$GPGSV,3,1,09,02,38,089,37,04,17,044,40,09,27,149,35,12,64,065,43*7B
$GPGSV,3,2,09,14,33,262,42,25,70,312,47,29,43,218,43,30,26,286,42*7A
$GPGSV,3,3,09,31,18,314,39,,,,,,,,,,,,*47
$GPGSA,M,3,02,04,12,14,25,29,30,31,,,,,2.2,1.3,1.9*39
Trace #80 at position 19.750000
$GPZDA,083606.04,09,10,2011,00,00*63
$GPRMC,083606.00,A,4611.971364,N,01258.219105,E,001.9,165.5$GPGGA,083607.00,4611.970762,N,01258.219371,E,1,08,1.3,140.69,M,46.25,M,,*6D
$GPGLL,4611.970762,N,01258.219371,E,083607.00,A,A*6D
$GPVTG,165.8,T,166.0,M,002.5,N,004.7,K,A*2C
$GPGSV,3,1,09,02,38,089,36,04,17,044,40,09,27,149,35,12,64,065,43*7A
$GPGSV,3,2,09,14,33,262,42,25,70,312,46,29,43,218,44,30,26,286,41*7F
$GPGSV,3,3,09,31,18,314,40,,,,,,,,,,,,*49
$GPGSA,M,3,02,04,12,14,25,29,30,31,,,,,2.2,1.3,1.9*39
Trace #81 at position 20.000000
$GPZDA,083606.04,09,10,2011,00,00*63
$GPRMC,083606.00,A,4611.971364,N,01258.219105,E,001.9,165.5$GPGGA,083607.00,4611.970762,N,01258.219371,E,1,08,1.3,140.69,M,46.25,M,,*6D
$GPGLL,4611.970762,N,01258.219371,E,083607.00,A,A*6D
$GPVTG,165.8,T,166.0,M,002.5,N,004.7,K,A*2C
$GPGSV,3,1,09,02,38,089,36,04,17,044,40,09,27,149,35,12,64,065,43*7A
$GPGSV,3,2,09,14,33,262,42,25,70,312,46,29,43,218,44,30,26,286,41*7F
$GPGSV,3,3,09,31,18,314,40,,,,,,,,,,,,*49
$GPGSA,M,3,02,04,12,14,25,29,30,31,,,,,2.2,1.3,1.9*39
Trace #82 at position 20.250000
$GPZDA,083606.04,09,10,2011,00,00*63
$GPRMC,083606.00,A,4611.971364,N,01258.219105,E,001.9,165.5$GPGGA,083607.00,4611.970762,N,01258.219371,E,1,08,1.3,140.69,M,46.25,M,,*6D
$GPGLL,4611.970762,N,01258.219371,E,083607.00,A,A*6D
$GPVTG,165.8,T,166.0,M,002.5,N,004.7,K,A*2C
$GPGSV,3,1,09,02,38,089,36,04,17,044,40,09,27,149,35,12,64,065,43*7A
$GPGSV,3,2,09,14,33,262,42,25,70,312,46,29,43,218,44,30,26,286,41*7F
$GPGSV,3,3,09,31,18,314,40,,,,,,,,,,,,*49
$GPGSA,M,3,02,04,12,14,25,29,30,31,,,,,2.2,1.3,1.9*39
Trace #83 at position 20.500000
$GPZDA,083607.04,09,10,2011,00,00*62
$GPRMC,083607.00,A,4611.970762,N,01258.219371,E,002.5,165.8$GPGGA,083608.00,4611.970088,N,01258.219632,E,1,08,1.3,140.48,M,46.25,M,,*60
$GPGLL,4611.970088,N,01258.219632,E,083608.00,A,A*63
$GPVTG,169.8,T,170.0,M,002.6,N,004.8,K,A*2B
$GPGSV,3,1,09,02,38,089,38,04,17,044,39,09,27,149,35,12,64,065,42*7B
$GPGSV,3,2,09,14,33,262,44,25,70,312,46,29,43,218,43,30,26,286,41*7E
$GPGSV,3,3,09,31,18,314,39,,,,,,,,,,,,*47
$GPGSA,M,3,02,04,12,14,25,29,30,31,,,,,2.2,1.3,1.9*39
Trace #84 at position 20.750000
$GPZDA,083607.04,09,10,2011,00,00*62
$GPRMC,083607.00,A,4611.970762,N,01258.219371,E,002.5,165.8$GPGGA,083608.00,4611.970088,N,01258.219632,E,1,08,1.3,140.48,M,46.25,M,,*60
$GPGLL,4611.970088,N,01258.219632,E,083608.00,A,A*63
$GPVTG,169.8,T,170.0,M,002.6,N,004.8,K,A*2B
$GPGSV,3,1,09,02,38,089,38,04,17,044,39,09,27,149,35,12,64,065,42*7B
$GPGSV,3,2,09,14,33,262,44,25,70,312,46,29,43,218,43,30,26,286,41*7E
$GPGSV,3,3,09,31,18,314,39,,,,,,,,,,,,*47
$GPGSA,M,3,02,04,12,14,25,29,30,31,,,,,2.2,1.3,1.9*39
Trace #85 at position 21.000000
$GPZDA,083607.04,09,10,2011,00,00*62
$GPRMC,083607.00,A,4611.970762,N,01258.219371,E,002.5,165.8$GPGGA,083608.00,4611.970088,N,01258.219632,E,1,08,1.3,140.48,M,46.25,M,,*60
$GPGLL,4611.970088,N,01258.219632,E,083608.00,A,A*63
$GPVTG,169.8,T,170.0,M,002.6,N,004.8,K,A*2B
$GPGSV,3,1,09,02,38,089,38,04,17,044,39,09,27,149,35,12,64,065,42*7B
$GPGSV,3,2,09,14,33,262,44,25,70,312,46,29,43,218,43,30,26,286,41*7E
$GPGSV,3,3,09,31,18,314,39,,,,,,,,,,,,*47
$GPGSA,M,3,02,04,12,14,25,29,30,31,,,,,2.2,1.3,1.9*39
Trace #86 at position 21.250000
$GPZDA,083608.04,09,10,2011,00,00*6D
$GPRMC,083608.00,A,4611.970088,N,01258.219632,E,002.6,169.8$GPGGA,083609.00,4611.969580,N,01258.219886,E,1,08,1.3,140.41,M,46.25,M,,*6C
$GPGLL,4611.969580,N,01258.219886,E,083609.00,A,A*66
$GPVTG,155.3,T,155.4,M,001.4,N,002.6,K,A*25
$GPGSV,3,1,09,02,38,089,38,04,17,044,39,09,27,149,35,12,64,065,41*78
$GPGSV,3,2,09,14,33,262,43,25,70,312,46,29,43,218,44,30,26,286,41*7E
$GPGSV,3,3,09,31,18,314,40,,,,,,,,,,,,*49
$GPGSA,M,3,02,04,12,14,25,29,30,31,,,,,2.2,1.3,1.9*39
Trace #87 at position 21.500000
$GPZDA,083608.04,09,10,2011,00,00*6D
$GPRMC,083608.00,A,4611.970088,N,01258.219632,E,002.6,169.8$GPGGA,083609.00,4611.969580,N,01258.219886,E,1,08,1.3,140.41,M,46.25,M,,*6C
$GPGLL,4611.969580,N,01258.219886,E,083609.00,A,A*66
$GPVTG,155.3,T,155.4,M,001.4,N,002.6,K,A*25
$GPGSV,3,1,09,02,38,089,38,04,17,044,39,09,27,149,35,12,64,065,41*78
$GPGSV,3,2,09,14,33,262,43,25,70,312,46,29,43,218,44,30,26,286,41*7E
$GPGSV,3,3,09,31,18,314,40,,,,,,,,,,,,*49
$GPGSA,M,3,02,04,12,14,25,29,30,31,,,,,2.2,1.3,1.9*39
Trace #88 at position 21.750000
$GPZDA,083608.04,09,10,2011,00,00*6D
$GPRMC,083608.00,A,4611.970088,N,01258.219632,E,002.6,169.8$GPGGA,083609.00,4611.969580,N,01258.219886,E,1,08,1.3,140.41,M,46.25,M,,*6C
$GPGLL,4611.969580,N,01258.219886,E,083609.00,A,A*66
$GPVTG,155.3,T,155.4,M,001.4,N,002.6,K,A*25
$GPGSV,3,1,09,02,38,089,38,04,17,044,39,09,27,149,35,12,64,065,41*78
$GPGSV,3,2,09,14,33,262,43,25,70,312,46,29,43,218,44,30,26,286,41*7E
$GPGSV,3,3,09,31,18,314,40,,,,,,,,,,,,*49
$GPGSA,M,3,02,04,12,14,25,29,30,31,,,,,2.2,1.3,1.9*39
Trace #89 at position 22.000000
$GPZDA,083608.04,09,10,2011,00,00*6D
$GPRMC,083608.00,A,4611.970088,N,01258.219632,E,002.6,169.8$GPGGA,083609.00,4611.969580,N,01258.219886,E,1,08,1.3,140.41,M,46.25,M,,*6C
$GPGLL,4611.969580,N,01258.219886,E,083609.00,A,A*66
$GPVTG,155.3,T,155.4,M,001.4,N,002.6,K,A*25
$GPGSV,3,1,09,02,38,089,38,04,17,044,39,09,27,149,35,12,64,065,41*78
$GPGSV,3,2,09,14,33,262,43,25,70,312,46,29,43,218,44,30,26,286,41*7E
$GPGSV,3,3,09,31,18,314,40,,,,,,,,,,,,*49
$GPGSA,M,3,02,04,12,14,25,29,30,31,,,,,2.2,1.3,1.9*39
Trace #90 at position 22.250000
$GPZDA,083609.04,09,10,2011,00,00*6C
$GPRMC,083609.00,A,4611.969580,N,01258.219886,E,001.4,155.3$GPGGA,083610.00,4611.969106,N,01258.220178,E,1,08,1.3,140.31,M,46.25,M,,*6B
$GPGLL,4611.969106,N,01258.220178,E,083610.00,A,A*66
$GPVTG,163.5,T,163.6,M,002.4,N,004.5,K,A*27
$GPGSV,3,1,09,02,38,089,38,04,17,044,38,09,27,149,32,12,64,065,42*7D
$GPGSV,3,2,09,14,33,262,43,25,70,312,46,29,43,218,43,30,26,286,42*7A
$GPGSV,3,3,09,31,18,314,40,,,,,,,,,,,,*49
$GPGSA,M,3,02,04,12,14,25,29,30,31,,,,,2.3,1.3,1.9*38
Trace #91 at position 22.500000
$GPZDA,083609.04,09,10,2011,00,00*6C
$GPRMC,083609.00,A,4611.969580,N,01258.219886,E,001.4,155.3$GPGGA,083610.00,4611.969106,N,01258.220178,E,1,08,1.3,140.31,M,46.25,M,,*6B
$GPGLL,4611.969106,N,01258.220178,E,083610.00,A,A*66
$GPVTG,163.5,T,163.6,M,002.4,N,004.5,K,A*27
$GPGSV,3,1,09,02,38,089,38,04,17,044,38,09,27,149,32,12,64,065,42*7D
$GPGSV,3,2,09,14,33,262,43,25,70,312,46,29,43,218,43,30,26,286,42*7A
$GPGSV,3,3,09,31,18,314,40,,,,,,,,,,,,*49
$GPGSA,M,3,02,04,12,14,25,29,30,31,,,,,2.3,1.3,1.9*38
Trace #92 at position 22.750000
$GPZDA,083610.04,09,10,2011,00,00*64
$GPRMC,083610.00,A,4611.969106,N,01258.220178,E,002.4,163.5,4611.968610,N,01258.220509,E,1,08,1.3,140.17,M,46.25,M,,*6D
$GPGLL,4611.968610,N,01258.220509,E,083611.00,A,A*64
$GPVTG,149.4,T,149.6,M,001.8,N,003.2,K,A*29
$GPGSV,3,1,09,02,38,089,37,04,17,044,40,09,27,149,35,12,64,065,43*7B
$GPGSV,3,2,09,14,33,262,41,25,70,312,46,29,43,218,43,30,26,286,41*7B
$GPGSV,3,3,09,31,18,314,39,,,,,,,,,,,,*47
$GPGSA,M,3,02,04,12,14,25,29,30,31,,,,,2.3,1.3,1.9*38
Trace #93 at position 23.000000
$GPZDA,083610.04,09,10,2011,00,00*64
$GPRMC,083610.00,A,4611.969106,N,01258.220178,E,002.4,163.5,4611.968610,N,01258.220509,E,1,08,1.3,140.17,M,46.25,M,,*6D
$GPGLL,4611.968610,N,01258.220509,E,083611.00,A,A*64
$GPVTG,149.4,T,149.6,M,001.8,N,003.2,K,A*29
$GPGSV,3,1,09,02,38,089,37,04,17,044,40,09,27,149,35,12,64,065,43*7B
$GPGSV,3,2,09,14,33,262,41,25,70,312,46,29,43,218,43,30,26,286,41*7B
$GPGSV,3,3,09,31,18,314,39,,,,,,,,,,,,*47
$GPGSA,M,3,02,04,12,14,25,29,30,31,,,,,2.3,1.3,1.9*38
Trace #94 at position 23.250000
$GPZDA,083611.04,09,10,2011,00,00*65
$GPRMC,083611.00,A,4611.968610,N,01258.220509,E,001.8,149.4,091011,0.2,E,A*PGLL,4611.968302,N,01258.220849,E,083612.00,A,A*68
$GPVTG,133.1,T,133.2,M,001.2,N,002.2,K,A*23
$GPGSV,3,1,09,02,38,089,37,04,17,044,39,09,27,149,35,12,64,065,43*75
$GPGSV,3,2,09,14,33,262,42,25,70,312,46,29,43,218,43,30,26,286,41*78
$GPGSV,3,3,09,31,18,314,39,,,,,,,,,,,,*47
$GPGSA,M,3,02,04,12,14,25,29,30,31,,,,,2.3,1.3,1.9*38
Trace #95 at position 23.500000
$GPZDA,083611.04,09,10,2011,00,00*65
$GPRMC,083611.00,A,4611.968610,N,01258.220509,E,001.8,149.4,091011,0.2,E,A*PGLL,4611.968302,N,01258.220849,E,083612.00,A,A*68
$GPVTG,133.1,T,133.2,M,001.2,N,002.2,K,A*23
$GPGSV,3,1,09,02,38,089,37,04,17,044,39,09,27,149,35,12,64,065,43*75
$GPGSV,3,2,09,14,33,262,42,25,70,312,46,29,43,218,43,30,26,286,41*78
$GPGSV,3,3,09,31,18,314,39,,,,,,,,,,,,*47
$GPGSA,M,3,02,04,12,14,25,29,30,31,,,,,2.3,1.3,1.9*38
Trace #96 at position 23.750000
$GPZDA,083613.04,09,10,2011,00,00*67
$GPRMC,083613.00,A,4611.967911,N,01258.220969,E,002.1,187.0,091011,0.2,E,A*36
$GPGGA,083614.00,4611.967378,N,01258.220909,E,1,08,1.3,139.90,M,46.25,M,,*61
$GPGLL,4611.967378,N,01258.220909,E,083614.00,A,A*69
$GPVTG,185.7,T,185.8,64,065,42*7D
$GPGSV,3,2,09,14,33,262,41,25,70,312,46,29,43,218,43,30,26,286,41*7B
$GPGSV,3,3,09,31,18,314,41,,,,,,,,,,,,*48
$GPGSA,M,3,02,04,12,14,25,29,30,31,,,,,2.3,1.3,1.9*38
Trace #97 at position 24.000000
$GPZDA,083618.04,09,10,2011,00,00*6C
$GPRMC,083618.00,A,4611.965928,N,01258.221551,E,001.0,145.6,0$GPGGA,083619.00,4611.965739,N,01258.221666,E,1,07,1.5,139.85,M,46.25,M,,*65
$GPGLL,4611.965739,N,01258.221666,E,083619.00,A,A*60
$GPVTG,203.6,T,203.7,M,000.6,N,001.2,K,A*27
$GPGSV,3,1,09,02,38,089,36,04,17,044,39,09,27,149,,12,64,065,43*72
$GPGSV,3,2,09,14,33,262,43,25,70,312,46,29,43,218,41,30,26,286,41*7B
$GPGSV,3,3,09,31,18,314,40,,,,,,,,,,,,*49
$GPGSA,M,3,04,12,14,25,29,30,31,,,,,,2.4,1.5,1.9*3B
Trace #98 at position 24.250000
$GPZDA,083618.04,09,10,2011,00,00*6C
$GPRMC,083618.00,A,4611.965928,N,01258.221551,E,001.0,145.6,0$GPGGA,083619.00,4611.965739,N,01258.221666,E,1,07,1.5,139.85,M,46.25,M,,*65
$GPGLL,4611.965739,N,01258.221666,E,083619.00,A,A*60
$GPVTG,203.6,T,203.7,M,000.6,N,001.2,K,A*27
$GPGSV,3,1,09,02,38,089,36,04,17,044,39,09,27,149,,12,64,065,43*72
$GPGSV,3,2,09,14,33,262,43,25,70,312,46,29,43,218,41,30,26,286,41*7B
$GPGSV,3,3,09,31,18,314,40,,,,,,,,,,,,*49
$GPGSA,M,3,04,12,14,25,29,30,31,,,,,,2.4,1.5,1.9*3B
Trace #99 at position 24.500000
$GPZDA,083618.04,09,10,2011,00,00*6C
$GPRMC,083618.00,A,4611.965928,N,01258.221551,E,001.0,145.6,0$GPGGA,083619.00,4611.965739,N,01258.221666,E,1,07,1.5,139.85,M,46.25,M,,*65
$GPGLL,4611.965739,N,01258.221666,E,083619.00,A,A*60
$GPVTG,203.6,T,203.7,M,000.6,N,001.2,K,A*27
$GPGSV,3,1,09,02,38,089,36,04,17,044,39,09,27,149,,12,64,065,43*72
$GPGSV,3,2,09,14,33,262,43,25,70,312,46,29,43,218,41,30,26,286,41*7B
$GPGSV,3,3,09,31,18,314,40,,,,,,,,,,,,*49
$GPGSA,M,3,04,12,14,25,29,30,31,,,,,,2.4,1.5,1.9*3B
Trace #100 at position 24.750000
$GPZDA,083619.04,09,10,2011,00,00*6D
$GPRMC,083619.00,A,4611.965739,N,01258.221666,E,000.6,203.6,091$GPGGA,083620.00,4611.965652,N,01258.221716,E,1,07,1.5,139.87,M,46.25,M,,*67
$GPGLL,4611.965652,N,01258.221716,E,083620.00,A,A*60
$GPVTG,108.2,T,108.4,M,000.2,N,000.5,K,A*22
$GPGSV,3,1,09,02,38,089,37,04,17,044,38,09,27,149,,12,64,065,44*75
$GPGSV,3,2,09,14,33,262,42,25,71,312,45,29,43,218,42,30,26,286,41*7B
$GPGSV,3,3,09,31,18,314,42,,,,,,,,,,,,*4B
$GPGSA,M,3,04,12,14,25,29,30,31,,,,,,2.4,1.5,1.9*3B
Trace #101 at position 25.000000
$GPZDA,083619.04,09,10,2011,00,00*6D
$GPRMC,083619.00,A,4611.965739,N,01258.221666,E,000.6,203.6,091$GPGGA,083620.00,4611.965652,N,01258.221716,E,1,07,1.5,139.87,M,46.25,M,,*67
$GPGLL,4611.965652,N,01258.221716,E,083620.00,A,A*60
$GPVTG,108.2,T,108.4,M,000.2,N,000.5,K,A*22
$GPGSV,3,1,09,02,38,089,37,04,17,044,38,09,27,149,,12,64,065,44*75
$GPGSV,3,2,09,14,33,262,42,25,71,312,45,29,43,218,42,30,26,286,41*7B
$GPGSV,3,3,09,31,18,314,42,,,,,,,,,,,,*4B
$GPGSA,M,3,04,12,14,25,29,30,31,,,,,,2.4,1.5,1.9*3B
Trace #102 at position 25.250000
$GPZDA,083619.04,09,10,2011,00,00*6D
$GPRMC,083619.00,A,4611.965739,N,01258.221666,E,000.6,203.6,091$GPGGA,083620.00,4611.965652,N,01258.221716,E,1,07,1.5,139.87,M,46.25,M,,*67
$GPGLL,4611.965652,N,01258.221716,E,083620.00,A,A*60
$GPVTG,108.2,T,108.4,M,000.2,N,000.5,K,A*22
$GPGSV,3,1,09,02,38,089,37,04,17,044,38,09,27,149,,12,64,065,44*75
$GPGSV,3,2,09,14,33,262,42,25,71,312,45,29,43,218,42,30,26,286,41*7B
$GPGSV,3,3,09,31,18,314,42,,,,,,,,,,,,*4B
$GPGSA,M,3,04,12,14,25,29,30,31,,,,,,2.4,1.5,1.9*3B
Trace #103 at position 25.500000
$GPZDA,083619.04,09,10,2011,00,00*6D
$GPRMC,083619.00,A,4611.965739,N,01258.221666,E,000.6,203.6,091$GPGGA,083620.00,4611.965652,N,01258.221716,E,1,07,1.5,139.87,M,46.25,M,,*67
$GPGLL,4611.965652,N,01258.221716,E,083620.00,A,A*60
$GPVTG,108.2,T,108.4,M,000.2,N,000.5,K,A*22
$GPGSV,3,1,09,02,38,089,37,04,17,044,38,09,27,149,,12,64,065,44*75
$GPGSV,3,2,09,14,33,262,42,25,71,312,45,29,43,218,42,30,26,286,41*7B
$GPGSV,3,3,09,31,18,314,42,,,,,,,,,,,,*4B
$GPGSA,M,3,04,12,14,25,29,30,31,,,,,,2.4,1.5,1.9*3B
Trace #104 at position 25.750000
$GPZDA,083619.04,09,10,2011,00,00*6D
$GPRMC,083619.00,A,4611.965739,N,01258.221666,E,000.6,203.6,091$GPGGA,083620.00,4611.965652,N,01258.221716,E,1,07,1.5,139.87,M,46.25,M,,*67
$GPGLL,4611.965652,N,01258.221716,E,083620.00,A,A*60
$GPVTG,108.2,T,108.4,M,000.2,N,000.5,K,A*22
$GPGSV,3,1,09,02,38,089,37,04,17,044,38,09,27,149,,12,64,065,44*75
$GPGSV,3,2,09,14,33,262,42,25,71,312,45,29,43,218,42,30,26,286,41*7B
$GPGSV,3,3,09,31,18,314,42,,,,,,,,,,,,*4B
$GPGSA,M,3,04,12,14,25,29,30,31,,,,,,2.4,1.5,1.9*3B
Trace #105 at position 26.000000
$GPZDA,083620.04,09,10,2011,00,00*67
$GPRMC,083620.00,A,4611.965652,N,01258.221716,E,000.2,108.2,091$GPGGA,083621.00,4611.965630,N,01258.221816,E,1,07,1.5,139.96,M,46.25,M,,*6D
$GPGLL,4611.965630,N,01258.221816,E,083621.00,A,A*6A
$GPVTG,156.3,T,156.5,M,000.1,N,000.1,K,A*25
$GPGSV,3,1,09,02,38,089,34,04,17,044,39,09,27,149,,12,64,065,38*7C
$GPGSV,3,2,09,14,33,262,42,25,71,312,45,29,43,218,44,30,26,286,42*7E
$GPGSV,3,3,09,31,18,314,41,,,,,,,,,,,,*48
$GPGSA,M,3,04,12,14,25,29,30,31,,,,,,2.4,1.5,1.9*3B
Trace #106 at position 26.250000
$GPZDA,083620.04,09,10,2011,00,00*67
$GPRMC,083620.00,A,4611.965652,N,01258.221716,E,000.2,108.2,091$GPGGA,083621.00,4611.965630,N,01258.221816,E,1,07,1.5,139.96,M,46.25,M,,*6D
$GPGLL,4611.965630,N,01258.221816,E,083621.00,A,A*6A
$GPVTG,156.3,T,156.5,M,000.1,N,000.1,K,A*25
$GPGSV,3,1,09,02,38,089,34,04,17,044,39,09,27,149,,12,64,065,38*7C
$GPGSV,3,2,09,14,33,262,42,25,71,312,45,29,43,218,44,30,26,286,42*7E
$GPGSV,3,3,09,31,18,314,41,,,,,,,,,,,,*48
$GPGSA,M,3,04,12,14,25,29,30,31,,,,,,2.4,1.5,1.9*3B
Trace #107 at position 26.500000
$GPZDA,083620.04,09,10,2011,00,00*67
$GPRMC,083620.00,A,4611.965652,N,01258.221716,E,000.2,108.2,091$GPGGA,083621.00,4611.965630,N,01258.221816,E,1,07,1.5,139.96,M,46.25,M,,*6D
$GPGLL,4611.965630,N,01258.221816,E,083621.00,A,A*6A
$GPVTG,156.3,T,156.5,M,000.1,N,000.1,K,A*25
$GPGSV,3,1,09,02,38,089,34,04,17,044,39,09,27,149,,12,64,065,38*7C
$GPGSV,3,2,09,14,33,262,42,25,71,312,45,29,43,218,44,30,26,286,42*7E
$GPGSV,3,3,09,31,18,314,41,,,,,,,,,,,,*48
$GPGSA,M,3,04,12,14,25,29,30,31,,,,,,2.4,1.5,1.9*3B
Trace #108 at position 26.750000
$GPZDA,083620.04,09,10,2011,00,00*67
$GPRMC,083620.00,A,4611.965652,N,01258.221716,E,000.2,108.2,091$GPGGA,083621.00,4611.965630,N,01258.221816,E,1,07,1.5,139.96,M,46.25,M,,*6D
$GPGLL,4611.965630,N,01258.221816,E,083621.00,A,A*6A
$GPVTG,156.3,T,156.5,M,000.1,N,000.1,K,A*25
$GPGSV,3,1,09,02,38,089,34,04,17,044,39,09,27,149,,12,64,065,38*7C
$GPGSV,3,2,09,14,33,262,42,25,71,312,45,29,43,218,44,30,26,286,42*7E
$GPGSV,3,3,09,31,18,314,41,,,,,,,,,,,,*48
$GPGSA,M,3,04,12,14,25,29,30,31,,,,,,2.4,1.5,1.9*3B
Trace #109 at position 27.000000
$GPZDA,083620.04,09,10,2011,00,00*67
$GPRMC,083620.00,A,4611.965652,N,01258.221716,E,000.2,108.2,091$GPGGA,083621.00,4611.965630,N,01258.221816,E,1,07,1.5,139.96,M,46.25,M,,*6D
$GPGLL,4611.965630,N,01258.221816,E,083621.00,A,A*6A
$GPVTG,156.3,T,156.5,M,000.1,N,000.1,K,A*25
$GPGSV,3,1,09,02,38,089,34,04,17,044,39,09,27,149,,12,64,065,38*7C
$GPGSV,3,2,09,14,33,262,42,25,71,312,45,29,43,218,44,30,26,286,42*7E
$GPGSV,3,3,09,31,18,314,41,,,,,,,,,,,,*48
$GPGSA,M,3,04,12,14,25,29,30,31,,,,,,2.4,1.5,1.9*3B
Trace #110 at position 27.250000
$GPZDA,083621.04,09,10,2011,00,00*66
$GPRMC,083621.00,A,4611.965630,N,01258.221816,E,000.1,156.3,091$GPGGA,083622.00,4611.965635,N,01258.221842,E,1,07,1.5,140.06,M,46.25,M,,*6D
$GPGLL,4611.965635,N,01258.221842,E,083622.00,A,A*6D
$GPVTG,315.5,T,315.7,M,000.2,N,000.3,K,A*20
$GPGSV,3,1,09,02,38,089,34,04,17,044,37,09,27,149,,12,64,065,39*73
$GPGSV,3,2,09,14,33,262,43,25,71,312,45,29,43,218,43,30,26,286,39*74
$GPGSV,3,3,09,31,18,314,41,,,,,,,,,,,,*48
$GPGSA,M,3,04,12,14,25,29,30,31,,,,,,2.4,1.5,1.9*3B
Trace #111 at position 27.500000
$GPZDA,083621.04,09,10,2011,00,00*66
$GPRMC,083621.00,A,4611.965630,N,01258.221816,E,000.1,156.3,091$GPGGA,083622.00,4611.965635,N,01258.221842,E,1,07,1.5,140.06,M,46.25,M,,*6D
$GPGLL,4611.965635,N,01258.221842,E,083622.00,A,A*6D
$GPVTG,315.5,T,315.7,M,000.2,N,000.3,K,A*20
$GPGSV,3,1,09,02,38,089,34,04,17,044,37,09,27,149,,12,64,065,39*73
$GPGSV,3,2,09,14,33,262,43,25,71,312,45,29,43,218,43,30,26,286,39*74
$GPGSV,3,3,09,31,18,314,41,,,,,,,,,,,,*48
$GPGSA,M,3,04,12,14,25,29,30,31,,,,,,2.4,1.5,1.9*3B
