Trace #1 at position 0.000000
$GPZDA,092721.03,08,10,2011,00,00*61
$GPRMC,092721.00,A,4611.952005,N,01258.218986,E,000.2,359.1,081011,0.2,E,A*36
$GPGGA,092722.00,4611.952006,N,01258.219021,E,1,06,2.6,139.93,M,46.25,M,,*6B
$GPGLL,4611.952006,N,01258.219021,E,092722.00,A,A*68
$GPVTG,3.2,T,3.4,M,000.1,N,000.2,K,A*26
$GPGSV,2,1,07,02,36,063,47,12,46,090,50,14,19,242,36,25,78,043,47*71
$GPGSV,2,2,07,29,65,233,38,30,46,297,39,31,36,309,38,,,,*4E
$GPGSA,M,3,02,12,25,29,30,31,,,,,,,4.9,2.6,4.1*3E
Trace #2 at position 0.250000
$GPZDA,092725.03,08,10,2011,00,00*65
$GPRMC,092725.00,A,4611.951902,N,01258.219111,E,000.0,36.1,081011,0.2,E,A*00
$GPGGA,092726.00,4611.951900,N,01258.219144,E,1,06,2.6,140.09,M,46.25,M,,*6C
$GPGLL,4611.951900,N,01258.219144,E,092726.00,A,A*62
$GPVTG,10.0,T,10.1,M,000.2,N,000.4,K,A*24
$GPGSV,2,1,07,02,36,063,48,12,46,090,50,14,19,242,36,25,78,043,50*78
$GPGSV,2,2,07,29,65,233,40,30,46,297,39,31,36,309,42,,,,*4C
$GPGSA,M,3,02,12,25,29,30,31,,,,,,,4.9,2.6,4.1*3E
Trace #3 at position 0.500000
$GPZDA,092726.03,08,10,2011,00,00*66
$GPRMC,092726.00,A,4611.951900,N,01258.219144,E,000.2,10.0,081011,0.2,E,A*06
$GPGGA,092727.00,4611.951875,N,01258.219167,E,1,06,2.6,140.15,M,46.25,M,,*62
$GPGLL,4611.951875,N,01258.219167,E,092727.00,A,A*61
$GPVTG,186.3,T,186.5,M,000.1,N,000.3,K,A*27
$GPGSV,2,1,07,02,36,063,46,12,46,090,49,14,19,242,31,25,78,043,48*70
$GPGSV,2,2,07,29,65,233,39,30,46,297,37,31,36,309,40,,,,*4E
$GPGSA,M,3,02,12,25,29,30,31,,,,,,,4.9,2.6,4.1*3E
Trace #4 at position 0.750000
$GPZDA,092728.04,08,10,2011,00,00*6F
$GPRMC,092728.00,A,4611.951870,N,01258.219128,E,000.2,335.0,081011,0.2,E,A*30
$GPGGA,092729.00,4611.951928,N,01258.219033,E,1,05,2.6,140.06,M,46.25,M,,*64
$GPGLL,4611.951928,N,01258.219033,E,092729.00,A,A*66
$GPVTG,314.3,T,314.5,M,000.5,N,000.8,K,A*28
$GPGSV,2,1,07,02,36,063,45,12,46,090,49,14,19,242,34,25,78,043,46*78
$GPGSV,2,2,07,29,65,233,41,30,46,297,34,31,36,309,37,,,,*42
$GPGSA,M,3,02,12,25,29,31,,,,,,,,4.9,2.6,4.1*3D
Trace #5 at position 1.000000
$GPZDA,092729.03,08,10,2011,00,00*69
$GPRMC,092729.00,A,4611.951928,N,01258.219033,E,000.5,314.3,081011,0.2,E,A*31
$GPGGA,092730.00,4611.952009,N,01258.218914,E,1,05,2.6,140.12,M,46.25,M,,*6D
$GPGLL,4611.952009,N,01258.218914,E,092730.00,A,A*6A
$GPVTG,321.8,T,322.0,M,000.4,N,000.7,K,A*2B
$GPGSV,2,1,07,02,36,063,45,12,46,090,49,14,19,242,29,25,78,043,46*74
$GPGSV,2,2,07,29,65,233,42,30,46,297,32,31,36,309,38,,,,*48
$GPGSA,M,3,02,12,25,29,31,,,,,,,,4.9,2.6,4.1*3D
Trace #6 at position 1.250000
$GPZDA,092730.03,08,10,2011,00,00*61
$GPRMC,092730.00,A,4611.952009,N,01258.218914,E,000.4,321.8,081011,0.2,E,A*31
$GPGGA,092731.00,4611.952106,N,01258.218796,E,1,05,2.6,140.06,M,46.25,M,,*63
$GPGLL,4611.952106,N,01258.218796,E,092731.00,A,A*61
$GPVTG,318.4,T,318.6,M,000.5,N,001.0,K,A*25
$GPGSV,2,1,07,02,36,063,45,12,46,090,47,14,19,242,34,25,78,043,46*76
$GPGSV,2,2,07,29,65,233,41,30,46,297,34,31,36,309,42,,,,*40
$GPGSA,M,3,02,12,25,29,31,,,,,,,,4.9,2.6,4.1*3D
Trace #7 at position 1.500000
$GPZDA,092731.03,08,10,2011,00,00*60
$GPRMC,092731.00,A,4611.952106,N,01258.218796,E,000.5,318.4,081011,0.2,E,A*3D
$GPGGA,092732.00,4611.952225,N,01258.218721,E,1,05,2.6,139.98,M,46.25,M,,*67
$GPGLL,4611.952225,N,01258.218721,E,092732.00,A,A*6C
$GPVTG,351.8,T,352.0,M,000.5,N,000.9,K,A*24
$GPGSV,2,1,07,02,36,063,44,12,46,090,49,14,19,242,32,25,78,043,45*7C
$GPGSV,2,2,07,29,65,233,44,30,46,297,36,31,36,309,39,,,,*4B
$GPGSA,M,3,02,12,25,29,31,,,,,,,,4.9,2.6,4.1*3D
Trace #8 at position 1.750000
$GPZDA,092732.03,08,10,2011,00,00*63
$GPRMC,092732.00,A,4611.952225,N,01258.218721,E,000.5,351.8,081011,0.2,E,A*31
$GPGGA,092733.00,4611.952345,N,01258.218709,E,1,05,2.6,140.09,M,46.25,M,,*6D
$GPGLL,4611.952345,N,01258.218709,E,092733.00,A,A*60
$GPVTG,359.2,T,359.4,M,000.4,N,000.8,K,A*29
$GPGSV,2,1,07,02,36,063,45,12,46,090,48,14,19,242,36,25,78,043,46*7B
$GPGSV,2,2,07,29,65,233,42,30,46,297,34,31,36,309,40,,,,*41
$GPGSA,M,3,02,12,25,29,31,,,,,,,,4.9,2.6,4.1*3D
Trace #9 at position 2.000000
$GPZDA,092733.03,08,10,2011,00,00*62
$GPRMC,092733.00,A,4611.952345,N,01258.218709,E,000.4,359.2,081011,0.2,E,A*3E
$GPGGA,092734.00,4611.952409,N,01258.218669,E,1,05,2.6,140.23,M,46.25,M,,*6A
$GPGLL,4611.952409,N,01258.218669,E,092734.00,A,A*6F
$GPVTG,281.8,T,281.9,M,000.2,N,000.4,K,A*24
$GPGSV,2,1,07,02,36,063,45,12,46,090,49,14,19,242,35,25,78,043,47*78
$GPGSV,2,2,07,29,65,233,42,30,46,297,36,31,36,309,41,,,,*42
$GPGSA,M,3,02,12,25,29,31,,,,,,,,4.9,2.6,4.1*3D
Trace #10 at position 2.250000
$GPZDA,092734.03,08,10,2011,00,00*65
$GPRMC,092734.00,A,4611.952409,N,01258.218669,E,000.2,281.8,081011,0.2,E,A*39
$GPGGA,092735.00,4611.952509,N,01258.218647,E,1,05,2.6,140.09,M,46.25,M,,*6E
$GPGLL,4611.952509,N,01258.218647,E,092735.00,A,A*63
$GPVTG,8.0,T,8.2,M,000.7,N,001.3,K,A*24
$GPGSV,2,1,07,02,36,063,45,12,46,090,49,14,19,242,36,25,78,043,48*74
$GPGSV,2,2,07,29,65,233,45,30,46,297,37,31,36,309,39,,,,*4B
$GPGSA,M,3,02,12,25,29,31,,,,,,,,4.9,2.6,4.1*3D
Trace #11 at position 2.500000
$GPZDA,092734.03,08,10,2011,00,00*65
$GPRMC,092734.00,A,4611.952409,N,01258.218669,E,000.2,281.8,081011,0.2,E,A*39
$GPGGA,092735.00,4611.952509,N,01258.218647,E,1,05,2.6,140.09,M,46.25,M,,*6E
$GPGLL,4611.952509,N,01258.218647,E,092735.00,A,A*63
$GPVTG,8.0,T,8.2,M,000.7,N,001.3,K,A*24
$GPGSV,2,1,07,02,36,063,45,12,46,090,49,14,19,242,36,25,78,043,48*74
$GPGSV,2,2,07,29,65,233,45,30,46,297,37,31,36,309,39,,,,*4B
$GPGSA,M,3,02,12,25,29,31,,,,,,,,4.9,2.6,4.1*3D
Trace #12 at position 2.750000
$GPZDA,092735.03,08,10,2011,00,00*64
$GPRMC,092735.00,A,4611.952509,N,01258.218647,E,000.7,8.0,081011,0.2,E,A*3B
$GPGGA,092736.00,4611.952697,N,01258.218635,E,1,05,2.6,140.01,M,46.25,M,,*64
$GPGLL,4611.952697,N,01258.218635,E,092736.00,A,A*61
$GPVTG,351.5,T,351.6,M,000.7,N,001.4,K,A*22
$GPGSV,2,1,07,02,36,063,45,12,46,090,49,14,19,242,36,25,78,043,47*7B
$GPGSV,2,2,07,29,65,233,44,30,46,297,33,31,36,309,39,,,,*4E
$GPGSA,M,3,02,12,25,29,31,,,,,,,,4.9,2.6,4.1*3D
Trace #13 at position 3.000000
$GPZDA,092736.03,08,10,2011,00,00*67
$GPRMC,092736.00,A,4611.952697,N,01258.218635,E,000.7,351.5,081011,0.2,E,A*33
$GPGGA,092737.00,4611.952889,N,01258.218578,E,1,05,2.6,140.14,M,46.25,M,,*6A
$GPGLL,4611.952889,N,01258.218578,E,092737.00,A,A*6B
$GPVTG,349.8,T,350.0,M,000.8,N,001.4,K,A*2E
$GPGSV,2,1,07,02,36,063,45,12,46,090,50,14,19,242,36,25,78,043,48*7C
$GPGSV,2,2,07,29,65,233,44,30,46,297,36,31,36,309,40,,,,*45
$GPGSA,M,3,02,12,25,29,31,,,,,,,,4.9,2.6,4.1*3D
Trace #14 at position 3.250000
$GPZDA,092737.03,08,10,2011,00,00*66
$GPRMC,092737.00,A,4611.952889,N,01258.218578,E,000.8,349.8,081011,0.2,E,A*32
$GPGGA,092738.00,4611.953062,N,01258.218493,E,1,05,2.6,140.26,M,46.25,M,,*6C
$GPGLL,4611.953062,N,01258.218493,E,092738.00,A,A*6C
$GPVTG,336.6,T,336.7,M,000.7,N,001.3,K,A*27
$GPGSV,2,1,07,02,36,063,47,12,46,090,49,14,19,242,36,25,78,043,46*78
$GPGSV,2,2,07,29,65,233,44,30,46,297,36,31,36,309,41,,,,*44
$GPGSA,M,3,02,12,25,29,31,,,,,,,,4.9,2.6,4.1*3D
Trace #15 at position 3.500000
$GPZDA,092738.04,08,10,2011,00,00*6E
$GPRMC,092738.00,A,4611.953062,N,01258.218493,E,000.7,336.6,081011,0.2,E,A*3C
$GPGGA,092739.00,4611.953216,N,01258.218397,E,1,05,2.6,140.26,M,46.25,M,,*6F
$GPGLL,4611.953216,N,01258.218397,E,092739.00,A,A*6F
$GPVTG,343.5,T,343.7,M,000.6,N,001.2,K,A*24
$GPGSV,2,1,07,02,36,063,46,12,46,090,48,14,19,242,,25,78,043,47*7C
$GPGSV,2,2,07,29,65,233,43,30,46,297,34,31,36,309,40,,,,*40
$GPGSA,M,3,02,12,25,29,31,,,,,,,,4.9,2.6,4.1*3D
Trace #16 at position 3.750000
$GPZDA,092740.03,08,10,2011,00,00*66
$GPRMC,092740.00,A,4611.953347,N,01258.218327,E,000.4,346.5,081011,0.2,E,A*38
$GPGGA,092741.00,4611.953479,N,01258.218330,E,1,04,4.1,140.39,M,46.25,M,,*6C
$GPGLL,4611.953479,N,01258.218330,E,092741.00,A,A*62
$GPVTG,15.7,T,15.8,M,000.6,N,001.2,K,A*29
$GPGSV,2,1,07,02,36,063,46,12,46,090,49,14,19,242,34,25,78,043,49*74
$GPGSV,2,2,07,29,65,233,44,30,46,297,30,31,36,309,33,,,,*47
$GPGSA,M,3,02,12,25,29,,,,,,,,,7.0,4.1,5.6*32
Trace #17 at position 4.000000
$GPZDA,092741.03,08,10,2011,00,00*67
$GPRMC,092741.00,A,4611.953479,N,01258.218330,E,000.6,15.7,081011,0.2,E,A*00
$GPGGA,092742.00,4611.953591,N,01258.218284,E,1,05,2.6,140.35,M,46.25,M,,*6A
$GPGLL,4611.953591,N,01258.218284,E,092742.00,A,A*68
$GPVTG,308.1,T,308.3,M,000.4,N,000.8,K,A*2D
$GPGSV,2,1,07,02,36,063,45,12,46,090,49,14,19,242,37,25,78,043,49*74
$GPGSV,2,2,07,29,65,233,43,30,46,297,34,31,36,309,39,,,,*4E
$GPGSA,M,3,02,12,25,29,31,,,,,,,,4.9,2.6,4.1*3D
Trace #18 at position 4.250000
$GPZDA,092742.03,08,10,2011,00,00*64
$GPRMC,092742.00,A,4611.953591,N,01258.218284,E,000.4,308.1,081011,0.2,E,A*31
$GPGGA,092743.00,4611.953683,N,01258.218199,E,1,05,2.6,140.30,M,46.25,M,,*61
$GPGLL,4611.953683,N,01258.218199,E,092743.00,A,A*66
$GPVTG,351.4,T,351.6,M,000.4,N,000.8,K,A*2D
$GPGSV,2,1,07,02,36,063,46,12,46,090,48,14,19,242,34,25,78,043,48*74
$GPGSV,2,2,07,29,65,233,42,30,46,297,33,31,36,309,40,,,,*46
$GPGSA,M,3,02,12,25,29,31,,,,,,,,4.9,2.6,4.1*3D
Trace #19 at position 4.500000
$GPZDA,092742.03,08,10,2011,00,00*64
$GPRMC,092742.00,A,4611.953591,N,01258.218284,E,000.4,308.1,081011,0.2,E,A*31
$GPGGA,092743.00,4611.953683,N,01258.218199,E,1,05,2.6,140.30,M,46.25,M,,*61
$GPGLL,4611.953683,N,01258.218199,E,092743.00,A,A*66
$GPVTG,351.4,T,351.6,M,000.4,N,000.8,K,A*2D
$GPGSV,2,1,07,02,36,063,46,12,46,090,48,14,19,242,34,25,78,043,48*74
$GPGSV,2,2,07,29,65,233,42,30,46,297,33,31,36,309,40,,,,*46
$GPGSA,M,3,02,12,25,29,31,,,,,,,,4.9,2.6,4.1*3D
Trace #20 at position 4.750000
$GPZDA,092743.03,08,10,2011,00,00*65
$GPRMC,092743.00,A,4611.953683,N,01258.218199,E,000.4,351.4,081011,0.2,E,A*36
$GPGGA,092744.00,4611.953775,N,01258.218121,E,1,05,2.6,140.28,M,46.25,M,,*64
$GPGLL,4611.953775,N,01258.218121,E,092744.00,A,A*6A
$GPVTG,309.5,T,309.6,M,000.4,N,000.8,K,A*2C
$GPGSV,2,1,07,02,36,063,46,12,46,090,48,14,19,242,37,25,78,043,48*77
$GPGSV,2,2,07,29,65,233,42,30,46,297,28,31,36,309,38,,,,*43
$GPGSA,M,3,02,12,25,29,31,,,,,,,,4.9,2.6,4.1*3D
Trace #21 at position 5.000000
$GPZDA,092744.03,08,10,2011,00,00*62
$GPRMC,092744.00,A,4611.953775,N,01258.218121,E,000.4,309.5,081011,0.2,E,A*36
$GPGGA,092745.00,4611.953861,N,01258.218069,E,1,04,4.1,140.26,M,46.25,M,,*6C
$GPGLL,4611.953861,N,01258.218069,E,092745.00,A,A*6C
$GPVTG,15.1,T,15.2,M,000.3,N,000.6,K,A*25
$GPGSV,2,1,07,02,36,063,46,12,46,090,49,14,19,242,37,25,78,043,49*77
$GPGSV,2,2,07,29,65,233,43,30,46,297,28,31,36,309,36,,,,*4C
$GPGSA,M,3,02,12,25,29,,,,,,,,,7.0,4.1,5.6*32
Trace #22 at position 5.250000
$GPZDA,092745.03,08,10,2011,00,00*63
$GPRMC,092745.00,A,4611.953861,N,01258.218069,E,000.3,15.1,081011,0.2,E,A*0D
$GPGGA,092746.00,4611.953989,N,01258.217925,E,1,04,4.1,140.30,M,46.25,M,,*61
$GPGLL,4611.953989,N,01258.217925,E,092746.00,A,A*66
$GPVTG,303.8,T,304.0,M,001.0,N,001.8,K,A*24
$GPGSV,2,1,07,02,36,063,46,12,46,091,49,14,19,242,36,25,78,043,49*77
$GPGSV,2,2,07,29,65,233,42,30,46,297,31,31,36,309,37,,,,*44
$GPGSA,M,3,02,12,25,29,,,,,,,,,7.0,4.1,5.6*32
Trace #23 at position 5.500000
$GPZDA,092746.03,08,10,2011,00,00*60
$GPRMC,092746.00,A,4611.953989,N,01258.217925,E,001.0,303.8,081011,0.2,E,A*38
$GPGGA,092747.00,4611.954173,N,01258.217721,E,1,04,4.1,140.30,M,46.25,M,,*60
$GPGLL,4611.954173,N,01258.217721,E,092747.00,A,A*67
$GPVTG,337.2,T,337.4,M,000.8,N,001.5,K,A*29
$GPGSV,2,1,07,02,36,063,45,12,46,091,48,14,19,242,36,25,78,043,48*74
$GPGSV,2,2,07,29,65,233,41,30,46,297,33,31,36,309,38,,,,*4A
$GPGSA,M,3,02,12,25,29,,,,,,,,,7.0,4.1,5.6*32
Trace #24 at position 5.750000
$GPZDA,092747.03,08,10,2011,00,00*61
$GPRMC,092747.00,A,4611.954173,N,01258.217721,E,000.8,337.2,081011,0.2,E,A*3D
$GPGGA,092748.00,4611.954388,N,01258.217624,E,1,04,4.1,140.31,M,46.25,M,,*6C
$GPGLL,4611.954388,N,01258.217624,E,092748.00,A,A*6A
$GPVTG,340.2,T,340.4,M,000.9,N,001.7,K,A*2A
$GPGSV,2,1,07,02,36,063,47,12,46,091,49,14,19,242,37,25,78,043,49*77
$GPGSV,2,2,07,29,65,233,41,30,46,297,33,31,36,309,37,,,,*45
$GPGSA,M,3,02,12,25,29,,,,,,,,,7.0,4.1,5.6*32
Trace #25 at position 6.000000
$GPZDA,092748.03,08,10,2011,00,00*6E
$GPRMC,092748.00,A,4611.954388,N,01258.217624,E,000.9,340.2,081011,0.2,E,A*31
$GPGGA,092749.00,4611.954539,N,01258.217579,E,1,04,4.1,140.41,M,46.25,M,,*6D
$GPGLL,4611.954539,N,01258.217579,E,092749.00,A,A*6C
$GPVTG,350.6,T,350.7,M,000.3,N,000.6,K,A*27
$GPGSV,2,1,07,02,36,063,46,12,46,091,48,14,19,242,36,25,78,043,49*76
$GPGSV,2,2,07,29,65,233,43,30,46,297,31,31,36,309,39,,,,*4B
$GPGSA,M,3,02,12,25,29,,,,,,,,,7.0,4.1,5.6*32
Trace #26 at position 6.250000
$GPZDA,092748.03,08,10,2011,00,00*6E
$GPRMC,092748.00,A,4611.954388,N,01258.217624,E,000.9,340.2,081011,0.2,E,A*31
$GPGGA,092749.00,4611.954539,N,01258.217579,E,1,04,4.1,140.41,M,46.25,M,,*6D
$GPGLL,4611.954539,N,01258.217579,E,092749.00,A,A*6C
$GPVTG,350.6,T,350.7,M,000.3,N,000.6,K,A*27
$GPGSV,2,1,07,02,36,063,46,12,46,091,48,14,19,242,36,25,78,043,49*76
$GPGSV,2,2,07,29,65,233,43,30,46,297,31,31,36,309,39,,,,*4B
$GPGSA,M,3,02,12,25,29,,,,,,,,,7.0,4.1,5.6*32
Trace #27 at position 6.500000
$GPZDA,092749.03,08,10,2011,00,00*6F
$GPRMC,092749.00,A,4611.954539,N,01258.217579,E,000.3,350.6,081011,0.2,E,A*38
$GPGGA,092750.00,4611.954597,N,01258.217554,E,1,05,2.6,140.44,M,46.25,M,,*6B
$GPGLL,4611.954597,N,01258.217554,E,092750.00,A,A*6F
$GPVTG,302.4,T,302.6,M,000.3,N,000.5,K,A*27
$GPGSV,2,1,07,02,36,063,46,12,46,091,49,14,19,242,36,25,78,044,49*70
$GPGSV,2,2,07,29,65,233,42,30,46,297,31,31,36,309,39,,,,*4A
$GPGSA,M,3,02,12,25,29,31,,,,,,,,4.9,2.6,4.1*3D
Trace #28 at position 6.750000
$GPZDA,092750.03,08,10,2011,00,00*67
$GPRMC,092750.00,A,4611.954597,N,01258.217554,E,000.3,302.4,081011,0.2,E,A*3E
$GPGGA,092751.00,4611.954678,N,01258.217482,E,1,05,2.6,140.40,M,46.25,M,,*66
$GPGLL,4611.954678,N,01258.217482,E,092751.00,A,A*66
$GPVTG,322.7,T,322.9,M,000.5,N,001.0,K,A*29
$GPGSV,2,1,07,02,36,063,46,12,46,091,49,14,19,242,38,25,78,044,49*7E
$GPGSV,2,2,07,29,65,233,42,30,46,297,,31,36,309,36,,,,*47
$GPGSA,M,3,02,12,25,29,31,,,,,,,,4.9,2.6,4.1*3D
Trace #29 at position 7.000000
$GPZDA,092750.03,08,10,2011,00,00*67
$GPRMC,092750.00,A,4611.954597,N,01258.217554,E,000.3,302.4,081011,0.2,E,A*3E
$GPGGA,092751.00,4611.954678,N,01258.217482,E,1,05,2.6,140.40,M,46.25,M,,*66
$GPGLL,4611.954678,N,01258.217482,E,092751.00,A,A*66
$GPVTG,322.7,T,322.9,M,000.5,N,001.0,K,A*29
$GPGSV,2,1,07,02,36,063,46,12,46,091,49,14,19,242,38,25,78,044,49*7E
$GPGSV,2,2,07,29,65,233,42,30,46,297,,31,36,309,36,,,,*47
$GPGSA,M,3,02,12,25,29,31,,,,,,,,4.9,2.6,4.1*3D
Trace #30 at position 7.250000
$GPZDA,092751.03,08,10,2011,00,00*66
$GPRMC,092751.00,A,4611.954678,N,01258.217482,E,000.5,322.7,081011,0.2,E,A*30
$GPGGA,092752.00,4611.954769,N,01258.217367,E,1,05,2.6,140.37,M,46.25,M,,*68
$GPGLL,4611.954769,N,01258.217367,E,092752.00,A,A*68
$GPVTG,286.9,T,287.1,M,000.5,N,000.9,K,A*26
$GPGSV,2,1,07,02,36,063,47,12,46,091,50,14,19,242,36,25,78,044,48*78
$GPGSV,2,2,07,29,65,233,41,30,46,297,32,31,36,309,37,,,,*44
$GPGSA,M,3,02,12,25,29,31,,,,,,,,4.9,2.6,4.1*3D
Trace #31 at position 7.500000
$GPZDA,092752.03,08,10,2011,00,00*65
$GPRMC,092752.00,A,4611.954769,N,01258.217367,E,000.5,286.9,081011,0.2,E,A*3F
$GPGGA,092753.00,4611.954980,N,01258.217293,E,1,05,2.6,140.37,M,46.25,M,,*6A
$GPGLL,4611.954980,N,01258.217293,E,092753.00,A,A*6A
$GPVTG,354.2,T,354.3,M,001.3,N,002.4,K,A*26
$GPGSV,2,1,07,02,36,063,46,12,46,091,49,14,19,242,36,25,78,044,48*71
$GPGSV,2,2,07,29,65,233,43,30,46,297,32,31,36,309,39,,,,*48
$GPGSA,M,3,02,12,25,29,31,,,,,,,,4.9,2.6,4.1*3D
Trace #32 at position 7.750000
$GPZDA,092753.03,08,10,2011,00,00*64
$GPRMC,092753.00,A,4611.954980,N,01258.217293,E,001.3,354.2,081011,0.2,E,A*3F
$GPGGA,092754.00,4611.955210,N,01258.217259,E,1,05,2.6,140.34,M,46.25,M,,*6B
$GPGLL,4611.955210,N,01258.217259,E,092754.00,A,A*68
$GPVTG,328.5,T,328.7,M,000.4,N,000.7,K,A*22
$GPGSV,2,1,07,02,36,063,46,12,46,091,50,14,19,242,33,25,78,044,48*7C
$GPGSV,2,2,07,29,65,233,42,30,46,297,32,31,36,309,39,,,,*49
$GPGSA,M,3,02,12,25,29,31,,,,,,,,4.9,2.6,4.1*3D
Trace #33 at position 8.000000
$GPZDA,092753.03,08,10,2011,00,00*64
$GPRMC,092753.00,A,4611.954980,N,01258.217293,E,001.3,354.2,081011,0.2,E,A*3F
$GPGGA,092754.00,4611.955210,N,01258.217259,E,1,05,2.6,140.34,M,46.25,M,,*6B
$GPGLL,4611.955210,N,01258.217259,E,092754.00,A,A*68
$GPVTG,328.5,T,328.7,M,000.4,N,000.7,K,A*22
$GPGSV,2,1,07,02,36,063,46,12,46,091,50,14,19,242,33,25,78,044,48*7C
$GPGSV,2,2,07,29,65,233,42,30,46,297,32,31,36,309,39,,,,*49
$GPGSA,M,3,02,12,25,29,31,,,,,,,,4.9,2.6,4.1*3D
Trace #34 at position 8.250000
$GPZDA,092754.03,08,10,2011,00,00*63
$GPRMC,092754.00,A,4611.955210,N,01258.217259,E,000.4,328.5,081011,0.2,E,A*37
$GPGGA,092755.00,4611.955366,N,01258.217285,E,1,05,2.6,140.26,M,46.25,M,,*68
$GPGLL,4611.955366,N,01258.217285,E,092755.00,A,A*68
$GPVTG,17.6,T,17.8,M,000.8,N,001.4,K,A*20
$GPGSV,2,1,07,02,36,063,46,12,46,091,49,14,19,242,33,25,78,044,48*74
$GPGSV,2,2,07,29,65,233,43,30,46,297,29,31,36,309,38,,,,*43
$GPGSA,M,3,02,12,25,29,31,,,,,,,,4.9,2.6,4.1*3D
Trace #35 at position 8.500000
$GPZDA,092755.03,08,10,2011,00,00*62
$GPRMC,092755.00,A,4611.955366,N,01258.217285,E,000.8,17.6,081011,0.2,E,A*07
$GPGGA,092756.00,4611.955511,N,01258.217331,E,1,05,2.6,140.17,M,46.25,M,,*61
$GPGLL,4611.955511,N,01258.217331,E,092756.00,A,A*63
$GPVTG,356.1,T,356.2,M,000.2,N,000.4,K,A*26
$GPGSV,2,1,07,02,36,063,47,12,46,091,49,14,19,242,35,25,78,044,49*72
$GPGSV,2,2,07,29,65,233,42,30,46,297,32,31,36,309,39,,,,*49
$GPGSA,M,3,02,12,25,29,31,,,,,,,,4.9,2.6,4.1*3D
Trace #36 at position 8.750000
$GPZDA,092755.03,08,10,2011,00,00*62
$GPRMC,092755.00,A,4611.955366,N,01258.217285,E,000.8,17.6,081011,0.2,E,A*07
$GPGGA,092756.00,4611.955511,N,01258.217331,E,1,05,2.6,140.17,M,46.25,M,,*61
$GPGLL,4611.955511,N,01258.217331,E,092756.00,A,A*63
$GPVTG,356.1,T,356.2,M,000.2,N,000.4,K,A*26
$GPGSV,2,1,07,02,36,063,47,12,46,091,49,14,19,242,35,25,78,044,49*72
$GPGSV,2,2,07,29,65,233,42,30,46,297,32,31,36,309,39,,,,*49
$GPGSA,M,3,02,12,25,29,31,,,,,,,,4.9,2.6,4.1*3D
Trace #37 at position 9.000000
$GPZDA,092756.03,08,10,2011,00,00*61
$GPRMC,092756.00,A,4611.955511,N,01258.217331,E,000.2,356.1,081011,0.2,E,A*37
$GPGGA,092757.00,4611.955660,N,01258.217297,E,1,05,2.6,140.12,M,46.25,M,,*6D
$GPGLL,4611.955660,N,01258.217297,E,092757.00,A,A*6A
$GPVTG,350.6,T,350.8,M,000.7,N,001.4,K,A*2F
$GPGSV,2,1,07,02,36,063,47,12,46,091,50,14,19,242,36,25,78,044,49*79
$GPGSV,2,2,07,29,65,233,43,30,46,297,34,31,36,309,38,,,,*4F
$GPGSA,M,3,02,12,25,29,31,,,,,,,,4.9,2.6,4.1*3D
Trace #38 at position 9.250000
$GPZDA,092757.03,08,10,2011,00,00*60
$GPRMC,092757.00,A,4611.955660,N,01258.217297,E,000.7,350.6,081011,0.2,E,A*3A
$GPGGA,092758.00,4611.955872,N,01258.217274,E,1,05,2.6,140.01,M,46.25,M,,*60
$GPGLL,4611.955872,N,01258.217274,E,092758.00,A,A*65
$GPVTG,6.6,T,6.7,M,000.7,N,001.3,K,A*27
$GPGSV,2,1,07,02,36,063,46,12,46,091,49,14,19,242,36,25,78,044,48*71
$GPGSV,2,2,07,29,65,233,43,30,46,298,32,31,36,309,39,,,,*47
$GPGSA,M,3,02,12,25,29,31,,,,,,,,4.9,2.6,4.1*3D
Trace #39 at position 9.500000
$GPZDA,092758.03,08,10,2011,00,00*6F
$GPRMC,092758.00,A,4611.955872,N,01258.217274,E,000.7,6.6,081011,0.2,E,A*35
$GPGGA,092759.00,4611.956052,N,01258.217220,E,1,05,2.6,139.95,M,46.25,M,,*6A
$GPGLL,4611.956052,N,01258.217220,E,092759.00,A,A*6C
$GPVTG,333.9,T,334.0,M,000.6,N,001.1,K,A*2B
$GPGSV,2,1,07,02,36,063,47,12,46,091,49,14,19,242,35,25,78,044,48*73
$GPGSV,2,2,07,29,65,233,41,30,46,298,,31,36,309,39,,,,*44
$GPGSA,M,3,02,12,25,29,31,,,,,,,,4.9,2.6,4.1*3D
Trace #40 at position 9.750000
$GPZDA,092759.03,08,10,2011,00,00*6E
$GPRMC,092759.00,A,4611.956052,N,01258.217220,E,000.6,333.9,081011,0.2,E,A*37
$GPGGA,092800.00,4611.956204,N,01258.217145,E,1,05,2.6,139.96,M,46.25,M,,*6B
$GPGLL,4611.956204,N,01258.217145,E,092800.00,A,A*6E
$GPVTG,353.4,T,353.6,M,000.5,N,000.9,K,A*2D
$GPGSV,2,1,07,02,36,063,45,12,46,091,48,14,19,242,36,25,78,044,49*72
$GPGSV,2,2,07,29,65,233,41,30,46,298,32,31,36,309,39,,,,*45
$GPGSA,M,3,02,12,25,29,31,,,,,,,,4.9,2.6,4.1*3D
Trace #41 at position 10.000000
$GPZDA,092759.03,08,10,2011,00,00*6E
$GPRMC,092759.00,A,4611.956052,N,01258.217220,E,000.6,333.9,081011,0.2,E,A*37
$GPGGA,092800.00,4611.956204,N,01258.217145,E,1,05,2.6,139.96,M,46.25,M,,*6B
$GPGLL,4611.956204,N,01258.217145,E,092800.00,A,A*6E
$GPVTG,353.4,T,353.6,M,000.5,N,000.9,K,A*2D
$GPGSV,2,1,07,02,36,063,45,12,46,091,48,14,19,242,36,25,78,044,49*72
$GPGSV,2,2,07,29,65,233,41,30,46,298,32,31,36,309,39,,,,*45
$GPGSA,M,3,02,12,25,29,31,,,,,,,,4.9,2.6,4.1*3D
Trace #42 at position 10.250000
$GPZDA,092800.03,08,10,2011,00,00*6D
$GPRMC,092800.00,A,4611.956204,N,01258.217145,E,000.5,353.4,081011,0.2,E,A*3D
$GPGGA,092801.00,4611.956358,N,01258.217063,E,1,05,2.6,139.97,M,46.25,M,,*66
$GPGLL,4611.956358,N,01258.217063,E,092801.00,A,A*62
$GPVTG,333.0,T,333.1,M,000.6,N,001.1,K,A*24
$GPGSV,2,1,07,02,36,063,45,12,46,091,49,14,19,242,34,25,78,044,49*71
$GPGSV,2,2,07,29,65,233,42,30,46,298,33,31,36,309,39,,,,*47
$GPGSA,M,3,02,12,25,29,31,,,,,,,,4.9,2.6,4.1*3D
Trace #43 at position 10.500000
$GPZDA,092801.03,08,10,2011,00,00*6C
$GPRMC,092801.00,A,4611.956358,N,01258.217063,E,000.6,333.0,081011,0.2,E,A*30
$GPGGA,092802.00,4611.956479,N,01258.216983,E,1,05,2.6,140.02,M,46.25,M,,*65
$GPGLL,4611.956479,N,01258.216983,E,092802.00,A,A*63
$GPVTG,341.6,T,341.8,M,000.2,N,000.4,K,A*2B
$GPGSV,2,1,07,02,36,063,47,12,46,091,48,14,19,242,37,25,78,044,48*70
$GPGSV,2,2,07,29,65,233,43,30,46,298,33,31,36,309,40,,,,*48
$GPGSA,M,3,02,12,25,29,31,,,,,,,,4.9,2.6,4.1*3D
Trace #44 at position 10.750000
$GPZDA,092802.03,08,10,2011,00,00*6F
$GPRMC,092802.00,A,4611.956479,N,01258.216983,E,000.2,341.6,081011,0.2,E,A*36
$GPGGA,092803.00,4611.956664,N,01258.216884,E,1,05,2.6,140.05,M,46.25,M,,*6B
$GPGLL,4611.956664,N,01258.216884,E,092803.00,A,A*6A
$GPVTG,339.2,T,339.3,M,001.1,N,002.0,K,A*20
$GPGSV,2,1,07,02,36,063,47,12,46,091,49,14,19,242,36,25,78,044,47*7F
$GPGSV,2,2,07,29,65,233,43,30,46,298,35,31,36,309,38,,,,*41
$GPGSA,M,3,02,12,25,29,31,,,,,,,,4.9,2.6,4.1*3D
Trace #45 at position 11.000000
$GPZDA,092803.03,08,10,2011,00,00*6E
$GPRMC,092803.00,A,4611.956664,N,01258.216884,E,001.1,339.2,081011,0.2,E,A*36
$GPGGA,092804.00,4611.956893,N,01258.216805,E,1,05,2.6,140.03,M,46.25,M,,*65
$GPGLL,4611.956893,N,01258.216805,E,092804.00,A,A*62
$GPVTG,1.7,T,1.8,M,000.6,N,001.0,K,A*2B
$GPGSV,2,1,07,02,36,063,47,12,46,091,48,14,19,242,36,25,78,044,48*71
$GPGSV,2,2,07,29,66,233,42,30,46,298,34,31,36,309,40,,,,*4D
$GPGSA,M,3,02,12,25,29,31,,,,,,,,4.9,2.6,4.1*3D
Trace #46 at position 11.250000
$GPZDA,092804.03,08,10,2011,00,00*69
$GPRMC,092804.00,A,4611.956893,N,01258.216805,E,000.6,1.7,081011,0.2,E,A*35
$GPGGA,092805.00,4611.956998,N,01258.216818,E,1,05,2.6,139.96,M,46.25,M,,*60
$GPGLL,4611.956998,N,01258.216818,E,092805.00,A,A*65
$GPVTG,68.6,T,68.8,M,000.2,N,000.3,K,A*2C
$GPGSV,2,1,07,02,36,063,47,12,46,091,49,14,19,242,35,25,78,044,48*73
$GPGSV,2,2,07,29,66,233,43,30,46,298,35,31,36,309,39,,,,*43
$GPGSA,M,3,02,12,25,29,31,,,,,,,,4.9,2.6,4.1*3D
Trace #47 at position 11.500000
$GPZDA,092805.03,08,10,2011,00,00*68
$GPRMC,092805.00,A,4611.956998,N,01258.216818,E,000.2,68.6,081011,0.2,E,A*08
$GPGGA,092806.00,4611.957083,N,01258.216854,E,1,05,2.6,139.98,M,46.25,M,,*67
$GPGLL,4611.957083,N,01258.216854,E,092806.00,A,A*6C
$GPVTG,29.8,T,30.0,M,000.4,N,000.8,K,A*2F
$GPGSV,2,1,07,02,36,063,46,12,46,091,50,14,19,242,34,25,78,044,49*7A
$GPGSV,2,2,07,29,66,233,43,30,46,298,35,31,36,309,40,,,,*4D
$GPGSA,M,3,02,12,25,29,31,,,,,,,,4.9,2.6,4.1*3D
Trace #48 at position 11.750000
$GPZDA,092805.03,08,10,2011,00,00*68
$GPRMC,092805.00,A,4611.956998,N,01258.216818,E,000.2,68.6,081011,0.2,E,A*08
$GPGGA,092806.00,4611.957083,N,01258.216854,E,1,05,2.6,139.98,M,46.25,M,,*67
$GPGLL,4611.957083,N,01258.216854,E,092806.00,A,A*6C
$GPVTG,29.8,T,30.0,M,000.4,N,000.8,K,A*2F
$GPGSV,2,1,07,02,36,063,46,12,46,091,50,14,19,242,34,25,78,044,49*7A
$GPGSV,2,2,07,29,66,233,43,30,46,298,35,31,36,309,40,,,,*4D
$GPGSA,M,3,02,12,25,29,31,,,,,,,,4.9,2.6,4.1*3D
Trace #49 at position 12.000000
$GPZDA,092806.03,08,10,2011,00,00*6B
$GPRMC,092806.00,A,4611.957083,N,01258.216854,E,000.4,29.8,081011,0.2,E,A*0C
$GPGGA,092807.00,4611.957179,N,01258.216756,E,1,05,2.6,140.12,M,46.25,M,,*63
$GPGLL,4611.957179,N,01258.216756,E,092807.00,A,A*64
$GPVTG,280.1,T,280.2,M,000.5,N,001.0,K,A*24
$GPGSV,2,1,07,02,36,063,47,12,46,091,49,14,19,242,35,25,78,044,49*72
$GPGSV,2,2,07,29,66,233,41,30,46,298,32,31,36,309,38,,,,*47
$GPGSA,M,3,02,12,25,29,31,,,,,,,,4.9,2.6,4.1*3D
Trace #50 at position 12.250000
$GPZDA,092807.03,08,10,2011,00,00*6A
$GPRMC,092807.00,A,4611.957179,N,01258.216756,E,000.5,280.1,081011,0.2,E,A*3D
$GPGGA,092808.00,4611.957273,N,01258.216600,E,1,04,4.1,140.18,M,46.25,M,,*6D
$GPGLL,4611.957273,N,01258.216600,E,092808.00,A,A*60
$GPVTG,331.6,T,331.7,M,000.3,N,000.6,K,A*27
$GPGSV,2,1,07,02,36,063,47,12,46,091,48,14,19,242,36,25,78,044,49*70
$GPGSV,2,2,07,29,66,233,42,30,46,298,36,31,36,309,34,,,,*4C
$GPGSA,M,3,02,12,25,29,,,,,,,,,6.9,4.1,5.6*3A
Trace #51 at position 12.500000
$GPZDA,092809.03,08,10,2011,00,00*64
$GPRMC,092809.00,A,4611.957476,N,01258.216545,E,000.9,357.7,081011,0.2,E,A*38
$GPGGA,092810.00,4611.957752,N,01258.216479,E,1,04,4.1,139.96,M,46.25,M,,*66
$GPGLL,4611.957752,N,01258.216479,E,092810.00,A,A*63
$GPVTG,347.4,T,347.5,M,001.0,N,001.8,K,A*2A
$GPGSV,2,1,07,02,36,063,46,12,46,091,50,14,19,242,37,25,78,044,48*78
$GPGSV,2,2,07,29,66,233,42,30,46,298,34,31,36,309,36,,,,*4C
$GPGSA,M,3,02,12,25,29,,,,,,,,,6.9,4.1,5.6*3A
Trace #52 at position 12.750000
$GPZDA,092810.03,08,10,2011,00,00*6C
$GPRMC,092810.00,A,4611.957752,N,01258.216479,E,001.0,347.4,081011,0.2,E,A*31
$GPGGA,092811.00,4611.957928,N,01258.216305,E,1,04,4.1,139.96,M,46.25,M,,*68
$GPGLL,4611.957928,N,01258.216305,E,092811.00,A,A*6D
$GPVTG,292.8,T,293.0,M,000.7,N,001.3,K,A*2F
$GPGSV,2,1,07,02,36,063,47,12,46,091,49,14,19,242,36,25,78,044,48*70
$GPGSV,2,2,07,29,66,233,42,30,46,298,35,31,36,309,35,,,,*4E
$GPGSA,M,3,02,12,25,29,,,,,,,,,6.9,4.1,5.6*3A
Trace #53 at position 13.000000
$GPZDA,092811.03,08,10,2011,00,00*6D
$GPRMC,092811.00,A,4611.957928,N,01258.216305,E,000.7,292.8,081011,0.2,E,A*3C
$GPGGA,092812.00,4611.958028,N,01258.216204,E,1,04,4.1,140.02,M,46.25,M,,*6E
$GPGLL,4611.958028,N,01258.216204,E,092812.00,A,A*68
$GPVTG,22.9,T,23.1,M,000.3,N,000.6,K,A*2F
$GPGSV,2,1,07,02,36,063,47,12,46,091,48,14,19,242,34,25,78,044,49*72
$GPGSV,2,2,07,29,66,233,42,30,46,298,30,31,36,309,32,,,,*4C
$GPGSA,M,3,02,12,25,29,,,,,,,,,6.9,4.1,5.6*3A
Trace #54 at position 13.250000
$GPZDA,092812.03,08,10,2011,00,00*6E
$GPRMC,092812.00,A,4611.958028,N,01258.216204,E,000.3,22.9,081011,0.2,E,A*05
$GPGGA,092813.00,4611.958092,N,01258.216295,E,1,04,4.1,140.08,M,46.25,M,,*6C
$GPGLL,4611.958092,N,01258.216295,E,092813.00,A,A*60
$GPVTG,93.4,T,93.6,M,000.4,N,000.7,K,A*22
$GPGSV,2,1,07,02,36,063,46,12,46,091,49,14,19,242,32,25,78,044,48*75
$GPGSV,2,2,07,29,66,233,42,30,46,298,32,31,36,309,36,,,,*4A
$GPGSA,M,3,02,12,25,29,,,,,,,,,6.9,4.1,5.6*3A
Trace #55 at position 13.500000
$GPZDA,092813.03,08,10,2011,00,00*6F
$GPRMC,092813.00,A,4611.958092,N,01258.216295,E,000.4,93.4,081011,0.2,E,A*0D
$GPGGA,092814.00,4611.958142,N,01258.216342,E,1,04,4.1,140.08,M,46.25,M,,*6C
$GPGLL,4611.958142,N,01258.216342,E,092814.00,A,A*60
$GPVTG,347.7,T,347.8,M,000.2,N,000.4,K,A*2A
$GPGSV,2,1,07,02,36,063,46,12,46,091,49,14,19,242,29,25,78,045,48*7E
$GPGSV,2,2,07,29,66,233,42,30,46,298,25,31,36,309,26,,,,*4D
$GPGSA,M,3,02,12,25,29,,,,,,,,,6.9,4.1,5.6*3A
Trace #56 at position 13.750000
$GPZDA,092814.03,08,10,2011,00,00*68
$GPRMC,092814.00,A,4611.958142,N,01258.216342,E,000.2,347.7,081011,0.2,E,A*32
$GPGGA,092815.00,4611.958219,N,01258.216366,E,1,04,4.1,140.09,M,46.25,M,,*67
$GPGLL,4611.958219,N,01258.216366,E,092815.00,A,A*6A
$GPVTG,63.1,T,63.3,M,000.3,N,000.6,K,A*24
$GPGSV,2,1,07,02,36,063,47,12,46,091,48,14,19,242,32,25,78,045,47*7B
$GPGSV,2,2,07,29,66,233,41,30,46,298,32,31,36,309,29,,,,*47
$GPGSA,M,3,02,12,25,29,,,,,,,,,6.9,4.1,5.6*3A
Trace #57 at position 14.000000
$GPZDA,092815.03,08,10,2011,00,00*69
$GPRMC,092815.00,A,4611.958219,N,01258.216366,E,000.3,63.1,081011,0.2,E,A*0A
$GPGGA,092816.00,4611.958338,N,01258.216277,E,1,04,4.1,140.15,M,46.25,M,,*6A
$GPGLL,4611.958338,N,01258.216277,E,092816.00,A,A*6A
$GPVTG,310.4,T,310.6,M,000.8,N,001.5,K,A*2D
$GPGSV,2,1,07,02,36,063,46,12,46,091,49,14,19,242,35,25,78,045,48*73
$GPGSV,2,2,07,29,66,233,41,30,46,298,35,31,36,309,38,,,,*40
$GPGSA,M,3,02,12,25,29,,,,,,,,,6.9,4.1,5.6*3A
Trace #58 at position 14.250000
$GPZDA,092815.03,08,10,2011,00,00*69
$GPRMC,092815.00,A,4611.958219,N,01258.216366,E,000.3,63.1,081011,0.2,E,A*0A
$GPGGA,092816.00,4611.958338,N,01258.216277,E,1,04,4.1,140.15,M,46.25,M,,*6A
$GPGLL,4611.958338,N,01258.216277,E,092816.00,A,A*6A
$GPVTG,310.4,T,310.6,M,000.8,N,001.5,K,A*2D
$GPGSV,2,1,07,02,36,063,46,12,46,091,49,14,19,242,35,25,78,045,48*73
$GPGSV,2,2,07,29,66,233,41,30,46,298,35,31,36,309,38,,,,*40
$GPGSA,M,3,02,12,25,29,,,,,,,,,6.9,4.1,5.6*3A
Trace #59 at position 14.500000
$GPZDA,092816.03,08,10,2011,00,00*6A
$GPRMC,092816.00,A,4611.958338,N,01258.216277,E,000.8,310.4,081011,0.2,E,A*33
$GPGGA,092817.00,4611.958575,N,01258.216176,E,1,04,4.1,140.17,M,46.25,M,,*64
$GPGLL,4611.958575,N,01258.216176,E,092817.00,A,A*66
$GPVTG,11.2,T,11.4,M,001.1,N,002.0,K,A*27
$GPGSV,2,1,07,02,36,063,45,12,46,091,49,14,19,242,35,25,78,045,48*70
$GPGSV,2,2,07,29,66,233,40,30,46,298,35,31,36,309,38,,,,*41
$GPGSA,M,3,02,12,25,29,,,,,,,,,6.9,4.1,5.6*3A
Trace #60 at position 14.750000
$GPZDA,092817.03,08,10,2011,00,00*6B
$GPRMC,092817.00,A,4611.958575,N,01258.216176,E,001.1,11.2,081011,0.2,E,A*03
$GPGGA,092818.00,4611.958769,N,01258.216098,E,1,04,4.1,140.11,M,46.25,M,,*63
$GPGLL,4611.958769,N,01258.216098,E,092818.00,A,A*67
$GPVTG,302.6,T,302.8,M,000.6,N,001.0,K,A*2A
$GPGSV,2,1,07,02,36,063,45,12,46,091,47,14,19,242,35,25,78,045,48*7E
$GPGSV,2,2,07,29,66,233,38,30,46,298,34,31,36,309,37,,,,*40
$GPGSA,M,3,02,12,25,29,,,,,,,,,6.9,4.1,5.6*3A
Trace #61 at position 15.000000
$GPZDA,092818.03,08,10,2011,00,00*64
$GPRMC,092818.00,A,4611.958769,N,01258.216098,E,000.6,302.6,081011,0.2,E,A*31
$GPGGA,092819.00,4611.958914,N,01258.215951,E,1,04,4.1,139.94,M,46.25,M,,*6A
$GPGLL,4611.958914,N,01258.215951,E,092819.00,A,A*6D
$GPVTG,345.5,T,345.7,M,000.7,N,001.3,K,A*24
$GPGSV,2,1,07,02,36,063,44,12,46,091,49,14,19,242,36,25,78,045,48*72
$GPGSV,2,2,07,29,66,233,40,30,46,298,33,31,36,309,36,,,,*49
$GPGSA,M,3,02,12,25,29,,,,,,,,,6.9,4.1,5.6*3A
Trace #62 at position 15.250000
$GPZDA,092819.03,08,10,2011,00,00*65
$GPRMC,092819.00,A,4611.958914,N,01258.215951,E,000.7,345.5,081011,0.2,E,A*3A
$GPGGA,092820.00,4611.959122,N,01258.215932,E,1,05,2.6,139.80,M,46.25,M,,*6C
$GPGLL,4611.959122,N,01258.215932,E,092820.00,A,A*6E
$GPVTG,16.1,T,16.2,M,000.8,N,001.4,K,A*2D
$GPGSV,2,1,07,02,36,063,45,12,46,091,50,14,19,242,34,25,78,045,48*79
$GPGSV,2,2,07,29,66,233,38,30,46,298,33,31,36,309,40,,,,*47
$GPGSA,M,3,02,12,25,29,31,,,,,,,,4.9,2.6,4.2*3E
Trace #63 at position 15.500000
$GPZDA,092820.03,08,10,2011,00,00*6F
$GPRMC,092820.00,A,4611.959122,N,01258.215932,E,000.8,16.1,081011,0.2,E,A*07
$GPGGA,092821.00,4611.959320,N,01258.215859,E,1,05,2.6,139.75,M,46.25,M,,*6B
$GPGLL,4611.959320,N,01258.215859,E,092821.00,A,A*63
$GPVTG,326.2,T,326.3,M,000.8,N,001.5,K,A*2E
$GPGSV,2,1,07,02,36,063,45,12,46,091,49,14,19,242,34,25,78,045,48*71
$GPGSV,2,2,07,29,66,233,41,30,46,298,33,31,36,309,38,,,,*46
$GPGSA,M,3,02,12,25,29,31,,,,,,,,4.9,2.6,4.2*3E
Trace #64 at position 15.750000
$GPZDA,092821.03,08,10,2011,00,00*6E
$GPRMC,092821.00,A,4611.959320,N,01258.215859,E,000.8,326.2,081011,0.2,E,A*39
$GPGGA,092822.00,4611.959475,N,01258.215699,E,1,04,4.1,139.74,M,46.25,M,,*6C
$GPGLL,4611.959475,N,01258.215699,E,092822.00,A,A*65
$GPVTG,326.8,T,327.0,M,000.6,N,001.1,K,A*2C
$GPGSV,2,1,07,02,36,063,45,12,46,091,49,14,19,242,35,25,78,045,49*71
$GPGSV,2,2,07,29,66,233,41,30,46,298,33,31,36,309,36,,,,*48
$GPGSA,M,3,02,12,25,29,,,,,,,,,6.9,4.1,5.6*3A
Trace #65 at position 16.000000
$GPZDA,092822.03,08,10,2011,00,00*6D
$GPRMC,092822.00,A,4611.959475,N,01258.215699,E,000.6,326.8,081011,0.2,E,A*3B
$GPGGA,092823.00,4611.959602,N,01258.215591,E,1,05,2.6,139.84,M,46.25,M,,*6B
$GPGLL,4611.959602,N,01258.215591,E,092823.00,A,A*6D
$GPVTG,334.0,T,334.1,M,000.5,N,000.9,K,A*2E
$GPGSV,2,1,07,02,36,063,43,12,46,091,49,14,19,242,37,25,78,045,48*74
$GPGSV,2,2,07,29,66,233,43,30,46,298,34,31,36,309,39,,,,*42
$GPGSA,M,3,02,12,25,29,31,,,,,,,,4.9,2.6,4.2*3E
Trace #66 at position 16.250000
$GPZDA,092822.03,08,10,2011,00,00*6D
$GPRMC,092822.00,A,4611.959475,N,01258.215699,E,000.6,326.8,081011,0.2,E,A*3B
$GPGGA,092823.00,4611.959602,N,01258.215591,E,1,05,2.6,139.84,M,46.25,M,,*6B
$GPGLL,4611.959602,N,01258.215591,E,092823.00,A,A*6D
$GPVTG,334.0,T,334.1,M,000.5,N,000.9,K,A*2E
$GPGSV,2,1,07,02,36,063,43,12,46,091,49,14,19,242,37,25,78,045,48*74
$GPGSV,2,2,07,29,66,233,43,30,46,298,34,31,36,309,39,,,,*42
$GPGSA,M,3,02,12,25,29,31,,,,,,,,4.9,2.6,4.2*3E
Trace #67 at position 16.500000
$GPZDA,092823.04,08,10,2011,00,00*6B
$GPRMC,092823.00,A,4611.959602,N,01258.215591,E,000.5,334.0,081011,0.2,E,A*3B
$GPGGA,092824.00,4611.959712,N,01258.215505,E,1,05,2.6,139.90,M,46.25,M,,*64
$GPGLL,4611.959712,N,01258.215505,E,092824.00,A,A*67
$GPVTG,324.6,T,324.8,M,000.4,N,000.8,K,A*21
$GPGSV,2,1,07,02,36,063,44,12,46,091,49,14,19,242,36,25,78,045,48*72
$GPGSV,2,2,07,29,66,233,42,30,46,298,33,31,36,309,39,,,,*44
$GPGSA,M,3,02,12,25,29,31,,,,,,,,4.9,2.6,4.2*3E
Trace #68 at position 16.750000
$GPZDA,092825.03,08,10,2011,00,00*6A
$GPRMC,092825.00,A,4611.959819,N,01258.215435,E,000.4,340.8,081011,0.2,E,A*3C
$GPGGA,092826.00,4611.959954,N,01258.215468,E,1,05,2.6,139.88,M,46.25,M,,*69
$GPGLL,4611.959954,N,01258.215468,E,092826.00,A,A*63
$GPVTG,31.8,T,32.0,M,000.6,N,001.2,K,A*2D
$GPGSV,2,1,07,02,36,063,46,12,46,091,49,14,19,242,37,25,78,045,48*71
$GPGSV,2,2,07,29,66,233,38,30,46,298,36,31,37,309,40,,,,*43
$GPGSA,M,3,02,12,25,29,31,,,,,,,,4.9,2.6,4.2*3E
Trace #69 at position 17.000000
$GPZDA,092826.03,08,10,2011,00,00*69
$GPRMC,092826.00,A,4611.959954,N,01258.215468,E,000.6,31.8,081011,0.2,E,A*08
$GPGGA,092827.00,4611.960146,N,01258.215568,E,1,05,2.6,139.93,M,46.25,M,,*62
$GPGLL,4611.960146,N,01258.215568,E,092827.00,A,A*62
$GPVTG,24.1,T,24.2,M,000.8,N,001.5,K,A*2C
$GPGSV,2,1,07,02,36,063,46,12,46,091,49,14,19,242,33,25,78,045,48*75
$GPGSV,2,2,07,29,66,233,42,30,46,298,35,31,37,309,40,,,,*4D
$GPGSA,M,3,02,12,25,29,31,,,,,,,,4.9,2.6,4.2*3E
Trace #70 at position 17.250000
$GPZDA,092828.03,08,10,2011,00,00*67
$GPRMC,092828.00,A,4611.960280,N,01258.215571,E,000.2,333.2,081011,0.2,E,A*38
$GPGGA,092829.00,4611.960365,N,01258.215559,E,1,05,2.6,139.80,M,46.25,M,,*6F
$GPGLL,4611.960365,N,01258.215559,E,092829.00,A,A*6D
$GPVTG,40.3,T,40.4,M,000.4,N,000.8,K,A*28
$GPGSV,2,1,07,02,36,063,46,12,46,091,49,14,19,242,35,25,78,045,48*73
$GPGSV,2,2,07,29,66,233,41,30,46,298,33,31,37,309,41,,,,*49
$GPGSA,M,3,02,12,25,29,31,,,,,,,,4.9,2.6,4.2*3E
Trace #71 at position 17.500000
$GPZDA,092828.03,08,10,2011,00,00*67
$GPRMC,092828.00,A,4611.960280,N,01258.215571,E,000.2,333.2,081011,0.2,E,A*38
$GPGGA,092829.00,4611.960365,N,01258.215559,E,1,05,2.6,139.80,M,46.25,M,,*6F
$GPGLL,4611.960365,N,01258.215559,E,092829.00,A,A*6D
$GPVTG,40.3,T,40.4,M,000.4,N,000.8,K,A*28
$GPGSV,2,1,07,02,36,063,46,12,46,091,49,14,19,242,35,25,78,045,48*73
$GPGSV,2,2,07,29,66,233,41,30,46,298,33,31,37,309,41,,,,*49
$GPGSA,M,3,02,12,25,29,31,,,,,,,,4.9,2.6,4.2*3E
Trace #72 at position 17.750000
$GPZDA,092829.03,08,10,2011,00,00*66
$GPRMC,092829.00,A,4611.960365,N,01258.215559,E,000.4,40.3,081011,0.2,E,A*09
$GPGGA,092830.00,4611.960498,N,01258.215510,E,1,05,2.6,139.76,M,46.25,M,,*66
$GPGLL,4611.960498,N,01258.215510,E,092830.00,A,A*6D
$GPVTG,335.4,T,335.5,M,000.7,N,001.2,K,A*26
$GPGSV,2,1,07,02,36,063,47,12,46,091,50,14,19,242,37,25,78,045,47*77
$GPGSV,2,2,07,29,66,233,41,30,46,298,35,31,37,309,40,,,,*4E
$GPGSA,M,3,02,12,25,29,31,,,,,,,,4.9,2.6,4.2*3E
Trace #73 at position 18.000000
$GPZDA,092830.03,08,10,2011,00,00*6E
$GPRMC,092830.00,A,4611.960498,N,01258.215510,E,000.7,335.4,081011,0.2,E,A*3C
$GPGGA,092831.00,4611.960664,N,01258.215327,E,1,05,2.6,139.81,M,46.25,M,,*6C
$GPGLL,4611.960664,N,01258.215327,E,092831.00,A,A*6F
$GPVTG,321.6,T,321.7,M,000.8,N,001.5,K,A*2E
$GPGSV,2,1,07,02,36,063,46,12,46,091,49,14,19,242,35,25,78,045,48*73
$GPGSV,2,2,07,29,66,233,42,30,46,298,36,31,37,309,40,,,,*4E
$GPGSA,M,3,02,12,25,29,31,,,,,,,,4.9,2.6,4.2*3E
Trace #74 at position 18.250000
$GPZDA,092831.03,08,10,2011,00,00*6F
$GPRMC,092831.00,A,4611.960664,N,01258.215327,E,000.8,321.6,081011,0.2,E,A*36
$GPGGA,092832.00,4611.960738,N,01258.215224,E,1,05,2.6,139.89,M,46.25,M,,*6D
$GPGLL,4611.960738,N,01258.215224,E,092832.00,A,A*66
$GPVTG,136.7,T,136.8,M,000.1,N,000.2,K,A*2F
$GPGSV,2,1,07,02,36,063,48,12,46,091,49,14,19,242,35,25,78,045,48*7D
$GPGSV,2,2,07,29,66,233,43,30,46,298,37,31,37,309,41,,,,*4F
$GPGSA,M,3,02,12,25,29,31,,,,,,,,4.9,2.6,4.2*3E
Trace #75 at position 18.500000
$GPZDA,092832.03,08,10,2011,00,00*6C
$GPRMC,092832.00,A,4611.960738,N,01258.215224,E,000.1,136.7,081011,0.2,E,A*33
$GPGGA,092833.00,4611.960856,N,01258.215254,E,1,05,2.6,139.92,M,46.25,M,,*66
$GPGLL,4611.960856,N,01258.215254,E,092833.00,A,A*67
$GPVTG,14.6,T,14.7,M,001.0,N,001.8,K,A*2A
$GPGSV,2,1,07,02,36,063,46,12,46,091,49,14,19,242,37,25,78,045,47*7E
$GPGSV,2,2,07,29,66,233,40,30,46,298,36,31,37,309,39,,,,*42
$GPGSA,M,3,02,12,25,29,31,,,,,,,,4.9,2.6,4.2*3E
Trace #76 at position 18.750000
$GPZDA,092834.03,08,10,2011,00,00*6A
$GPRMC,092834.00,A,4611.961099,N,01258.215224,E,000.9,347.3,081011,0.2,E,A*30
$GPGGA,092835.00,4611.961215,N,01258.215121,E,1,05,2.6,139.82,M,46.25,M,,*6C
$GPGLL,4611.961215,N,01258.215121,E,092835.00,A,A*6C
$GPVTG,283.2,T,283.4,M,000.2,N,000.3,K,A*24
$GPGSV,2,1,07,02,36,063,45,12,46,091,48,14,19,242,36,25,78,045,48*72
$GPGSV,2,2,07,29,66,233,40,30,46,298,33,31,37,308,39,,,,*46
$GPGSA,M,3,02,12,25,29,31,,,,,,,,4.9,2.6,4.2*3E
Trace #77 at position 19.000000
$GPZDA,092835.03,08,10,2011,00,00*6B
$GPRMC,092835.00,A,4611.961215,N,01258.215121,E,000.2,283.2,081011,0.2,E,A*32
$GPGGA,092836.00,4611.961264,N,01258.215089,E,1,05,2.6,139.89,M,46.25,M,,*61
$GPGLL,4611.961264,N,01258.215089,E,092836.00,A,A*6A
$GPVTG,25.6,T,25.7,M,000.4,N,000.7,K,A*21
$GPGSV,2,1,07,02,35,063,45,12,46,091,48,14,19,242,35,25,78,045,48*72
$GPGSV,2,2,07,29,66,233,41,30,46,298,36,31,37,308,40,,,,*4C
$GPGSA,M,3,02,12,25,29,31,,,,,,,,4.9,2.6,4.2*3E
Trace #78 at position 19.250000
$GPZDA,092836.03,08,10,2011,00,00*68
$GPRMC,092836.00,A,4611.961264,N,01258.215089,E,000.4,25.6,081011,0.2,E,A*08
$GPGGA,092837.00,4611.961357,N,01258.214979,E,1,05,2.6,139.94,M,46.25,M,,*6A
$GPGLL,4611.961357,N,01258.214979,E,092837.00,A,A*6D
$GPVTG,299.5,T,299.6,M,000.6,N,001.2,K,A*25
$GPGSV,2,1,07,02,35,063,45,12,46,091,48,14,19,242,36,25,78,045,48*71
$GPGSV,2,2,07,29,66,233,41,30,46,298,34,31,37,308,40,,,,*4E
$GPGSA,M,3,02,12,25,29,31,,,,,,,,4.9,2.6,4.2*3E
Trace #79 at position 19.500000
$GPZDA,092837.03,08,10,2011,00,00*69
$GPRMC,092837.00,A,4611.961357,N,01258.214979,E,000.6,299.5,081011,0.2,E,A*3B
$GPGGA,092838.00,4611.961427,N,01258.214935,E,1,05,2.7,139.97,M,46.25,M,,*6F
$GPGLL,4611.961427,N,01258.214935,E,092838.00,A,A*6A
$GPVTG,77.8,T,77.9,M,000.5,N,000.9,K,A*2E
$GPGSV,2,1,07,02,35,063,46,12,46,091,49,14,19,242,37,25,78,045,48*72
$GPGSV,2,2,07,29,66,233,42,30,46,298,35,31,37,308,37,,,,*4C
$GPGSA,M,3,02,12,25,29,31,,,,,,,,4.9,2.7,4.2*3F
Trace #80 at position 19.750000
$GPZDA,092838.04,08,10,2011,00,00*61
$GPRMC,092838.00,A,4611.961427,N,01258.214935,E,000.5,77.8,081011,0.2,E,A*00
$GPGGA,092839.00,4611.961480,N,01258.214966,E,1,05,2.7,139.98,M,46.25,M,,*6A
$GPGLL,4611.961480,N,01258.214966,E,092839.00,A,A*60
$GPVTG,326.5,T,326.7,M,000.2,N,000.4,K,A*27
$GPGSV,2,1,07,02,35,063,46,12,46,091,49,14,19,242,35,25,78,045,47*7F
$GPGSV,2,2,07,29,66,233,38,30,46,298,33,31,37,308,40,,,,*47
$GPGSA,M,3,02,12,25,29,31,,,,,,,,4.9,2.7,4.2*3F
Trace #81 at position 20.000000
$GPZDA,092839.03,08,10,2011,00,00*67
$GPRMC,092839.00,A,4611.961480,N,01258.214966,E,000.2,326.5,081011,0.2,E,A*37
$GPGGA,092840.00,4611.961637,N,01258.214820,E,1,05,2.7,139.99,M,46.25,M,,*68
$GPGLL,4611.961637,N,01258.214820,E,092840.00,A,A*63
$GPVTG,330.9,T,331.0,M,001.0,N,001.9,K,A*22
$GPGSV,2,1,07,02,35,063,46,12,46,091,49,14,19,242,36,25,78,045,48*73
$GPGSV,2,2,07,29,66,233,40,30,46,298,35,31,37,308,39,,,,*40
$GPGSA,M,3,02,12,25,29,31,,,,,,,,4.9,2.7,4.2*3F
Trace #82 at position 20.250000
$GPZDA,092840.03,08,10,2011,00,00*69
$GPRMC,092840.00,A,4611.961637,N,01258.214820,E,001.0,330.9,081011,0.2,E,A*3C
$GPGGA,092841.00,4611.961807,N,01258.214714,E,1,05,2.7,139.97,M,46.25,M,,*62
$GPGLL,4611.961807,N,01258.214714,E,092841.00,A,A*67
$GPVTG,4.5,T,4.6,M,000.3,N,000.5,K,A*26
$GPGSV,2,1,07,02,35,063,47,12,46,091,49,14,19,242,33,25,78,045,47*78
$GPGSV,2,2,07,29,66,233,41,30,46,298,35,31,37,308,38,,,,*40
$GPGSA,M,3,02,12,25,29,31,,,,,,,,4.9,2.7,4.2*3F
Trace #83 at position 20.500000
$GPZDA,092841.03,08,10,2011,00,00*68
$GPRMC,092841.00,A,4611.961807,N,01258.214714,E,000.3,4.5,081011,0.2,E,A*32
$GPGGA,092842.00,4611.961872,N,01258.214720,E,1,05,2.7,139.98,M,46.25,M,,*6B
$GPGLL,4611.961872,N,01258.214720,E,092842.00,A,A*61
$GPVTG,77.8,T,77.9,M,000.1,N,000.2,K,A*21
$GPGSV,2,1,07,02,35,063,46,12,46,091,49,14,19,242,32,25,78,046,48*74
$GPGSV,2,2,07,29,66,233,41,30,46,298,34,31,37,308,41,,,,*4F
$GPGSA,M,3,02,12,25,29,31,,,,,,,,4.9,2.7,4.2*3F
Trace #84 at position 20.750000
$GPZDA,092841.03,08,10,2011,00,00*68
$GPRMC,092841.00,A,4611.961807,N,01258.214714,E,000.3,4.5,081011,0.2,E,A*32
$GPGGA,092842.00,4611.961872,N,01258.214720,E,1,05,2.7,139.98,M,46.25,M,,*6B
$GPGLL,4611.961872,N,01258.214720,E,092842.00,A,A*61
$GPVTG,77.8,T,77.9,M,000.1,N,000.2,K,A*21
$GPGSV,2,1,07,02,35,063,46,12,46,091,49,14,19,242,32,25,78,046,48*74
$GPGSV,2,2,07,29,66,233,41,30,46,298,34,31,37,308,41,,,,*4F
$GPGSA,M,3,02,12,25,29,31,,,,,,,,4.9,2.7,4.2*3F
Trace #85 at position 21.000000
$GPZDA,092842.03,08,10,2011,00,00*6B
$GPRMC,092842.00,A,4611.961872,N,01258.214720,E,000.1,77.8,081011,0.2,E,A*0F
$GPGGA,092843.00,4611.961977,N,01258.214628,E,1,05,2.7,140.02,M,46.25,M,,*6A
$GPGLL,4611.961977,N,01258.214628,E,092843.00,A,A*6D
$GPVTG,319.1,T,319.2,M,000.7,N,001.4,K,A*22
$GPGSV,2,1,07,02,35,063,46,12,46,091,49,14,19,242,33,25,78,046,47*7A
$GPGSV,2,2,07,29,66,233,42,30,46,298,34,31,37,308,40,,,,*4D
$GPGSA,M,3,02,12,25,29,31,,,,,,,,4.9,2.7,4.2*3F
Trace #86 at position 21.250000
$GPZDA,092843.03,08,10,2011,00,00*6A
$GPRMC,092843.00,A,4611.961977,N,01258.214628,E,000.7,319.1,081011,0.2,E,A*37
$GPGGA,092844.00,4611.962117,N,01258.214470,E,1,05,2.7,140.03,M,46.25,M,,*6E
$GPGLL,4611.962117,N,01258.214470,E,092844.00,A,A*68
$GPVTG,317.1,T,317.2,M,000.4,N,000.8,K,A*2C
$GPGSV,2,1,07,02,35,063,46,12,46,091,48,14,19,242,34,25,78,046,48*73
$GPGSV,2,2,07,29,66,233,42,30,46,298,30,31,37,308,38,,,,*46
$GPGSA,M,3,02,12,25,29,31,,,,,,,,4.9,2.7,4.2*3F
Trace #87 at position 21.500000
$GPZDA,092844.03,08,10,2011,00,00*6D
$GPRMC,092844.00,A,4611.962117,N,01258.214470,E,000.4,317.1,081011,0.2,E,A*3F
$GPGGA,092845.00,4611.962320,N,01258.214429,E,1,05,2.7,140.04,M,46.25,M,,*62
$GPGLL,4611.962320,N,01258.214429,E,092845.00,A,A*63
$GPVTG,6.2,T,6.4,M,001.1,N,002.0,K,A*27
$GPGSV,2,1,07,02,35,063,46,12,46,091,49,14,19,242,36,25,78,046,48*70
$GPGSV,2,2,07,29,66,233,42,30,46,298,34,31,37,308,39,,,,*43
$GPGSA,M,3,02,12,25,29,31,,,,,,,,4.9,2.7,4.2*3F
Trace #88 at position 21.750000
$GPZDA,092845.03,08,10,2011,00,00*6C
$GPRMC,092845.00,A,4611.962320,N,01258.214429,E,001.1,6.2,081011,0.2,E,A*30
$GPGGA,092846.00,4611.962573,N,01258.214398,E,1,05,2.7,140.06,M,46.25,M,,*6E
$GPGLL,4611.962573,N,01258.214398,E,092846.00,A,A*6D
$GPVTG,346.2,T,346.4,M,000.8,N,001.4,K,A*28
$GPGSV,2,1,07,02,35,063,46,12,46,091,49,14,19,242,35,25,78,046,48*73
$GPGSV,2,2,07,29,66,233,42,30,46,298,38,31,37,308,39,,,,*4F
$GPGSA,M,3,02,12,25,29,31,,,,,,,,4.9,2.7,4.2*3F
Trace #89 at position 22.000000
$GPZDA,092846.03,08,10,2011,00,00*6F
$GPRMC,092846.00,A,4611.962573,N,01258.214398,E,000.8,346.2,081011,0.2,E,A*31
$GPGGA,092847.00,4611.962753,N,01258.214352,E,1,05,2.7,140.10,M,46.25,M,,*6E
$GPGLL,4611.962753,N,01258.214352,E,092847.00,A,A*6A
$GPVTG,3.8,T,3.9,M,000.6,N,001.1,K,A*24
$GPGSV,2,1,07,02,35,063,47,12,46,091,49,14,19,242,35,25,78,046,48*72
$GPGSV,2,2,07,29,66,233,42,30,46,298,34,31,37,308,39,,,,*43
$GPGSA,M,3,02,12,25,29,31,,,,,,,,4.9,2.7,4.2*3F
Trace #90 at position 22.250000
$GPZDA,092847.03,08,10,2011,00,00*6E
$GPRMC,092847.00,A,4611.962753,N,01258.214352,E,000.6,3.8,081011,0.2,E,A*30
$GPGGA,092848.00,4611.962900,N,01258.214345,E,1,05,2.7,140.13,M,46.25,M,,*6C
$GPGLL,4611.962900,N,01258.214345,E,092848.00,A,A*6B
$GPVTG,9.1,T,9.2,M,000.5,N,001.0,K,A*24
$GPGSV,2,1,07,02,35,063,47,12,46,091,49,14,19,242,36,25,78,046,48*71
$GPGSV,2,2,07,29,66,233,41,30,46,298,37,31,37,308,41,,,,*4C
$GPGSA,M,3,02,12,25,29,31,,,,,,,,4.9,2.7,4.2*3F
Trace #91 at position 22.500000
$GPZDA,092848.03,08,10,2011,00,00*61
$GPRMC,092848.00,A,4611.962900,N,01258.214345,E,000.5,9.1,081011,0.2,E,A*31
$GPGGA,092849.00,4611.962998,N,01258.214297,E,1,05,2.7,140.12,M,46.25,M,,*63
$GPGLL,4611.962998,N,01258.214297,E,092849.00,A,A*65
$GPVTG,321.6,T,321.7,M,000.3,N,000.5,K,A*24
$GPGSV,2,1,07,02,35,063,46,12,46,091,50,14,19,242,35,25,78,046,48*7B
$GPGSV,2,2,07,29,66,233,41,30,46,298,37,31,37,308,40,,,,*4D
$GPGSA,M,3,02,12,25,29,31,,,,,,,,4.9,2.7,4.2*3F
Trace #92 at position 22.750000
$GPZDA,092848.03,08,10,2011,00,00*61
$GPRMC,092848.00,A,4611.962900,N,01258.214345,E,000.5,9.1,081011,0.2,E,A*31
$GPGGA,092849.00,4611.962998,N,01258.214297,E,1,05,2.7,140.12,M,46.25,M,,*63
$GPGLL,4611.962998,N,01258.214297,E,092849.00,A,A*65
$GPVTG,321.6,T,321.7,M,000.3,N,000.5,K,A*24
$GPGSV,2,1,07,02,35,063,46,12,46,091,50,14,19,242,35,25,78,046,48*7B
$GPGSV,2,2,07,29,66,233,41,30,46,298,37,31,37,308,40,,,,*4D
$GPGSA,M,3,02,12,25,29,31,,,,,,,,4.9,2.7,4.2*3F
Trace #93 at position 23.000000
$GPZDA,092850.03,08,10,2011,00,00*68
$GPRMC,092850.00,A,4611.963082,N,01258.214136,E,000.7,306.4,081011,0.2,E,A*37
$GPGGA,092851.00,4611.963205,N,01258.213953,E,1,05,2.7,140.04,M,46.25,M,,*67
$GPGLL,4611.963205,N,01258.213953,E,092851.00,A,A*66
$GPVTG,321.0,T,321.2,M,000.6,N,001.1,K,A*27
$GPGSV,2,1,07,02,35,063,46,12,46,091,49,14,19,242,34,25,78,046,49*73
$GPGSV,2,2,07,29,66,233,40,30,46,298,32,31,37,308,37,,,,*49
$GPGSA,M,3,02,12,25,29,31,,,,,,,,4.9,2.7,4.2*3F
Trace #94 at position 23.250000
$GPZDA,092850.03,08,10,2011,00,00*68
$GPRMC,092850.00,A,4611.963082,N,01258.214136,E,000.7,306.4,081011,0.2,E,A*37
$GPGGA,092851.00,4611.963205,N,01258.213953,E,1,05,2.7,140.04,M,46.25,M,,*67
$GPGLL,4611.963205,N,01258.213953,E,092851.00,A,A*66
$GPVTG,321.0,T,321.2,M,000.6,N,001.1,K,A*27
$GPGSV,2,1,07,02,35,063,46,12,46,091,49,14,19,242,34,25,78,046,49*73
$GPGSV,2,2,07,29,66,233,40,30,46,298,32,31,37,308,37,,,,*49
$GPGSA,M,3,02,12,25,29,31,,,,,,,,4.9,2.7,4.2*3F
Trace #95 at position 23.500000
$GPZDA,092852.03,08,10,2011,00,00*6A
$GPRMC,092852.00,A,4611.963364,N,01258.213873,E,000.6,357.6,081011,0.2,E,A*36
$GPGGA,092853.00,4611.963528,N,01258.213740,E,1,05,2.7,140.09,M,46.25,M,,*6C
$GPGLL,4611.963528,N,01258.213740,E,092853.00,A,A*60
$GPVTG,306.3,T,306.5,M,000.8,N,001.5,K,A*29
$GPGSV,2,1,07,02,35,063,44,12,46,091,49,14,19,242,37,25,78,046,48*73
$GPGSV,2,2,07,29,66,233,42,30,46,298,36,31,37,308,40,,,,*4F
$GPGSA,M,3,02,12,25,29,31,,,,,,,,4.9,2.7,4.2*3F
Trace #96 at position 23.750000
$GPZDA,092853.04,08,10,2011,00,00*6C
$GPRMC,092853.00,A,4611.963528,N,01258.213740,E,000.8,306.3,081011,0.2,E,A*39
$GPGGA,092854.00,4611.963587,N,01258.213609,E,1,05,2.7,140.17,M,46.25,M,,*6D
$GPGLL,4611.963587,N,01258.213609,E,092854.00,A,A*6E
$GPVTG,201.5,T,201.7,M,000.2,N,000.4,K,A*27
$GPGSV,2,1,07,02,35,063,47,12,46,091,49,14,19,242,35,25,78,046,48*72
$GPGSV,2,2,07,29,66,233,41,30,46,298,35,31,37,308,41,,,,*4E
$GPGSA,M,3,02,12,25,29,31,,,,,,,,4.9,2.7,4.2*3F
Trace #97 at position 24.000000
$GPZDA,092854.03,08,10,2011,00,00*6C
$GPRMC,092854.00,A,4611.963587,N,01258.213609,E,000.2,201.5,081011,0.2,E,A*3D
$GPGGA,092855.00,4611.963659,N,01258.213546,E,1,05,2.7,140.25,M,46.25,M,,*65
$GPGLL,4611.963659,N,01258.213546,E,092855.00,A,A*67
$GPVTG,325.1,T,325.3,M,000.6,N,001.1,K,A*27
$GPGSV,2,1,07,02,35,063,46,12,46,091,49,14,19,242,34,25,78,046,48*72
$GPGSV,2,2,07,29,66,233,42,30,46,298,32,31,37,308,38,,,,*44
$GPGSA,M,3,02,12,25,29,31,,,,,,,,4.9,2.7,4.2*3F
Trace #98 at position 24.250000
$GPZDA,092854.03,08,10,2011,00,00*6C
$GPRMC,092854.00,A,4611.963587,N,01258.213609,E,000.2,201.5,081011,0.2,E,A*3D
$GPGGA,092855.00,4611.963659,N,01258.213546,E,1,05,2.7,140.25,M,46.25,M,,*65
$GPGLL,4611.963659,N,01258.213546,E,092855.00,A,A*67
$GPVTG,325.1,T,325.3,M,000.6,N,001.1,K,A*27
$GPGSV,2,1,07,02,35,063,46,12,46,091,49,14,19,242,34,25,78,046,48*72
$GPGSV,2,2,07,29,66,233,42,30,46,298,32,31,37,308,38,,,,*44
$GPGSA,M,3,02,12,25,29,31,,,,,,,,4.9,2.7,4.2*3F
Trace #99 at position 24.500000
$GPZDA,092855.03,08,10,2011,00,00*6D
$GPRMC,092855.00,A,4611.963659,N,01258.213546,E,000.6,325.1,081011,0.2,E,A*33
$GPGGA,092856.00,4611.963773,N,01258.213514,E,1,05,2.7,140.31,M,46.25,M,,*6D
$GPGLL,4611.963773,N,01258.213514,E,092856.00,A,A*6A
$GPVTG,39.3,T,39.5,M,000.1,N,000.3,K,A*27
$GPGSV,2,1,07,02,35,063,46,12,46,091,49,14,19,242,36,25,78,046,48*70
$GPGSV,2,2,07,29,66,233,43,30,46,298,34,31,37,308,38,,,,*43
$GPGSA,M,3,02,12,25,29,31,,,,,,,,4.9,2.7,4.2*3F
Trace #100 at position 24.750000
$GPZDA,092856.03,08,10,2011,00,00*6E
$GPRMC,092856.00,A,4611.963773,N,01258.213514,E,000.1,39.3,081011,0.2,E,A*05
$GPGGA,092857.00,4611.963804,N,01258.213522,E,1,05,2.7,140.29,M,46.25,M,,*6F
$GPGLL,4611.963804,N,01258.213522,E,092857.00,A,A*61
$GPVTG,237.6,T,237.7,M,000.1,N,000.3,K,A*20
$GPGSV,2,1,07,02,35,063,47,12,46,091,50,14,19,242,35,25,78,046,49*7B
$GPGSV,2,2,07,29,66,233,41,30,46,298,,31,37,308,38,,,,*46
$GPGSA,M,3,02,12,25,29,31,,,,,,,,4.9,2.7,4.2*3F
Trace #101 at position 25.000000
$GPZDA,092856.03,08,10,2011,00,00*6E
$GPRMC,092856.00,A,4611.963773,N,01258.213514,E,000.1,39.3,081011,0.2,E,A*05
$GPGGA,092857.00,4611.963804,N,01258.213522,E,1,05,2.7,140.29,M,46.25,M,,*6F
$GPGLL,4611.963804,N,01258.213522,E,092857.00,A,A*61
$GPVTG,237.6,T,237.7,M,000.1,N,000.3,K,A*20
$GPGSV,2,1,07,02,35,063,47,12,46,091,50,14,19,242,35,25,78,046,49*7B
$GPGSV,2,2,07,29,66,233,41,30,46,298,,31,37,308,38,,,,*46
$GPGSA,M,3,02,12,25,29,31,,,,,,,,4.9,2.7,4.2*3F
Trace #102 at position 25.250000
$GPZDA,092901.03,08,10,2011,00,00*6D
$GPRMC,092901.00,A,4611.964470,N,01258.213068,E,000.7,347.2,081011,0.2,E,A*32
$GPGGA,092902.00,4611.964653,N,01258.212977,E,1,05,2.7,140.38,M,46.25,M,,*68
$GPGLL,4611.964653,N,01258.212977,E,092902.00,A,A*66
$GPVTG,308.4,T,308.6,M,000.6,N,001.2,K,A*24
$GPGSV,2,1,07,02,35,063,47,12,46,091,49,14,19,242,37,25,78,046,49*71
$GPGSV,2,2,07,29,66,233,41,30,46,298,32,31,37,308,38,,,,*47
$GPGSA,M,3,02,12,25,29,31,,,,,,,,4.9,2.7,4.2*3F
Trace #103 at position 25.500000
$GPZDA,092901.03,08,10,2011,00,00*6D
$GPRMC,092901.00,A,4611.964470,N,01258.213068,E,000.7,347.2,081011,0.2,E,A*32
$GPGGA,092902.00,4611.964653,N,01258.212977,E,1,05,2.7,140.38,M,46.25,M,,*68
$GPGLL,4611.964653,N,01258.212977,E,092902.00,A,A*66
$GPVTG,308.4,T,308.6,M,000.6,N,001.2,K,A*24
$GPGSV,2,1,07,02,35,063,47,12,46,091,49,14,19,242,37,25,78,046,49*71
$GPGSV,2,2,07,29,66,233,41,30,46,298,32,31,37,308,38,,,,*47
$GPGSA,M,3,02,12,25,29,31,,,,,,,,4.9,2.7,4.2*3F
Trace #104 at position 25.750000
$GPZDA,092902.03,08,10,2011,00,00*6E
$GPRMC,092902.00,A,4611.964653,N,01258.212977,E,000.6,308.4,081011,0.2,E,A*38
$GPGGA,092903.00,4611.964713,N,01258.212960,E,1,04,4.0,140.45,M,46.25,M,,*60
$GPGLL,4611.964713,N,01258.212960,E,092903.00,A,A*64
$GPVTG,82.1,T,82.3,M,000.1,N,000.1,K,A*21
$GPGSV,2,1,07,02,35,063,46,12,46,091,49,14,19,242,37,25,78,046,49*70
$GPGSV,2,2,07,29,66,233,40,30,46,298,29,31,37,308,35,,,,*41
$GPGSA,M,3,02,12,25,29,,,,,,,,,6.9,4.0,5.6*3B
Trace #105 at position 26.000000
$GPZDA,092903.03,08,10,2011,00,00*6F
$GPRMC,092903.00,A,4611.964713,N,01258.212960,E,000.1,82.1,081011,0.2,E,A*09
$GPGGA,092904.00,4611.964716,N,01258.213047,E,1,04,4.0,140.52,M,46.25,M,,*69
$GPGLL,4611.964716,N,01258.213047,E,092904.00,A,A*6B
$GPVTG,101.5,T,101.6,M,000.1,N,000.1,K,A*20
$GPGSV,2,1,07,02,35,063,46,12,46,091,49,14,19,242,38,25,78,046,49*7F
$GPGSV,2,2,07,29,66,233,40,30,46,298,33,31,37,308,36,,,,*49
$GPGSA,M,3,02,12,25,29,,,,,,,,,6.9,4.0,5.6*3B
Trace #106 at position 26.250000
$GPZDA,092903.03,08,10,2011,00,00*6F
$GPRMC,092903.00,A,4611.964713,N,01258.212960,E,000.1,82.1,081011,0.2,E,A*09
$GPGGA,092904.00,4611.964716,N,01258.213047,E,1,04,4.0,140.52,M,46.25,M,,*69
$GPGLL,4611.964716,N,01258.213047,E,092904.00,A,A*6B
$GPVTG,101.5,T,101.6,M,000.1,N,000.1,K,A*20
$GPGSV,2,1,07,02,35,063,46,12,46,091,49,14,19,242,38,25,78,046,49*7F
$GPGSV,2,2,07,29,66,233,40,30,46,298,33,31,37,308,36,,,,*49
$GPGSA,M,3,02,12,25,29,,,,,,,,,6.9,4.0,5.6*3B
Trace #107 at position 26.500000
$GPZDA,092904.03,08,10,2011,00,00*68
$GPRMC,092904.00,A,4611.964716,N,01258.213047,E,000.1,101.5,081011,0.2,E,A*38
$GPGGA,092905.00,4611.964715,N,01258.213114,E,1,04,4.0,140.58,M,46.25,M,,*66
$GPGLL,4611.964715,N,01258.213114,E,092905.00,A,A*6E
$GPVTG,123.5,T,123.7,M,000.0,N,000.1,K,A*20
$GPGSV,2,1,07,02,35,063,46,12,46,091,50,14,19,242,38,25,78,046,48*76
$GPGSV,2,2,07,29,66,233,42,30,46,298,34,31,37,308,37,,,,*4D
$GPGSA,M,3,02,12,25,29,,,,,,,,,6.9,4.0,5.6*3B
Trace #108 at position 26.750000
$GPZDA,092905.03,08,10,2011,00,00*69
$GPRMC,092905.00,A,4611.964715,N,01258.213114,E,000.0,123.5,081011,0.2,E,A*3C
$GPGGA,092906.00,4611.964812,N,01258.213095,E,1,04,4.0,140.65,M,46.25,M,,*6B
$GPGLL,4611.964812,N,01258.213095,E,092906.00,A,A*6D
$GPVTG,333.4,T,333.6,M,000.8,N,001.4,K,A*2C
$GPGSV,2,1,07,02,35,063,45,12,46,091,49,14,19,242,34,25,78,047,47*7F
$GPGSV,2,2,07,29,66,233,42,30,46,298,28,31,37,308,38,,,,*4F
$GPGSA,M,3,02,12,25,29,,,,,,,,,6.9,4.0,5.6*3B
Trace #109 at position 27.000000
$GPZDA,092905.03,08,10,2011,00,00*69
$GPRMC,092905.00,A,4611.964715,N,01258.213114,E,000.0,123.5,081011,0.2,E,A*3C
$GPGGA,092906.00,4611.964812,N,01258.213095,E,1,04,4.0,140.65,M,46.25,M,,*6B
$GPGLL,4611.964812,N,01258.213095,E,092906.00,A,A*6D
$GPVTG,333.4,T,333.6,M,000.8,N,001.4,K,A*2C
$GPGSV,2,1,07,02,35,063,45,12,46,091,49,14,19,242,34,25,78,047,47*7F
$GPGSV,2,2,07,29,66,233,42,30,46,298,28,31,37,308,38,,,,*4F
$GPGSA,M,3,02,12,25,29,,,,,,,,,6.9,4.0,5.6*3B
Trace #110 at position 27.250000
$GPZDA,092906.03,08,10,2011,00,00*6A
$GPRMC,092906.00,A,4611.964812,N,01258.213095,E,000.8,333.4,081011,0.2,E,A*35
$GPGGA,092907.00,4611.965063,N,01258.213056,E,1,04,4.0,140.63,M,46.25,M,,*6C
$GPGLL,4611.965063,N,01258.213056,E,092907.00,A,A*6C
$GPVTG,357.3,T,357.4,M,001.1,N,002.1,K,A*27
$GPGSV,2,1,07,02,35,063,44,12,46,091,48,14,19,242,,25,78,047,47*78
$GPGSV,2,2,07,29,66,233,42,30,46,298,,31,37,308,39,,,,*44
$GPGSA,M,3,02,12,25,29,,,,,,,,,6.9,4.0,5.6*3B
Trace #111 at position 27.500000
$GPZDA,092907.03,08,10,2011,00,00*6B
$GPRMC,092907.00,A,4611.965063,N,01258.213056,E,001.1,357.3,081011,0.2,E,A*39
$GPGGA,092908.00,4611.965255,N,01258.212969,E,1,05,2.7,140.53,M,46.25,M,,*63
$GPGLL,4611.965255,N,01258.212969,E,092908.00,A,A*60
$GPVTG,282.6,T,282.8,M,000.5,N,000.8,K,A*20
$GPGSV,2,1,07,02,35,063,43,12,46,091,48,14,19,242,,25,78,047,48*70
$GPGSV,2,2,07,29,66,233,41,30,46,298,33,31,37,308,39,,,,*47
$GPGSA,M,3,02,12,25,29,31,,,,,,,,5.0,2.7,4.2*37
Trace #112 at position 27.750000
$GPZDA,092908.04,08,10,2011,00,00*63
$GPRMC,092908.00,A,4611.965255,N,01258.212969,E,000.5,282.6,081011,0.2,E,A*3C
$GPGGA,092909.00,4611.965402,N,01258.212900,E,1,05,2.7,140.46,M,46.25,M,,*6D
$GPGLL,4611.965402,N,01258.212900,E,092909.00,A,A*6A
$GPVTG,2.2,T,2.4,M,000.8,N,001.4,K,A*28
$GPGSV,2,1,07,02,35,063,45,12,46,091,49,14,19,242,32,25,78,047,47*79
$GPGSV,2,2,07,29,66,233,43,30,46,298,33,31,37,308,38,,,,*44
$GPGSA,M,3,02,12,25,29,31,,,,,,,,5.0,2.7,4.2*37
Trace #113 at position 28.000000
$GPZDA,092908.04,08,10,2011,00,00*63
$GPRMC,092908.00,A,4611.965255,N,01258.212969,E,000.5,282.6,081011,0.2,E,A*3C
$GPGGA,092909.00,4611.965402,N,01258.212900,E,1,05,2.7,140.46,M,46.25,M,,*6D
$GPGLL,4611.965402,N,01258.212900,E,092909.00,A,A*6A
$GPVTG,2.2,T,2.4,M,000.8,N,001.4,K,A*28
$GPGSV,2,1,07,02,35,063,45,12,46,091,49,14,19,242,32,25,78,047,47*79
$GPGSV,2,2,07,29,66,233,43,30,46,298,33,31,37,308,38,,,,*44
$GPGSA,M,3,02,12,25,29,31,,,,,,,,5.0,2.7,4.2*37
Trace #114 at position 28.250000
$GPZDA,092909.03,08,10,2011,00,00*65
$GPRMC,092909.00,A,4611.965402,N,01258.212900,E,000.8,2.2,081011,0.2,E,A*35
$GPGGA,092910.00,4611.965649,N,01258.212815,E,1,05,2.7,140.40,M,46.25,M,,*6B
$GPGLL,4611.965649,N,01258.212815,E,092910.00,A,A*6A
$GPVTG,329.7,T,329.8,M,001.0,N,001.8,K,A*24
$GPGSV,2,1,07,02,35,063,46,12,46,091,49,14,19,242,32,25,78,047,47*7A
$GPGSV,2,2,07,29,66,234,42,30,46,298,32,31,37,308,39,,,,*42
$GPGSA,M,3,02,12,25,29,31,,,,,,,,5.0,2.7,4.2*37
Trace #115 at position 28.500000
$GPZDA,092910.03,08,10,2011,00,00*6D
$GPRMC,092910.00,A,4611.965649,N,01258.212815,E,001.0,329.7,081011,0.2,E,A*33
$GPGGA,092911.00,4611.965902,N,01258.212742,E,1,04,4.0,140.42,M,46.25,M,,*65
$GPGLL,4611.965902,N,01258.212742,E,092911.00,A,A*66
$GPVTG,357.8,T,358.0,M,001.0,N,001.9,K,A*2D
$GPGSV,2,1,07,02,35,063,44,12,46,091,49,14,19,242,35,25,78,047,49*71
$GPGSV,2,2,07,29,66,234,42,30,46,298,31,31,37,308,31,,,,*49
$GPGSA,M,3,02,12,25,29,,,,,,,,,6.9,4.0,5.6*3B
Trace #116 at position 28.750000
$GPZDA,092911.03,08,10,2011,00,00*6C
$GPRMC,092911.00,A,4611.965902,N,01258.212742,E,001.0,357.8,081011,0.2,E,A*39
$GPGGA,092912.00,4611.966127,N,01258.212632,E,1,04,4.0,140.41,M,46.25,M,,*6F
$GPGLL,4611.966127,N,01258.212632,E,092912.00,A,A*6F
$GPVTG,315.3,T,315.5,M,001.0,N,001.9,K,A*2C
$GPGSV,2,1,07,02,35,063,46,12,46,091,49,14,19,242,35,25,78,047,48*72
$GPGSV,2,2,07,29,66,234,41,30,46,298,33,31,37,308,35,,,,*4C
$GPGSA,M,3,02,12,25,29,,,,,,,,,6.9,4.0,5.6*3B
Trace #117 at position 29.000000
$GPZDA,092911.03,08,10,2011,00,00*6C
$GPRMC,092911.00,A,4611.965902,N,01258.212742,E,001.0,357.8,081011,0.2,E,A*39
$GPGGA,092912.00,4611.966127,N,01258.212632,E,1,04,4.0,140.41,M,46.25,M,,*6F
$GPGLL,4611.966127,N,01258.212632,E,092912.00,A,A*6F
$GPVTG,315.3,T,315.5,M,001.0,N,001.9,K,A*2C
$GPGSV,2,1,07,02,35,063,46,12,46,091,49,14,19,242,35,25,78,047,48*72
$GPGSV,2,2,07,29,66,234,41,30,46,298,33,31,37,308,35,,,,*4C
