Trace #1 at position 0.000000
$GPZDA,0915360,00*66
$GPRMC,091536.00,A,4611.976497,N,01258.207397,E,000.0,245.4,081011,0.2,E,A*37
$GPGGA,091537.00,4611.976500,N,01258.207388,E,1,06,1.5,139.82,M,46.25,M,,*64
$GPGLL,4611.976500,N,01258.207388,E,091537.00,A,A*67
$GPVTG,65.4,T,65.5,M,000.0,N,000.0,K,A*22
$GPGSV,2,1,07,02,37,069,41,12,51,085,32,14,23,246,43,25,79,013,49*7F
$GPGSV,2,2,07,29,60,228,47,30,41,295,48,31,32,311,47,,,,*4F
$GPGSA,M,3,02,14,25,29,30,31,,,,,,,2.7,1.5,2.2*35
Trace #2 at position 0.250000
$GPZDA,091544.03,08,10,2011,00,00*63
$GPRMC,091544.00,A,4611.976511,N,01258.207333,E,000.0,248.7,081011,0.2,E,A*3D
$GPGGA,091545.00,4611.976507,N,01258.207333,E,1,06,1.5,139.98,M,46.25,M,,*6D
$GPGLL,4611.976507,N,01258.207333,E,091545.00,A,A*65
$GPVTG,133.6,T,133.8,M,000.0,N,000.1,K,A*2C
$GPGSV,2,1,07,02,37,069,41,12,51,085,34,14,23,246,42,25,79,013,47*76
$GPGSV,2,2,07,29,60,228,45,30,41,295,46,31,32,311,45,,,,*41
$GPGSA,M,3,02,14,25,29,30,31,,,,,,,2.7,1.5,2.2*35
Trace #3 at position 0.500000
$GPZDA,091545.03,08,10,2011,00,00*62
$GPRMC,091545.00,A,4611.976507,N,01258.207333,E,000.0,133.6,081011,0.2,E,A*35
$GPGGA,091546.00,4611.976506,N,01258.207338,E,1,06,1.5,139.97,M,46.25,M,,*6B
$GPGLL,4611.976506,N,01258.207338,E,091546.00,A,A*6C
$GPVTG,326.4,T,326.6,M,000.0,N,000.0,K,A*21
$GPGSV,2,1,07,02,37,069,42,12,51,085,35,14,23,246,42,25,79,013,47*74
$GPGSV,2,2,07,29,60,228,45,30,41,295,46,31,32,311,45,,,,*41
$GPGSA,M,3,02,14,25,29,30,31,,,,,,,2.7,1.5,2.2*35
Trace #4 at position 0.750000
$GPZDA,091546.03,08,10,2011,00,00*61
$GPRMC,091546.00,A,4611.976506,N,01258.207338,E,000.0,326.4,081011,0.2,E,A*38
$GPGGA,091547.00,4611.976514,N,01258.207332,E,1,06,1.5,140.00,M,46.25,M,,*63
$GPGLL,4611.976514,N,01258.207332,E,091547.00,A,A*64
$GPVTG,321.1,T,321.3,M,000.1,N,000.1,K,A*21
$GPGSV,2,1,07,02,37,069,43,12,51,085,33,14,23,246,42,25,79,013,47*73
$GPGSV,2,2,07,29,60,228,45,30,41,295,47,31,32,311,45,,,,*40
$GPGSA,M,3,02,14,25,29,30,31,,,,,,,2.7,1.5,2.2*35
Trace #5 at position 1.000000
$GPZDA,091547.03,08,10,2011,00,00*60
$GPRMC,091547.00,A,4611.976514,N,01258.207332,E,000.1,321.1,081011,0.2,E,A*33
$GPGGA,091548.00,4611.976522,N,01258.207316,E,1,06,1.5,140.04,M,46.25,M,,*6B
$GPGLL,4611.976522,N,01258.207316,E,091548.00,A,A*68
$GPVTG,282.6,T,282.8,M,000.1,N,000.1,K,A*2D
$GPGSV,2,1,07,02,37,069,43,12,51,085,33,14,23,246,42,25,79,013,47*73
$GPGSV,2,2,07,29,60,228,46,30,41,295,47,31,32,311,44,,,,*42
$GPGSA,M,3,02,14,25,29,30,31,,,,,,,2.7,1.5,2.2*35
Trace #6 at position 1.250000
$GPZDA,091548.04,08,10,2011,00,00*68
$GPRMC,091548.00,A,4611.976522,N,01258.207316,E,000.1,282.6,081011,0.2,E,A*30
$GPGGA,091549.00,4611.976508,N,01258.207304,E,1,07,1.4,140.05,M,46.25,M,,*60
$GPGLL,4611.976508,N,01258.207304,E,091549.00,A,A*62
$GPVTG,190.9,T,191.0,M,000.1,N,000.2,K,A*28
$GPGSV,2,1,07,02,37,069,42,12,51,085,42,14,23,246,41,25,79,013,48*78
$GPGSV,2,2,07,29,60,228,46,30,41,295,48,31,32,311,44,,,,*4D
$GPGSA,M,3,02,12,14,25,29,30,31,,,,,,2.6,1.4,2.2*36
Trace #7 at position 1.500000
$GPZDA,091549.04,08,10,2011,00,00*69
$GPRMC,091549.00,A,4611.976508,N,01258.207304,E,000.1,190.9,081011,0.2,E,A*35
$GPGGA,091550.00,4611.976450,N,01258.207322,E,1,07,1.4,140.04,M,46.25,M,,*61
$GPGLL,4611.976450,N,01258.207322,E,091550.00,A,A*62
$GPVTG,164.7,T,164.9,M,000.3,N,000.6,K,A*28
$GPGSV,2,1,07,02,37,069,43,12,51,085,41,14,23,246,41,25,79,013,47*75
$GPGSV,2,2,07,29,60,228,46,30,41,295,47,31,32,311,45,,,,*43
$GPGSA,M,3,02,12,14,25,29,30,31,,,,,,2.6,1.4,2.2*36
Trace #8 at position 1.750000
$GPZDA,091550.04,08,10,2011,00,00*61$GPGGA,091551.00,4611.976347,N,01258.207357,E,1,07,1.4,140.01,M,46.25,M,,*66
$GPGLL,4611.976347,N,01258.207357,E,091551.00,A,A*60
$GPVTG,170.6,T,170.7,M,000.5,N,000.9,K,A*2E
$GPGSV,2,1,07,02,37,069,43,12,51,085,40,14,23,246,42,25,79,013,49*79
$GPGSV,2,2,07,29,60,228,46,30,41,295,46,31,32,311,45,,,,*42
$GPGSA,M,3,02,12,14,25,29,30,31,,,,,,2.6,1.4,2.2*36
Trace #9 at position 2.000000
$GPZDA,091551.04,08,10,2011,00,00*60
$GPRMC,091551.00,A,4611.976347,N,01258.207357,E,000.5,170.6,081011,0.2,E,A*32
$GPGGA,091552.00,4611.976172,N,01258.207344,E,1,07,1.4,139.91,M,46.25,M,,*64
$GPGLL,4611.976172,N,01258.207344,E,091552.00,A,A*65
$GPVTG,191.7,T,191.9,M,000.9,N,001.7,K,A*22
$GPGSV,2,1,07,02,37,069,43,12,51,085,40,14,23,246,41,25,79,013,48*7B
$GPGSV,2,2,07,29,60,228,45,30,41,295,45,31,32,311,45,,,,*42
$GPGSA,M,3,02,12,14,25,29,30,31,,,,,,2.6,1.4,2.2*36
Trace #10 at position 2.250000
$GPZDA,091554.04,08,10,2011,00,00*65
$GPRMC,091554.00,A,4611.975972,N,01258.207543,E,000.1,124.8,081011,0.2,E,A*30
$GPGGA,091555.00,4611.975885,N,01258.207656,E,1,07,1.4,139.86,M,46.25,M,,*61
$GPGLL,4611.975885,N,01258.207656,E,091555.00,A,A*66
$GPVTG,138.5,T,138.7,M,000.8,N,001.5,K,A*2D
$GPGSV,2,1,07,02,37,069,43,12,51,085,39,14,23,246,42,25,79,013,48*76
$GPGSV,2,2,07,29,60,228,46,30,41,295,47,31,32,311,45,,,,*43
$GPGSA,M,3,02,12,14,25,29,30,31,,,,,,2.6,1.4,2.2*36
Trace #11 at position 2.500000
$GPZDA,091614.04,08,10,2011C,091614.00,A,4611.975502,N,01258.207906,E,000.0,300.7,081011,0.2,E,A*3B
$GPGGA,091615.00,4611.975501,N,01258.207894,E,1,07,1.4,139.89,M,46.25,M,,*68
$GPGLL,4611.975501,N,01258.207894,E,091615.00,A,A*60
$GPVTG,157.8,T,158.0,M,000.0,N,000.1,K,A*25
$GPGSV,2,1,07,02,37,069,44,12,51,085,38,14,23,246,43,25,79,014,48*76
$GPGSV,2,2,07,29,60,228,45,30,41,295,47,31,32,311,42,,,,*47
$GPGSA,M,3,02,12,14,25,29,30,31,,,,,,2.6,1.4,2.2*36
Trace #12 at position 2.750000
$GPZDA,091614.04,08,10,2011C,091614.00,A,4611.975502,N,01258.207906,E,000.0,300.7,081011,0.2,E,A*3B
$GPGGA,091615.00,4611.975501,N,01258.207894,E,1,07,1.4,139.89,M,46.25,M,,*68
$GPGLL,4611.975501,N,01258.207894,E,091615.00,A,A*60
$GPVTG,157.8,T,158.0,M,000.0,N,000.1,K,A*25
$GPGSV,2,1,07,02,37,069,44,12,51,085,38,14,23,246,43,25,79,014,48*76
$GPGSV,2,2,07,29,60,228,45,30,41,295,47,31,32,311,42,,,,*47
$GPGSA,M,3,02,12,14,25,29,30,31,,,,,,2.6,1.4,2.2*36
Trace #13 at position 3.000000
$GPZDA,091615.04,08,10,2011,00,00*63
$GPRMC,091615.00,A,4611.975501,N,01258.$GPGGA,091616.00,4611.975495,N,01258.207894,E,1,07,1.4,139.88,M,46.25,M,,*66
$GPGLL,4611.975495,N,01258.207894,E,091616.00,A,A*6F
$GPVTG,85.9,T,86.1,M,000.0,N,000.0,K,A*28
$GPGSV,2,1,07,02,37,069,44,12,51,085,37,14,23,246,43,25,79,014,48*79
$GPGSV,2,2,07,29,60,228,46,30,41,295,44,31,32,311,39,,,,*4B
$GPGSA,M,3,02,12,14,25,29,30,31,,,,,,2.6,1.4,2.2*36
Trace #14 at position 3.250000
$GPZDA,091616.04,08,10,2011,00,00*60
$GPRMC,091616.00,A,4611.975495,N,01258.207894,E,000.0,85.9,081011,0.2,E,A*0C
$GPGGA,091617.00,4611.975370,N,01258.208003,E,1,06,1.9,140.00,M,46.25,M,,*60
$GPGLL,4611.975370,N,01258.208003,E,091617.00,A,A*6B
$GPVTG,42.7,T,42.9,M,000.3,N,000.5,K,A*2B
$GPGSV,2,1,07,02,37,069,43,12,51,085,38,14,23,246,41,25,79,014,48*73
$GPGSV,2,2,07,29,60,228,43,30,41,295,37,31,32,311,35,,,,*46
$GPGSA,M,3,02,12,14,25,29,30,,,,,,,3.0,1.9,2.3*3F
Trace #15 at position 3.500000
$GPZDA,091617.04,08,10,2011,00,00*61
$GPRMC,091617.00,A,4611.975370,N,01258.208003,E,000.3,42.7,081011,0.2,E,A*0E
$GPGGA,091618.00,4611.975426,N,01258.208043,E,1,07,1.4,139.98,M,46.25,M,,*6C
$GPGLL,4611.975426,N,01258.208043,E,091618.00,A,A*64
$GPVTG,42.7,T,42.9,M,000.2,N,000.3,K,A*2C
$GPGSV,2,1,07,02,37,069,43,12,51,085,40,14,23,246,42,25,79,014,48*7F
$GPGSV,2,2,07,29,60,228,45,30,41,295,46,31,32,311,44,,,,*40
$GPGSA,M,3,02,12,14,25,29,30,31,,,,,,2.6,1.4,2.2*36
Trace #16 at position 3.750000
$GPZDA,091617.04,08,10,2011,00,00*61
$GPRMC,091617.00,A,4611.975370,N,01258.208003,E,000.3,42.7,081011,0.2,E,A*0E
$GPGGA,091618.00,4611.975426,N,01258.208043,E,1,07,1.4,139.98,M,46.25,M,,*6C
$GPGLL,4611.975426,N,01258.208043,E,091618.00,A,A*64
$GPVTG,42.7,T,42.9,M,000.2,N,000.3,K,A*2C
$GPGSV,2,1,07,02,37,069,43,12,51,085,40,14,23,246,42,25,79,014,48*7F
$GPGSV,2,2,07,29,60,228,45,30,41,295,46,31,32,311,44,,,,*40
$GPGSA,M,3,02,12,14,25,29,30,31,,,,,,2.6,1.4,2.2*36
Trace #17 at position 4.000000
$GPZDA,091618.04,08,10,2011,00,00*6E
$GPRMC,091618.00,A,4611.975426,N,01258.208043,E,000.2,42.7,081011,0.2,E,A*00
$GPGGA,091619.00,4611.975458,N,01258.208049,E,1,07,1.4,139.97,M,46.25,M,,*61
$GPGLL,4611.975458,N,01258.208049,E,091619.00,A,A*66
$GPVTG,14.7,T,14.9,M,000.1,N,000.2,K,A*2E
$GPGSV,2,1,07,02,37,069,42,12,51,085,40,14,23,246,42,25,79,014,48*7E
$GPGSV,2,2,07,29,60,228,45,30,41,295,46,31,32,311,44,,,,*40
$GPGSA,M,3,02,12,14,25,29,30,31,,,,,,2.6,1.4,2.2*36
Trace #18 at position 4.250000
$GPZDA,091619.04,08,10,2011,00,00*6F
$GPRMC,091619.00,A,4611.975458,N,01258.208049,E,000.1,14.7,081011,0.2,E,A*02
$GPGGA,091620.00,4611.975441,N,01258.208047,E,1,07,1.4,139.97,M,46.25,M,,*6D
$GPGLL,4611.975441,N,01258.208047,E,091620.00,A,A*6A
$GPVTG,160.5,T,160.6,M,000.2,N,000.4,K,A*26
$GPGSV,2,1,07,02,37,069,44,12,51,085,38,14,23,246,42,25,79,014,48*77
$GPGSV,2,2,07,29,60,228,45,30,41,295,47,31,32,311,45,,,,*40
$GPGSA,M,3,02,12,14,25,29,30,31,,,,,,2.6,1.4,2.2*36
Trace #19 at position 4.500000
$GPZDA,091619.04,08,10,2011,00,00*6F
$GPRMC,091619.00,A,4611.975458,N,01258.208049,E,000.1,14.7,081011,0.2,E,A*02
$GPGGA,091620.00,4611.975441,N,01258.208047,E,1,07,1.4,139.97,M,46.25,M,,*6D
$GPGLL,4611.975441,N,01258.208047,E,091620.00,A,A*6A
$GPVTG,160.5,T,160.6,M,000.2,N,000.4,K,A*26
$GPGSV,2,1,07,02,37,069,44,12,51,085,38,14,23,246,42,25,79,014,48*77
$GPGSV,2,2,07,29,60,228,45,30,41,295,47,31,32,311,45,,,,*40
$GPGSA,M,3,02,12,14,25,29,30,31,,,,,,2.6,1.4,2.2*36
Trace #20 at position 4.750000
$GPZDA,091620.04,08,10,2011,00,00*65
$GPRMC,091620.00,A,4611.975441,N,01258.208047,E,000.2,160.5,081011,0.2,E,A*3D
$GPGGA,091621.00,4611.975346,N,01258.208093,E,1,07,1.4,139.97,M,46.25,M,,*65
$GPGLL,4611.975346,N,01258.208093,E,091621.00,A,A*62
$GPVTG,148.5,T,148.6,M,000.5,N,000.9,K,A*2C
$GPGSV,2,1,07,02,37,069,43,12,51,085,39,14,23,246,42,25,79,014,48*71
$GPGSV,2,2,07,29,60,228,44,30,41,295,46,31,32,311,45,,,,*40
$GPGSA,M,3,02,12,14,25,29,30,31,,,,,,2.6,1.4,2.2*36
Trace #21 at position 5.000000
$GPZDA,091621.04,08,10,2011,00,00*64
$GPRMC,091621.00,A,4611.975346,N,01258.208093,E,000.5,148.5,081011,0.2,E,A*38
$GPGGA,091622.00,4611.975158,N,01258.208218,E,1,07,1.4,139.89,M,46.25,M,,*65
$GPGLL,4611.975158,N,01258.208218,E,091622.00,A,A*6D
$GPVTG,151.0,T,151.1,M,001.0,N,001.8,K,A*2A
$GPGSV,2,1,07,02,37,069,43,12,51,085,39,14,23,246,41,25,79,015,48*73
$GPGSV,2,2,07,29,60,228,46,30,41,295,45,31,32,311,44,,,,*40
$GPGSA,M,3,02,12,14,25,29,30,31,,,,,,2.6,1.4,2.2*36
Trace #22 at position 5.250000
$GPZDA,091621.04,08,10,2011,00,00*64
$GPRMC,091621.00,A,4611.975346,N,01258.208093,E,000.5,148.5,081011,0.2,E,A*38
$GPGGA,091622.00,4611.975158,N,01258.208218,E,1,07,1.4,139.89,M,46.25,M,,*65
$GPGLL,4611.975158,N,01258.208218,E,091622.00,A,A*6D
$GPVTG,151.0,T,151.1,M,001.0,N,001.8,K,A*2A
$GPGSV,2,1,07,02,37,069,43,12,51,085,39,14,23,246,41,25,79,015,48*73
$GPGSV,2,2,07,29,60,228,46,30,41,295,45,31,32,311,44,,,,*40
$GPGSA,M,3,02,12,14,25,29,30,31,,,,,,2.6,1.4,2.2*36
Trace #23 at position 5.500000
$GPZDA,091622.04,08,10,2011,00,00*67
$GPRMC,091622.00,A,4611.975158,N,01258.208218,E,001.0,151.0,081011,0.2,E,A*3E
$GPGGA,091623.00,4611.974931,N,01258.208381,E,1,07,1.4,139.85,M,46.25,M,,*6F
$GPGLL,4611.974931,N,01258.208381,E,091623.00,A,A*6B
$GPVTG,146.5,T,146.6,M,000.9,N,001.7,K,A*2F
$GPGSV,2,1,07,02,37,069,43,12,51,085,39,14,23,246,40,25,79,015,49*73
$GPGSV,2,2,07,29,60,228,45,30,41,295,45,31,32,311,45,,,,*42
$GPGSA,M,3,02,12,14,25,29,30,31,,,,,,2.6,1.4,2.2*36
Trace #24 at position 5.750000
$GPZDA,091623.04,08,10,2011,00,00*66
$GPRMC,091623.00,A,4611.974931,N,01258.208381,E,000.9,146.5,081011,0.2,E,A*33
$GPGGA,091624.00,4611.974680,N,01258.208438,E,1,07,1.4,139.86,M,46.25,M,,*6B
$GPGLL,4611.974680,N,01258.208438,E,091624.00,A,A*6C
$GPVTG,184.0,T,184.2,M,001.0,N,001.9,K,A*28
$GPGSV,2,1,07,02,37,069,43,12,51,085,39,14,23,246,41,25,79,015,48*73
$GPGSV,2,2,07,29,60,228,45,30,41,295,46,31,32,311,45,,,,*41
$GPGSA,M,3,02,12,14,25,29,30,31,,,,,,2.6,1.4,2.2*36
Trace #25 at position 6.000000
$GPZDA,091624.04,08,10,2011,00,00*61
$GPRMC,091624.00,A,4611.974680,N,01258.208438,E,001.0,184.0,081011,0.2,E,A*37
$GPGGA,091625.00,4611.974390,N,01258.208380,E,1,07,1.4,139.84,M,46.25,M,,*68
$GPGLL,4611.974390,N,01258.208380,E,091625.00,A,A*6D
$GPVTG,190.0,T,190.2,M,001.2,N,002.1,K,A*21
$GPGSV,2,1,07,02,37,069,44,12,51,085,39,14,23,246,41,25,79,015,49*75
$GPGSV,2,2,07,29,60,228,45,30,41,295,46,31,32,311,45,,,,*41
$GPGSA,M,3,02,12,14,25,29,30,31,,,,,,2.6,1.4,2.2*36
Trace #26 at position 6.250000
$GPZDA,091624.04,08,10,2011,00,00*61
$GPRMC,091624.00,A,4611.974680,N,01258.208438,E,001.0,184.0,081011,0.2,E,A*37
$GPGGA,091625.00,4611.974390,N,01258.208380,E,1,07,1.4,139.84,M,46.25,M,,*68
$GPGLL,4611.974390,N,01258.208380,E,091625.00,A,A*6D
$GPVTG,190.0,T,190.2,M,001.2,N,002.1,K,A*21
$GPGSV,2,1,07,02,37,069,44,12,51,085,39,14,23,246,41,25,79,015,49*75
$GPGSV,2,2,07,29,60,228,45,30,41,295,46,31,32,311,45,,,,*41
$GPGSA,M,3,02,12,14,25,29,30,31,,,,,,2.6,1.4,2.2*36
Trace #27 at position 6.500000
$GPZDA,091626.04,08,10,2011,00,00*63
$GPRMC,091626.00,A,4611.974175,N,01258.208404,E,000.6,150.6,081011,0.2,E,A*3F
$GPGGA,091627.00,4611.974082,N,01258.208554,E,1,07,1.4,139.85,M,46.25,M,,*64
$GPGLL,4611.974082,N,01258.208554,E,091627.00,A,A*60
$GPVTG,109.8,T,110.0,M,000.5,N,000.9,K,A*2F
$GPGSV,2,1,07,02,37,069,42,12,51,086,38,14,23,246,43,25,79,015,47*7D
$GPGSV,2,2,07,29,60,228,45,30,41,295,46,31,32,311,46,,,,*42
$GPGSA,M,3,02,12,14,25,29,30,31,,,,,,2.6,1.4,2.2*36
Trace #28 at position 6.750000
$GPZDA,091626.04,08,10,2011,00,00*63
$GPRMC,091626.00,A,4611.974175,N,01258.208404,E,000.6,150.6,081011,0.2,E,A*3F
$GPGGA,091627.00,4611.974082,N,01258.208554,E,1,07,1.4,139.85,M,46.25,M,,*64
$GPGLL,4611.974082,N,01258.208554,E,091627.00,A,A*60
$GPVTG,109.8,T,110.0,M,000.5,N,000.9,K,A*2F
$GPGSV,2,1,07,02,37,069,42,12,51,086,38,14,23,246,43,25,79,015,47*7D
$GPGSV,2,2,07,29,60,228,45,30,41,295,46,31,32,311,46,,,,*42
$GPGSA,M,3,02,12,14,25,29,30,31,,,,,,2.6,1.4,2.2*36
Trace #29 at position 7.000000
$GPZDA,091627.04,08,10,2011,00,00*62
$GPRMC,091627.00,A,4611.974082,N,01258.208554,E,000.5,109.8,081011,0.2,E,A*32
$GPGGA,091628.00,4611.973978,N,01258.208632,E,1,07,1.4,139.92,M,46.25,M,,*65
$GPGLL,4611.973978,N,01258.208632,E,091628.00,A,A*67
$GPVTG,186.5,T,186.6,M,000.6,N,001.1,K,A*26
$GPGSV,2,1,07,02,37,069,41,12,50,086,39,14,23,246,41,25,79,015,48*73
$GPGSV,2,2,07,29,60,228,43,30,41,295,46,31,32,311,46,,,,*44
$GPGSA,M,3,02,12,14,25,29,30,31,,,,,,2.6,1.4,2.2*36
Trace #30 at position 7.250000
$GPZDA,091628.04,08,10,2011,00,00*6D
$GPRMC,091628.00,A,4611E,A*3C
$GPGGA,091629.00,4611.973770,N,01258.208679,E,1,06,1.5,139.93,M,46.25,M,,*6C
$GPGLL,4611.973770,N,01258.208679,E,091629.00,A,A*6F
$GPVTG,156.6,T,156.7,M,001.0,N,001.9,K,A*2B
$GPGSV,2,1,07,02,37,069,42,12,50,086,36,14,23,246,43,25,79,015,47*72
$GPGSV,2,2,07,29,60,228,45,30,41,295,46,31,32,311,45,,,,*41
$GPGSA,M,3,02,14,25,29,30,31,,,,,,,2.7,1.5,2.2*35
Trace #31 at position 7.500000
$GPZDA,091629.04,08,10,2011,00,00*6C
$GPRMC,091629.00,A,4611.973770,N,01258.208679,E,001.0,156.6,081011,0.2,E,A*3D
$GPGGA,091630.00,4611.973568,N,01258.208710,E,1,06,1.5,139.89,M,46.25,M,,*6A
$GPGLL,4611.973568,N,01258.208710,E,091630.00,A,A*62
$GPVTG,198.2,T,198.3,M,000.6,N,001.1,K,A*24
$GPGSV,2,1,07,02,37,069,42,12,50,086,38,14,23,246,42,25,79,015,48*72
$GPGSV,2,2,07,29,60,228,44,30,41,295,46,31,32,311,46,,,,*43
$GPGSA,M,3,02,14,25,29,30,31,,,,,,,2.7,1.5,2.2*35
Trace #32 at position 7.750000
$GPZDA,091629.04,08,10,2011,00,00*6C
$GPRMC,091629.00,A,4611.973770,N,01258.208679,E,001.0,156.6,081011,0.2,E,A*3D
$GPGGA,091630.00,4611.973568,N,01258.208710,E,1,06,1.5,139.89,M,46.25,M,,*6A
$GPGLL,4611.973568,N,01258.208710,E,091630.00,A,A*62
$GPVTG,198.2,T,198.3,M,000.6,N,001.1,K,A*24
$GPGSV,2,1,07,02,37,069,42,12,50,086,38,14,23,246,42,25,79,015,48*72
$GPGSV,2,2,07,29,60,228,44,30,41,295,46,31,32,311,46,,,,*43
$GPGSA,M,3,02,14,25,29,30,31,,,,,,,2.7,1.5,2.2*35
Trace #33 at position 8.000000
$GPZDA,091630.03,08,10,2011,00,00*63
$GPRMC,091630.00,A,4611.973568,N,01258.208710,E,000.6,198.2,081011,0.2,E,A*31
$GPGGA,091631.00,4611.973365,N,01258.208746,E,1,07,1.4,139.83,M,46.25,M,,*69
$GPGLL,4611.973365,N,01258.208746,E,091631.00,A,A*6B
$GPVTG,160.5,T,160.7,M,001.0,N,001.8,K,A*29
$GPGSV,2,1,07,02,37,069,44,12,50,086,39,14,23,246,42,25,79,015,48*75
$GPGSV,2,2,07,29,60,228,44,30,41,295,47,31,32,311,47,,,,*43
$GPGSA,M,3,02,12,14,25,29,30,31,,,,,,2.6,1.4,2.2*36
Trace #34 at position 8.250000
$GPZDA,091630.03,08,10,2011,00,00*63
$GPRMC,091630.00,A,4611.973568,N,01258.208710,E,000.6,198.2,081011,0.2,E,A*31
$GPGGA,091631.00,4611.973365,N,01258.208746,E,1,07,1.4,139.83,M,46.25,M,,*69
$GPGLL,4611.973365,N,01258.208746,E,091631.00,A,A*6B
$GPVTG,160.5,T,160.7,M,001.0,N,001.8,K,A*29
$GPGSV,2,1,07,02,37,069,44,12,50,086,39,14,23,246,42,25,79,015,48*75
$GPGSV,2,2,07,29,60,228,44,30,41,295,47,31,32,311,47,,,,*43
$GPGSA,M,3,02,12,14,25,29,30,31,,,,,,2.6,1.4,2.2*36
Trace #35 at position 8.500000
$GPZDA,091631.04,08,10,2011,00,00*65
$GPRMC,091631.00,A,4611.973365,N,01258.208746,E,001.0,160.5,081011,0.2,E,A*3F
$GPGGA,091632.00,4611.973251,N,01258.208787,E,1,06,1.5,139.82,M,46.25,M,,*60
$GPGLL,4611.973251,N,01258.208787,E,091632.00,A,A*63
$GPVTG,314.8,T,315.0,M,000.1,N,000.2,K,A*29
$GPGSV,2,1,07,02,37,069,43,12,50,086,35,14,23,246,43,25,79,015,47*70
$GPGSV,2,2,07,29,60,228,44,30,41,295,47,31,32,311,46,,,,*42
$GPGSA,M,3,02,14,25,29,30,31,,,,,,,2.7,1.5,2.2*35
Trace #36 at position 8.750000
$GPZDA,091631.04,08,10,2011,00,00*65
$GPRMC,091631.00,A,4611.973365,N,01258.208746,E,001.0,160.5,081011,0.2,E,A*3F
$GPGGA,091632.00,4611.973251,N,01258.208787,E,1,06,1.5,139.82,M,46.25,M,,*60
$GPGLL,4611.973251,N,01258.208787,E,091632.00,A,A*63
$GPVTG,314.8,T,315.0,M,000.1,N,000.2,K,A*29
$GPGSV,2,1,07,02,37,069,43,12,50,086,35,14,23,246,43,25,79,015,47*70
$GPGSV,2,2,07,29,60,228,44,30,41,295,47,31,32,311,46,,,,*42
$GPGSA,M,3,02,14,25,29,30,31,,,,,,,2.7,1.5,2.2*35
Trace #37 at position 9.000000
$GPZDA,091632.04,08,10,2011,00,00*66
$GPRMC,091632.00,A,4611.973251,N,01258.208787,E,000.1,314.8,081011,0.2,E,A*3B
$GPGGA,091633.00,4611.973194,N,01258.208956,E,1,06,1.5,139.88,M,46.25,M,,*63
$GPGLL,4611.973194,N,01258.208956,E,091633.00,A,A*6A
$GPVTG,114.9,T,115.1,M,001.1,N,002.1,K,A*29
$GPGSV,2,1,07,02,37,069,43,12,50,086,38,14,23,246,42,25,79,015,47*7C
$GPGSV,2,2,07,29,60,228,45,30,41,295,46,31,32,311,46,,,,*42
$GPGSA,M,3,02,14,25,29,30,31,,,,,,,2.7,1.5,2.2*35
Trace #38 at position 9.250000
$GPZDA,091632.04,08,10,2011,00,00*66
$GPRMC,091632.00,A,4611.973251,N,01258.208787,E,000.1,314.8,081011,0.2,E,A*3B
$GPGGA,091633.00,4611.973194,N,01258.208956,E,1,06,1.5,139.88,M,46.25,M,,*63
$GPGLL,4611.973194,N,01258.208956,E,091633.00,A,A*6A
$GPVTG,114.9,T,115.1,M,001.1,N,002.1,K,A*29
$GPGSV,2,1,07,02,37,069,43,12,50,086,38,14,23,246,42,25,79,015,47*7C
$GPGSV,2,2,07,29,60,228,45,30,41,295,46,31,32,311,46,,,,*42
$GPGSA,M,3,02,14,25,29,30,31,,,,,,,2.7,1.5,2.2*35
Trace #39 at position 9.500000
$GPZDA,091633.04,08,10,2011,00,00*67
$GPRMC,091633.00,A,4611.973194,N,01258.208956,E,001.1,114.9,081011,0.2,E,A*30
$GPGGA,091634.00,4611.973072,N,01258.209166,E,1,06,1.5,139.92,M,46.25,M,,*6C
$GPGLL,4611.973072,N,01258.209166,E,091634.00,A,A*6E
$GPVTG,144.0,T,144.2,M,000.4,N,000.8,K,A*2D
$GPGSV,2,1,07,02,37,069,42,12,50,086,39,14,23,246,41,25,79,015,48*70
$GPGSV,2,2,07,29,60,228,45,30,41,295,46,31,32,311,46,,,,*42
$GPGSA,M,3,02,14,25,29,30,31,,,,,,,2.7,1.5,2.2*35
Trace #40 at position 9.750000
$GPZDA,091634.03,08,10,2011,00,00*67
$GPRMC,091634.00,A,4611.973072,N,01258.209166,E,000.4,144.0,081011,0.2,E,A*3C
$GPGGA,091635.00,4611.972892,N,01258.209236,E,1,07,1.4,139.88,M,46.25,M,,*67
$GPGLL,4611.972892,N,01258.209236,E,091635.00,A,A*6E
$GPVTG,166.7,T,166.9,M,000.8,N,001.5,K,A*21
$GPGSV,2,1,07,02,37,069,42,12,50,086,39,14,23,246,41,25,79,015,48*70
$GPGSV,2,2,07,29,60,228,44,30,41,295,46,31,32,311,46,,,,*43
$GPGSA,M,3,02,12,14,25,29,30,31,,,,,,2.6,1.4,2.2*36
Trace #41 at position 10.000000
$GPZDA,091634.03,08,10,2011,00,00*67
$GPRMC,091634.00,A,4611.973072,N,01258.209166,E,000.4,144.0,081011,0.2,E,A*3C
$GPGGA,091635.00,4611.972892,N,01258.209236,E,1,07,1.4,139.88,M,46.25,M,,*67
$GPGLL,4611.972892,N,01258.209236,E,091635.00,A,A*6E
$GPVTG,166.7,T,166.9,M,000.8,N,001.5,K,A*21
$GPGSV,2,1,07,02,37,069,42,12,50,086,39,14,23,246,41,25,79,015,48*70
$GPGSV,2,2,07,29,60,228,44,30,41,295,46,31,32,311,46,,,,*43
$GPGSA,M,3,02,12,14,25,29,30,31,,,,,,2.6,1.4,2.2*36
Trace #42 at position 10.250000
$GPZDA,091635.04,08,10,2011,00,00*61
$GPRMC,091635.00,A,4611.972892,N,01258.209236,E,000.8,166.7,081011,0.2,E,A*37
$GPGGA,091636.00,4611.972656,N,01258.209381,E,1,07,1.4,139.84,M,46.25,M,,*63
$GPGLL,4611.972656,N,01258.209381,E,091636.00,A,A*66
$GPVTG,141.7,T,141.8,M,001.1,N,001.9,K,A*24
$GPGSV,2,1,07,02,37,069,42,12,50,086,39,14,23,246,41,25,79,015,48*70
$GPGSV,2,2,07,29,60,228,44,30,41,295,47,31,32,311,46,,,,*42
$GPGSA,M,3,02,12,14,25,29,30,31,,,,,,2.6,1.4,2.2*36
Trace #43 at position 10.500000
$GPZDA,091635.04,08,10,2011,00,00*61
$GPRMC,091635.00,A,4611.972892,N,01258.209236,E,000.8,166.7,081011,0.2,E,A*37
$GPGGA,091636.00,4611.972656,N,01258.209381,E,1,07,1.4,139.84,M,46.25,M,,*63
$GPGLL,4611.972656,N,01258.209381,E,091636.00,A,A*66
$GPVTG,141.7,T,141.8,M,001.1,N,001.9,K,A*24
$GPGSV,2,1,07,02,37,069,42,12,50,086,39,14,23,246,41,25,79,015,48*70
$GPGSV,2,2,07,29,60,228,44,30,41,295,47,31,32,311,46,,,,*42
$GPGSA,M,3,02,12,14,25,29,30,31,,,,,,2.6,1.4,2.2*36
Trace #44 at position 10.750000
$GPZDA,091636.04,08,10,2011,00,00*62
$GPRMC,091636.00,A,4611.972656,N,01258.209381,E,001.1,141.7,081011,0.2,E,A*32
$GPGGA,091637.00,4611.972428,N,01258.209574,E,1,07,1.4,139.80,M,46.25,M,,*61
$GPGLL,4611.972428,N,01258.209574,E,091637.00,A,A*60
$GPVTG,144.4,T,144.5,M,000.9,N,001.6,K,A*2C
$GPGSV,2,1,07,02,37,069,43,12,50,086,37,14,23,246,42,25,79,015,47*73
$GPGSV,2,2,07,29,60,228,43,30,41,295,47,31,32,311,46,,,,*45
$GPGSA,M,3,02,12,14,25,29,30,31,,,,,,2.6,1.4,2.2*36
Trace #45 at position 11.000000
$GPZDA,091636.04,08,10,2011,00,00*62
$GPRMC,091636.00,A,4611.972656,N,01258.209381,E,001.1,141.7,081011,0.2,E,A*32
$GPGGA,091637.00,4611.972428,N,01258.209574,E,1,07,1.4,139.80,M,46.25,M,,*61
$GPGLL,4611.972428,N,01258.209574,E,091637.00,A,A*60
$GPVTG,144.4,T,144.5,M,000.9,N,001.6,K,A*2C
$GPGSV,2,1,07,02,37,069,43,12,50,086,37,14,23,246,42,25,79,015,47*73
$GPGSV,2,2,07,29,60,228,43,30,41,295,47,31,32,311,46,,,,*45
$GPGSA,M,3,02,12,14,25,29,30,31,,,,,,2.6,1.4,2.2*36
Trace #46 at position 11.250000
$GPZDA,091636.04,08,10,2011,00,00*62
$GPRMC,091636.00,A,4611.972656,N,01258.209381,E,001.1,141.7,081011,0.2,E,A*32
$GPGGA,091637.00,4611.972428,N,01258.209574,E,1,07,1.4,139.80,M,46.25,M,,*61
$GPGLL,4611.972428,N,01258.209574,E,091637.00,A,A*60
$GPVTG,144.4,T,144.5,M,000.9,N,001.6,K,A*2C
$GPGSV,2,1,07,02,37,069,43,12,50,086,37,14,23,246,42,25,79,015,47*73
$GPGSV,2,2,07,29,60,228,43,30,41,295,47,31,32,311,46,,,,*45
$GPGSA,M,3,02,12,14,25,29,30,31,,,,,,2.6,1.4,2.2*36
Trace #47 at position 11.500000
$GPZDA,091636.04,08,10,2011,00,00*62
$GPRMC,091636.00,A,4611.972656,N,01258.209381,E,001.1,141.7,081011,0.2,E,A*32
$GPGGA,091637.00,4611.972428,N,01258.209574,E,1,07,1.4,139.80,M,46.25,M,,*61
$GPGLL,4611.972428,N,01258.209574,E,091637.00,A,A*60
$GPVTG,144.4,T,144.5,M,000.9,N,001.6,K,A*2C
$GPGSV,2,1,07,02,37,069,43,12,50,086,37,14,23,246,42,25,79,015,47*73
$GPGSV,2,2,07,29,60,228,43,30,41,295,47,31,32,311,46,,,,*45
$GPGSA,M,3,02,12,14,25,29,30,31,,,,,,2.6,1.4,2.2*36
Trace #48 at position 11.750000
$GPZDA,091637.04,08,10,2011,00,00*63
$GPRMC,091637.00,A,4611.972428,N,01258.209574,E,000.9,144.4,081011,0.2,E,A*3B
$GPGGA,091638.00,4611.972158,N,01258.209684,E,1,07,1.4,139.74,M,46.25,M,,*6B
$GPGLL,4611.972158,N,01258.209684,E,091638.00,A,A*61
$GPVTG,168.2,T,168.3,M,001.2,N,002.2,K,A*21
$GPGSV,2,1,07,02,37,069,43,12,50,086,39,14,23,246,41,25,79,015,48*71
$GPGSV,2,2,07,29,60,228,45,30,41,295,46,31,32,311,46,,,,*42
*36
$GPZDA,091638.04,08,10,2011,00,00*6C
$GPRMC,091638.00,A,4611.972158,N,01258.209684,E,001.2,168.2,081011,0.2,E,A*38
$GPGGA,091639.00,4611.971852,N,01258.209721,E,1,07,1.4,139.73,M,46.25,M,,*63
$GPGLL,4611.971852,N,01258.209721,E,091639.00,A,A*6E
$GPVTG,173.7,T,173.9,M,001.0,N,001.9,K,A*24
$GPGSV,2,1,07,02,37,069,44,12,50,086,37,14,23,246,42,25,79,015,48*7B
$GPGSV,2,2,07,29,60,228,44,30,41,295,47,31,32,311,47,,,,*43
$GPGSA,M,3,02,12,14,25,29,30,31,,,,,,2.6,1.4,2.2*36
Trace #49 at position 12.000000
$GPZDA,091639.04,08,10,2011,0091639.00,A,4611.971852,N,01258.209721,E,001.0,173.7,081011,0.2,E,A*3A
$GPGGA,091640.00,4611.971619,N,01258.209718,E,1,06,1.5,139.75,M,46.25,M,,*60
$GPGLL,4611.971619,N,01258.209718,E,091640.00,A,A*6B
$GPVTG,174.0,T,174.1,M,000.7,N,001.3,K,A*27
$GPGSV,2,1,07,02,37,069,43,12,50,086,32,14,23,246,43,25,79,015,47*77
$GPGSV,2,2,07,29,60,228,44,30,41,295,47,31,32,311,46,,,,*42
$GPGSA,M,3,02,14,25,29,30,31,,,,,,,2.7,1.5,2.2*35
Trace #50 at position 12.250000
$GPZDA,091639.04,08,10,2011,0091639.00,A,4611.971852,N,01258.209721,E,001.0,173.7,081011,0.2,E,A*3A
$GPGGA,091640.00,4611.971619,N,01258.209718,E,1,06,1.5,139.75,M,46.25,M,,*60
$GPGLL,4611.971619,N,01258.209718,E,091640.00,A,A*6B
$GPVTG,174.0,T,174.1,M,000.7,N,001.3,K,A*27
$GPGSV,2,1,07,02,37,069,43,12,50,086,32,14,23,246,43,25,79,015,47*77
$GPGSV,2,2,07,29,60,228,44,30,41,295,47,31,32,311,46,,,,*42
$GPGSA,M,3,02,14,25,29,30,31,,,,,,,2.7,1.5,2.2*35
Trace #51 at position 12.500000
$GPZDA,091640.04,08,10,2011,00,00*63
$GPRMC,091640.00,A,4611.971619,N,01258.2097$GPGGA,091641.00,4611.971330,N,01258.209733,E,1,06,1.5,139.66,M,46.25,M,,*64
$GPGLL,4611.971330,N,01258.209733,E,091641.00,A,A*6D
$GPVTG,175.2,T,175.4,M,001.5,N,002.8,K,A*2B
$GPGSV,2,1,07,02,37,069,43,12,50,086,36,14,23,246,42,25,79,015,47*72
$GPGSV,2,2,07,29,60,228,45,30,41,295,47,31,32,311,46,,,,*43
$GPGSA,M,3,02,14,25,29,30,31,,,,,,,2.7,1.5,2.2*35
Trace #52 at position 12.750000
$GPZDA,091641.03,08,10,2011,00,00*65
$GPRMC,091641.00,A,4611.971330,N,01258.209733,E,001.5,175.2,081011,0.2,E,A*3F
$GPGGA,091642.00,4611.971090,N,01258.209833,E,1,06,1.5,139.64,M,46.25,M,,*63
$GPGLL,4611.971090,N,01258.209833,E,091642.00,A,A*68
$GPVTG,127.3,T,127.5,M,000.6,N,001.1,K,A*23
$GPGSV,2,1,07,02,37,069,42,12,50,086,37,14,23,246,42,25,79,015,48*7D
$GPGSV,2,2,07,29,60,228,44,30,41,295,47,31,32,311,46,,,,*42
$GPGSA,M,3,02,14,25,29,30,31,,,,,,,2.7,1.5,2.2*35
Trace #53 at position 13.000000
$GPZDA,091641.03,08,10,2011,00,00*65
$GPRMC,091641.00,A,4611.971330,N,01258.209733,E,001.5,175.2,081011,0.2,E,A*3F
$GPGGA,091642.00,4611.971090,N,01258.209833,E,1,06,1.5,139.64,M,46.25,M,,*63
$GPGLL,4611.971090,N,01258.209833,E,091642.00,A,A*68
$GPVTG,127.3,T,127.5,M,000.6,N,001.1,K,A*23
$GPGSV,2,1,07,02,37,069,42,12,50,086,37,14,23,246,42,25,79,015,48*7D
$GPGSV,2,2,07,29,60,228,44,30,41,295,47,31,32,311,46,,,,*42
$GPGSA,M,3,02,14,25,29,30,31,,,,,,,2.7,1.5,2.2*35
Trace #54 at position 13.250000
$GPZDA,091642.03,08,10,2011,00,00*66
$GPRMC,091642.00,A,4611.971090,N,01258.209833,E,000.6,127.3,081011,0.2,E,A*3E
$GPGGA,091643.00,4611.970935,N,01258.209951,E,1,06,1.5,139.68,M,46.25,M,,*6C
$GPGLL,4611.970935,N,01258.209951,E,091643.00,A,A*6B
$GPVTG,163.1,T,163.3,M,000.8,N,001.5,K,A*2D
$GPGSV,2,1,07,02,37,069,43,12,50,086,38,14,23,246,41,25,79,015,48*70
$GPGSV,2,2,07,29,60,228,45,30,41,295,47,31,32,311,46,,,,*43
$GPGSA,M,3,02,14,25,29,30,31,,,,,,,2.7,1.5,2.2*35
Trace #55 at position 13.500000
$GPZDA,091642.03,08,10,2011,00,00*66
$GPRMC,091642.00,A,4611.971090,N,01258.209833,E,000.6,127.3,081011,0.2,E,A*3E
$GPGGA,091643.00,4611.970935,N,01258.209951,E,1,06,1.5,139.68,M,46.25,M,,*6C
$GPGLL,4611.970935,N,01258.209951,E,091643.00,A,A*6B
$GPVTG,163.1,T,163.3,M,000.8,N,001.5,K,A*2D
$GPGSV,2,1,07,02,37,069,43,12,50,086,38,14,23,246,41,25,79,015,48*70
$GPGSV,2,2,07,29,60,228,45,30,41,295,47,31,32,311,46,,,,*43
$GPGSA,M,3,02,14,25,29,30,31,,,,,,,2.7,1.5,2.2*35
Trace #56 at position 13.750000
$GPZDA,091643.04,08,10,2011,00,00*60
$GPRMC,091643.00,A,4611.970935,N,01258.209951,E,000.8,163.1,081011,0.2,E,A*31
$GPGGA,091644.00,4611.970748,N,01258.210014,E,1,06,1.5,139.71,M,46.25,M,,*67
$GPGLL,4611.970748,N,01258.210014,E,091644.00,A,A*68
$GPVTG,164.4,T,164.5,M,000.6,N,001.1,K,A*24
$GPGSV,2,1,07,02,37,069,43,12,50,086,38,14,23,246,43,25,79,015,47*7D
$GPGSV,2,2,07,29,60,228,45,30,41,295,47,31,32,311,46,,,,*43
$GPGSA,M,3,02,14,25,29,30,31,,,,,,,2.7,1.5,2.2*35
Trace #57 at position 14.000000
$GPZDA,091643.04,08,10,2011,00,00*60
$GPRMC,091643.00,A,4611.970935,N,01258.209951,E,000.8,163.1,081011,0.2,E,A*31
$GPGGA,091644.00,4611.970748,N,01258.210014,E,1,06,1.5,139.71,M,46.25,M,,*67
$GPGLL,4611.970748,N,01258.210014,E,091644.00,A,A*68
$GPVTG,164.4,T,164.5,M,000.6,N,001.1,K,A*24
$GPGSV,2,1,07,02,37,069,43,12,50,086,38,14,23,246,43,25,79,015,47*7D
$GPGSV,2,2,07,29,60,228,45,30,41,295,47,31,32,311,46,,,,*43
$GPGSA,M,3,02,14,25,29,30,31,,,,,,,2.7,1.5,2.2*35
Trace #58 at position 14.250000
$GPZDA,091644.03,08,10,2011,00,00*60
$GPRMC,091644.00,A,4611.970748,N,01258.210014,E,000.6,164.4,081011,0.2,E,A*3E
$GPGGA,091645.00,4611.970614,N,01258.210088,E,1,06,1.5,139.81,M,46.25,M,,*64
$GPGLL,4611.970614,N,01258.210088,E,091645.00,A,A*64
$GPVTG,133.9,T,134.0,M,000.4,N,000.8,K,A*21
$GPGSV,2,1,07,02,37,069,43,12,50,086,34,14,23,246,43,25,79,015,47*71
$GPGSV,2,2,07,29,60,228,44,30,41,295,47,31,32,311,46,,,,*42
$GPGSA,M,3,02,14,25,29,30,31,,,,,,,2.7,1.5,2.2*35
Trace #59 at position 14.500000
$GPZDA,091644.03,08,10,2011,00,00*60
$GPRMC,091644.00,A,4611.970748,N,01258.210014,E,000.6,164.4,081011,0.2,E,A*3E
$GPGGA,091645.00,4611.970614,N,01258.210088,E,1,06,1.5,139.81,M,46.25,M,,*64
$GPGLL,4611.970614,N,01258.210088,E,091645.00,A,A*64
$GPVTG,133.9,T,134.0,M,000.4,N,000.8,K,A*21
$GPGSV,2,1,07,02,37,069,43,12,50,086,34,14,23,246,43,25,79,015,47*71
$GPGSV,2,2,07,29,60,228,44,30,41,295,47,31,32,311,46,,,,*42
$GPGSA,M,3,02,14,25,29,30,31,,,,,,,2.7,1.5,2.2*35
Trace #60 at position 14.750000
$GPZDA,091645.03,08,10,2011,00,00*61
$GPRMC,091645.00,A,4611.970614,N,01258.210088,E,000.4,133.9,081011,0.2,E,A*3F
$GPGGA,091646.00,4611.970505,N,01258.210250,E,1,06,1.5,139.87,M,46.25,M,,*65
$GPGLL,4611.970505,N,01258.210250,E,091646.00,A,A*63
$GPVTG,114.8,T,115.0,M,000.7,N,001.2,K,A*2E
$GPGSV,2,1,07,02,37,069,43,12,50,086,37,14,23,246,42,25,79,016,48*7F
$GPGSV,2,2,07,29,60,228,45,30,41,295,47,31,32,311,46,,,,*43
$GPGSA,M,3,02,14,25,29,30,31,,,,,,,2.7,1.5,2.2*35
Trace #61 at position 15.000000
$GPZDA,091645.03,08,10,2011,00,00*61
$GPRMC,091645.00,A,4611.970614,N,01258.210088,E,000.4,133.9,081011,0.2,E,A*3F
$GPGGA,091646.00,4611.970505,N,01258.210250,E,1,06,1.5,139.87,M,46.25,M,,*65
$GPGLL,4611.970505,N,01258.210250,E,091646.00,A,A*63
$GPVTG,114.8,T,115.0,M,000.7,N,001.2,K,A*2E
$GPGSV,2,1,07,02,37,069,43,12,50,086,37,14,23,246,42,25,79,016,48*7F
$GPGSV,2,2,07,29,60,228,45,30,41,295,47,31,32,311,46,,,,*43
$GPGSA,M,3,02,14,25,29,30,31,,,,,,,2.7,1.5,2.2*35
Trace #62 at position 15.250000
$GPZDA,091646.03,08,10,2011,00,00*62
$GPRMC,091646.00,A,4611.970505,N,01258.210250,E,000.7,114.8,081011,0.2,E,A*3F
$GPGGA,091647.00,4611.970366,N,01258.210397,E,1,06,1.5,139.90,M,46.25,M,,*6B
$GPGLL,4611.970366,N,01258.210397,E,091647.00,A,A*6B
$GPVTG,145.8,T,145.9,M,000.5,N,000.9,K,A*2E
$GPGSV,2,1,07,02,37,069,44,12,50,086,37,14,23,246,42,25,79,016,47*77
$GPGSV,2,2,07,29,60,228,44,30,41,295,47,31,32,311,46,,,,*42
$GPGSA,M,3,02,14,25,29,30,31,,,,,,,2.7,1.5,2.2*35
Trace #63 at position 15.500000
$GPZDA,091647.03,08,10,2011,00,00*63
$GPRMC,091647.00,A,4611.970366,N,01258.210397,E,000.5,145.8,081011,0.2,E,A*31
$GPGGA,091648.00,4611.970142,N,01258.210466,E,1,06,1.5,139.90,M,46.25,M,,*69
$GPGLL,4611.970142,N,01258.210466,E,091648.00,A,A*69
$GPVTG,166.1,T,166.3,M,000.9,N,001.8,K,A*21
$GPGSV,2,1,07,02,37,069,43,12,50,086,35,14,23,246,42,25,79,016,47*72
$GPGSV,2,2,07,29,60,228,45,30,41,295,47,31,32,311,47,,,,*42
$GPGSA,M,3,02,14,25,29,30,31,,,,,,,2.7,1.5,2.2*35
Trace #64 at position 15.750000
$GPZDA,091647.03,08,10,2011,00,00*63
$GPRMC,091647.00,A,4611.970366,N,01258.210397,E,000.5,145.8,081011,0.2,E,A*31
$GPGGA,091648.00,4611.970142,N,01258.210466,E,1,06,1.5,139.90,M,46.25,M,,*69
$GPGLL,4611.970142,N,01258.210466,E,091648.00,A,A*69
$GPVTG,166.1,T,166.3,M,000.9,N,001.8,K,A*21
$GPGSV,2,1,07,02,37,069,43,12,50,086,35,14,23,246,42,25,79,016,47*72
$GPGSV,2,2,07,29,60,228,45,30,41,295,47,31,32,311,47,,,,*42
$GPGSA,M,3,02,14,25,29,30,31,,,,,,,2.7,1.5,2.2*35
Trace #65 at position 16.000000
$GPZDA,091647.03,08,10,2011,00,00*63
$GPRMC,091647.00,A,4611.970366,N,01258.210397,E,000.5,145.8,081011,0.2,E,A*31
$GPGGA,091648.00,4611.970142,N,01258.210466,E,1,06,1.5,139.90,M,46.25,M,,*69
$GPGLL,4611.970142,N,01258.210466,E,091648.00,A,A*69
$GPVTG,166.1,T,166.3,M,000.9,N,001.8,K,A*21
$GPGSV,2,1,07,02,37,069,43,12,50,086,35,14,23,246,42,25,79,016,47*72
$GPGSV,2,2,07,29,60,228,45,30,41,295,47,31,32,311,47,,,,*42
$GPGSA,M,3,02,14,25,29,30,31,,,,,,,2.7,1.5,2.2*35
Trace #66 at position 16.250000
$GPZDA,091648.04,08,10,2011,00,00*6B
$GPRMC,091648.00,A,4611.970142,N,01258.210466,E,000.9,166.1,081011,0.2,E,A*37
$GPGGA,091649.00,4611.969886,N,01258.210622,E,1,07,1.4,139.90,M,46.25,M,,*63
$GPGLL,4611.969886,N,01258.210622,E,091649.00,A,A*63
$GPVTG,133.5,T,133.7,M,000.9,N,001.7,K,A*2E
$GPGSV,2,1,07,02,37,069,43,12,50,086,39,14,23,246,42,25,79,016,48*71
$GPGSV,2,2,07,29,60,228,45,30,41,295,47,31,32,311,47,,,,*42
$GPGSA,M,3,02,12,14,25,29,30,31,,,,,,2.6,1.4,2.2*36
Trace #67 at position 16.500000
$GPZDA,091648.04,08,10,2011,00,00*6B
$GPRMC,091648.00,A,4611.970142,N,01258.210466,E,000.9,166.1,081011,0.2,E,A*37
$GPGGA,091649.00,4611.969886,N,01258.210622,E,1,07,1.4,139.90,M,46.25,M,,*63
$GPGLL,4611.969886,N,01258.210622,E,091649.00,A,A*63
$GPVTG,133.5,T,133.7,M,000.9,N,001.7,K,A*2E
$GPGSV,2,1,07,02,37,069,43,12,50,086,39,14,23,246,42,25,79,016,48*71
$GPGSV,2,2,07,29,60,228,45,30,41,295,47,31,32,311,47,,,,*42
$GPGSA,M,3,02,12,14,25,29,30,31,,,,,,2.6,1.4,2.2*36
Trace #68 at position 16.750000
$GPZDA,091649.04,08,10,2011,00,00*6A
$GPRMC,091649.00,A,4611.969886,N,01258.210622,E,000.9,133.5,081011,0.2,E,A*39
$GPGGA,091650.00,4611.969677,N,01258.210826,E,1,07,1.4,139.88,M,46.25,M,,*68
$GPGLL,4611.969677,N,01258.210826,E,091650.00,A,A*61
$GPVTG,136.4,T,136.6,M,000.8,N,001.5,K,A*2D
$GPGSV,2,1,07,02,37,069,43,12,50,086,36,14,23,246,43,25,79,016,47*70
$GPGSV,2,2,07,29,60,228,45,30,41,295,47,31,32,311,47,,,,*42
$GPGSA,M,3,02,258.210826,E,000.8,136.4,081011,0.2,E,A*3E
Trace #69 at position 17.000000
$GPGGA,091651.00,4611.969448,N,01258.210971,E,1,07,1.4,139.87,M,46.25,M,,*6B
$GPGLL,4611.969448,N,01258.210971,E,091651.00,A,A*6D
$GPVTG,152.7,T,152.9,M,000.9,N,001.7,K,A*22
$GPGSV,2,1,07,02,37,069,43,12,50,086,39,14,23,246,42,25,79,016,48*71
$GPGSV,2,2,07,29,60,228,44,30,41,295,47,31,32,311,47,,,,*43
$GPGSA,M,3,02,12,14,25,29,30,31,,,,,,2.6,1.4,2.2*36
Trace #70 at position 17.250000
$GPGGA,091651.00,4611.969448,N,01258.210971,E,1,07,1.4,139.87,M,46.25,M,,*6B
$GPGLL,4611.969448,N,01258.210971,E,091651.00,A,A*6D
$GPVTG,152.7,T,152.9,M,000.9,N,001.7,K,A*22
$GPGSV,2,1,07,02,37,069,43,12,50,086,39,14,23,246,42,25,79,016,48*71
$GPGSV,2,2,07,29,60,228,44,30,41,295,47,31,32,311,47,,,,*43
$GPGSA,M,3,02,12,14,25,29,30,31,,,,,,2.6,1.4,2.2*36
Trace #71 at position 17.500000
$GPZDA,091651.04,08,10,2011,00,00*63
$GPRMC,091651.00,A,4611.969448,N,01258.210971,E,000.9,152.7,081011,0.$GPGGA,091652.00,4611.969200,N,01258.210975,E,1,07,1.4,139.90,M,46.25,M,,*60
$GPGLL,4611.969200,N,01258.210975,E,091652.00,A,A*60
$GPVTG,197.0,T,197.1,M,000.7,N,001.3,K,A*27
$GPGSV,2,1,07,02,37,069,43,12,50,086,39,14,23,246,42,25,79,016,48*71
$GPGSV,2,2,07,29,60,228,44,30,41,295,46,31,32,311,46,,,,*43
$GPGSA,M,3,02,12,14,25,29,30,31,,,,,,2.6,1.4,2.2*36
Trace #72 at position 17.750000
$GPZDA,091652.04,08,10,2011,00,00*60
$GPRMC,091652.00,A,4611.969200,N,01258.210975,E,000.7,197.0,081011,0.2,E,A*3F
$GPGGA,091653.00,4611.968972,N,01258.210982,E,1,07,1.4,139.89,M,46.25,M,,*6E
$GPGLL,4611.968972,N,01258.210982,E,091653.00,A,A*66
$GPVTG,154.2,T,154.4,M,000.7,N,001.3,K,A*20
$GPGSV,2,1,07,02,37,069,44,12,50,086,37,14,23,246,43,25,79,016,48*79
$GPGSV,2,2,07,29,60,228,44,30,41,295,46,31,32,311,46,,,,*43
$GPGSA,M,3,02,12,14,25,29,30,31,,,,,,2.6,1.4,2.2*36
Trace #73 at position 18.000000
$GPZDA,091652.04,08,10,2011,00,00*60
$GPRMC,091652.00,A,4611.969200,N,01258.210975,E,000.7,197.0,081011,0.2,E,A*3F
$GPGGA,091653.00,4611.968972,N,01258.210982,E,1,07,1.4,139.89,M,46.25,M,,*6E
$GPGLL,4611.968972,N,01258.210982,E,091653.00,A,A*66
$GPVTG,154.2,T,154.4,M,000.7,N,001.3,K,A*20
$GPGSV,2,1,07,02,37,069,44,12,50,086,37,14,23,246,43,25,79,016,48*79
$GPGSV,2,2,07,29,60,228,44,30,41,295,46,31,32,311,46,,,,*43
$GPGSA,M,3,02,12,14,25,29,30,31,,,,,,2.6,1.4,2.2*36
Trace #74 at position 18.250000
$GPZDA,091653.04,08,10,2011,00,00*61
$GPRMC,091653.00,A,4611.968972,N,01258.210982,E,000.7,154.2,081011,0.2,E,A*34
$GPGGA,091654.00,4611.968705,N,01258.210995,E,1,07,1.4,139.81,M,46.25,M,,*69
$GPGLL,4611.968705,N,01258.210995,E,091654.00,A,A*69
$GPVTG,191.3,T,191.4,M,001.0,N,001.9,K,A*2D
$GPGSV,2,1,07,02,37,069,43,12,50,086,38,14,23,246,42,25,79,016,48*70
$GPGSV,2,2,07,29,60,228,44,30,41,295,46,31,32,311,46,,,,*43
$GPGSA,M,3,02,12,14,25,29,30,31,,,,,,2.6,1.4,2.2*36
Trace #75 at position 18.500000
$GPZDA,091653.04,08,10,2011,00,00*61
$GPRMC,091653.00,A,4611.968972,N,01258.210982,E,000.7,154.2,081011,0.2,E,A*34
$GPGGA,091654.00,4611.968705,N,01258.210995,E,1,07,1.4,139.81,M,46.25,M,,*69
$GPGLL,4611.968705,N,01258.210995,E,091654.00,A,A*69
$GPVTG,191.3,T,191.4,M,001.0,N,001.9,K,A*2D
$GPGSV,2,1,07,02,37,069,43,12,50,086,38,14,23,246,42,25,79,016,48*70
$GPGSV,2,2,07,29,60,228,44,30,41,295,46,31,32,311,46,,,,*43
$GPGSA,M,3,02,12,14,25,29,30,31,,,,,,2.6,1.4,2.2*36
Trace #76 at position 18.750000
$GPZDA,091654.04,08,10,2011,00,00*66
$GPRMC,091654.00,A,4611.968705,N,01258.210995,E,001.0,191.3,081011,0.2,E,A*35
$GPGGA,091655.00,4611.968438,N,01258.211094,E,1,07,1.4,139.79,M,46.25,M,,*6B
$GPGLL,4611.968438,N,01258.211094,E,091655.00,A,A*6C
$GPVTG,133.0,T,133.2,M,001.0,N,001.9,K,A*28
$GPGSV,2,1,07,02,37,069,43,12,50,086,38,14,23,246,43,25,79,016,48*71
$GPGSV,2,2,07,29,60,228,45,30,41,295,47,31,32,311,46,,,,*43
$GPGSA,M,3,02,12,14,25,29,30,31,,,,,,2.6,1.4,2.2*36
Trace #77 at position 19.000000
$GPZDA,091654.04,08,10,2011,00,00*66
$GPRMC,091654.00,A,4611.968705,N,01258.210995,E,001.0,191.3,081011,0.2,E,A*35
$GPGGA,091655.00,4611.968438,N,01258.211094,E,1,07,1.4,139.79,M,46.25,M,,*6B
$GPGLL,4611.968438,N,01258.211094,E,091655.00,A,A*6C
$GPVTG,133.0,T,133.2,M,001.0,N,001.9,K,A*28
$GPGSV,2,1,07,02,37,069,43,12,50,086,38,14,23,246,43,25,79,016,48*71
$GPGSV,2,2,07,29,60,228,45,30,41,295,47,31,32,311,46,,,,*43
$GPGSA,M,3,02,12,14,25,29,30,31,,,,,,2.6,1.4,2.2*36
Trace #78 at position 19.250000
$GPZDA,091655.04,08,10,2011,00,00*67
$GPRMC,091655.00,A,4611.968438,N,01258.211094,E,001.0,133.0,081011,0.2,E,A*3B
$GPGGA,091656.00,4611.968165,N,01258.211375,E,1,07,1.4,139.74,M,46.25,M,,*64
$GPGLL,4611.968165,N,01258.211375,E,091656.00,A,A*6E
$GPVTG,141.1,T,141.3,M,001.3,N,002.4,K,A*25
$GPGSV,2,1,07,02,37,069,43,12,50,086,38,14,23,246,43,25,79,016,48*71
$GPGSV,2,2,07,29,60,228,44,30,41,295,47,31,32,311,47,,,,*43
$GPGSA,M,3,02,12,14,25,29,30,31,,,,,,2.6,1.4,2.2*36
Trace #79 at position 19.500000
$GPZDA,091655.04,08,10,2011,00,00*67
$GPRMC,091655.00,A,4611.968438,N,01258.211094,E,001.0,133.0,081011,0.2,E,A*3B
$GPGGA,091656.00,4611.968165,N,01258.211375,E,1,07,1.4,139.74,M,46.25,M,,*64
$GPGLL,4611.968165,N,01258.211375,E,091656.00,A,A*6E
$GPVTG,141.1,T,141.3,M,001.3,N,002.4,K,A*25
$GPGSV,2,1,07,02,37,069,43,12,50,086,38,14,23,246,43,25,79,016,48*71
$GPGSV,2,2,07,29,60,228,44,30,41,295,47,31,32,311,47,,,,*43
$GPGSA,M,3,02,12,14,25,29,30,31,,,,,,2.6,1.4,2.2*36
Trace #80 at position 19.750000
$GPZDA,091656.04,08,10,2011,00,00*64
$GPRMC,091656.00,A,4611.968165,N,01258.211375,E,001.3,141.1,081011,0.2,E,A*3E
$GPGGA,091657.00,4611.967906,N,01258.211562,E,1,07,1.4,139.70,M,46.25,M,,*63
$GPGLL,4611.967906,N,01258.211562,E,091657.00,A,A*6D
$GPVTG,152.8,T,152.9,M,000.7,N,001.3,K,A*27
$GPGSV,2,1,07,02,37,069,44,12,50,086,39,14,23,246,43,25,79,016,48*77
$GPGSV,2,2,07,29,60,228,46,30,41,295,46,31,32,311,47,,,,*40
$GPGSA,M,3,02,12,14,25,29,30,31,,,,,,2.6,1.4,2.2*36
Trace #81 at position 20.000000
$GPZDA,091657.04,08,10,2011,00,00*65
$GPRMC,091657.00,A,4611.967906,N,01258.211562,E,000.7,152.8,081011,0.2,E,A*33
$GPGGA,091658.00,4611.967668,N,01258.211648,E,1,07,1.4,139.71,M,46.25,M,,*61
$GPGLL,4611.967668,N,01258.211648,E,091658.00,A,A*6E
$GPVTG,162.0,T,162.1,M,000.9,N,001.7,K,A*2D
$GPGSV,2,1,07,02,37,069,44,12,50,086,38,14,23,246,44,25,79,016,47*7E
$GPGSV,2,2,07,29,60,229,45,30,41,295,47,31,32,311,46,,,,*42
$GPGSA,M,3,02,12,14,25,29,30,31,,,,,,2.6,1.4,2.2*36
Trace #82 at position 20.250000
$GPZDA,091657.04,08,10,2011,00,00*65
$GPRMC,091657.00,A,4611.967906,N,01258.211562,E,000.7,152.8,081011,0.2,E,A*33
$GPGGA,091658.00,4611.967668,N,01258.211648,E,1,07,1.4,139.71,M,46.25,M,,*61
$GPGLL,4611.967668,N,01258.211648,E,091658.00,A,A*6E
$GPVTG,162.0,T,162.1,M,000.9,N,001.7,K,A*2D
$GPGSV,2,1,07,02,37,069,44,12,50,086,38,14,23,246,44,25,79,016,47*7E
$GPGSV,2,2,07,29,60,229,45,30,41,295,47,31,32,311,46,,,,*42
$GPGSA,M,3,02,12,14,25,29,30,31,,,,,,2.6,1.4,2.2*36
Trace #83 at position 20.500000
$GPZDA,091658.04,08,10,2011,00,00*6A
$GPRMC,091658.00,A,4611.967668,N,01258.211648,E,000.9,162.0,081011,0.2,E,A*35
$GPGGA,091659.00,4611.967340,N,01258.211584,E,1,07,1.4,139.60,M,46.25,M,,*6C
$GPGLL,4611.967340,N,01258.211584,E,091659.00,A,A*63
$GPVTG,199.9,T,200.0,M,001.5,N,002.7,K,A*28
$GPGSV,2,1,07,02,37,069,43,12,50,086,41,14,23,246,41,25,79,016,48*7D
$GPGSV,2,2,07,29,60,229,45,30,41,295,46,31,32,311,45,,,,*40
$GPGSA,M,3,02,12,14,25,29,30,31,,,,,,2.6,1.4,2.2*36
Trace #84 at position 20.750000
$GPZDA,091658.04,08,10,2011,00,00*6A
$GPRMC,091658.00,A,4611.967668,N,01258.211648,E,000.9,162.0,081011,0.2,E,A*35
$GPGGA,091659.00,4611.967340,N,01258.211584,E,1,07,1.4,139.60,M,46.25,M,,*6C
$GPGLL,4611.967340,N,01258.211584,E,091659.00,A,A*63
$GPVTG,199.9,T,200.0,M,001.5,N,002.7,K,A*28
$GPGSV,2,1,07,02,37,069,43,12,50,086,41,14,23,246,41,25,79,016,48*7D
$GPGSV,2,2,07,29,60,229,45,30,41,295,46,31,32,311,45,,,,*40
$GPGSA,M,3,02,12,14,25,29,30,31,,,,,,2.6,1.4,2.2*36
Trace #85 at position 21.000000
$GPZDA,091659.04,08,10,2011,00,00*6B
$GPRMC,091659.00,A,4611.967340,N,01258.211584,E,001.5,199.9,081011,0.2,E,A*38
$GPGGA,091700.00,4611.966970,N,01258.211464,E,1,07,1.4,139.47,M,46.25,M,,*63
$GPGLL,4611.966970,N,01258.211464,E,091700.00,A,A*69
$GPVTG,187.2,T,187.4,M,001.3,N,002.5,K,A*20
$GPGSV,2,1,07,02,37,069,43,12,50,086,38,14,23,246,43,25,79,016,48*71
$GPGSV,2,2,07,29,60,229,44,30,41,295,47,31,32,311,46,,,,*43
$GPGSA,M,3,02,12,14,25,29,30,31,,,,,,2.6,1.4,2.2*36
Trace #86 at position 21.250000
$GPZDA,091700.04,08,10,2011,00,00*66
$GPRMC,091700.00,A,4611.966970,N,01258.211464,E,001.3,187.2,081011,0.2,E,A*30
$GPGGA,091701.00,4611.966630,N,01258.211473,E,1,07,1.4,139.40,M,46.25,M,,*68
$GPGLL,4611.966630,N,01258.211473,E,091701.00,A,A*65
$GPVTG,173.8,T,173.9,M,001.3,N,002.4,K,A*26
$GPGSV,2,1,07,02,37,069,43,12,50,086,38,14,23,246,43,25,79,016,48*71
$GPGSV,2,2,07,29,60,229,45,30,41,295,47,31,32,311,47,,,,*43
$GPGSA,M,3,02,12,14,25,29,30,31,,,,,,2.6,1.4,2.2*36
Trace #87 at position 21.500000
$GPZDA,091700.04,08,10,2011,00,00*66
$GPRMC,091700.00,A,4611.966970,N,01258.211464,E,001.3,187.2,081011,0.2,E,A*30
$GPGGA,091701.00,4611.966630,N,01258.211473,E,1,07,1.4,139.40,M,46.25,M,,*68
$GPGLL,4611.966630,N,01258.211473,E,091701.00,A,A*65
$GPVTG,173.8,T,173.9,M,001.3,N,002.4,K,A*26
$GPGSV,2,1,07,02,37,069,43,12,50,086,38,14,23,246,43,25,79,016,48*71
$GPGSV,2,2,07,29,60,229,45,30,41,295,47,31,32,311,47,,,,*43
$GPGSA,M,3,02,12,14,25,29,30,31,,,,,,2.6,1.4,2.2*36
Trace #88 at position 21.750000
$GPZDA,091701.04,08,10,2011,00,00*67
$GPRMC,091701.00,A,4611.966630,N,01258.211473,E,001.3,173.8,081011,0.2,E,A*3D
$GPGGA,091702.00,4611.966435,N,01258.211715,E,1,07,1.4,139.43,M,46.25,M,,*6C
$GPGLL,4611.966435,N,01258.211715,E,091702.00,A,A*62
$GPVTG,103.9,T,104.0,M,001.1,N,002.0,K,A*2F
$GPGSV,2,1,07,02,37,069,42,12,50,086,37,14,23,246,42,25,79,016,47*71
$GPGSV,2,2,07,29,60,229,45,30,41,295,47,31,32,311,47,,,,*43
$GPGSA,M,3,02,12,14,25,29,30,31,,,,,,2.6,1.4,2.2*36
Trace #89 at position 22.000000
$GPZDA,091702.04,08,10,2011,00,00*64
$GPRMC,091702.00,A,4611.966435,N,01258.211715,E,001.1,103.9,081011,0.2,E,A*3E
$GPGGA,091703.00,4611.966284,N,01258.211991,E,1,07,1.4,139.48,M,46.25,M,,*68
$GPGLL,4611.966284,N,01258.211991,E,091703.00,A,A*6D
$GPVTG,151.8,T,152.0,M,001.0,N,001.8,K,A*20
$GPGSV,2,1,07,02,37,069,43,12,50,086,38,14,23,246,42,25,79,016,48*70
$GPGSV,2,2,07,29,60,229,46,30,41,295,46,31,32,311,47,,,,*41
$GPGSA,M,3,02,12,14,25,29,30,31,,,,,,2.6,1.4,2.2*36
Trace #90 at position 22.250000
$GPZDA,091702.04,08,10,2011,00,00*64
$GPRMC,091702.00,A,4611.966435,N,01258.211715,E,001.1,103.9,081011,0.2,E,A*3E
$GPGGA,091703.00,4611.966284,N,01258.211991,E,1,07,1.4,139.48,M,46.25,M,,*68
$GPGLL,4611.966284,N,01258.211991,E,091703.00,A,A*6D
$GPVTG,151.8,T,152.0,M,001.0,N,001.8,K,A*20
$GPGSV,2,1,07,02,37,069,43,12,50,086,38,14,23,246,42,25,79,016,48*70
$GPGSV,2,2,07,29,60,229,46,30,41,295,46,31,32,311,47,,,,*41
$GPGSA,M,3,02,12,14,25,29,30,31,,,,,,2.6,1.4,2.2*36
Trace #91 at position 22.500000
$GPZDA,091703.966284,N,01258.211991,E,001.0,151.8,081011,0.2,E,A*36
$GPGGA,091704.00,4611.966020,N,01258.212017,E,1,07,1.4,139.40,M,46.25,M,,*6F
$GPGLL,4611.966020,N,01258.212017,E,091704.00,A,A*62
$GPVTG,192.1,T,192.3,M,001.2,N,002.2,K,A*22
$GPGSV,2,1,07,02,37,069,43,12,50,086,37,14,23,246,43,25,79,016,47*71
$GPGSV,2,2,07,29,60,229,45,30,41,295,46,31,32,311,46,,,,*43
$GPGSA,M,3,02,12,14,25,29,30,31,,,,,,2.6,1.4,2.2*36
Trace #92 at position 22.750000
$GPZDA,091704.04,08,10,2011,00,00*62
$GPRMC,091704.00,A,4611.966020,N,01258.212017,E,001.2,192$GPGGA,091705.00,4611.965762,N,01258.211952,E,1,07,1.4,139.40,M,46.25,M,,*67
$GPGLL,4611.965762,N,01258.211952,E,091705.00,A,A*6A
$GPVTG,188.2,T,188.3,M,000.9,N,001.6,K,A*2C
$GPGSV,2,1,07,02,37,069,43,12,50,086,40,14,23,246,43,25,79,016,48*7E
$GPGSV,2,2,07,29,60,229,46,30,41,295,46,31,32,311,45,,,,*43
$GPGSA,M,3,02,12,14,25,29,30,31,,,,,,2.6,1.4,2.2*36
Trace #93 at position 23.000000
$GPZDA,091705.04,08,10,2011,00,00*63
$GPRMC,091705.00,A,4611.965762,N,01258.211952,E,000.9,188.2,081011,0.2,E,A*37
$GPGGA,091706.00,4611.965582,N,01258.211932,E,1,06,1.5,139.47,M,46.25,M,,*69
$GPGLL,4611.965582,N,01258.211932,E,091706.00,A,A*63
$GPVTG,186.9,T,187.1,M,000.6,N,001.2,K,A*2F
$GPGSV,2,1,07,02,37,069,44,12,50,086,35,14,23,246,43,25,79,016,47*74
$GPGSV,2,2,07,29,60,229,45,30,41,295,46,31,32,311,46,,,,*43
$GPGSA,M,3,02,14,25,29,30,31,,,,,,,2.7,1.5,2.2*35
Trace #94 at position 23.250000
$GPZDA,091705.04,08,10,2011,00,00*63
$GPRMC,091705.00,A,4611.965762,N,01258.211952,E,000.9,188.2,081011,0.2,E,A*37
$GPGGA,091706.00,4611.965582,N,01258.211932,E,1,06,1.5,139.47,M,46.25,M,,*69
$GPGLL,4611.965582,N,01258.211932,E,091706.00,A,A*63
$GPVTG,186.9,T,187.1,M,000.6,N,001.2,K,A*2F
$GPGSV,2,1,07,02,37,069,44,12,50,086,35,14,23,246,43,25,79,016,47*74
$GPGSV,2,2,07,29,60,229,45,30,41,295,46,31,32,311,46,,,,*43
$GPGSA,M,3,02,14,25,29,30,31,,,,,,,2.7,1.5,2.2*35
Trace #95 at position 23.500000
$GPZDA,091706.04,08,10,2011,00,00*60
$GPRMC,091706.00,A,4611.965582,N,01258.211932,E,000.6,186.9,081011,0.2,E,A*34
$GPGGA,091707.00,4611.965466,N,01258.212085,E,1,06,1.5,139.50,M,46.25,M,,*63
$GPGLL,4611.965466,N,01258.212085,E,091707.00,A,A*6F
$GPVTG,114.5,T,114.6,M,000.9,N,001.7,K,A*2F
$GPGSV,2,1,07,02,37,069,44,12,50,086,39,14,23,246,42,25,79,016,48*76
$GPGSV,2,2,07,29,60,229,44,30,41,295,45,31,32,311,45,,,,*42
$GPGSA,M,3,02,14,25,29,30,31,,,,,,,2.7,1.5,2.2*35
Trace #96 at position 23.750000
$GPZDA,091707.03,08,10,2011,00,00*66
$GPRMC,091707.00,A,4611.965466,N,01258.212085,E,000.9,114.5,081011,0.2,E,A*30
$GPGGA,091708.00,4611.965270,N,01258.212387,E,1,06,1.5,139.46,M,46.25,M,,*6B
$GPGLL,4611.965270,N,01258.212387,E,091708.00,A,A*60
$GPVTG,147.1,T,147.3,M,001.4,N,002.5,K,A*23
$GPGSV,2,1,07,02,37,069,43,12,50,086,39,14,23,246,43,25,79,016,48*70
$GPGSV,2,2,07,29,60,229,45,30,41,295,46,31,32,311,46,,,,*43
$GPGSA,M,3,02,14,25,29,30,31,,,,,,,2.7,1.5,2.2*35
Trace #97 at position 24.000000
$GPZDA,091707.03,08,10,2011,00,00*66
$GPRMC,091707.00,A,4611.965466,N,01258.212085,E,000.9,114.5,081011,0.2,E,A*30
$GPGGA,091708.00,4611.965270,N,01258.212387,E,1,06,1.5,139.46,M,46.25,M,,*6B
$GPGLL,4611.965270,N,01258.212387,E,091708.00,A,A*60
$GPVTG,147.1,T,147.3,M,001.4,N,002.5,K,A*23
$GPGSV,2,1,07,02,37,069,43,12,50,086,39,14,23,246,43,25,79,016,48*70
$GPGSV,2,2,07,29,60,229,45,30,41,295,46,31,32,311,46,,,,*43
$GPGSA,M,3,02,14,25,29,30,31,,,,,,,2.7,1.5,2.2*35
Trace #98 at position 24.250000
$GPZDA,091708.04,08,10,2011,00,00*6E
$GPRMC,091708.00,A,4611.965270,N,01258.212387,E,001.4,147.1,081011,0.2,E,A*31
$GPGGA,091709.00,4611.965024,N,01258.212539,E,1,06,1.5,139.39,M,46.25,M,,*62
$GPGLL,4611.965024,N,01258.212539,E,091709.00,A,A*61
$GPVTG,170.7,T,170.9,M,000.8,N,001.4,K,A*20
$GPGSV,2,1,07,02,37,069,43,12,50,086,38,14,23,246,42,25,79,016,49*71
$GPGSV,2,2,07,29,60,229,45,30,41,295,46,31,32,311,45,,,,*40
$GPGSA,M,3,02,14,25,29,30,31,,,,,,,2.7,1.5,2.2*35
Trace #99 at position 24.500000
$GPZDA,091708.04,08,10,2011,00,00*6E
$GPRMC,091708.00,A,4611.965270,N,01258.212387,E,001.4,147.1,081011,0.2,E,A*31
$GPGGA,091709.00,4611.965024,N,01258.212539,E,1,06,1.5,139.39,M,46.25,M,,*62
$GPGLL,4611.965024,N,01258.212539,E,091709.00,A,A*61
$GPVTG,170.7,T,170.9,M,000.8,N,001.4,K,A*20
$GPGSV,2,1,07,02,37,069,43,12,50,086,38,14,23,246,42,25,79,016,49*71
$GPGSV,2,2,07,29,60,229,45,30,41,295,46,31,32,311,45,,,,*40
$GPGSA,M,3,02,14,25,29,30,31,,,,,,,2.7,1.5,2.2*35
Trace #100 at position 24.750000
$GPZDA,091710.03,08,10,2011,00,00*60
$GPRMC,091710.00,A,4611.964871,N,01258.212593,E,000.5,151.6,081011,0.2,E,A*31
$GPGGA,091711.00,4611.964760,N,01258.212578,E,1,06,1.5,139.58,M,46.25,M,,*6F
$GPGLL,4611.964760,N,01258.212578,E,091711.00,A,A*6B
$GPVTG,218.3,T,218.5,M,000.5,N,000.8,K,A*28
$GPGSV,2,1,07,02,37,069,44,12,50,086,37,14,23,246,42,25,79,017,48*79
$GPGSV,2,2,07,29,60,229,46,30,41,295,46,31,32,311,45,,,,*43
$GPGSA,M,3,02,14,25,29,30,31,,,,,,,2.7,1.5,2.2*35
Trace #101 at position 25.000000
$GPGGA,091716.00,4611.963862,N,01258.212836,E,1,06,1.5,139.65,M,46.25,M,,*6B
$GPGLL,4611.963862,N,01258.212836,E,091716.00,A,A*61
$GPVTG,106.1,T,106.3,M,000.3,N,000.6,K,A*24
$GPGSV,2,1,07,02,37,069,42,12,50,086,37,14,22,246,44,25,79,017,47*77
$GPGSV,2,2,07,29,60,229,45,30,41,295,47,31,32,311,45,,,,*41
$GPGSA,M,3,02,14,25,29,30,31,,,,,,,2.7,1.5,2.2*35
Trace #102 at position 25.250000
$GPZDA,091716.03,08,10,2011,00,00*66
$GPRMC,091716.00,A,4611.963862,N,01258.212836,E,000.3,106.1$GPGGA,091717.00,4611.963759,N,01258.212978,E,1,07,1.4,139.61,M,46.25,M,,*62
$GPGLL,4611.963759,N,01258.212978,E,091717.00,A,A*6C
$GPVTG,152.6,T,152.7,M,000.7,N,001.3,K,A*27
$GPGSV,2,1,07,02,37,069,43,12,50,086,41,14,22,246,43,25,79,017,47*70
$GPGSV,2,2,07,29,60,229,46,30,41,295,47,31,32,311,47,,,,*40
$GPGSA,M,3,02,12,14,25,29,30,31,,,,,,2.6,1.4,2.2*36
Trace #103 at position 25.500000
$GPZDA,091717.04,08,10,2011,00,00*60
$GPRMC,091717.00,A,4611.963759,N,01258.212978,E,000.7,152.6,081011,0.2,E,A*3C
$GPGGA,091718.00,4611.963681,N,01258.213083,E,1,07,1.4,139.52,M,46.25,M,,*65
$GPGLL,4611.963681,N,01258.213083,E,091718.00,A,A*6B
$GPVTG,51.6,T,51.7,M,000.2,N,000.4,K,A*24
$GPGSV,2,1,07,02,37,068,43,12,50,086,37,14,22,246,39,25,79,017,48*72
$GPGSV,2,2,07,29,61,229,47,30,41,295,46,31,32,311,46,,,,*40
$GPGSA,M,3,02,12,14,25,29,30,31,,,,,,2.6,1.4,2.2*36
Trace #104 at position 25.750000
$GPZDA,091717.04,08,10,2011,00,00*60
$GPRMC,091717.00,A,4611.963759,N,01258.212978,E,000.7,152.6,081011,0.2,E,A*3C
$GPGGA,091718.00,4611.963681,N,01258.213083,E,1,07,1.4,139.52,M,46.25,M,,*65
$GPGLL,4611.963681,N,01258.213083,E,091718.00,A,A*6B
$GPVTG,51.6,T,51.7,M,000.2,N,000.4,K,A*24
$GPGSV,2,1,07,02,37,068,43,12,50,086,37,14,22,246,39,25,79,017,48*72
$GPGSV,2,2,07,29,61,229,47,30,41,295,46,31,32,311,46,,,,*40
$GPGSA,M,3,02,12,14,25,29,30,31,,,,,,2.6,1.4,2.2*36
Trace #105 at position 26.000000
$GPZDA,091717.04,08,10,2011,00,00*60
$GPRMC,091717.00,A,4611.963759,N,01258.212978,E,000.7,152.6,081011,0.2,E,A*3C
$GPGGA,091718.00,4611.963681,N,01258.213083,E,1,07,1.4,139.52,M,46.25,M,,*65
$GPGLL,4611.963681,N,01258.213083,E,091718.00,A,A*6B
$GPVTG,51.6,T,51.7,M,000.2,N,000.4,K,A*24
$GPGSV,2,1,07,02,37,068,43,12,50,086,37,14,22,246,39,25,79,017,48*72
$GPGSV,2,2,07,29,61,229,47,30,41,295,46,31,32,311,46,,,,*40
$GPGSA,M,3,02,12,14,25,29,30,31,,,,,,2.6,1.4,2.2*36
Trace #106 at position 26.250000
$GPZDA,091718.04,08,10,2011,00,00*6F
$GPRMC,091718.00,A,4611.963681,N,01258.213083,E,000.2,51.6,081011,0.2,E,A*0C
$GPGGA,091719.00,4611.963641,N,01258.213125,E,1,06,1.5,139.48,M,46.25,M,,*6E
$GPGLL,4611.963641,N,01258.213125,E,091719.00,A,A*6B
$GPVTG,160.9,T,161.1,M,000.4,N,000.7,K,A*29
$GPGSV,2,1,07,02,37,068,45,12,50,086,27,14,22,246,37,25,79,017,47*74
$GPGSV,2,2,07,29,61,229,46,30,41,295,45,31,32,311,45,,,,*41
$GPGSA,M,3,02,14,25,29,30,31,,,,,,,2.7,1.5,2.2*35
Trace #107 at position 26.500000
$GPZDA,091718.04,08,10,2011,00,00*6F
$GPRMC,091718.00,A,4611.963681,N,01258.213083,E,000.2,51.6,081011,0.2,E,A*0C
$GPGGA,091719.00,4611.963641,N,01258.213125,E,1,06,1.5,139.48,M,46.25,M,,*6E
$GPGLL,4611.963641,N,01258.213125,E,091719.00,A,A*6B
$GPVTG,160.9,T,161.1,M,000.4,N,000.7,K,A*29
$GPGSV,2,1,07,02,37,068,45,12,50,086,27,14,22,246,37,25,79,017,47*74
$GPGSV,2,2,07,29,61,229,46,30,41,295,45,31,32,311,45,,,,*41
$GPGSA,M,3,02,14,25,29,30,31,,,,,,,2.7,1.5,2.2*35
Trace #108 at position 26.750000
$GPZDA,091719.04,08,10,2011,00,00*6E
$GPRMC,091719.00,A,4611.963641,N,01258.213125,E,000.4,160.9,081011,0.2,E,A*36
$GPGGA,091720.00,4611.963599,N,01258.213137,E,1,06,1.5,139.47,M,46.25,M,,*6E
$GPGLL,4611.963599,N,01258.213137,E,091720.00,A,A*64
$GPVTG,21.8,T,21.9,M,000.1,N,000.1,K,A*22
$GPGSV,2,1,07,02,37,068,43,12,50,086,,14,22,246,37,25,79,017,47*77
$GPGSV,2,2,07,29,61,229,47,30,41,295,45,31,32,311,46,,,,*43
$GPGSA,M,3,02,14,25,29,30,31,,,,,,,2.7,1.5,2.2*35
Trace #109 at position 27.000000
$GPZDA,091719.04,08,10,2011,00,00*6E
$GPRMC,091719.00,A,4611.963641,N,01258.213125,E,000.4,160.9,081011,0.2,E,A*36
$GPGGA,091720.00,4611.963599,N,01258.213137,E,1,06,1.5,139.47,M,46.25,M,,*6E
$GPGLL,4611.963599,N,01258.213137,E,091720.00,A,A*64
$GPVTG,21.8,T,21.9,M,000.1,N,000.1,K,A*22
$GPGSV,2,1,07,02,37,068,43,12,50,086,,14,22,246,37,25,79,017,47*77
$GPGSV,2,2,07,29,61,229,47,30,41,295,45,31,32,311,46,,,,*43
$GPGSA,M,3,02,14,25,29,30,31,,,,,,,2.7,1.5,2.2*35
Trace #110 at position 27.250000
$GPZDA,091720.03,08,10,2011,00,00*63
$GPRMC,091720.00,A,4611.963599,N,01258.213137,E,000.1,21.8,081011,0.2,E,A*09
$GPGGA,091721.00,4611.963614,N,01258.213128,E,1,06,1.5,139.45,M,46.25,M,,*65
$GPGLL,4611.963614,N,01258.213128,E,091721.00,A,A*6D
$GPVTG,7.6,T,7.8,M,000.1,N,000.1,K,A*2D
$GPGSV,2,1,07,02,37,068,47,12,50,086,,14,22,246,40,25,79,017,49*7D
$GPGSV,2,2,07,29,61,229,46,30,41,295,46,31,32,311,46,,,,*41
$GPGSA,M,3,02,14,25,29,30,31,,,,,,,2.7,1.5,2.2*35
Trace #111 at position 27.500000
$GPZDA,091720.03,08,10,2011,00,00*63
$GPRMC,091720.00,A,4611.963599,N,01258.213137,E,000.1,21.8,081011,0.2,E,A*09
$GPGGA,091721.00,4611.963614,N,01258.213128,E,1,06,1.5,139.45,M,46.25,M,,*65
$GPGLL,4611.963614,N,01258.213128,E,091721.00,A,A*6D
$GPVTG,7.6,T,7.8,M,000.1,N,000.1,K,A*2D
$GPGSV,2,1,07,02,37,068,47,12,50,086,,14,22,246,40,25,79,017,49*7D
$GPGSV,2,2,07,29,61,229,46,30,41,295,46,31,32,311,46,,,,*41
$GPGSA,M,3,02,14,25,29,30,31,,,,,,,2.7,1.5,2.2*35
Trace #112 at position 27.750000
$GPZDA,091721.03,08,10,2011,00,00*62
$GPRMC,091721.00,A,4611.963614,N,01258.213128,E,000.1,7.6,081011,0.2,E,A*3A
$GPGGA,091722.00,4611.963613,N,01258.213118,E,1,06,1.5,139.44,M,46.25,M,,*63
$GPGLL,4611.963613,N,01258.213118,E,091722.00,A,A*6A
$GPVTG,150.5,T,150.6,M,000.0,N,000.1,K,A*21
$GPGSV,2,1,07,02,37,068,45,12,50,086,,14,22,246,39,25,79,017,49*71
$GPGSV,2,2,07,29,61,229,46,30,41,295,46,31,32,311,45,,,,*42
$GPGSA,M,3,02,14,25,29,30,31,,,,,,,2.7,1.5,2.2*35
Trace #113 at position 28.000000
$GPZDA,091721.03,08,10,2011,00,00*62
$GPRMC,091721.00,A,4611.963614,N,01258.213128,E,000.1,7.6,081011,0.2,E,A*3A
$GPGGA,091722.00,4611.963613,N,01258.213118,E,1,06,1.5,139.44,M,46.25,M,,*63
$GPGLL,4611.963613,N,01258.213118,E,091722.00,A,A*6A
$GPVTG,150.5,T,150.6,M,000.0,N,000.1,K,A*21
$GPGSV,2,1,07,02,37,068,45,12,50,086,,14,22,246,39,25,79,017,49*71
$GPGSV,2,2,07,29,61,229,46,30,41,295,46,31,32,311,45,,,,*42
$GPGSA,M,3,02,14,25,29,30,31,,,,,,,2.7,1.5,2.2*35
Trace #114 at position 28.250000
$GPZDA,091722.03,08,10,2011,00,00*61
$GPRMC,091722.00,A,4611.963613,N,01258.213118,E,000.0,150.5,081011,0.2,E,A*3C
$GPGGA,091723.00,4611.963468,N,01258.213173,E,1,06,1.5,139.46,M,46.25,M,,*63
$GPGLL,4611.963468,N,01258.213173,E,091723.00,A,A*68
$GPVTG,161.9,T,162.0,M,001.1,N,002.0,K,A*2B
$GPGSV,2,1,07,02,37,068,43,12,50,086,,14,22,246,42,25,79,017,48*7A
$GPGSV,2,2,07,29,61,229,45,30,41,295,46,31,32,311,45,,,,*41
$GPGSA,M,3,02,14,25,29,30,31,,,,,,,2.7,1.5,2.2*35
Trace #115 at position 28.500000
$GPZDA,091722.03,08,10,2011,00,00*61
$GPRMC,091722.00,A,4611.963613,N,01258.213118,E,000.0,150.5,081011,0.2,E,A*3C
$GPGGA,091723.00,4611.963468,N,01258.213173,E,1,06,1.5,139.46,M,46.25,M,,*63
$GPGLL,4611.963468,N,01258.213173,E,091723.00,A,A*68
$GPVTG,161.9,T,162.0,M,001.1,N,002.0,K,A*2B
$GPGSV,2,1,07,02,37,068,43,12,50,086,,14,22,246,42,25,79,017,48*7A
$GPGSV,2,2,07,29,61,229,45,30,41,295,46,31,32,311,45,,,,*41
$GPGSA,M,3,02,14,25,29,30,31,,,,,,,2.7,1.5,2.2*35
Trace #116 at position 28.750000
$GPZDA,091723.04,08,10,2011,00,00*67
$GPRMC,091723.00,A,4611.963468,N,01258.213173,E,001.1,161.9,081011,0.2,E,A*30
$GPGGA,091724.00,4611.963143,N,01258.213465,E,1,06,1.5,139.43,M,46.25,M,,*6F
$GPGLL,4611.963143,N,01258.213465,E,091724.00,A,A*61
$GPVTG,136.0,T,136.1,M,001.9,N,003.5,K,A*2C
$GPGSV,2,1,07,02,37,068,42,12,50,086,36,14,22,246,44,25,79,017,47*77
$GPGSV,2,2,07,29,61,229,46,30,41,295,47,31,32,311,46,,,,*40
$GPGSA,M,3,02,14,25,29,30,31,,,,,,,2.7,1.5,2.2*35
Trace #117 at position 29.000000
$GPZDA,091723.04,08,10,2011,00,00*67
$GPRMC,091723.00,A,4611.963468,N,01258.213173,E,001.1,161.9,081011,0.2,E,A*30
$GPGGA,091724.00,4611.963143,N,01258.213465,E,1,06,1.5,139.43,M,46.25,M,,*6F
$GPGLL,4611.963143,N,01258.213465,E,091724.00,A,A*61
