Trace #1 at position 0.000000
$GPZDA,093342.03,08,10,2011,00,00*61
$GPRMC,093342.00,A,4611.976727,N,01258.208204,E,000.0,175.8,081011,0.2,E,A*30
$GPGGA,093343.00,4611.976722,N,01258.208207,E,1,06,1.6,139.86,M,46.25,M,,*6F
$GPGLL,4611.976722,N,01258.208207,E,093343.00,A,A*6B
$GPVTG,176.9,T,177.0,M,000.0,N,000.1,K,A*2A
$GPGSV,2,1,07,02,35,060,40,12,44,093,32,14,17,240,43,25,77,056,44*75
$GPGSV,2,2,07,29,68,236,45,30,48,299,49,31,38,307,48,,,,*4C
$GPGSA,M,3,02,14,25,29,30,31,,,,,,,2.5,1.6,1.9*3C
Trace #2 at position 0.250000
$GPZDA,093351.03,08,10,2011,00,00*63
$GPRMC,093351.00,A,4611.976746,N,01258.208261,E,000.0,97.1,081011,0.2,E,A*02
$GPGGA,093352.00,4611.976745,N,01258.208260,E,1,06,1.6,139.80,M,46.25,M,,*69
$GPGLL,4611.976745,N,01258.208260,E,093352.00,A,A*6B
$GPVTG,232.5,T,232.6,M,000.0,N,000.1,K,A*21
$GPGSV,2,1,07,02,34,060,43,12,44,093,,14,17,240,41,25,77,056,44*74
$GPGSV,2,2,07,29,68,236,43,30,48,299,46,31,38,307,46,,,,*4B
$GPGSA,M,3,02,14,25,29,30,31,,,,,,,2.5,1.6,1.9*3C
Trace #3 at position 0.500000
$GPZDA,093354.04,08,10,2011,00,00*61
$GPRMC,093354.00,A,4611.976715,N,01258.208261,E,000.2,176.9,081011,0.2,E,A*35
$GPGGA,093355.00,4611.976684,N,01258.208259,E,1,06,1.6,139.77,M,46.25,M,,*60
$GPGLL,4611.976684,N,01258.208259,E,093355.00,A,A*6A
$GPVTG,260.1,T,260.3,M,000.0,N,000.0,K,A*21
$GPGSV,2,1,07,02,34,060,41,12,44,093,36,14,17,240,42,25,77,057,44*71
$GPGSV,2,2,07,29,68,236,44,30,48,299,46,31,39,307,46,,,,*4D
$GPGSA,M,3,02,14,25,29,30,31,,,,,,,2.5,1.6,1.9*3C
Trace #4 at position 0.750000
$GPZDA,093355.03,08,10,2011,00,00*67
$GPRMC,093355.00,A,4611.976684,N,01258.208259,E,000.0,260.1,081011,0.2,E,A*38
$GPGGA,093356.00,4611.976702,N,01258.208261,E,1,06,1.6,139.76,M,46.25,M,,*66
$GPGLL,4611.976702,N,01258.208261,E,093356.00,A,A*6D
$GPVTG,16.4,T,16.6,M,000.2,N,000.3,K,A*20
$GPGSV,2,1,07,02,34,060,41,12,44,093,36,14,17,240,43,25,77,057,44*70
$GPGSV,2,2,07,29,68,236,46,30,48,299,46,31,39,307,45,,,,*4C
$GPGSA,M,3,02,14,25,29,30,31,,,,,,,2.5,1.6,1.9*3C
Trace #5 at position 1.000000
$GPZDA,093356.03,08,10,2011,00,00*64
$GPRMC,093356.00,A,4611.976702,N,01258.208261,E,000.2,16.4,081011,0.2,E,A*0B
$GPGGA,093357.00,4611.976707,N,01258.208279,E,1,06,1.6,139.81,M,46.25,M,,*63
$GPGLL,4611.976707,N,01258.208279,E,093357.00,A,A*60
$GPVTG,136.1,T,136.3,M,000.1,N,000.2,K,A*22
$GPGSV,2,1,07,02,34,060,42,12,44,093,37,14,17,240,42,25,77,057,44*73
$GPGSV,2,2,07,29,68,236,45,30,48,299,46,31,39,307,45,,,,*4F
$GPGSA,M,3,02,14,25,29,30,31,,,,,,,2.5,1.6,1.9*3C
Trace #6 at position 1.250000
$GPZDA,093356.03,08,10,2011,00,00*64
$GPRMC,093356.00,A,4611.976702,N,01258.208261,E,000.2,16.4,081011,0.2,E,A*0B
$GPGGA,093357.00,4611.976707,N,01258.208279,E,1,06,1.6,139.81,M,46.25,M,,*63
$GPGLL,4611.976707,N,01258.208279,E,093357.00,A,A*60
$GPVTG,136.1,T,136.3,M,000.1,N,000.2,K,A*22
$GPGSV,2,1,07,02,34,060,42,12,44,093,37,14,17,240,42,25,77,057,44*73
$GPGSV,2,2,07,29,68,236,45,30,48,299,46,31,39,307,45,,,,*4F
$GPGSA,M,3,02,14,25,29,30,31,,,,,,,2.5,1.6,1.9*3C
Trace #7 at position 1.500000
$GPZDA,093357.03,08,10,2011,00,00*65
$GPRMC,093357.00,A,4611.976707,N,01258.208279,E,000.1,136.1,081011,0.2,E,A*33
$GPGGA,093358.00,4611.976660,N,01258.208305,E,1,06,1.6,139.81,M,46.25,M,,*66
$GPGLL,4611.976660,N,01258.208305,E,093358.00,A,A*65
$GPVTG,165.9,T,166.1,M,000.2,N,000.4,K,A*2E
$GPGSV,2,1,07,02,34,060,43,12,44,093,36,14,17,240,42,25,77,057,45*72
$GPGSV,2,2,07,29,68,236,45,30,48,299,46,31,39,307,46,,,,*4C
$GPGSA,M,3,02,14,25,29,30,31,,,,,,,2.5,1.6,1.9*3C
Trace #8 at position 1.750000
$GPZDA,093358.04,08,10,2011,00,00*6D
$GPRMC,093358.00,A,4611.976660,N,01258.208305,E,000.2,165.9,081011,0.2,E,A*3B
$GPGGA,093359.00,4611.976616,N,01258.208316,E,1,06,1.6,139.80,M,46.25,M,,*65
$GPGLL,4611.976616,N,01258.208316,E,093359.00,A,A*67
$GPVTG,174.9,T,175.1,M,000.1,N,000.1,K,A*2A
$GPGSV,2,1,07,02,34,060,43,12,44,093,38,14,17,240,42,25,77,057,43*7A
$GPGSV,2,2,07,29,68,236,44,30,48,299,45,31,39,307,46,,,,*4E
$GPGSA,M,3,02,14,25,29,30,31,,,,,,,2.5,1.6,1.9*3C
Trace #9 at position 2.000000
$GPZDA,093359.03,08,10,2011,00,00*6B
$GPRMC,093359.00,A,4611.976616,N,01258.208316,E,000.1,174.9,081011,0.2,E,A*3A
$GPGGA,093400.00,4611.976485,N,01258.208415,E,1,06,1.6,139.75,M,46.25,M,,*68
$GPGLL,4611.976485,N,01258.208415,E,093400.00,A,A*60
$GPVTG,148.7,T,148.8,M,001.0,N,001.9,K,A*25
$GPGSV,2,1,07,02,34,060,42,12,44,093,35,14,17,240,41,25,77,057,42*74
$GPGSV,2,2,07,29,68,236,44,30,48,299,45,31,39,307,45,,,,*4D
$GPGSA,M,3,02,14,25,29,30,31,,,,,,,2.5,1.6,1.9*3C
Trace #10 at position 2.250000
$GPZDA,093400.03,08,10,2011,00,00*60
$GPRMC,093400.00,A,4611.976485,N,01258.208415,E,001.0,148.7,081011,0.2,E,A*3C
$GPGGA,093401.00,4611.976366,N,01258.208494,E,1,06,1.6,139.75,M,46.25,M,,*6A
$GPGLL,4611.976366,N,01258.208494,E,093401.00,A,A*62
$GPVTG,215.9,T,216.1,M,000.1,N,000.1,K,A*28
$GPGSV,2,1,07,02,34,060,42,12,44,093,38,14,17,240,41,25,77,057,44*7F
$GPGSV,2,2,07,29,68,236,45,30,48,299,45,31,39,307,43,,,,*4A
$GPGSA,M,3,02,14,25,29,30,31,,,,,,,2.5,1.6,1.9*3C
Trace #11 at position 2.500000
$GPZDA,093401.03,08,10,2011,00,00*61
$GPRMC,093401.00,A,4611.976366,N,01258.208494,E,000.1,215.9,081011,0.2,E,A*3B
$GPGGA,093402.00,4611.976255,N,01258.208476,E,1,06,1.6,139.77,M,46.25,M,,*66
$GPGLL,4611.976255,N,01258.208476,E,093402.00,A,A*6C
$GPVTG,179.8,T,179.9,M,000.7,N,001.4,K,A*20
$GPGSV,2,1,07,02,34,060,41,12,44,093,35,14,17,240,41,25,77,057,44*71
$GPGSV,2,2,07,29,68,236,44,30,48,299,45,31,39,307,44,,,,*4C
$GPGSA,M,3,02,14,25,29,30,31,,,,,,,2.5,1.6,1.9*3C
Trace #12 at position 2.750000
$GPZDA,093403.04,08,10,2011,00,00*64
$GPRMC,093403.00,A,4611.976081,N,01258.208461,E,000.6,173.2,081011,0.2,E,A*36
$GPGGA,093404.00,4611.975955,N,01258.208462,E,1,07,1.4,139.81,M,46.25,M,,*67
$GPGLL,4611.975955,N,01258.208462,E,093404.00,A,A*67
$GPVTG,177.7,T,177.8,M,000.4,N,000.7,K,A*2F
$GPGSV,2,1,07,02,34,060,41,12,44,093,39,14,17,240,42,25,77,057,43*79
$GPGSV,2,2,07,29,68,236,45,30,48,299,45,31,39,307,44,,,,*4D
$GPGSA,M,3,02,12,14,25,29,30,31,,,,,,2.3,1.4,1.9*3B
Trace #13 at position 3.000000
$GPZDA,093404.03,08,10,2011,00,00*64
$GPRMC,093404.00,A,4611.975955,N,01258.208462,E,000.4,177.7,081011,0.2,E,A*32
$GPGGA,093405.00,4611.975815,N,01258.208494,E,1,07,1.4,139.80,M,46.25,M,,*6B
$GPGLL,4611.975815,N,01258.208494,E,093405.00,A,A*6A
$GPVTG,163.6,T,163.8,M,000.7,N,001.3,K,A*28
$GPGSV,2,1,07,02,34,060,42,12,44,093,38,14,17,240,42,25,77,057,44*7C
$GPGSV,2,2,07,29,68,236,45,30,48,299,45,31,39,307,44,,,,*4D
$GPGSA,M,3,02,12,14,25,29,30,31,,,,,,2.3,1.4,1.9*3B
Trace #14 at position 3.250000
$GPZDA,093406.04,08,10,2011,00,00*61
$GPRMC,093406.00,A,4611.975640,N,01258.208554,E,000.7,168.3,081011,0.2,E,A*36
$GPGGA,093407.00,4611.975522,N,01258.208605,E,1,07,1.4,139.86,M,46.25,M,,*6C
$GPGLL,4611.975522,N,01258.208605,E,093407.00,A,A*6B
$GPVTG,151.9,T,152.0,M,000.3,N,000.6,K,A*2C
$GPGSV,2,1,07,02,34,060,41,12,44,093,38,14,17,240,43,25,77,057,43*79
$GPGSV,2,2,07,29,68,236,45,30,48,299,45,31,39,307,45,,,,*4C
$GPGSA,M,3,02,12,14,25,29,30,31,,,,,,2.3,1.4,1.9*3B
Trace #15 at position 3.500000
$GPZDA,093406.04,08,10,2011,00,00*61
$GPRMC,093406.00,A,4611.975640,N,01258.208554,E,000.7,168.3,081011,0.2,E,A*36
$GPGGA,093407.00,4611.975522,N,01258.208605,E,1,07,1.4,139.86,M,46.25,M,,*6C
$GPGLL,4611.975522,N,01258.208605,E,093407.00,A,A*6B
$GPVTG,151.9,T,152.0,M,000.3,N,000.6,K,A*2C
$GPGSV,2,1,07,02,34,060,41,12,44,093,38,14,17,240,43,25,77,057,43*79
$GPGSV,2,2,07,29,68,236,45,30,48,299,45,31,39,307,45,,,,*4C
$GPGSA,M,3,02,12,14,25,29,30,31,,,,,,2.3,1.4,1.9*3B
Trace #16 at position 3.750000
$GPZDA,093407.03,08,10,2011,00,00*67
$GPRMC,093407.00,A,4611.975522,N,01258.208605,E,000.3,151.9,081011,0.2,E,A*33
$GPGGA,093408.00,4611.975521,N,01258.208667,E,1,07,1.4,139.96,M,46.25,M,,*65
$GPGLL,4611.975521,N,01258.208667,E,093408.00,A,A*63
$GPVTG,37.7,T,37.8,M,000.3,N,000.6,K,A*29
$GPGSV,2,1,07,02,34,060,41,12,44,093,39,14,17,240,43,25,77,057,44*7F
$GPGSV,2,2,07,29,68,236,44,30,48,299,45,31,39,307,44,,,,*4C
$GPGSA,M,3,02,12,14,25,29,30,31,,,,,,2.3,1.4,1.9*3B
Trace #17 at position 4.000000
$GPZDA,093408.04,08,10,2011,00,00*6F
$GPRMC,093408.00,A,4611.975521,N,01258.208667,E,000.3,37.7,081011,0.2,E,A*04
$GPGGA,093409.00,4611.975519,N,01258.208691,E,1,07,1.4,140.06,M,46.25,M,,*61
$GPGLL,4611.975519,N,01258.208691,E,093409.00,A,A*60
$GPVTG,190.6,T,190.8,M,000.2,N,000.4,K,A*2B
$GPGSV,2,1,07,02,34,060,41,12,44,093,39,14,17,240,43,25,77,057,44*7F
$GPGSV,2,2,07,29,68,236,44,30,48,299,46,31,39,307,44,,,,*4F
$GPGSA,M,3,02,12,14,25,29,30,31,,,,,,2.3,1.4,1.9*3B
Trace #18 at position 4.250000
$GPZDA,093409.04,08,10,2011,00,00*6E
$GPRMC,093409.00,A,4611.975519,N,01258.208691,E,000.2,190.6,081011,0.2,E,A*3B
$GPGGA,093410.00,4611.975454,N,01258.208698,E,1,07,1.4,140.12,M,46.25,M,,*6D
$GPGLL,4611.975454,N,01258.208698,E,093410.00,A,A*69
$GPVTG,154.6,T,154.8,M,000.2,N,000.3,K,A*2C
$GPGSV,2,1,07,02,34,060,42,12,44,093,39,14,17,240,43,25,77,057,43*7B
$GPGSV,2,2,07,29,68,236,45,30,48,299,45,31,39,307,45,,,,*4C
$GPGSA,M,3,02,12,14,25,29,30,31,,,,,,2.3,1.4,1.9*3B
Trace #19 at position 4.500000
$GPZDA,093411.03,08,10,2011,00,00*60
$GPRMC,093411.00,A,4611.975476,N,01258.208671,E,000.6,335.3,081011,0.2,E,A*38
$GPGGA,093412.00,4611.975422,N,01258.208667,E,1,07,1.4,140.17,M,46.25,M,,*6B
$GPGLL,4611.975422,N,01258.208667,E,093412.00,A,A*6A
$GPVTG,165.8,T,165.9,M,000.7,N,001.3,K,A*27
$GPGSV,2,1,07,02,34,060,41,12,44,093,38,14,17,240,42,25,77,057,43*78
$GPGSV,2,2,07,29,68,236,45,30,48,299,45,31,39,307,44,,,,*4D
$GPGSA,M,3,02,12,14,25,29,30,31,,,,,,2.3,1.4,1.9*3B
Trace #20 at position 4.750000
$GPZDA,093412.03,08,10,2011,00,00*63
$GPRMC,093412.00,A,4611.975422,N,01258.208667,E,000.7,165.8,081011,0.2,E,A*30
$GPGGA,093413.00,4611.975211,N,01258.208717,E,1,07,1.4,140.14,M,46.25,M,,*69
$GPGLL,4611.975211,N,01258.208717,E,093413.00,A,A*6B
$GPVTG,181.0,T,181.1,M,000.6,N,001.1,K,A*24
$GPGSV,2,1,07,02,34,060,41,12,44,093,37,14,17,240,42,25,77,057,44*70
$GPGSV,2,2,07,29,68,236,45,30,48,299,45,31,39,307,44,,,,*4D
$GPGSA,M,3,02,12,14,25,29,30,31,,,,,,2.3,1.4,1.9*3B
Trace #21 at position 5.000000
$GPZDA,093412.03,08,10,2011,00,00*63
$GPRMC,093412.00,A,4611.975422,N,01258.208667,E,000.7,165.8,081011,0.2,E,A*30
$GPGGA,093413.00,4611.975211,N,01258.208717,E,1,07,1.4,140.14,M,46.25,M,,*69
$GPGLL,4611.975211,N,01258.208717,E,093413.00,A,A*6B
$GPVTG,181.0,T,181.1,M,000.6,N,001.1,K,A*24
$GPGSV,2,1,07,02,34,060,41,12,44,093,37,14,17,240,42,25,77,057,44*70
$GPGSV,2,2,07,29,68,236,45,30,48,299,45,31,39,307,44,,,,*4D
$GPGSA,M,3,02,12,14,25,29,30,31,,,,,,2.3,1.4,1.9*3B
Trace #22 at position 5.250000
$GPZDA,093413.04,08,10,2011,00,00*65
$GPRMC,093413.00,A,4611.975211,N,01258.208717,E,000.6,181.0,081011,0.2,E,A*32
$GPGGA,093414.00,4611.975008,N,01258.208729,E,1,07,1.4,140.07,M,46.25,M,,*6B
$GPGLL,4611.975008,N,01258.208729,E,093414.00,A,A*6B
$GPVTG,182.6,T,182.8,M,000.7,N,001.3,K,A*28
$GPGSV,2,1,07,02,34,060,42,12,44,093,37,14,17,240,43,25,77,057,45*73
$GPGSV,2,2,07,29,68,236,46,30,48,299,45,31,39,307,44,,,,*4E
$GPGSA,M,3,02,12,14,25,29,30,31,,,,,,2.3,1.4,1.9*3B
Trace #23 at position 5.500000
$GPZDA,093414.03,08,10,2011,00,00*65
$GPRMC,093414.00,A,4611.975008,N,01258.208729,E,000.7,182.6,081011,0.2,E,A*36
$GPGGA,093415.00,4611.974898,N,01258.208712,E,1,07,1.4,140.08,M,46.25,M,,*6D
$GPGLL,4611.974898,N,01258.208712,E,093415.00,A,A*62
$GPVTG,294.7,T,294.9,M,000.2,N,000.4,K,A*2B
$GPGSV,2,1,07,02,34,060,38,12,44,093,38,14,17,240,43,25,77,057,43*77
$GPGSV,2,2,07,29,68,236,44,30,48,299,46,31,39,307,44,,,,*4F
$GPGSA,M,3,02,12,14,25,29,30,31,,,,,,2.3,1.4,1.9*3B
Trace #24 at position 5.750000
$GPZDA,093414.03,08,10,2011,00,00*65
$GPRMC,093414.00,A,4611.975008,N,01258.208729,E,000.7,182.6,081011,0.2,E,A*36
$GPGGA,093415.00,4611.974898,N,01258.208712,E,1,07,1.4,140.08,M,46.25,M,,*6D
$GPGLL,4611.974898,N,01258.208712,E,093415.00,A,A*62
$GPVTG,294.7,T,294.9,M,000.2,N,000.4,K,A*2B
$GPGSV,2,1,07,02,34,060,38,12,44,093,38,14,17,240,43,25,77,057,43*77
$GPGSV,2,2,07,29,68,236,44,30,48,299,46,31,39,307,44,,,,*4F
$GPGSA,M,3,02,12,14,25,29,30,31,,,,,,2.3,1.4,1.9*3B
Trace #25 at position 6.000000
$GPZDA,093415.04,08,10,2011,00,00*63
$GPRMC,093415.00,A,4611.974898,N,01258.208712,E,000.2,294.7,081011,0.2,E,A*3F
$GPGGA,093416.00,4611.974834,N,01258.208794,E,1,06,1.6,140.16,M,46.25,M,,*6A
$GPGLL,4611.974834,N,01258.208794,E,093416.00,A,A*69
$GPVTG,124.9,T,125.1,M,000.4,N,000.7,K,A*29
$GPGSV,2,1,07,02,34,060,43,12,44,093,36,14,17,240,42,25,77,057,43*74
$GPGSV,2,2,07,29,68,236,45,30,48,299,45,31,39,307,44,,,,*4D
$GPGSA,M,3,02,14,25,29,30,31,,,,,,,2.5,1.6,1.9*3C
Trace #26 at position 6.250000
$GPZDA,093416.03,08,10,2011,00,00*67
$GPRMC,093416.00,A,4611.974834,N,01258.208794,E,000.4,124.9,081011,0.2,E,A*34
$GPGGA,093417.00,4611.974765,N,01258.208894,E,1,06,1.6,140.20,M,46.25,M,,*6A
$GPGLL,4611.974765,N,01258.208894,E,093417.00,A,A*6C
$GPVTG,335.3,T,335.5,M,000.1,N,000.1,K,A*25
$GPGSV,2,1,07,02,34,060,42,12,44,093,34,14,17,240,42,25,77,057,43*77
$GPGSV,2,2,07,29,68,236,45,30,48,299,45,31,39,307,44,,,,*4D
$GPGSA,M,3,02,14,25,29,30,31,,,,,,,2.5,1.6,1.9*3C
Trace #27 at position 6.500000
$GPZDA,093417.03,08,10,2011,00,00*66
$GPRMC,093417.00,A,4611.974765,N,01258.208894,E,000.1,335.3,081011,0.2,E,A*3C
$GPGGA,093418.00,4611.974586,N,01258.209029,E,1,06,1.6,140.18,M,46.25,M,,*6E
$GPGLL,4611.974586,N,01258.209029,E,093418.00,A,A*63
$GPVTG,153.4,T,153.5,M,001.1,N,002.1,K,A*21
$GPGSV,2,1,07,02,34,060,42,12,44,093,35,14,17,240,42,25,77,057,44*71
$GPGSV,2,2,07,29,68,236,44,30,48,299,45,31,39,307,44,,,,*4C
$GPGSA,M,3,02,14,25,29,30,31,,,,,,,2.5,1.6,1.9*3C
Trace #28 at position 6.750000
$GPZDA,093417.03,08,10,2011,00,00*66
$GPRMC,093417.00,A,4611.974765,N,01258.208894,E,000.1,335.3,081011,0.2,E,A*3C
$GPGGA,093418.00,4611.974586,N,01258.209029,E,1,06,1.6,140.18,M,46.25,M,,*6E
$GPGLL,4611.974586,N,01258.209029,E,093418.00,A,A*63
$GPVTG,153.4,T,153.5,M,001.1,N,002.1,K,A*21
$GPGSV,2,1,07,02,34,060,42,12,44,093,35,14,17,240,42,25,77,057,44*71
$GPGSV,2,2,07,29,68,236,44,30,48,299,45,31,39,307,44,,,,*4C
$GPGSA,M,3,02,14,25,29,30,31,,,,,,,2.5,1.6,1.9*3C
Trace #29 at position 7.000000
$GPZDA,093418.04,08,10,2011,00,00*6E
$GPRMC,093418.00,A,4611.974586,N,01258.209029,E,001.1,153.4,081011,0.2,E,A*37
$GPGGA,093419.00,4611.974335,N,01258.209254,E,1,06,1.6,140.23,M,46.25,M,,*61
$GPGLL,4611.974335,N,01258.209254,E,093419.00,A,A*64
$GPVTG,134.6,T,134.7,M,000.8,N,001.4,K,A*2F
$GPGSV,2,1,07,02,34,060,41,12,44,093,34,14,17,240,42,25,77,057,43*74
$GPGSV,2,2,07,29,68,236,43,30,48,299,45,31,39,307,44,,,,*4B
$GPGSA,M,3,02,14,25,29,30,31,,,,,,,2.5,1.6,1.9*3C
Trace #30 at position 7.250000
$GPZDA,093419.03,08,10,2011,00,00*68
$GPRMC,093419.00,A,4611.974335,N,01258.209254,E,000.8,134.6,081011,0.2,E,A*3B
$GPGGA,093420.00,4611.974140,N,01258.209315,E,1,06,1.6,140.26,M,46.25,M,,*6A
$GPGLL,4611.974140,N,01258.209315,E,093420.00,A,A*6A
$GPVTG,205.2,T,205.4,M,000.7,N,001.3,K,A*20
$GPGSV,2,1,07,02,34,060,42,12,44,093,35,14,17,240,41,25,77,057,43*75
$GPGSV,2,2,07,29,68,236,44,30,49,299,45,31,39,307,44,,,,*4D
$GPGSA,M,3,02,14,25,29,30,31,,,,,,,2.5,1.6,1.9*3C
Trace #31 at position 7.500000
$GPZDA,093419.03,08,10,2011,00,00*68
$GPRMC,093419.00,A,4611.974335,N,01258.209254,E,000.8,134.6,081011,0.2,E,A*3B
$GPGGA,093420.00,4611.974140,N,01258.209315,E,1,06,1.6,140.26,M,46.25,M,,*6A
$GPGLL,4611.974140,N,01258.209315,E,093420.00,A,A*6A
$GPVTG,205.2,T,205.4,M,000.7,N,001.3,K,A*20
$GPGSV,2,1,07,02,34,060,42,12,44,093,35,14,17,240,41,25,77,057,43*75
$GPGSV,2,2,07,29,68,236,44,30,49,299,45,31,39,307,44,,,,*4D
$GPGSA,M,3,02,14,25,29,30,31,,,,,,,2.5,1.6,1.9*3C
Trace #32 at position 7.750000
$GPZDA,093420.03,08,10,2011,00,00*62
$GPRMC,093420.00,A,4611.974140,N,01258.209315,E,000.7,205.2,081011,0.2,E,A*3F
$GPGGA,093421.00,4611.973905,N,01258.209308,E,1,06,1.6,140.21,M,46.25,M,,*6E
$GPGLL,4611.973905,N,01258.209308,E,093421.00,A,A*69
$GPVTG,170.5,T,170.7,M,000.9,N,001.6,K,A*2F
$GPGSV,2,1,07,02,34,060,42,12,44,093,38,14,17,240,42,25,77,057,43*7B
$GPGSV,2,2,07,29,68,236,45,30,49,299,45,31,39,307,44,,,,*4C
$GPGSA,M,3,02,14,25,29,30,31,,,,,,,2.5,1.6,1.9*3C
Trace #33 at position 8.000000
$GPZDA,093421.03,08,10,2011,00,00*63
$GPRMC,093421.00,A,4611.973905,N,01258.209308,E,000.9,170.5,081011,0.2,E,A*34
$GPGGA,093422.00,4611.973662,N,01258.209433,E,1,06,1.6,140.16,M,46.25,M,,*68
$GPGLL,4611.973662,N,01258.209433,E,093422.00,A,A*6B
$GPVTG,155.6,T,155.7,M,000.8,N,001.6,K,A*2D
$GPGSV,2,1,07,02,34,060,42,12,44,093,38,14,17,240,42,25,77,057,43*7B
$GPGSV,2,2,07,29,68,236,45,30,49,299,45,31,39,307,45,,,,*4D
$GPGSA,M,3,02,14,25,29,30,31,,,,,,,2.5,1.6,1.9*3C
Trace #34 at position 8.250000
$GPZDA,093421.03,08,10,2011,00,00*63
$GPRMC,093421.00,A,4611.973905,N,01258.209308,E,000.9,170.5,081011,0.2,E,A*34
$GPGGA,093422.00,4611.973662,N,01258.209433,E,1,06,1.6,140.16,M,46.25,M,,*68
$GPGLL,4611.973662,N,01258.209433,E,093422.00,A,A*6B
$GPVTG,155.6,T,155.7,M,000.8,N,001.6,K,A*2D
$GPGSV,2,1,07,02,34,060,42,12,44,093,38,14,17,240,42,25,77,057,43*7B
$GPGSV,2,2,07,29,68,236,45,30,49,299,45,31,39,307,45,,,,*4D
$GPGSA,M,3,02,14,25,29,30,31,,,,,,,2.5,1.6,1.9*3C
Trace #35 at position 8.500000
$GPZDA,093422.03,08,10,2011,00,00*60
$GPRMC,093422.00,A,4611.973662,N,01258.209433,E,000.8,155.6,081011,0.2,E,A*33
$GPGGA,093423.00,4611.973429,N,01258.209565,E,1,06,1.6,140.13,M,46.25,M,,*63
$GPGLL,4611.973429,N,01258.209565,E,093423.00,A,A*65
$GPVTG,165.6,T,165.8,M,000.9,N,001.6,K,A*23
$GPGSV,2,1,07,02,34,060,43,12,44,093,38,14,17,240,42,25,77,057,43*7A
$GPGSV,2,2,07,29,68,236,45,30,49,299,45,31,39,307,45,,,,*4D
$GPGSA,M,3,02,14,25,29,30,31,,,,,,,2.5,1.6,1.9*3C
Trace #36 at position 8.750000
$GPZDA,093423.04,08,10,2011,00,00*66
$GPRMC,093423.00,A,4611.973429,N,01258.209565,E,000.9,165.6,081011,0.2,E,A*3F
$GPGGA,093424.00,4611.973245,N,01258.209697,E,1,06,1.6,140.13,M,46.25,M,,*66
$GPGLL,4611.973245,N,01258.209697,E,093424.00,A,A*60
$GPVTG,135.8,T,136.0,M,000.5,N,001.0,K,A*2C
$GPGSV,2,1,07,02,34,060,42,12,44,093,36,14,17,240,43,25,77,057,44*73
$GPGSV,2,2,07,29,68,236,44,30,49,299,46,31,39,307,45,,,,*4F
$GPGSA,M,3,02,14,25,29,30,31,,,,,,,2.5,1.6,1.9*3C
Trace #37 at position 9.000000
$GPZDA,093423.04,08,10,2011,00,00*66
$GPRMC,093423.00,A,4611.973429,N,01258.209565,E,000.9,165.6,081011,0.2,E,A*3F
$GPGGA,093424.00,4611.973245,N,01258.209697,E,1,06,1.6,140.13,M,46.25,M,,*66
$GPGLL,4611.973245,N,01258.209697,E,093424.00,A,A*60
$GPVTG,135.8,T,136.0,M,000.5,N,001.0,K,A*2C
$GPGSV,2,1,07,02,34,060,42,12,44,093,36,14,17,240,43,25,77,057,44*73
$GPGSV,2,2,07,29,68,236,44,30,49,299,46,31,39,307,45,,,,*4F
$GPGSA,M,3,02,14,25,29,30,31,,,,,,,2.5,1.6,1.9*3C
Trace #38 at position 9.250000
$GPZDA,093424.03,08,10,2011,00,00*66
$GPRMC,093424.00,A,4611.973245,N,01258.209697,E,000.5,135.8,081011,0.2,E,A*3D
$GPGGA,093425.00,4611.973039,N,01258.209815,E,1,06,1.6,140.10,M,46.25,M,,*69
$GPGLL,4611.973039,N,01258.209815,E,093425.00,A,A*6C
$GPVTG,171.1,T,171.3,M,001.0,N,001.9,K,A*28
$GPGSV,2,1,07,02,34,060,42,12,44,093,38,14,17,240,42,25,77,057,44*7C
$GPGSV,2,2,07,29,68,236,45,30,49,299,45,31,39,307,45,,,,*4D
$GPGSA,M,3,02,14,25,29,30,31,,,,,,,2.5,1.6,1.9*3C
Trace #39 at position 9.500000
$GPZDA,093424.03,08,10,2011,00,00*66
$GPRMC,093424.00,A,4611.973245,N,01258.209697,E,000.5,135.8,081011,0.2,E,A*3D
$GPGGA,093425.00,4611.973039,N,01258.209815,E,1,06,1.6,140.10,M,46.25,M,,*69
$GPGLL,4611.973039,N,01258.209815,E,093425.00,A,A*6C
$GPVTG,171.1,T,171.3,M,001.0,N,001.9,K,A*28
$GPGSV,2,1,07,02,34,060,42,12,44,093,38,14,17,240,42,25,77,057,44*7C
$GPGSV,2,2,07,29,68,236,45,30,49,299,45,31,39,307,45,,,,*4D
$GPGSA,M,3,02,14,25,29,30,31,,,,,,,2.5,1.6,1.9*3C
Trace #40 at position 9.750000
$GPZDA,093425.03,08,10,2011,00,00*67
$GPRMC,093425.00,A,4611.973039,N,01258.209815,E,001.0,171.1,081011,0.2,E,A*3C
$GPGGA,093426.00,4611.972791,N,01258.209900,E,1,07,1.4,140.05,M,46.25,M,,*6C
$GPGLL,4611.972791,N,01258.209900,E,093426.00,A,A*6E
$GPVTG,159.6,T,159.8,M,000.9,N,001.6,K,A*23
$GPGSV,2,1,07,02,34,060,43,12,44,093,39,14,17,240,42,25,77,058,44*73
$GPGSV,2,2,07,29,68,236,45,30,49,299,46,31,39,307,45,,,,*4E
$GPGSA,M,3,02,12,14,25,29,30,31,,,,,,2.3,1.4,1.9*3B
Trace #41 at position 10.000000
$GPZDA,093425.03,08,10,2011,00,00*67
$GPRMC,093425.00,A,4611.973039,N,01258.209815,E,001.0,171.1,081011,0.2,E,A*3C
$GPGGA,093426.00,4611.972791,N,01258.209900,E,1,07,1.4,140.05,M,46.25,M,,*6C
$GPGLL,4611.972791,N,01258.209900,E,093426.00,A,A*6E
$GPVTG,159.6,T,159.8,M,000.9,N,001.6,K,A*23
$GPGSV,2,1,07,02,34,060,43,12,44,093,39,14,17,240,42,25,77,058,44*73
$GPGSV,2,2,07,29,68,236,45,30,49,299,46,31,39,307,45,,,,*4E
$GPGSA,M,3,02,12,14,25,29,30,31,,,,,,2.3,1.4,1.9*3B
Trace #42 at position 10.250000
$GPZDA,093426.04,08,10,2011,00,00*63
$GPRMC,093426.00,A,4611.972791,N,01258.209900,E,000.9,159.6,081011,0.2,E,A*3B
$GPGGA,093427.00,4611.972635,N,01258.209987,E,1,07,1.4,140.00,M,46.25,M,,*68
$GPGLL,4611.972635,N,01258.209987,E,093427.00,A,A*6F
$GPVTG,145.4,T,145.5,M,000.4,N,000.8,K,A*2E
$GPGSV,2,1,07,02,34,060,40,12,44,093,37,14,17,240,42,25,77,058,43*79
$GPGSV,2,2,07,29,68,236,44,30,49,299,46,31,39,307,45,,,,*4F
$GPGSA,M,3,02,12,14,25,29,30,31,,,,,,2.3,1.4,1.9*3B
Trace #43 at position 10.500000
$GPZDA,093426.04,08,10,2011,00,00*63
$GPRMC,093426.00,A,4611.972791,N,01258.209900,E,000.9,159.6,081011,0.2,E,A*3B
$GPGGA,093427.00,4611.972635,N,01258.209987,E,1,07,1.4,140.00,M,46.25,M,,*68
$GPGLL,4611.972635,N,01258.209987,E,093427.00,A,A*6F
$GPVTG,145.4,T,145.5,M,000.4,N,000.8,K,A*2E
$GPGSV,2,1,07,02,34,060,40,12,44,093,37,14,17,240,42,25,77,058,43*79
$GPGSV,2,2,07,29,68,236,44,30,49,299,46,31,39,307,45,,,,*4F
$GPGSA,M,3,02,12,14,25,29,30,31,,,,,,2.3,1.4,1.9*3B
Trace #44 at position 10.750000
$GPZDA,093427.04,08,10,2011,00,00*62
$GPRMC,093427.00,A,4611.972635,N,01258.209987,E,000.4,145.4,081011,0.2,E,A*38
$GPGGA,093428.00,4611.972441,N,01258.210029,E,1,07,1.4,140.02,M,46.25,M,,*61
$GPGLL,4611.972441,N,01258.210029,E,093428.00,A,A*64
$GPVTG,178.6,T,178.8,M,001.1,N,002.1,K,A*2E
$GPGSV,2,1,07,02,34,060,43,12,44,093,38,14,17,240,42,25,77,058,43*75
$GPGSV,2,2,07,29,68,236,45,30,49,299,45,31,39,307,45,,,,*4D
$GPGSA,M,3,02,12,14,25,29,30,31,,,,,,2.3,1.4,1.9*3B
Trace #45 at position 11.000000
$GPZDA,093427.04,08,10,2011,00,00*62
$GPRMC,093427.00,A,4611.972635,N,01258.209987,E,000.4,145.4,081011,0.2,E,A*38
$GPGGA,093428.00,4611.972441,N,01258.210029,E,1,07,1.4,140.02,M,46.25,M,,*61
$GPGLL,4611.972441,N,01258.210029,E,093428.00,A,A*64
$GPVTG,178.6,T,178.8,M,001.1,N,002.1,K,A*2E
$GPGSV,2,1,07,02,34,060,43,12,44,093,38,14,17,240,42,25,77,058,43*75
$GPGSV,2,2,07,29,68,236,45,30,49,299,45,31,39,307,45,,,,*4D
$GPGSA,M,3,02,12,14,25,29,30,31,,,,,,2.3,1.4,1.9*3B
Trace #46 at position 11.250000
$GPZDA,093428.04,08,10,2011,00,00*6D
$GPRMC,093428.00,A,4611.972441,N,01258.210029,E,001.1,178.6,081011,0.2,E,A*3B
$GPGGA,093429.00,4611.972158,N,01258.210072,E,1,07,1.4,140.03,M,46.25,M,,*62
$GPGLL,4611.972158,N,01258.210072,E,093429.00,A,A*66
$GPVTG,167.8,T,167.9,M,001.1,N,002.0,K,A*20
$GPGSV,2,1,07,02,34,060,43,12,44,093,39,14,17,240,40,25,77,058,44*71
$GPGSV,2,2,07,29,68,236,44,30,49,299,45,31,39,307,46,,,,*4F
$GPGSA,M,3,02,12,14,25,29,30,31,,,,,,2.3,1.4,1.9*3B
Trace #47 at position 11.500000
$GPZDA,093429.04,08,10,2011,00,00*6C
$GPRMC,093429.00,A,4611.972158,N,01258.210072,E,001.1,167.8,081011,0.2,E,A*39
$GPGGA,093430.00,4611.971972,N,01258.210138,E,1,07,1.4,140.07,M,46.25,M,,*62
$GPGLL,4611.971972,N,01258.210138,E,093430.00,A,A*62
$GPVTG,164.5,T,164.7,M,000.4,N,000.7,K,A*22
$GPGSV,2,1,07,02,34,060,44,12,44,093,39,14,17,240,39,25,77,058,45*79
$GPGSV,2,2,07,29,68,236,44,30,49,299,45,31,39,307,45,,,,*4C
$GPGSA,M,3,02,12,14,25,29,30,31,,,,,,2.3,1.4,1.9*3B
Trace #48 at position 11.750000
$GPZDA,093429.04,08,10,2011,00,00*6C
$GPRMC,093429.00,A,4611.972158,N,01258.210072,E,001.1,167.8,081011,0.2,E,A*39
$GPGGA,093430.00,4611.971972,N,01258.210138,E,1,07,1.4,140.07,M,46.25,M,,*62
$GPGLL,4611.971972,N,01258.210138,E,093430.00,A,A*62
$GPVTG,164.5,T,164.7,M,000.4,N,000.7,K,A*22
$GPGSV,2,1,07,02,34,060,44,12,44,093,39,14,17,240,39,25,77,058,45*79
$GPGSV,2,2,07,29,68,236,44,30,49,299,45,31,39,307,45,,,,*4C
$GPGSA,M,3,02,12,14,25,29,30,31,,,,,,2.3,1.4,1.9*3B
Trace #49 at position 12.000000
$GPZDA,093430.04,08,10,2011,00,00*64
$GPRMC,093430.00,A,4611.971972,N,01258.210138,E,000.4,164.5,081011,0.2,E,A*37
$GPGGA,093431.00,4611.971825,N,01258.210196,E,1,07,1.4,140.13,M,46.25,M,,*61
$GPGLL,4611.971825,N,01258.210196,E,093431.00,A,A*64
$GPVTG,167.4,T,167.6,M,000.7,N,001.3,K,A*24
$GPGSV,2,1,07,02,34,060,42,12,44,093,39,14,17,240,41,25,77,058,44*71
$GPGSV,2,2,07,29,68,236,45,30,49,299,46,31,39,307,46,,,,*4D
$GPGSA,M,3,02,12,14,25,29,30,31,,,,,,2.3,1.4,1.9*3B
Trace #50 at position 12.250000
$GPZDA,093430.04,08,10,2011,00,00*64
$GPRMC,093430.00,A,4611.971972,N,01258.210138,E,000.4,164.5,081011,0.2,E,A*37
$GPGGA,093431.00,4611.971825,N,01258.210196,E,1,07,1.4,140.13,M,46.25,M,,*61
$GPGLL,4611.971825,N,01258.210196,E,093431.00,A,A*64
$GPVTG,167.4,T,167.6,M,000.7,N,001.3,K,A*24
$GPGSV,2,1,07,02,34,060,42,12,44,093,39,14,17,240,41,25,77,058,44*71
$GPGSV,2,2,07,29,68,236,45,30,49,299,46,31,39,307,46,,,,*4D
$GPGSA,M,3,02,12,14,25,29,30,31,,,,,,2.3,1.4,1.9*3B
Trace #51 at position 12.500000
$GPZDA,093430.04,08,10,2011,00,00*64
$GPRMC,093430.00,A,4611.971972,N,01258.210138,E,000.4,164.5,081011,0.2,E,A*37
$GPGGA,093431.00,4611.971825,N,01258.210196,E,1,07,1.4,140.13,M,46.25,M,,*61
$GPGLL,4611.971825,N,01258.210196,E,093431.00,A,A*64
$GPVTG,167.4,T,167.6,M,000.7,N,001.3,K,A*24
$GPGSV,2,1,07,02,34,060,42,12,44,093,39,14,17,240,41,25,77,058,44*71
$GPGSV,2,2,07,29,68,236,45,30,49,299,46,31,39,307,46,,,,*4D
$GPGSA,M,3,02,12,14,25,29,30,31,,,,,,2.3,1.4,1.9*3B
Trace #52 at position 12.750000
$GPZDA,093431.04,08,10,2011,00,00*65
$GPRMC,093431.00,A,4611.971825,N,01258.210196,E,000.7,167.4,081011,0.2,E,A*30
$GPGGA,093432.00,4611.971552,N,01258.210188,E,1,07,1.4,140.08,M,46.25,M,,*6A
$GPGLL,4611.971552,N,01258.210188,E,093432.00,A,A*65
$GPVTG,193.7,T,193.9,M,001.3,N,002.4,K,A*29
$GPGSV,2,1,07,02,34,060,41,12,44,093,38,14,17,240,41,25,77,058,44*73
$GPGSV,2,2,07,29,68,236,45,30,49,299,46,31,39,307,46,,,,*4D
$GPGSA,M,3,02,12,14,25,29,30,31,,,,,,2.3,1.4,1.9*3B
Trace #53 at position 13.000000
$GPZDA,093432.03,08,10,2011,00,00*61
$GPRMC,093432.00,A,4611.971552,N,01258.210188,E,001.3,193.7,081011,0.2,E,A*3C
$GPGGA,093433.00,4611.971267,N,01258.210097,E,1,07,1.4,140.01,M,46.25,M,,*6C
$GPGLL,4611.971267,N,01258.210097,E,093433.00,A,A*6A
$GPVTG,204.1,T,204.3,M,000.9,N,001.7,K,A*2E
$GPGSV,2,1,07,02,34,060,41,12,44,093,39,14,17,240,42,25,77,058,44*71
$GPGSV,2,2,07,29,68,236,45,30,49,299,47,31,39,307,47,,,,*4D
$GPGSA,M,3,02,12,14,25,29,30,31,,,,,,2.3,1.4,1.9*3B
Trace #54 at position 13.250000
$GPZDA,093432.03,08,10,2011,00,00*61
$GPRMC,093432.00,A,4611.971552,N,01258.210188,E,001.3,193.7,081011,0.2,E,A*3C
$GPGGA,093433.00,4611.971267,N,01258.210097,E,1,07,1.4,140.01,M,46.25,M,,*6C
$GPGLL,4611.971267,N,01258.210097,E,093433.00,A,A*6A
$GPVTG,204.1,T,204.3,M,000.9,N,001.7,K,A*2E
$GPGSV,2,1,07,02,34,060,41,12,44,093,39,14,17,240,42,25,77,058,44*71
$GPGSV,2,2,07,29,68,236,45,30,49,299,47,31,39,307,47,,,,*4D
$GPGSA,M,3,02,12,14,25,29,30,31,,,,,,2.3,1.4,1.9*3B
Trace #55 at position 13.500000
$GPZDA,093433.04,08,10,2011,00,00*67
$GPRMC,093433.00,A,4611.971267,N,01258.210097,E,000.9,204.1,081011,0.2,E,A*33
$GPGGA,093434.00,4611.971020,N,01258.210172,E,1,07,1.4,139.97,M,46.25,M,,*61
$GPGLL,4611.971020,N,01258.210172,E,093434.00,A,A*66
$GPVTG,154.5,T,154.6,M,001.1,N,002.1,K,A*23
$GPGSV,2,1,07,02,34,060,41,12,44,093,39,14,17,240,41,25,77,058,44*72
$GPGSV,2,2,07,29,69,236,45,30,49,299,47,31,39,307,47,,,,*4C
$GPGSA,M,3,02,12,14,25,29,30,31,,,,,,2.3,1.4,1.9*3B
Trace #56 at position 13.750000
$GPZDA,093433.04,08,10,2011,00,00*67
$GPRMC,093433.00,A,4611.971267,N,01258.210097,E,000.9,204.1,081011,0.2,E,A*33
$GPGGA,093434.00,4611.971020,N,01258.210172,E,1,07,1.4,139.97,M,46.25,M,,*61
$GPGLL,4611.971020,N,01258.210172,E,093434.00,A,A*66
$GPVTG,154.5,T,154.6,M,001.1,N,002.1,K,A*23
$GPGSV,2,1,07,02,34,060,41,12,44,093,39,14,17,240,41,25,77,058,44*72
$GPGSV,2,2,07,29,69,236,45,30,49,299,47,31,39,307,47,,,,*4C
$GPGSA,M,3,02,12,14,25,29,30,31,,,,,,2.3,1.4,1.9*3B
Trace #57 at position 14.000000
$GPZDA,093434.04,08,10,2011,00,00*60
$GPRMC,093434.00,A,4611.971020,N,01258.210172,E,001.1,154.5,081011,0.2,E,A*34
$GPGGA,093435.00,4611.970725,N,01258.210453,E,1,06,1.6,139.87,M,46.25,M,,*67
$GPGLL,4611.970725,N,01258.210453,E,093435.00,A,A*62
$GPVTG,150.2,T,150.3,M,001.4,N,002.5,K,A*20
$GPGSV,2,1,07,02,34,060,41,12,44,093,36,14,17,240,42,25,77,058,44*7E
$GPGSV,2,2,07,29,69,236,44,30,49,299,47,31,39,307,47,,,,*4D
$GPGSA,M,3,02,14,25,29,30,31,,,,,,,2.5,1.6,1.9*3C
Trace #58 at position 14.250000
$GPZDA,093435.04,08,10,2011,00,00*61
$GPRMC,093435.00,A,4611.970725,N,01258.210453,E,001.4,150.2,081011,0.2,E,A*36
$GPGGA,093436.00,4611.970453,N,01258.210687,E,1,06,1.6,139.85,M,46.25,M,,*6F
$GPGLL,4611.970453,N,01258.210687,E,093436.00,A,A*68
$GPVTG,159.1,T,159.3,M,000.9,N,001.7,K,A*2E
$GPGSV,2,1,07,02,34,060,41,12,44,093,39,14,17,240,42,25,77,058,44*71
$GPGSV,2,2,07,29,69,236,44,30,49,299,47,31,39,307,47,,,,*4D
$GPGSA,M,3,02,14,25,29,30,31,,,,,,,2.5,1.6,1.9*3C
Trace #59 at position 14.500000
$GPZDA,093435.04,08,10,2011,00,00*61
$GPRMC,093435.00,A,4611.970725,N,01258.210453,E,001.4,150.2,081011,0.2,E,A*36
$GPGGA,093436.00,4611.970453,N,01258.210687,E,1,06,1.6,139.85,M,46.25,M,,*6F
$GPGLL,4611.970453,N,01258.210687,E,093436.00,A,A*68
$GPVTG,159.1,T,159.3,M,000.9,N,001.7,K,A*2E
$GPGSV,2,1,07,02,34,060,41,12,44,093,39,14,17,240,42,25,77,058,44*71
$GPGSV,2,2,07,29,69,236,44,30,49,299,47,31,39,307,47,,,,*4D
$GPGSA,M,3,02,14,25,29,30,31,,,,,,,2.5,1.6,1.9*3C
Trace #60 at position 14.750000
$GPZDA,093436.03,08,10,2011,00,00*65
$GPRMC,093436.00,A,4611.970453,N,01258.210687,E,000.9,159.1,081011,0.2,E,A*3A
$GPGGA,093437.00,4611.970257,N,01258.210787,E,1,06,1.6,139.91,M,46.25,M,,*68
$GPGLL,4611.970257,N,01258.210787,E,093437.00,A,A*6A
$GPVTG,179.0,T,179.1,M,000.6,N,001.1,K,A*24
$GPGSV,2,1,07,02,34,060,42,12,44,093,39,14,17,240,41,25,77,058,44*71
$GPGSV,2,2,07,29,69,236,46,30,49,299,47,31,39,307,47,,,,*4F
$GPGSA,M,3,02,14,25,29,30,31,,,,,,,2.5,1.6,1.9*3C
Trace #61 at position 15.000000
$GPZDA,093436.03,08,10,2011,00,00*65
$GPRMC,093436.00,A,4611.970453,N,01258.210687,E,000.9,159.1,081011,0.2,E,A*3A
$GPGGA,093437.00,4611.970257,N,01258.210787,E,1,06,1.6,139.91,M,46.25,M,,*68
$GPGLL,4611.970257,N,01258.210787,E,093437.00,A,A*6A
$GPVTG,179.0,T,179.1,M,000.6,N,001.1,K,A*24
$GPGSV,2,1,07,02,34,060,42,12,44,093,39,14,17,240,41,25,77,058,44*71
$GPGSV,2,2,07,29,69,236,46,30,49,299,47,31,39,307,47,,,,*4F
$GPGSA,M,3,02,14,25,29,30,31,,,,,,,2.5,1.6,1.9*3C
Trace #62 at position 15.250000
$GPZDA,093437.03,08,10,2011,00,00*64
$GPRMC,093437.00,A,4611.970257,N,01258.210787,E,000.6,179.0,081011,0.2,E,A*34
$GPGGA,093438.00,4611.970083,N,01258.210907,E,1,06,1.6,139.96,M,46.25,M,,*6D
$GPGLL,4611.970083,N,01258.210907,E,093438.00,A,A*68
$GPVTG,147.4,T,147.5,M,000.8,N,001.5,K,A*2E
$GPGSV,2,1,07,02,34,060,42,12,44,093,39,14,17,240,42,25,77,058,44*72
$GPGSV,2,2,07,29,69,236,45,30,49,299,47,31,39,307,46,,,,*4D
$GPGSA,M,3,02,14,25,29,30,31,,,,,,,2.5,1.6,1.9*3C
Trace #63 at position 15.500000
$GPZDA,093438.04,08,10,2011,00,00*6C
$GPRMC,093438.00,A,4611.970083,N,01258.210907,E,000.8,147.4,081011,0.2,E,A*31
$GPGGA,093439.00,4611.969937,N,01258.211042,E,1,07,1.4,140.05,M,46.25,M,,*6C
$GPGLL,4611.969937,N,01258.211042,E,093439.00,A,A*6E
$GPVTG,149.2,T,149.4,M,000.5,N,000.9,K,A*29
$GPGSV,2,1,07,02,34,060,41,12,44,093,40,14,17,240,41,25,77,058,43*7B
$GPGSV,2,2,07,29,69,236,44,30,49,299,47,31,39,307,47,,,,*4D
$GPGSA,M,3,02,12,14,25,29,30,31,,,,,,2.3,1.4,1.9*3B
Trace #64 at position 15.750000
$GPZDA,093438.04,08,10,2011,00,00*6C
$GPRMC,093438.00,A,4611.970083,N,01258.210907,E,000.8,147.4,081011,0.2,E,A*31
$GPGGA,093439.00,4611.969937,N,01258.211042,E,1,07,1.4,140.05,M,46.25,M,,*6C
$GPGLL,4611.969937,N,01258.211042,E,093439.00,A,A*6E
$GPVTG,149.2,T,149.4,M,000.5,N,000.9,K,A*29
$GPGSV,2,1,07,02,34,060,41,12,44,093,40,14,17,240,41,25,77,058,43*7B
$GPGSV,2,2,07,29,69,236,44,30,49,299,47,31,39,307,47,,,,*4D
$GPGSA,M,3,02,12,14,25,29,30,31,,,,,,2.3,1.4,1.9*3B
Trace #65 at position 16.000000
$GPZDA,093445.04,08,10,2011,00,00*66
$GPRMC,093445.00,A,4611.968739,N,01258.211688,E,000.9,186.2,081011,0.2,E,A*37
$GPGGA,093446.00,4611.968626,N,01258.211669,E,1,07,1.4,140.08,M,46.25,M,,*68
$GPGLL,4611.968626,N,01258.211669,E,093446.00,A,A*67
$GPVTG,4.3,T,4.5,M,000.1,N,000.2,K,A*26
$GPGSV,2,1,07,02,34,060,40,12,44,093,40,14,17,240,42,25,77,058,44*7E
$GPGSV,2,2,07,29,69,236,43,30,49,299,47,31,39,307,47,,,,*4A
$GPGSA,M,3,02,12,14,25,29,30,31,,,,,,2.3,1.4,1.9*3B
Trace #66 at position 16.250000
$GPZDA,093445.04,08,10,2011,00,00*66
$GPRMC,093445.00,A,4611.968739,N,01258.211688,E,000.9,186.2,081011,0.2,E,A*37
$GPGGA,093446.00,4611.968626,N,01258.211669,E,1,07,1.4,140.08,M,46.25,M,,*68
$GPGLL,4611.968626,N,01258.211669,E,093446.00,A,A*67
$GPVTG,4.3,T,4.5,M,000.1,N,000.2,K,A*26
$GPGSV,2,1,07,02,34,060,40,12,44,093,40,14,17,240,42,25,77,058,44*7E
$GPGSV,2,2,07,29,69,236,43,30,49,299,47,31,39,307,47,,,,*4A
$GPGSA,M,3,02,12,14,25,29,30,31,,,,,,2.3,1.4,1.9*3B
Trace #67 at position 16.500000
$GPZDA,093446.03,08,10,2011,00,00*62
$GPRMC,093446.00,A,4611.968626,N,01258.211669,E,000.1,4.3,081011,0.2,E,A*36
$GPGGA,093447.00,4611.968619,N,01258.211677,E,1,07,1.4,140.09,M,46.25,M,,*6B
$GPGLL,4611.968619,N,01258.211677,E,093447.00,A,A*65
$GPVTG,161.2,T,161.3,M,000.1,N,000.2,K,A*21
$GPGSV,2,1,07,02,34,060,40,12,44,093,40,14,17,240,41,25,77,058,45*7C
$GPGSV,2,2,07,29,69,236,44,30,49,299,47,31,39,307,47,,,,*4D
$GPGSA,M,3,02,12,14,25,29,30,31,,,,,,2.3,1.4,1.9*3B
Trace #68 at position 16.750000
$GPZDA,093446.03,08,10,2011,00,00*62
$GPRMC,093446.00,A,4611.968626,N,01258.211669,E,000.1,4.3,081011,0.2,E,A*36
$GPGGA,093447.00,4611.968619,N,01258.211677,E,1,07,1.4,140.09,M,46.25,M,,*6B
$GPGLL,4611.968619,N,01258.211677,E,093447.00,A,A*65
$GPVTG,161.2,T,161.3,M,000.1,N,000.2,K,A*21
$GPGSV,2,1,07,02,34,060,40,12,44,093,40,14,17,240,41,25,77,058,45*7C
$GPGSV,2,2,07,29,69,236,44,30,49,299,47,31,39,307,47,,,,*4D
$GPGSA,M,3,02,12,14,25,29,30,31,,,,,,2.3,1.4,1.9*3B
Trace #69 at position 17.000000
$GPZDA,093447.03,08,10,2011,00,00*63
$GPRMC,093447.00,A,4611.968619,N,01258.211677,E,000.1,161.2,081011,0.2,E,A*37
$GPGGA,093448.00,4611.968593,N,01258.211696,E,1,07,1.4,140.09,M,46.25,M,,*6A
$GPGLL,4611.968593,N,01258.211696,E,093448.00,A,A*64
$GPVTG,111.9,T,112.1,M,000.1,N,000.1,K,A*28
$GPGSV,2,1,07,02,34,060,40,12,44,093,40,14,17,240,41,25,77,058,45*7C
$GPGSV,2,2,07,29,69,236,44,30,49,299,47,31,39,307,47,,,,*4D
$GPGSA,M,3,02,12,14,25,29,30,31,,,,,,2.3,1.4,1.9*3B
Trace #70 at position 17.250000
$GPZDA,093448.04,08,10,2011,00,00*6B
$GPRMC,093448.00,A,4611.968593,N,01258.211696,E,000.1,111.9,081011,0.2,E,A*3A
$GPGGA,093449.00,4611.968578,N,01258.211704,E,1,07,1.4,140.10,M,46.25,M,,*6C
$GPGLL,4611.968578,N,01258.211704,E,093449.00,A,A*6A
$GPVTG,205.7,T,205.9,M,000.0,N,000.1,K,A*2C
$GPGSV,2,1,07,02,34,060,41,12,44,093,40,14,17,240,41,25,77,058,45*7D
$GPGSV,2,2,07,29,69,236,44,30,49,299,47,31,39,307,47,,,,*4D
$GPGSA,M,3,02,12,14,25,29,30,31,,,,,,2.3,1.4,1.9*3B
Trace #71 at position 17.500000
$GPZDA,093448.04,08,10,2011,00,00*6B
$GPRMC,093448.00,A,4611.968593,N,01258.211696,E,000.1,111.9,081011,0.2,E,A*3A
$GPGGA,093449.00,4611.968578,N,01258.211704,E,1,07,1.4,140.10,M,46.25,M,,*6C
$GPGLL,4611.968578,N,01258.211704,E,093449.00,A,A*6A
$GPVTG,205.7,T,205.9,M,000.0,N,000.1,K,A*2C
$GPGSV,2,1,07,02,34,060,41,12,44,093,40,14,17,240,41,25,77,058,45*7D
$GPGSV,2,2,07,29,69,236,44,30,49,299,47,31,39,307,47,,,,*4D
$GPGSA,M,3,02,12,14,25,29,30,31,,,,,,2.3,1.4,1.9*3B
Trace #72 at position 17.750000
$GPZDA,093449.03,08,10,2011,00,00*6D
$GPRMC,093449.00,A,4611.968578,N,01258.211704,E,000.0,205.7,081011,0.2,E,A*3D
$GPGGA,093450.00,4611.968563,N,01258.211701,E,1,07,1.4,140.09,M,46.25,M,,*63
$GPGLL,4611.968563,N,01258.211701,E,093450.00,A,A*6D
$GPVTG,175.5,T,175.7,M,000.0,N,000.1,K,A*20
$GPGSV,2,1,07,02,34,060,41,12,44,093,40,14,17,240,40,25,77,058,45*7C
$GPGSV,2,2,07,29,69,236,44,30,49,299,47,31,39,307,47,,,,*4D
$GPGSA,M,3,02,12,14,25,29,30,31,,,,,,2.3,1.4,1.9*3B
Trace #73 at position 18.000000
$GPZDA,093449.03,08,10,2011,00,00*6D
$GPRMC,093449.00,A,4611.968578,N,01258.211704,E,000.0,205.7,081011,0.2,E,A*3D
$GPGGA,093450.00,4611.968563,N,01258.211701,E,1,07,1.4,140.09,M,46.25,M,,*63
$GPGLL,4611.968563,N,01258.211701,E,093450.00,A,A*6D
$GPVTG,175.5,T,175.7,M,000.0,N,000.1,K,A*20
$GPGSV,2,1,07,02,34,060,41,12,44,093,40,14,17,240,40,25,77,058,45*7C
$GPGSV,2,2,07,29,69,236,44,30,49,299,47,31,39,307,47,,,,*4D
$GPGSA,M,3,02,12,14,25,29,30,31,,,,,,2.3,1.4,1.9*3B
Trace #74 at position 18.250000
$GPZDA,093450.04,08,10,2011,00,00*62
$GPRMC,093450.00,A,4611.968563,N,01258.211701,E,000.0,175.5,081011,0.2,E,A*3C
$GPGGA,093451.00,4611.968551,N,01258.211704,E,1,07,1.4,140.08,M,46.25,M,,*67
$GPGLL,4611.968551,N,01258.211704,E,093451.00,A,A*68
$GPVTG,126.1,T,126.3,M,000.0,N,000.0,K,A*21
$GPGSV,2,1,07,02,34,060,41,12,44,093,38,14,17,240,41,25,77,058,44*73
$GPGSV,2,2,07,29,69,236,44,30,49,299,47,31,39,307,47,,,,*4D
$GPGSA,M,3,02,12,14,25,29,30,31,,,,,,2.3,1.4,1.9*3B
Trace #75 at position 18.500000
$GPZDA,093451.03,08,10,2011,00,00*64
$GPRMC,093451.00,A,4611.968551,N,01258.211704,E,000.0,126.1,081011,0.2,E,A*3B
$GPGGA,093452.00,4611.968355,N,01258.211725,E,1,07,1.4,140.03,M,46.25,M,,*6E
$GPGLL,4611.968355,N,01258.211725,E,093452.00,A,A*6A
$GPVTG,177.8,T,177.9,M,001.4,N,002.6,K,A*23
$GPGSV,2,1,07,02,34,060,42,12,44,093,39,14,17,240,40,25,77,058,45*71
$GPGSV,2,2,07,29,69,236,44,30,49,299,47,31,39,307,47,,,,*4D
$GPGSA,M,3,02,12,14,25,29,30,31,,,,,,2.3,1.4,1.9*3B
Trace #76 at position 18.750000
$GPZDA,093451.03,08,10,2011,00,00*64
$GPRMC,093451.00,A,4611.968551,N,01258.211704,E,000.0,126.1,081011,0.2,E,A*3B
$GPGGA,093452.00,4611.968355,N,01258.211725,E,1,07,1.4,140.03,M,46.25,M,,*6E
$GPGLL,4611.968355,N,01258.211725,E,093452.00,A,A*6A
$GPVTG,177.8,T,177.9,M,001.4,N,002.6,K,A*23
$GPGSV,2,1,07,02,34,060,42,12,44,093,39,14,17,240,40,25,77,058,45*71
$GPGSV,2,2,07,29,69,236,44,30,49,299,47,31,39,307,47,,,,*4D
$GPGSA,M,3,02,12,14,25,29,30,31,,,,,,2.3,1.4,1.9*3B
Trace #77 at position 19.000000
$GPZDA,093452.04,08,10,2011,00,00*60
$GPRMC,093452.00,A,4611.968355,N,01258.211725,E,001.4,177.8,081011,0.2,E,A*31
$GPGGA,093453.00,4611.968039,N,01258.211781,E,1,07,1.4,139.96,M,46.25,M,,*6A
$GPGLL,4611.968039,N,01258.211781,E,093453.00,A,A*6C
$GPVTG,170.6,T,170.8,M,001.0,N,001.9,K,A*24
$GPGSV,2,1,07,02,34,060,41,12,44,093,39,14,17,240,41,25,77,058,44*72
$GPGSV,2,2,07,29,69,236,44,30,49,299,47,31,39,307,46,,,,*4C
$GPGSA,M,3,02,12,14,25,29,30,31,,,,,,2.3,1.4,1.9*3B
Trace #78 at position 19.250000
$GPZDA,093452.04,08,10,2011,00,00*60
$GPRMC,093452.00,A,4611.968355,N,01258.211725,E,001.4,177.8,081011,0.2,E,A*31
$GPGGA,093453.00,4611.968039,N,01258.211781,E,1,07,1.4,139.96,M,46.25,M,,*6A
$GPGLL,4611.968039,N,01258.211781,E,093453.00,A,A*6C
$GPVTG,170.6,T,170.8,M,001.0,N,001.9,K,A*24
$GPGSV,2,1,07,02,34,060,41,12,44,093,39,14,17,240,41,25,77,058,44*72
$GPGSV,2,2,07,29,69,236,44,30,49,299,47,31,39,307,46,,,,*4C
$GPGSA,M,3,02,12,14,25,29,30,31,,,,,,2.3,1.4,1.9*3B
Trace #79 at position 19.500000
$GPZDA,093453.04,08,10,2011,00,00*61
$GPRMC,093453.00,A,4611.968039,N,01258.211781,E,001.0,170.6,081011,0.2,E,A*3A
$GPGGA,093454.00,4611.967817,N,01258.211816,E,1,07,1.4,139.91,M,46.25,M,,*60
$GPGLL,4611.967817,N,01258.211816,E,093454.00,A,A*61
$GPVTG,186.8,T,187.0,M,000.7,N,001.3,K,A*2F
$GPGSV,2,1,07,02,34,060,43,12,44,093,38,14,17,240,40,25,77,058,46*72
$GPGSV,2,2,07,29,69,236,45,30,49,299,47,31,39,307,46,,,,*4D
$GPGSA,M,3,02,12,14,25,29,30,31,,,,,,2.3,1.4,1.9*3B
Trace #80 at position 19.750000
$GPZDA,093453.04,08,10,2011,00,00*61
$GPRMC,093453.00,A,4611.968039,N,01258.211781,E,001.0,170.6,081011,0.2,E,A*3A
$GPGGA,093454.00,4611.967817,N,01258.211816,E,1,07,1.4,139.91,M,46.25,M,,*60
$GPGLL,4611.967817,N,01258.211816,E,093454.00,A,A*61
$GPVTG,186.8,T,187.0,M,000.7,N,001.3,K,A*2F
$GPGSV,2,1,07,02,34,060,43,12,44,093,38,14,17,240,40,25,77,058,46*72
$GPGSV,2,2,07,29,69,236,45,30,49,299,47,31,39,307,46,,,,*4D
$GPGSA,M,3,02,12,14,25,29,30,31,,,,,,2.3,1.4,1.9*3B
Trace #81 at position 20.000000
$GPZDA,093454.04,08,10,2011,00,00*66
$GPRMC,093454.00,A,4611.967817,N,01258.211816,E,000.7,186.8,081011,0.2,E,A*36
$GPGGA,093455.00,4611.967604,N,01258.211941,E,1,07,1.4,139.91,M,46.25,M,,*6E
$GPGLL,4611.967604,N,01258.211941,E,093455.00,A,A*6F
$GPVTG,147.5,T,147.6,M,001.1,N,002.1,K,A*23
$GPGSV,2,1,07,02,34,060,43,12,44,093,40,14,17,240,41,25,77,058,45*7F
$GPGSV,2,2,07,29,69,236,45,30,49,299,47,31,39,307,46,,,,*4D
$GPGSA,M,3,02,12,14,25,29,30,31,,,,,,2.3,1.4,1.9*3B
Trace #82 at position 20.250000
$GPZDA,093454.04,08,10,2011,00,00*66
$GPRMC,093454.00,A,4611.967817,N,01258.211816,E,000.7,186.8,081011,0.2,E,A*36
$GPGGA,093455.00,4611.967604,N,01258.211941,E,1,07,1.4,139.91,M,46.25,M,,*6E
$GPGLL,4611.967604,N,01258.211941,E,093455.00,A,A*6F
$GPVTG,147.5,T,147.6,M,001.1,N,002.1,K,A*23
$GPGSV,2,1,07,02,34,060,43,12,44,093,40,14,17,240,41,25,77,058,45*7F
$GPGSV,2,2,07,29,69,236,45,30,49,299,47,31,39,307,46,,,,*4D
$GPGSA,M,3,02,12,14,25,29,30,31,,,,,,2.3,1.4,1.9*3B
Trace #83 at position 20.500000
$GPZDA,093455.04,08,10,2011,00,00*67
$GPRMC,093455.00,A,4611.967604,N,01258.211941,E,001.1,147.5,081011,0.2,E,A*3F
$GPGGA,093456.00,4611.967361,N,01258.212246,E,1,07,1.4,139.91,M,46.25,M,,*64
$GPGLL,4611.967361,N,01258.212246,E,093456.00,A,A*65
$GPVTG,134.9,T,135.0,M,001.3,N,002.5,K,A*2E
$GPGSV,2,1,07,02,34,060,42,12,44,093,36,14,17,240,42,25,77,058,44*7D
$GPGSV,2,2,07,29,69,236,44,30,49,299,47,31,39,307,46,,,,*4C
$GPGSA,M,3,02,12,14,25,29,30,31,,,,,,2.3,1.4,1.9*3B
Trace #84 at position 20.750000
$GPZDA,093455.04,08,10,2011,00,00*67
$GPRMC,093455.00,A,4611.967604,N,01258.211941,E,001.1,147.5,081011,0.2,E,A*3F
$GPGGA,093456.00,4611.967361,N,01258.212246,E,1,07,1.4,139.91,M,46.25,M,,*64
$GPGLL,4611.967361,N,01258.212246,E,093456.00,A,A*65
$GPVTG,134.9,T,135.0,M,001.3,N,002.5,K,A*2E
$GPGSV,2,1,07,02,34,060,42,12,44,093,36,14,17,240,42,25,77,058,44*7D
$GPGSV,2,2,07,29,69,236,44,30,49,299,47,31,39,307,46,,,,*4C
$GPGSA,M,3,02,12,14,25,29,30,31,,,,,,2.3,1.4,1.9*3B
Trace #85 at position 21.000000
$GPZDA,093455.04,08,10,2011,00,00*67
$GPRMC,093455.00,A,4611.967604,N,01258.211941,E,001.1,147.5,081011,0.2,E,A*3F
$GPGGA,093456.00,4611.967361,N,01258.212246,E,1,07,1.4,139.91,M,46.25,M,,*64
$GPGLL,4611.967361,N,01258.212246,E,093456.00,A,A*65
$GPVTG,134.9,T,135.0,M,001.3,N,002.5,K,A*2E
$GPGSV,2,1,07,02,34,060,42,12,44,093,36,14,17,240,42,25,77,058,44*7D
$GPGSV,2,2,07,29,69,236,44,30,49,299,47,31,39,307,46,,,,*4C
$GPGSA,M,3,02,12,14,25,29,30,31,,,,,,2.3,1.4,1.9*3B
Trace #86 at position 21.250000
$GPZDA,093456.04,08,10,2011,00,00*64
$GPRMC,093456.00,A,4611.967361,N,01258.212246,E,001.3,134.9,081011,0.2,E,A*3F
$GPGGA,093457.00,4611.967139,N,01258.212516,E,1,07,1.4,139.90,M,46.25,M,,*69
$GPGLL,4611.967139,N,01258.212516,E,093457.00,A,A*69
$GPVTG,145.5,T,145.6,M,001.0,N,001.8,K,A*28
$GPGSV,2,1,07,02,34,060,42,12,44,093,38,14,17,240,41,25,77,058,44*70
$GPGSV,2,2,07,29,69,236,45,30,49,299,48,31,39,307,46,,,,*42
$GPGSA,M,3,02,12,14,25,29,30,31,,,,,,2.3,1.4,1.9*3B
Trace #87 at position 21.500000
$GPZDA,093456.04,08,10,2011,00,00*64
$GPRMC,093456.00,A,4611.967361,N,01258.212246,E,001.3,134.9,081011,0.2,E,A*3F
$GPGGA,093457.00,4611.967139,N,01258.212516,E,1,07,1.4,139.90,M,46.25,M,,*69
$GPGLL,4611.967139,N,01258.212516,E,093457.00,A,A*69
$GPVTG,145.5,T,145.6,M,001.0,N,001.8,K,A*28
$GPGSV,2,1,07,02,34,060,42,12,44,093,38,14,17,240,41,25,77,058,44*70
$GPGSV,2,2,07,29,69,236,45,30,49,299,48,31,39,307,46,,,,*42
$GPGSA,M,3,02,12,14,25,29,30,31,,,,,,2.3,1.4,1.9*3B
Trace #88 at position 21.750000
$GPZDA,093457.03,08,10,2011,00,00*62
$GPRMC,093457.00,A,4611.967139,N,01258.212516,E,001.0,145.5,081011,0.2,E,A*3A
$GPGGA,093458.00,4611.966877,N,01258.212699,E,1,07,1.4,139.87,M,46.25,M,,*66
$GPGLL,4611.966877,N,01258.212699,E,093458.00,A,A*60
$GPVTG,155.6,T,155.7,M,001.4,N,002.6,K,A*23
$GPGSV,2,1,07,02,34,060,42,12,44,093,38,14,17,240,41,25,77,059,43*76
$GPGSV,2,2,07,29,69,236,45,30,49,299,47,31,39,307,47,,,,*4C
$GPGSA,M,3,02,12,14,25,29,30,31,,,,,,2.3,1.4,1.9*3B
Trace #89 at position 22.000000
$GPZDA,093457.03,08,10,2011,00,00*62
$GPRMC,093457.00,A,4611.967139,N,01258.212516,E,001.0,145.5,081011,0.2,E,A*3A
$GPGGA,093458.00,4611.966877,N,01258.212699,E,1,07,1.4,139.87,M,46.25,M,,*66
$GPGLL,4611.966877,N,01258.212699,E,093458.00,A,A*60
$GPVTG,155.6,T,155.7,M,001.4,N,002.6,K,A*23
$GPGSV,2,1,07,02,34,060,42,12,44,093,38,14,17,240,41,25,77,059,43*76
$GPGSV,2,2,07,29,69,236,45,30,49,299,47,31,39,307,47,,,,*4C
$GPGSA,M,3,02,12,14,25,29,30,31,,,,,,2.3,1.4,1.9*3B
Trace #90 at position 22.250000
$GPZDA,093458.04,08,10,2011,00,00*6A
$GPRMC,093458.00,A,4611.966877,N,01258.212699,E,001.4,155.6,081011,0.2,E,A*35
$GPGGA,093459.00,4611.966633,N,01258.212778,E,1,07,1.4,139.83,M,46.25,M,,*63
$GPGLL,4611.966633,N,01258.212778,E,093459.00,A,A*61
$GPVTG,176.4,T,176.5,M,000.7,N,001.3,K,A*27
$GPGSV,2,1,07,02,34,060,42,12,44,093,37,14,17,240,41,25,77,059,44*7E
$GPGSV,2,2,07,29,69,236,45,30,49,299,47,31,39,307,47,,,,*4C
$GPGSA,M,3,02,12,14,25,29,30,31,,,,,,2.3,1.4,1.9*3B
Trace #91 at position 22.500000
$GPZDA,093459.04,08,10,2011,00,00*6B
$GPRMC,093459.00,A,4611.966633,N,01258.212778,E,000.7,176.4,081011,0.2,E,A*35
$GPGGA,093500.00,4611.966408,N,01258.212804,E,1,07,1.4,139.77,M,46.25,M,,*6B
$GPGLL,4611.966408,N,01258.212804,E,093500.00,A,A*62
$GPVTG,167.0,T,167.1,M,001.2,N,002.2,K,A*21
$GPGSV,2,1,07,02,34,060,42,12,44,093,37,14,17,240,41,25,77,059,44*7E
$GPGSV,2,2,07,29,69,236,45,30,49,299,47,31,39,307,46,,,,*4D
$GPGSA,M,3,02,12,14,25,29,30,31,,,,,,2.3,1.4,1.9*3B
Trace #92 at position 22.750000
$GPZDA,093459.04,08,10,2011,00,00*6B
$GPRMC,093459.00,A,4611.966633,N,01258.212778,E,000.7,176.4,081011,0.2,E,A*35
$GPGGA,093500.00,4611.966408,N,01258.212804,E,1,07,1.4,139.77,M,46.25,M,,*6B
$GPGLL,4611.966408,N,01258.212804,E,093500.00,A,A*62
$GPVTG,167.0,T,167.1,M,001.2,N,002.2,K,A*21
$GPGSV,2,1,07,02,34,060,42,12,44,093,37,14,17,240,41,25,77,059,44*7E
$GPGSV,2,2,07,29,69,236,45,30,49,299,47,31,39,307,46,,,,*4D
$GPGSA,M,3,02,12,14,25,29,30,31,,,,,,2.3,1.4,1.9*3B
Trace #93 at position 23.000000
$GPZDA,093500.04,08,10,2011,00,00*66
$GPRMC,093500.00,A,4611.966408,N,01258.212804,E,001.2,167.0,081011,0.2,E,A*36
$GPGGA,093501.00,4611.966143,N,01258.212917,E,1,07,1.4,139.70,M,46.25,M,,*64
$GPGLL,4611.966143,N,01258.212917,E,093501.00,A,A*6A
$GPVTG,155.1,T,155.2,M,001.1,N,002.1,K,A*23
$GPGSV,2,1,07,02,34,060,41,12,44,093,36,14,17,240,43,25,77,059,43*79
$GPGSV,2,2,07,29,69,236,44,30,49,299,47,31,39,307,47,,,,*4D
$GPGSA,M,3,02,12,14,25,29,30,31,,,,,,2.3,1.4,1.9*3B
Trace #94 at position 23.250000
$GPZDA,093500.04,08,10,2011,00,00*66
$GPRMC,093500.00,A,4611.966408,N,01258.212804,E,001.2,167.0,081011,0.2,E,A*36
$GPGGA,093501.00,4611.966143,N,01258.212917,E,1,07,1.4,139.70,M,46.25,M,,*64
$GPGLL,4611.966143,N,01258.212917,E,093501.00,A,A*6A
$GPVTG,155.1,T,155.2,M,001.1,N,002.1,K,A*23
$GPGSV,2,1,07,02,34,060,41,12,44,093,36,14,17,240,43,25,77,059,43*79
$GPGSV,2,2,07,29,69,236,44,30,49,299,47,31,39,307,47,,,,*4D
$GPGSA,M,3,02,12,14,25,29,30,31,,,,,,2.3,1.4,1.9*3B
Trace #95 at position 23.500000
$GPZDA,093501.03,08,10,2011,00,00*60
$GPRMC,093501.00,A,4611.966143,N,01258.212917,E,001.1,155.1,081011,0.2,E,A*3D
$GPGGA,093502.00,4611.965827,N,01258.212982,E,1,06,1.6,139.64,M,46.25,M,,*65
$GPGLL,4611.965827,N,01258.212982,E,093502.00,A,A*6D
$GPVTG,184.3,T,184.4,M,001.5,N,002.7,K,A*25
$GPGSV,2,1,07,02,34,060,41,12,44,093,35,14,17,240,42,25,77,059,43*7B
$GPGSV,2,2,07,29,69,236,44,30,49,299,47,31,39,307,46,,,,*4C
$GPGSA,M,3,02,14,25,29,30,31,,,,,,,2.5,1.6,1.9*.212982,E,001.5,184.3,081011,0.2,E,A*30
Trace #96 at position 23.750000
$GPGGA,093503.00,4611.965513,N,01258.212967,E,1,06,1.6,139.63,M,46.25,M,,*62
$GPGLL,4611.965513,N,01258.212967,E,093503.00,A,A*6D
$GPVTG,179.4,T,179.6,M,001.1,N,002.0,K,A*23
$GPGSV,2,1,07,02,34,060,42,12,44,093,39,14,17,240,41,25,77,059,43*77
$GPGSV,2,2,07,29,69,236,44,30,49,299,47,31,39,307,47,,,,*4D
$GPGSA,M,3,02,14,25,29,30,31,,,,,,,2.5,1.6,1.9*3C
Trace #97 at position 24.000000
$GPGGA,093503.00,4611.965513,N,01258.212967,E,1,06,1.6,139.63,M,46.25,M,,*62
$GPGLL,4611.965513,N,01258.212967,E,093503.00,A,A*6D
$GPVTG,179.4,T,179.6,M,001.1,N,002.0,K,A*23
$GPGSV,2,1,07,02,34,060,42,12,44,093,39,14,17,240,41,25,77,059,43*77
$GPGSV,2,2,07,29,69,236,44,30,49,299,47,31,39,307,47,,,,*4D
$GPGSA,M,3,02,14,25,29,30,31,,,,,,,2.5,1.6,1.9*3C
Trace #98 at position 24.250000
$GPZDA,093503.04,08,10,2011,00,00*65
$GPRMC,093503.00,A,4611.965513,N,01258.212967,E,001.1,179.4,081011,0.2,E,A$GPGGA,093504.00,4611.965272,N,01258.213131,E,1,06,1.6,139.65,M,46.25,M,,*69
$GPGLL,4611.965272,N,01258.213131,E,093504.00,A,A*60
$GPVTG,140.3,T,140.5,M,001.2,N,002.3,K,A*27
$GPGSV,2,1,07,02,34,060,42,12,44,093,37,14,17,240,41,25,77,059,45*7F
$GPGSV,2,2,07,29,69,236,45,30,49,299,47,31,39,307,47,,,,*4C
$GPGSA,M,3,02,14,25,29,30,31,,,,,,,2.5,1.6,1.9*3C
Trace #99 at position 24.500000
$GPZDA,093504.03,08,10,2011,00,00*65
$GPRMC,093504.00,A,4611.965272,N,01258.213131,E,001.2,140.3,081011,0.2,E,A*32
$GPGGA,093505.00,4611.965087,N,01258.213306,E,1,06,1.6,139.65,M,46.25,M,,*66
$GPGLL,4611.965087,N,01258.213306,E,093505.00,A,A*6F
$GPVTG,169.0,T,169.1,M,000.6,N,001.2,K,A*27
$GPGSV,2,1,07,02,34,060,41,12,44,093,38,14,17,240,42,25,77,059,44*71
$GPGSV,2,2,07,29,69,236,45,30,49,299,47,31,39,307,47,,,,*4C
$GPGSA,M,3,02,14,25,29,30,31,,,,,,,2.5,1.6,1.9*3C
Trace #100 at position 24.750000
$GPZDA,093506.03,08,10,2011,00,00*67
$GPRMC,093506.00,A,4611.964960,N,01258.213444,E,000.8,123.1,081011,0.2,E,A*32
$GPGGA,093507.00,4611.964799,N,01258.213548,E,1,06,1.6,139.62,M,46.25,M,,*66
$GPGLL,4611.964799,N,01258.213548,E,093507.00,A,A*68
$GPVTG,184.4,T,184.6,M,000.8,N,001.5,K,A*2D
$GPGSV,2,1,07,02,34,060,42,12,44,094,37,14,17,240,43,25,77,059,43*7C
$GPGSV,2,2,07,29,69,236,45,30,49,299,47,31,39,307,46,,,,*4D
$GPGSA,M,3,02,14,25,29,30,31,,,,,,,2.5,1.6,1.9*3C
Trace #101 at position 25.000000
$GPZDA,093512.03,08,10,2011,00,00*62
$GPRMC,093512.00,A,4611.964241,N,01258.213370,E,000.2,343.0,081011,0.2,E,A*30
$GPGGA,093513.00,4611.964168,N,01258.213509,E,1,06,1.6,139.92,M,46.25,M,,*61
$GPGLL,4611.964168,N,01258.213509,E,093513.00,A,A*60
$GPVTG,131.1,T,131.2,M,000.6,N,001.2,K,A*25
$GPGSV,2,1,07,02,34,060,42,12,44,094,33,14,16,240,42,25,77,059,45*7E
$GPGSV,2,2,07,29,69,237,45,30,49,299,47,31,39,307,46,,,,*4C
$GPGSA,M,3,02,14,25,29,30,31,,,,,,,2.5,1.6,1.9*3C
Trace #102 at position 25.250000
$GPZD$GPGGA,093514.00,4611.964084,N,01258.213645,E,1,06,1.6,139.88,M,46.25,M,,*65
$GPGLL,4611.964084,N,01258.213645,E,093514.00,A,A*6F
$GPVTG,16.9,T,17.1,M,000.1,N,000.1,K,A*2A
$GPGSV,2,1,07,02,34,060,42,12,43,094,29,14,16,240,41,25,77,059,45*71
$GPGSV,2,2,07,29,69,237,46,30,49,299,48,31,39,307,47,,,,*41
$GPGSA,M,3,02,14,25,29,30,31,,,,,,,2.5,1.6,1.9*3C
Trace #103 at position 25.500000
$GPZDA,093514.03,08,10,2011,00,00*64
$GPRMC,093514.00,A,4611.964084,N,01258.213645,E,000.1,16.9,081011,0.2,E,A*07
$GPGGA,093515.00,4611.964060,N,01258.213685,E,1,06,1.6,139.83,M,46.25,M,,*69
$GPGLL,4611.964060,N,01258.213685,E,093515.00,A,A*68
$GPVTG,117.9,T,118.0,M,000.0,N,000.1,K,A*24
$GPGSV,2,1,07,02,34,060,41,12,43,094,17,14,16,240,41,25,77,059,45*7F
$GPGSV,2,2,07,29,69,237,44,30,49,299,48,31,39,307,46,,,,*42
$GPGSA,M,3,02,14,25,29,30,31,,,,,,,2.5,1.6,1.9*3C
Trace #104 at position 25.750000
$GPZDA,093514.03,08,10,2011,00,00*64
$GPRMC,093514.00,A,4611.964084,N,01258.213645,E,000.1,16.9,081011,0.2,E,A*07
$GPGGA,093515.00,4611.964060,N,01258.213685,E,1,06,1.6,139.83,M,46.25,M,,*69
$GPGLL,4611.964060,N,01258.213685,E,093515.00,A,A*68
$GPVTG,117.9,T,118.0,M,000.0,N,000.1,K,A*24
$GPGSV,2,1,07,02,34,060,41,12,43,094,17,14,16,240,41,25,77,059,45*7F
$GPGSV,2,2,07,29,69,237,44,30,49,299,48,31,39,307,46,,,,*42
$GPGSA,M,3,02,14,25,29,30,31,,,,,,,2.5,1.6,1.9*3C
Trace #105 at position 26.000000
$GPZDA,093515.03,08,10,2011,00,00*65
$GPRMC,093515.00,A,4611.964060,N,01258.213685,E,000.0,117.9,081011,0.2,E,A*31
$GPGGA,093516.00,4611.964037,N,01258.213712,E,1,06,1.6,139.81,M,46.25,M,,*65
$GPGLL,4611.964037,N,01258.213712,E,093516.00,A,A*66
$GPVTG,327.5,T,327.6,M,000.1,N,000.1,K,A*20
$GPGSV,2,1,07,02,34,060,40,12,43,094,,14,16,240,41,25,77,059,44*79
$GPGSV,2,2,07,29,69,237,45,30,49,299,48,31,39,307,47,,,,*42
$GPGSA,M,3,02,14,25,29,30,31,,,,,,,2.5,1.6,1.9*3C
Trace #106 at position 26.250000
$GPZDA,093515.03,08,10,2011,00,00*65
$GPRMC,093515.00,A,4611.964060,N,01258.213685,E,000.0,117.9,081011,0.2,E,A*31
$GPGGA,093516.00,4611.964037,N,01258.213712,E,1,06,1.6,139.81,M,46.25,M,,*65
$GPGLL,4611.964037,N,01258.213712,E,093516.00,A,A*66
$GPVTG,327.5,T,327.6,M,000.1,N,000.1,K,A*20
$GPGSV,2,1,07,02,34,060,40,12,43,094,,14,16,240,41,25,77,059,44*79
$GPGSV,2,2,07,29,69,237,45,30,49,299,48,31,39,307,47,,,,*42
$GPGSA,M,3,02,14,25,29,30,31,,,,,,,2.5,1.6,1.9*3C
Trace #107 at position 26.500000
$GPZDA,093516.03,08,10,2011,00,00*66
$GPRMC,093516.00,A,4611.964037,N,01258.213712,E,000.1,327.5,081011,0.2,E,A*33
$GPGGA,093517.00,4611.964023,N,01258.213732,E,1,06,1.6,139.80,M,46.25,M,,*62
$GPGLL,4611.964023,N,01258.213732,E,093517.00,A,A*60
$GPVTG,1.9,T,2.0,M,000.0,N,000.1,K,A*28
$GPGSV,2,1,07,02,34,060,40,12,43,094,,14,16,240,41,25,77,059,44*79
$GPGSV,2,2,07,29,69,237,46,30,49,299,48,31,39,307,47,,,,*41
$GPGSA,M,3,02,14,25,29,30,31,,,,,,,2.5,1.6,1.9*3C
Trace #108 at position 26.750000
$GPZDA,093516.03,08,10,2011,00,00*66
$GPRMC,093516.00,A,4611.964037,N,01258.213712,E,000.1,327.5,081011,0.2,E,A*33
$GPGGA,093517.00,4611.964023,N,01258.213732,E,1,06,1.6,139.80,M,46.25,M,,*62
$GPGLL,4611.964023,N,01258.213732,E,093517.00,A,A*60
$GPVTG,1.9,T,2.0,M,000.0,N,000.1,K,A*28
$GPGSV,2,1,07,02,34,060,40,12,43,094,,14,16,240,41,25,77,059,44*79
$GPGSV,2,2,07,29,69,237,46,30,49,299,48,31,39,307,47,,,,*41
$GPGSA,M,3,02,14,25,29,30,31,,,,,,,2.5,1.6,1.9*3C
Trace #109 at position 27.000000
$GPZDA,093517.03,08,10,2011,00,00*67
$GPRMC,093517.00,A,4611.964023,N,01258.213732,E,000.0,1.9,081011,0.2,E,A*3F
$GPGGA,093518.00,4611.964002,N,01258.213737,E,1,06,1.6,139.80,M,46.25,M,,*6B
$GPGLL,4611.964002,N,01258.213737,E,093518.00,A,A*69
$GPVTG,261.9,T,262.1,M,000.1,N,000.2,K,A*2B
$GPGSV,2,1,07,02,34,060,42,12,43,094,,14,16,240,41,25,77,059,44*7B
$GPGSV,2,2,07,29,69,237,45,30,49,299,48,31,39,307,48,,,,*4D
$GPGSA,M,3,02,14,25,29,30,31,,,,,,,2.5,1.6,1.9*3C
Trace #110 at position 27.250000
$GPZDA,093517.03,08,10,2011,00,00*67
$GPRMC,093517.00,A,4611.964023,N,01258.213732,E,000.0,1.9,081011,0.2,E,A*3F
$GPGGA,093518.00,4611.964002,N,01258.213737,E,1,06,1.6,139.80,M,46.25,M,,*6B
$GPGLL,4611.964002,N,01258.213737,E,093518.00,A,A*69
$GPVTG,261.9,T,262.1,M,000.1,N,000.2,K,A*2B
$GPGSV,2,1,07,02,34,060,42,12,43,094,,14,16,240,41,25,77,059,44*7B
$GPGSV,2,2,07,29,69,237,45,30,49,299,48,31,39,307,48,,,,*4D
$GPGSA,M,3,02,14,25,29,30,31,,,,,,,2.5,1.6,1.9*3C
Trace #111 at position 27.500000
$GPZDA,093518.04,08,10,2011,00,00*6F
$GPRMC,093518.00,A,4611.964002,N,01258.213737,E,000.1,261.9,081011,0.2,E,A*33
$GPGGA,093519.00,4611.963976,N,01258.213743,E,1,06,1.6,139.79,M,46.25,M,,*62
$GPGLL,4611.963976,N,01258.213743,E,093519.00,A,A*66
$GPVTG,226.6,T,226.8,M,000.0,N,000.0,K,A*2D
$GPGSV,2,1,07,02,34,060,40,12,43,094,,14,16,240,41,25,77,059,44*79
$GPGSV,2,2,07,29,69,237,44,30,49,299,48,31,39,307,47,,,,*43
$GPGSA,M,3,02,14,25,29,30,31,,,,,,,2.5,1.6,1.9*3C
Trace #112 at position 27.750000
$GPZDA,093518.04,08,10,2011,00,00*6F
$GPRMC,093518.00,A,4611.964002,N,01258.213737,E,000.1,261.9,081011,0.2,E,A*33
$GPGGA,093519.00,4611.963976,N,01258.213743,E,1,06,1.6,139.79,M,46.25,M,,*62
$GPGLL,4611.963976,N,01258.213743,E,093519.00,A,A*66
$GPVTG,226.6,T,226.8,M,000.0,N,000.0,K,A*2D
$GPGSV,2,1,07,02,34,060,40,12,43,094,,14,16,240,41,25,77,059,44*79
$GPGSV,2,2,07,29,69,237,44,30,49,299,48,31,39,307,47,,,,*43
$GPGSA,M,3,02,14,25,29,30,31,,,,,,,2.5,1.6,1.9*3C
Trace #113 at position 28.000000
$GPZDA,093519.03,08,10,2011,00,00*69
$GPRMC,093519.00,A,4611.963976,N,01258.213743,E,000.0,226.6,081011,0.2,E,A*31
$GPGGA,093520.00,4611.963848,N,01258.213873,E,1,06,1.6,139.77,M,46.25,M,,*66
$GPGLL,4611.963848,N,01258.213873,E,093520.00,A,A*6C
$GPVTG,143.0,T,143.2,M,001.0,N,001.8,K,A*29
$GPGSV,2,1,07,02,34,060,42,12,43,094,,14,16,240,41,25,77,059,45*7A
$GPGSV,2,2,07,29,69,237,44,30,49,299,47,31,39,307,47,,,,*4C
$GPGSA,M,3,02,14,25,29,30,31,,,,,,,2.5,1.6,1.9*3C
Trace #114 at position 28.250000
$GPZDA,093519.03,08,10,2011,00,00*69
$GPRMC,093519.00,A,4611.963976,N,01258.213743,E,000.0,226.6,081011,0.2,E,A*31
$GPGGA,093520.00,4611.963848,N,01258.213873,E,1,06,1.6,139.77,M,46.25,M,,*66
$GPGLL,4611.963848,N,01258.213873,E,093520.00,A,A*6C
$GPVTG,143.0,T,143.2,M,001.0,N,001.8,K,A*29
$GPGSV,2,1,07,02,34,060,42,12,43,094,,14,16,240,41,25,77,059,45*7A
$GPGSV,2,2,07,29,69,237,44,30,49,299,47,31,39,307,47,,,,*4C
$GPGSA,M,3,02,14,25,29,30,31,,,,,,,2.5,1.6,1.9*3C
Trace #115 at position 28.500000
$GPZDA,093520.03,08,10,2011,00,00*63
$GPRMC,093520.00,A,4611.963848,N,01258.213873,E,001.0,143.0,081011,0.2,E,A*3C
$GPGGA,093521.00,4611.963635,N,01258.214019,E,1,06,1.6,139.80,M,46.25,M,,*68
$GPGLL,4611.963635,N,01258.214019,E,093521.00,A,A*6A
$GPVTG,169.8,T,170.0,M,000.6,N,001.2,K,A*26
$GPGSV,2,1,07,02,34,060,40,12,43,094,38,14,16,240,42,25,77,059,45*70
$GPGSV,2,2,07,29,69,237,45,30,49,299,47,31,39,307,47,,,,*4D
$GPGSA,M,3,02,14,25,29,30,31,,,,,,,2.5,1.6,1.9*3C
Trace #116 at position 28.750000
$GPZDA,093520.03,08,10,2011,00,00*63
$GPRMC,093520.00,A,4611.963848,N,01258.213873,E,001.0,143.0,081011,0.2,E,A*3C
$GPGGA,093521.00,4611.963635,N,01258.214019,E,1,06,1.6,139.80,M,46.25,M,,*68
$GPGLL,4611.963635,N,01258.214019,E,093521.00,A,A*6A
$GPVTG,169.8,T,170.0,M,000.6,N,001.2,K,A*26
$GPGSV,2,1,07,02,34,060,40,12,43,094,38,14,16,240,42,25,77,059,45*70
$GPGSV,2,2,07,29,69,237,45,30,49,299,47,31,39,307,47,,,,*4D
$GPGSA,M,3,02,14,25,29,30,31,,,,,,,2.5,1.6,1.9*3C
Trace #117 at position 29.000000
$GPZDA,093521.03,08,10,2011,00,00*62
$GPRMC,093521.00,A,4611.963635,N,01258.214019,E,000.6,169.8,081011,0.2,E,A*3D
$GPGGA,093522.00,4611.963391,N,01258.214206,E,1,06,1.6,139.81,M,46.25,M,,*6D
$GPGLL,4611.963391,N,01258.214206,E,093522.00,A,A*6E
