Trace #1 at position 0.000000
$GPZDA,100133.03,08,10,2011,00,00*6E
$GPRMC,100133.00,A,4611.969220,N,01258.208343,E,000.1,29.1,081011,0.2,E,A*01
$GPGGA,100134.00,4611.968992,N,01258.208297,E,1,05,7.9,121.45,M,46.25,M,,*69
$GPGLL,4611.968992,N,01258.208297,E,100134.00,A,A*61
$GPVTG,190.8,T,191.0,M,000.2,N,000.4,K,A*2C
$GPGSV,2,1,07,21,16,186,38,02,27,050,44,12,34,103,37,25,68,092,45*7E
$GPGSV,2,2,07,29,80,262,43,30,61,304,44,31,47,296,44,,,,*43
$GPGSA,M,3,02,25,29,30,31,,,,,,,,12.8,7.9,10.1*34
Trace #2 at position 0.250000
$GPZDA,100136.03,08,10,2011,00,00*6B
$GPRMC,100136.00,A,4611.968597,N,01258.208207,E,000.3,199.1,081011,0.2,E,A*37
$GPGGA,100137.00,4611.969502,N,01258.208311,E,1,06,2.4,122.60,M,46.25,M,,*6E
$GPGLL,4611.969502,N,01258.208311,E,100137.00,A,A*69
$GPVTG,28.1,T,28.3,M,000.1,N,000.2,K,A*22
$GPGSV,2,1,07,21,16,186,37,02,27,050,45,12,34,103,39,25,68,092,43*78
$GPGSV,2,2,07,29,80,262,42,30,61,304,45,31,47,296,43,,,,*44
$GPGSA,M,3,02,12,25,29,30,31,,,,,,,4.2,2.4,3.5*34
Trace #3 at position 0.500000
$GPZDA,100136.03,08,10,2011,00,00*6B
$GPRMC,100136.00,A,4611.968597,N,01258.208207,E,000.3,199.1,081011,0.2,E,A*37
$GPGGA,100137.00,4611.969502,N,01258.208311,E,1,06,2.4,122.60,M,46.25,M,,*6E
$GPGLL,4611.969502,N,01258.208311,E,100137.00,A,A*69
$GPVTG,28.1,T,28.3,M,000.1,N,000.2,K,A*22
$GPGSV,2,1,07,21,16,186,37,02,27,050,45,12,34,103,39,25,68,092,43*78
$GPGSV,2,2,07,29,80,262,42,30,61,304,45,31,47,296,43,,,,*44
$GPGSA,M,3,02,12,25,29,30,31,,,,,,,4.2,2.4,3.5*34
Trace #4 at position 0.750000
$GPZDA,100137.04,08,10,2011,00,00*6D
$GPRMC,100137.00,A,4611.969502,N,01258.208311,E,000.1,28.1,081011,0.2,E,A*04
$GPGGA,100138.00,4611.970190,N,01258.208398,E,1,06,2.4,124.32,M,46.25,M,,*66
$GPGLL,4611.970190,N,01258.208398,E,100138.00,A,A*60
$GPVTG,317.5,T,317.7,M,000.0,N,000.1,K,A*20
$GPGSV,2,1,07,21,16,186,36,02,27,050,44,12,34,103,39,25,68,092,44*7F
$GPGSV,2,2,07,29,80,263,42,30,61,304,44,31,47,296,42,,,,*45
$GPGSA,M,3,02,12,25,29,30,31,,,,,,,4.2,2.4,3.4*35
Trace #5 at position 1.000000
$GPZDA,100137.04,08,10,2011,00,00*6D
$GPRMC,100137.00,A,4611.969502,N,01258.208311,E,000.1,28.1,081011,0.2,E,A*04
$GPGGA,100138.00,4611.970190,N,01258.208398,E,1,06,2.4,124.32,M,46.25,M,,*66
$GPGLL,4611.970190,N,01258.208398,E,100138.00,A,A*60
$GPVTG,317.5,T,317.7,M,000.0,N,000.1,K,A*20
$GPGSV,2,1,07,21,16,186,36,02,27,050,44,12,34,103,39,25,68,092,44*7F
$GPGSV,2,2,07,29,80,263,42,30,61,304,44,31,47,296,42,,,,*45
$GPGSA,M,3,02,12,25,29,30,31,,,,,,,4.2,2.4,3.4*35
Trace #6 at position 1.250000
$GPZDA,100138.04,08,10,2011,00,00*62
$GPRMC,100138.00,A,4611.970190,N,01258.208398,E,000.0,317.5,081011,0.2,E,A*37
$GPGGA,100139.00,4611.970679,N,01258.208531,E,1,06,2.4,125.84,M,46.25,M,,*6E
$GPGLL,4611.970679,N,01258.208531,E,100139.00,A,A*64
$GPVTG,158.3,T,158.5,M,000.9,N,001.6,K,A*2B
$GPGSV,2,1,07,21,16,186,35,02,27,050,43,12,34,103,40,25,68,092,45*74
$GPGSV,2,2,07,29,80,263,41,30,61,304,43,31,47,296,43,,,,*40
$GPGSA,M,3,02,12,25,29,30,31,,,,,,,4.2,2.4,3.4*35
Trace #7 at position 1.500000
$GPZDA,100138.04,08,10,2011,00,00*62
$GPRMC,100138.00,A,4611.970190,N,01258.208398,E,000.0,317.5,081011,0.2,E,A*37
$GPGGA,100139.00,4611.970679,N,01258.208531,E,1,06,2.4,125.84,M,46.25,M,,*6E
$GPGLL,4611.970679,N,01258.208531,E,100139.00,A,A*64
$GPVTG,158.3,T,158.5,M,000.9,N,001.6,K,A*2B
$GPGSV,2,1,07,21,16,186,35,02,27,050,43,12,34,103,40,25,68,092,45*74
$GPGSV,2,2,07,29,80,263,41,30,61,304,43,31,47,296,43,,,,*40
$GPGSA,M,3,02,12,25,29,30,31,,,,,,,4.2,2.4,3.4*35
Trace #8 at position 1.750000
$GPZDA,100139.04,08,10,2011,00,00*63
$GPRMC,100139.00,A,4611.970679,N,01258.208531,E,000.9,158.3,081011,0.2,E,A*35
$GPGGA,100140.00,4611.971126,N,01258.208730,E,1,06,2.4,127.42,M,46.25,M,,*67
$GPGLL,4611.971126,N,01258.208730,E,100140.00,A,A*65
$GPVTG,156.3,T,156.4,M,000.7,N,001.3,K,A*21
$GPGSV,2,1,07,21,16,186,33,02,27,050,43,12,34,103,39,25,68,092,44*7D
$GPGSV,2,2,07,29,80,263,40,30,61,304,43,31,47,296,42,,,,*40
$GPGSA,M,3,02,12,25,29,30,31,,,,,,,4.2,2.4,3.4*35
Trace #9 at position 2.000000
$GPZDA,100139.04,08,10,2011,00,00*63
$GPRMC,100139.00,A,4611.970679,N,01258.208531,E,000.9,158.3,081011,0.2,E,A*35
$GPGGA,100140.00,4611.971126,N,01258.208730,E,1,06,2.4,127.42,M,46.25,M,,*67
$GPGLL,4611.971126,N,01258.208730,E,100140.00,A,A*65
$GPVTG,156.3,T,156.4,M,000.7,N,001.3,K,A*21
$GPGSV,2,1,07,21,16,186,33,02,27,050,43,12,34,103,39,25,68,092,44*7D
$GPGSV,2,2,07,29,80,263,40,30,61,304,43,31,47,296,42,,,,*40
$GPGSA,M,3,02,12,25,29,30,31,,,,,,,4.2,2.4,3.4*35
Trace #10 at position 2.250000
$GPZDA,100140.03,08,10,2011,00,00*6A
$GPRMC,100140.00,A,4611.971126,N,01258.208730,E,000.7,156.3,081011,0.2,E,A*34
$GPGGA,100141.00,4611.971441,N,01258.208926,E,1,06,2.4,128.77,M,46.25,M,,*62
$GPGLL,4611.971441,N,01258.208926,E,100141.00,A,A*69
$GPVTG,162.2,T,162.3,M,001.3,N,002.3,K,A*21
$GPGSV,2,1,07,21,16,186,35,02,27,050,43,12,34,103,37,25,68,092,44*75
$GPGSV,2,2,07,29,80,263,41,30,61,304,44,31,47,296,42,,,,*46
$GPGSA,M,3,02,12,25,29,30,31,,,,,,,4.2,2.4,3.4*35
Trace #11 at position 2.500000
$GPZDA,100140.03,08,10,2011,00,00*6A
$GPRMC,100140.00,A,4611.971126,N,01258.208730,E,000.7,156.3,081011,0.2,E,A*34
$GPGGA,100141.00,4611.971441,N,01258.208926,E,1,06,2.4,128.77,M,46.25,M,,*62
$GPGLL,4611.971441,N,01258.208926,E,100141.00,A,A*69
$GPVTG,162.2,T,162.3,M,001.3,N,002.3,K,A*21
$GPGSV,2,1,07,21,16,186,35,02,27,050,43,12,34,103,37,25,68,092,44*75
$GPGSV,2,2,07,29,80,263,41,30,61,304,44,31,47,296,42,,,,*46
$GPGSA,M,3,02,12,25,29,30,31,,,,,,,4.2,2.4,3.4*35
Trace #12 at position 2.750000
$GPZDA,100141.03,08,10,2011,00,00*6B
$GPRMC,100141.00,A,4611.971441,N,01258.208926,E,001.3,162.2,081011,0.2,E,A*3B
$GPGGA,100142.00,4611.970641,N,01258.208943,E,1,05,7.9,127.48,M,46.25,M,,*69
$GPGLL,4611.970641,N,01258.208943,E,100142.00,A,A*6A
$GPVTG,168.9,T,169.1,M,000.6,N,001.0,K,A*2D
$GPGSV,2,1,07,21,16,186,35,02,27,050,45,12,34,103,35,25,68,092,42*77
$GPGSV,2,2,07,29,80,263,42,30,61,304,44,31,47,296,41,,,,*46
$GPGSA,M,3,02,25,29,30,31,,,,,,,,12.8,7.9,10.0*35
Trace #13 at position 3.000000
$GPZDA,100141.03,08,10,2011,00,00*6B
$GPRMC,100141.00,A,4611.971441,N,01258.208926,E,001.3,162.2,081011,0.2,E,A*3B
$GPGGA,100142.00,4611.970641,N,01258.208943,E,1,05,7.9,127.48,M,46.25,M,,*69
$GPGLL,4611.970641,N,01258.208943,E,100142.00,A,A*6A
$GPVTG,168.9,T,169.1,M,000.6,N,001.0,K,A*2D
$GPGSV,2,1,07,21,16,186,35,02,27,050,45,12,34,103,35,25,68,092,42*77
$GPGSV,2,2,07,29,80,263,42,30,61,304,44,31,47,296,41,,,,*46
$GPGSA,M,3,02,25,29,30,31,,,,,,,,12.8,7.9,10.0*35
Trace #14 at position 3.250000
$GPZDA,100141.03,08,10,2011,00,00*6B
$GPRMC,100141.00,A,4611.971441,N,01258.208926,E,001.3,162.2,081011,0.2,E,A*3B
$GPGGA,100142.00,4611.970641,N,01258.208943,E,1,05,7.9,127.48,M,46.25,M,,*69
$GPGLL,4611.970641,N,01258.208943,E,100142.00,A,A*6A
$GPVTG,168.9,T,169.1,M,000.6,N,001.0,K,A*2D
$GPGSV,2,1,07,21,16,186,35,02,27,050,45,12,34,103,35,25,68,092,42*77
$GPGSV,2,2,07,29,80,263,42,30,61,304,44,31,47,296,41,,,,*46
$GPGSA,M,3,02,25,29,30,31,,,,,,,,12.8,7.9,10.0*35
Trace #15 at position 3.500000
$GPZDA,100142.03,08,10,2011,00,00*68
$GPRMC,100142.00,A,4611.970641,N,01258.208943,E,000.6,168.9,081011,0.2,E,A*3D
$GPGGA,100143.00,4611.969970,N,01258.208946,E,1,05,7.9,126.56,M,46.25,M,,*66
$GPGLL,4611.969970,N,01258.208946,E,100143.00,A,A*6B
$GPVTG,160.5,T,160.6,M,000.7,N,001.2,K,A*24
$GPGSV,2,1,07,21,16,186,30,02,27,050,44,12,34,103,36,25,68,092,43*71
$GPGSV,2,2,07,29,80,263,41,30,61,304,44,31,47,296,41,,,,*45
$GPGSA,M,3,02,25,29,30,31,,,,,,,,12.8,7.9,10.0*35
Trace #16 at position 3.750000
$GPZDA,100142.03,08,10,2011,00,00*68
$GPRMC,100142.00,A,4611.970641,N,01258.208943,E,000.6,168.9,081011,0.2,E,A*3D
$GPGGA,100143.00,4611.969970,N,01258.208946,E,1,05,7.9,126.56,M,46.25,M,,*66
$GPGLL,4611.969970,N,01258.208946,E,100143.00,A,A*6B
$GPVTG,160.5,T,160.6,M,000.7,N,001.2,K,A*24
$GPGSV,2,1,07,21,16,186,30,02,27,050,44,12,34,103,36,25,68,092,43*71
$GPGSV,2,2,07,29,80,263,41,30,61,304,44,31,47,296,41,,,,*45
$GPGSA,M,3,02,25,29,30,31,,,,,,,,12.8,7.9,10.0*35
Trace #17 at position 4.000000
$GPZDA,100142.03,08,10,2011,00,00*68
$GPRMC,100142.00,A,4611.970641,N,01258.208943,E,000.6,168.9,081011,0.2,E,A*3D
$GPGGA,100143.00,4611.969970,N,01258.208946,E,1,05,7.9,126.56,M,46.25,M,,*66
$GPGLL,4611.969970,N,01258.208946,E,100143.00,A,A*6B
$GPVTG,160.5,T,160.6,M,000.7,N,001.2,K,A*24
$GPGSV,2,1,07,21,16,186,30,02,27,050,44,12,34,103,36,25,68,092,43*71
$GPGSV,2,2,07,29,80,263,41,30,61,304,44,31,47,296,41,,,,*45
$GPGSA,M,3,02,25,29,30,31,,,,,,,,12.8,7.9,10.0*35
Trace #18 at position 4.250000
$GPZDA,100143.03,08,10,2011,00,00*69
$GPRMC,100143.00,A,4611.969970,N,01258.208946,E,000.7,160.5,081011,0.2,E,A*39
$GPGGA,100144.00,4611.969194,N,01258.209010,E,1,05,7.9,125.58,M,46.25,M,,*65
$GPGLL,4611.969194,N,01258.209010,E,100144.00,A,A*65
$GPVTG,168.1,T,168.3,M,001.7,N,003.2,K,A*26
$GPGSV,2,1,07,21,16,186,31,02,27,050,44,12,34,103,35,25,68,092,41*71
$GPGSV,2,2,07,29,80,263,40,30,61,304,43,31,47,296,40,,,,*42
$GPGSA,M,3,02,25,29,30,31,,,,,,,,12.7,7.9,10.0*3A
Trace #19 at position 4.500000
$GPZDA,100143.03,08,10,2011,00,00*69
$GPRMC,100143.00,A,4611.969970,N,01258.208946,E,000.7,160.5,081011,0.2,E,A*39
$GPGGA,100144.00,4611.969194,N,01258.209010,E,1,05,7.9,125.58,M,46.25,M,,*65
$GPGLL,4611.969194,N,01258.209010,E,100144.00,A,A*65
$GPVTG,168.1,T,168.3,M,001.7,N,003.2,K,A*26
$GPGSV,2,1,07,21,16,186,31,02,27,050,44,12,34,103,35,25,68,092,41*71
$GPGSV,2,2,07,29,80,263,40,30,61,304,43,31,47,296,40,,,,*42
$GPGSA,M,3,02,25,29,30,31,,,,,,,,12.7,7.9,10.0*3A
Trace #20 at position 4.750000
$GPZDA,100143.03,08,10,2011,00,00*69
$GPRMC,100143.00,A,4611.969970,N,01258.208946,E,000.7,160.5,081011,0.2,E,A*39
$GPGGA,100144.00,4611.969194,N,01258.209010,E,1,05,7.9,125.58,M,46.25,M,,*65
$GPGLL,4611.969194,N,01258.209010,E,100144.00,A,A*65
$GPVTG,168.1,T,168.3,M,001.7,N,003.2,K,A*26
$GPGSV,2,1,07,21,16,186,31,02,27,050,44,12,34,103,35,25,68,092,41*71
$GPGSV,2,2,07,29,80,263,40,30,61,304,43,31,47,296,40,,,,*42
$GPGSA,M,3,02,25,29,30,31,,,,,,,,12.7,7.9,10.0*3A
Trace #21 at position 5.000000
$GPZDA,100144.03,08,10,2011,00,00*6E
$GPRMC,100144.00,A,4611.969194,N,01258.209010,E,001.7,168.1,081011,0.2,E,A*3A
$GPGGA,100145.00,4611.968387,N,01258.209073,E,1,05,7.9,124.45,M,46.25,M,,*6D
$GPGLL,4611.968387,N,01258.209073,E,100145.00,A,A*60
$GPVTG,173.7,T,173.9,M,001.3,N,002.4,K,A*29
$GPGSV,2,1,07,21,16,186,31,02,27,050,44,12,34,103,36,25,68,092,41*72
$GPGSV,2,2,07,29,80,263,39,30,61,304,43,31,47,296,41,,,,*4D
$GPGSA,M,3,02,25,29,30,31,,,,,,,,12.7,7.9,10.0*3A
Trace #22 at position 5.250000
$GPZDA,100144.03,08,10,2011,00,00*6E
$GPRMC,100144.00,A,4611.969194,N,01258.209010,E,001.7,168.1,081011,0.2,E,A*3A
$GPGGA,100145.00,4611.968387,N,01258.209073,E,1,05,7.9,124.45,M,46.25,M,,*6D
$GPGLL,4611.968387,N,01258.209073,E,100145.00,A,A*60
$GPVTG,173.7,T,173.9,M,001.3,N,002.4,K,A*29
$GPGSV,2,1,07,21,16,186,31,02,27,050,44,12,34,103,36,25,68,092,41*72
$GPGSV,2,2,07,29,80,263,39,30,61,304,43,31,47,296,41,,,,*4D
$GPGSA,M,3,02,25,29,30,31,,,,,,,,12.7,7.9,10.0*3A
Trace #23 at position 5.500000
$GPZDA,100144.03,08,10,2011,00,00*6E
$GPRMC,100144.00,A,4611.969194,N,01258.209010,E,001.7,168.1,081011,0.2,E,A*3A
$GPGGA,100145.00,4611.968387,N,01258.209073,E,1,05,7.9,124.45,M,46.25,M,,*6D
$GPGLL,4611.968387,N,01258.209073,E,100145.00,A,A*60
$GPVTG,173.7,T,173.9,M,001.3,N,002.4,K,A*29
$GPGSV,2,1,07,21,16,186,31,02,27,050,44,12,34,103,36,25,68,092,41*72
$GPGSV,2,2,07,29,80,263,39,30,61,304,43,31,47,296,41,,,,*4D
$GPGSA,M,3,02,25,29,30,31,,,,,,,,12.7,7.9,10.0*3A
Trace #24 at position 5.750000
$GPZDA,100145.03,08,10,2011,00,00*6F
$GPRMC,100145.00,A,4611.968387,N,01258.209073,E,001.3,173.7,081011,0.2,E,A*37
$GPGGA,100146.00,4611.967635,N,01258.209118,E,1,05,7.9,123.57,M,46.25,M,,*65
$GPGLL,4611.967635,N,01258.209118,E,100146.00,A,A*6C
$GPVTG,173.3,T,173.5,M,001.7,N,003.1,K,A*21
$GPGSV,2,1,07,21,16,186,30,02,27,050,43,12,34,103,37,25,68,092,41*75
$GPGSV,2,2,07,29,80,263,40,30,61,304,43,31,47,296,41,,,,*43
$GPGSA,M,3,02,25,29,30,31,,,,,,,,12.7,7.9,10.0*3A
Trace #25 at position 6.000000
$GPZDA,100145.03,08,10,2011,00,00*6F
$GPRMC,100145.00,A,4611.968387,N,01258.209073,E,001.3,173.7,081011,0.2,E,A*37
$GPGGA,100146.00,4611.967635,N,01258.209118,E,1,05,7.9,123.57,M,46.25,M,,*65
$GPGLL,4611.967635,N,01258.209118,E,100146.00,A,A*6C
$GPVTG,173.3,T,173.5,M,001.7,N,003.1,K,A*21
$GPGSV,2,1,07,21,16,186,30,02,27,050,43,12,34,103,37,25,68,092,41*75
$GPGSV,2,2,07,29,80,263,40,30,61,304,43,31,47,296,41,,,,*43
$GPGSA,M,3,02,25,29,30,31,,,,,,,,12.7,7.9,10.0*3A
Trace #26 at position 6.250000
$GPZDA,100145.03,08,10,2011,00,00*6F
$GPRMC,100145.00,A,4611.968387,N,01258.209073,E,001.3,173.7,081011,0.2,E,A*37
$GPGGA,100146.00,4611.967635,N,01258.209118,E,1,05,7.9,123.57,M,46.25,M,,*65
$GPGLL,4611.967635,N,01258.209118,E,100146.00,A,A*6C
$GPVTG,173.3,T,173.5,M,001.7,N,003.1,K,A*21
$GPGSV,2,1,07,21,16,186,30,02,27,050,43,12,34,103,37,25,68,092,41*75
$GPGSV,2,2,07,29,80,263,40,30,61,304,43,31,47,296,41,,,,*43
$GPGSA,M,3,02,25,29,30,31,,,,,,,,12.7,7.9,10.0*3A
Trace #27 at position 6.500000
$GPZDA,100146.03,08,10,2011,00,00*6C
$GPRMC,100146.00,A,4611.967635,N,01258.209118,E,001.7,173.3,081011,0.2,E,A*3B
$GPGGA,100147.00,4611.966835,N,01258.209227,E,1,05,7.9,122.78,M,46.25,M,,*68
$GPGLL,4611.966835,N,01258.209227,E,100147.00,A,A*6D
$GPVTG,168.2,T,168.3,M,002.1,N,003.8,K,A*2A
$GPGSV,2,1,07,21,16,186,31,02,27,050,43,12,34,103,37,25,68,092,42*77
$GPGSV,2,2,07,29,80,263,39,30,61,304,43,31,47,296,41,,,,*4D
$GPGSA,M,3,02,25,29,30,31,,,,,,,,12.7,7.9,10.0*3A
Trace #28 at position 6.750000
$GPZDA,100146.03,08,10,2011,00,00*6C
$GPRMC,100146.00,A,4611.967635,N,01258.209118,E,001.7,173.3,081011,0.2,E,A*3B
$GPGGA,100147.00,4611.966835,N,01258.209227,E,1,05,7.9,122.78,M,46.25,M,,*68
$GPGLL,4611.966835,N,01258.209227,E,100147.00,A,A*6D
$GPVTG,168.2,T,168.3,M,002.1,N,003.8,K,A*2A
$GPGSV,2,1,07,21,16,186,31,02,27,050,43,12,34,103,37,25,68,092,42*77
$GPGSV,2,2,07,29,80,263,39,30,61,304,43,31,47,296,41,,,,*4D
$GPGSA,M,3,02,25,29,30,31,,,,,,,,12.7,7.9,10.0*3A
Trace #29 at position 7.000000
$GPZDA,100146.03,08,10,2011,00,00*6C
$GPRMC,100146.00,A,4611.967635,N,01258.209118,E,001.7,173.3,081011,0.2,E,A*3B
$GPGGA,100147.00,4611.966835,N,01258.209227,E,1,05,7.9,122.78,M,46.25,M,,*68
$GPGLL,4611.966835,N,01258.209227,E,100147.00,A,A*6D
$GPVTG,168.2,T,168.3,M,002.1,N,003.8,K,A*2A
$GPGSV,2,1,07,21,16,186,31,02,27,050,43,12,34,103,37,25,68,092,42*77
$GPGSV,2,2,07,29,80,263,39,30,61,304,43,31,47,296,41,,,,*4D
$GPGSA,M,3,02,25,29,30,31,,,,,,,,12.7,7.9,10.0*3A
Trace #30 at position 7.250000
$GPZDA,100147.03,08,10,2011,00,00*6D
$GPRMC,100147.00,A,4611.966835,N,01258.209227,E,002.1,168.2,081011,0.2,E,A*34
$GPGGA,100148.00,4611.966185,N,01258.209370,E,1,05,7.8,122.29,M,46.25,M,,*63
$GPGLL,4611.966185,N,01258.209370,E,100148.00,A,A*63
$GPVTG,158.5,T,158.7,M,000.9,N,001.7,K,A*2E
$GPGSV,2,1,07,21,16,186,,02,27,050,43,12,34,103,37,25,68,092,41*76
$GPGSV,2,2,07,29,80,263,39,30,61,304,43,31,47,296,41,,,,*4D
$GPGSA,M,3,02,25,29,30,31,,,,,,,,12.7,7.8,10.0*3B
Trace #31 at position 7.500000
$GPZDA,100147.03,08,10,2011,00,00*6D
$GPRMC,100147.00,A,4611.966835,N,01258.209227,E,002.1,168.2,081011,0.2,E,A*34
$GPGGA,100148.00,4611.966185,N,01258.209370,E,1,05,7.8,122.29,M,46.25,M,,*63
$GPGLL,4611.966185,N,01258.209370,E,100148.00,A,A*63
$GPVTG,158.5,T,158.7,M,000.9,N,001.7,K,A*2E
$GPGSV,2,1,07,21,16,186,,02,27,050,43,12,34,103,37,25,68,092,41*76
$GPGSV,2,2,07,29,80,263,39,30,61,304,43,31,47,296,41,,,,*4D
$GPGSA,M,3,02,25,29,30,31,,,,,,,,12.7,7.8,10.0*3B
Trace #32 at position 7.750000
$GPZDA,100148.03,08,10,2011,00,00*62
$GPRMC,100148.00,A,4611.966185,N,01258.209370,E,000.9,158.5,081011,0.2,E,A*34
$GPGGA,100149.00,4611.965609,N,01258.209492,E,1,05,7.8,121.90,M,46.25,M,,*68
$GPGLL,4611.965609,N,01258.209492,E,100149.00,A,A*69
$GPVTG,170.8,T,171.0,M,001.7,N,003.2,K,A*2D
$GPGSV,2,1,07,21,16,186,32,02,27,050,44,12,34,103,37,25,68,092,41*70
$GPGSV,2,2,07,29,80,263,40,30,61,304,43,31,47,296,41,,,,*43
$GPGSA,M,3,02,25,29,30,31,,,,,,,,12.7,7.8,10.0*3B
Trace #33 at position 8.000000
$GPZDA,100148.03,08,10,2011,00,00*62
$GPRMC,100148.00,A,4611.966185,N,01258.209370,E,000.9,158.5,081011,0.2,E,A*34
$GPGGA,100149.00,4611.965609,N,01258.209492,E,1,05,7.8,121.90,M,46.25,M,,*68
$GPGLL,4611.965609,N,01258.209492,E,100149.00,A,A*69
$GPVTG,170.8,T,171.0,M,001.7,N,003.2,K,A*2D
$GPGSV,2,1,07,21,16,186,32,02,27,050,44,12,34,103,37,25,68,092,41*70
$GPGSV,2,2,07,29,80,263,40,30,61,304,43,31,47,296,41,,,,*43
$GPGSA,M,3,02,25,29,30,31,,,,,,,,12.7,7.8,10.0*3B
Trace #34 at position 8.250000
$GPZDA,100148.03,08,10,2011,00,00*62
$GPRMC,100148.00,A,4611.966185,N,01258.209370,E,000.9,158.5,081011,0.2,E,A*34
$GPGGA,100149.00,4611.965609,N,01258.209492,E,1,05,7.8,121.90,M,46.25,M,,*68
$GPGLL,4611.965609,N,01258.209492,E,100149.00,A,A*69
$GPVTG,170.8,T,171.0,M,001.7,N,003.2,K,A*2D
$GPGSV,2,1,07,21,16,186,32,02,27,050,44,12,34,103,37,25,68,092,41*70
$GPGSV,2,2,07,29,80,263,40,30,61,304,43,31,47,296,41,,,,*43
$GPGSA,M,3,02,25,29,30,31,,,,,,,,12.7,7.8,10.0*3B
Trace #35 at position 8.500000
$GPZDA,100148.03,08,10,2011,00,00*62
$GPRMC,100148.00,A,4611.966185,N,01258.209370,E,000.9,158.5,081011,0.2,E,A*34
$GPGGA,100149.00,4611.965609,N,01258.209492,E,1,05,7.8,121.90,M,46.25,M,,*68
$GPGLL,4611.965609,N,01258.209492,E,100149.00,A,A*69
$GPVTG,170.8,T,171.0,M,001.7,N,003.2,K,A*2D
$GPGSV,2,1,07,21,16,186,32,02,27,050,44,12,34,103,37,25,68,092,41*70
$GPGSV,2,2,07,29,80,263,40,30,61,304,43,31,47,296,41,,,,*43
$GPGSA,M,3,02,25,29,30,31,,,,,,,,12.7,7.8,10.0*3B
Trace #36 at position 8.750000
$GPZDA,100149.03,08,10,2011,00,00*63
$GPRMC,100149.00,A,4611.965609,N,01258.209492,E,001.7,170.8,081011,0.2,E,A*36
$GPGGA,100150.00,4611.965010,N,01258.209581,E,1,05,7.8,121.42,M,46.25,M,,*62
$GPGLL,4611.965010,N,01258.209581,E,100150.00,A,A*6C
$GPVTG,174.7,T,174.9,M,001.2,N,002.3,K,A*2F
$GPGSV,2,1,07,21,16,186,,02,27,050,43,12,34,103,38,25,68,092,42*7A
$GPGSV,2,2,07,29,80,263,39,30,61,304,43,31,47,296,41,,,,*4D
$GPGSA,M,3,02,25,29,30,31,,,,,,,,12.7,7.8,10.0*3B
Trace #37 at position 9.000000
$GPZDA,100149.03,08,10,2011,00,00*63
$GPRMC,100149.00,A,4611.965609,N,01258.209492,E,001.7,170.8,081011,0.2,E,A*36
$GPGGA,100150.00,4611.965010,N,01258.209581,E,1,05,7.8,121.42,M,46.25,M,,*62
$GPGLL,4611.965010,N,01258.209581,E,100150.00,A,A*6C
$GPVTG,174.7,T,174.9,M,001.2,N,002.3,K,A*2F
$GPGSV,2,1,07,21,16,186,,02,27,050,43,12,34,103,38,25,68,092,42*7A
$GPGSV,2,2,07,29,80,263,39,30,61,304,43,31,47,296,41,,,,*4D
$GPGSA,M,3,02,25,29,30,31,,,,,,,,12.7,7.8,10.0*3B
Trace #38 at position 9.250000
$GPZDA,100149.03,08,10,2011,00,00*63
$GPRMC,100149.00,A,4611.965609,N,01258.209492,E,001.7,170.8,081011,0.2,E,A*36
$GPGGA,100150.00,4611.965010,N,01258.209581,E,1,05,7.8,121.42,M,46.25,M,,*62
$GPGLL,4611.965010,N,01258.209581,E,100150.00,A,A*6C
$GPVTG,174.7,T,174.9,M,001.2,N,002.3,K,A*2F
$GPGSV,2,1,07,21,16,186,,02,27,050,43,12,34,103,38,25,68,092,42*7A
$GPGSV,2,2,07,29,80,263,39,30,61,304,43,31,47,296,41,,,,*4D
$GPGSA,M,3,02,25,29,30,31,,,,,,,,12.7,7.8,10.0*3B
Trace #39 at position 9.500000
$GPZDA,100150.03,08,10,2011,00,00*6B
$GPRMC,100150.00,A,4611.965010,N,01258.209581,E,001.2,174.7,081011,0.2,E,A*3D
$GPGGA,100151.00,4611.964455,N,01258.209577,E,1,05,7.8,121.08,M,46.25,M,,*60
$GPGLL,4611.964455,N,01258.209577,E,100151.00,A,A*60
$GPVTG,191.2,T,191.3,M,001.6,N,002.9,K,A*2E
$GPGSV,2,1,07,21,16,186,30,02,27,050,43,12,34,103,38,25,68,092,42*79
$GPGSV,2,2,07,29,80,263,39,30,61,304,43,31,47,296,41,,,,*4D
$GPGSA,M,3,02,25,29,30,31,,,,,,,,12.7,7.8,10.0*3B
Trace #40 at position 9.750000
$GPZDA,100150.03,08,10,2011,00,00*6B
$GPRMC,100150.00,A,4611.965010,N,01258.209581,E,001.2,174.7,081011,0.2,E,A*3D
$GPGGA,100151.00,4611.964455,N,01258.209577,E,1,05,7.8,121.08,M,46.25,M,,*60
$GPGLL,4611.964455,N,01258.209577,E,100151.00,A,A*60
$GPVTG,191.2,T,191.3,M,001.6,N,002.9,K,A*2E
$GPGSV,2,1,07,21,16,186,30,02,27,050,43,12,34,103,38,25,68,092,42*79
$GPGSV,2,2,07,29,80,263,39,30,61,304,43,31,47,296,41,,,,*4D
$GPGSA,M,3,02,25,29,30,31,,,,,,,,12.7,7.8,10.0*3B
Trace #41 at position 10.000000
$GPZDA,100150.03,08,10,2011,00,00*6B
$GPRMC,100150.00,A,4611.965010,N,01258.209581,E,001.2,174.7,081011,0.2,E,A*3D
$GPGGA,100151.00,4611.964455,N,01258.209577,E,1,05,7.8,121.08,M,46.25,M,,*60
$GPGLL,4611.964455,N,01258.209577,E,100151.00,A,A*60
$GPVTG,191.2,T,191.3,M,001.6,N,002.9,K,A*2E
$GPGSV,2,1,07,21,16,186,30,02,27,050,43,12,34,103,38,25,68,092,42*79
$GPGSV,2,2,07,29,80,263,39,30,61,304,43,31,47,296,41,,,,*4D
$GPGSA,M,3,02,25,29,30,31,,,,,,,,12.7,7.8,10.0*3B
Trace #42 at position 10.250000
$GPZDA,100150.03,08,10,2011,00,00*6B
$GPRMC,100150.00,A,4611.965010,N,01258.209581,E,001.2,174.7,081011,0.2,E,A*3D
$GPGGA,100151.00,4611.964455,N,01258.209577,E,1,05,7.8,121.08,M,46.25,M,,*60
$GPGLL,4611.964455,N,01258.209577,E,100151.00,A,A*60
$GPVTG,191.2,T,191.3,M,001.6,N,002.9,K,A*2E
$GPGSV,2,1,07,21,16,186,30,02,27,050,43,12,34,103,38,25,68,092,42*79
$GPGSV,2,2,07,29,80,263,39,30,61,304,43,31,47,296,41,,,,*4D
$GPGSA,M,3,02,25,29,30,31,,,,,,,,12.7,7.8,10.0*3B
Trace #43 at position 10.500000
$GPZDA,100151.03,08,10,2011,00,00*6A
$GPRMC,100151.00,A,4611.964455,N,01258.209577,E,001.6,191.2,081011,0.2,E,A*3B
$GPGGA,100152.00,4611.963875,N,01258.209668,E,1,05,7.8,120.77,M,46.25,M,,*6E
$GPGLL,4611.963875,N,01258.209668,E,100152.00,A,A*67
$GPVTG,162.5,T,162.6,M,001.7,N,003.1,K,A*24
$GPGSV,2,1,07,21,16,186,31,02,27,050,44,12,34,103,39,25,68,092,43*7F
$GPGSV,2,2,07,29,80,263,40,30,61,304,43,31,47,296,41,,,,*43
$GPGSA,M,3,02,25,29,30,31,,,,,,,,12.7,7.8,10.0*3B
Trace #44 at position 10.750000
$GPZDA,100151.03,08,10,2011,00,00*6A
$GPRMC,100151.00,A,4611.964455,N,01258.209577,E,001.6,191.2,081011,0.2,E,A*3B
$GPGGA,100152.00,4611.963875,N,01258.209668,E,1,05,7.8,120.77,M,46.25,M,,*6E
$GPGLL,4611.963875,N,01258.209668,E,100152.00,A,A*67
$GPVTG,162.5,T,162.6,M,001.7,N,003.1,K,A*24
$GPGSV,2,1,07,21,16,186,31,02,27,050,44,12,34,103,39,25,68,092,43*7F
$GPGSV,2,2,07,29,80,263,40,30,61,304,43,31,47,296,41,,,,*43
$GPGSA,M,3,02,25,29,30,31,,,,,,,,12.7,7.8,10.0*3B
Trace #45 at position 11.000000
$GPZDA,100151.03,08,10,2011,00,00*6A
$GPRMC,100151.00,A,4611.964455,N,01258.209577,E,001.6,191.2,081011,0.2,E,A*3B
$GPGGA,100152.00,4611.963875,N,01258.209668,E,1,05,7.8,120.77,M,46.25,M,,*6E
$GPGLL,4611.963875,N,01258.209668,E,100152.00,A,A*67
$GPVTG,162.5,T,162.6,M,001.7,N,003.1,K,A*24
$GPGSV,2,1,07,21,16,186,31,02,27,050,44,12,34,103,39,25,68,092,43*7F
$GPGSV,2,2,07,29,80,263,40,30,61,304,43,31,47,296,41,,,,*43
$GPGSA,M,3,02,25,29,30,31,,,,,,,,12.7,7.8,10.0*3B
Trace #46 at position 11.250000
$GPZDA,100152.03,08,10,2011,00,00*69
$GPRMC,100152.00,A,4611.963875,N,01258.209668,E,001.7,162.5,081011,0.2,E,A*36
$GPGGA,100153.00,4611.963278,N,01258.209855,E,1,05,7.8,120.48,M,46.25,M,,*64
$GPGLL,4611.963278,N,01258.209855,E,100153.00,A,A*61
$GPVTG,174.7,T,174.8,M,001.8,N,003.3,K,A*25
$GPGSV,2,1,07,21,16,186,29,02,27,050,44,12,34,103,38,25,68,092,42*76
$GPGSV,2,2,07,29,80,263,39,30,61,304,43,31,47,296,41,,,,*4D
$GPGSA,M,3,02,25,29,30,31,,,,,,,,12.7,7.8,10.0*3B
Trace #47 at position 11.500000
$GPZDA,100152.03,08,10,2011,00,00*69
$GPRMC,100152.00,A,4611.963875,N,01258.209668,E,001.7,162.5,081011,0.2,E,A*36
$GPGGA,100153.00,4611.963278,N,01258.209855,E,1,05,7.8,120.48,M,46.25,M,,*64
$GPGLL,4611.963278,N,01258.209855,E,100153.00,A,A*61
$GPVTG,174.7,T,174.8,M,001.8,N,003.3,K,A*25
$GPGSV,2,1,07,21,16,186,29,02,27,050,44,12,34,103,38,25,68,092,42*76
$GPGSV,2,2,07,29,80,263,39,30,61,304,43,31,47,296,41,,,,*4D
$GPGSA,M,3,02,25,29,30,31,,,,,,,,12.7,7.8,10.0*3B
Trace #48 at position 11.750000
$GPZDA,100152.03,08,10,2011,00,00*69
$GPRMC,100152.00,A,4611.963875,N,01258.209668,E,001.7,162.5,081011,0.2,E,A*36
$GPGGA,100153.00,4611.963278,N,01258.209855,E,1,05,7.8,120.48,M,46.25,M,,*64
$GPGLL,4611.963278,N,01258.209855,E,100153.00,A,A*61
$GPVTG,174.7,T,174.8,M,001.8,N,003.3,K,A*25
$GPGSV,2,1,07,21,16,186,29,02,27,050,44,12,34,103,38,25,68,092,42*76
$GPGSV,2,2,07,29,80,263,39,30,61,304,43,31,47,296,41,,,,*4D
$GPGSA,M,3,02,25,29,30,31,,,,,,,,12.7,7.8,10.0*3B
Trace #49 at position 12.000000
$GPZDA,100153.04,08,10,2011,00,00*6F
$GPRMC,100153.00,A,4611.963278,N,01258.209855,E,001.8,174.7,081011,0.2,E,A*3A
$GPGGA,100154.00,4611.962705,N,01258.210101,E,1,05,7.8,120.20,M,46.25,M,,*63
$GPGLL,4611.962705,N,01258.210101,E,100154.00,A,A*68
$GPVTG,152.8,T,152.9,M,001.8,N,003.3,K,A*2B
$GPGSV,2,1,07,21,16,186,27,02,27,050,43,12,34,103,37,25,68,092,40*72
$GPGSV,2,2,07,29,80,263,39,30,61,304,44,31,47,296,41,,,,*4A
$GPGSA,M,3,02,25,29,30,31,,,,,,,,12.7,7.8,10.0*3B
Trace #50 at position 12.250000
$GPZDA,100153.04,08,10,2011,00,00*6F
$GPRMC,100153.00,A,4611.963278,N,01258.209855,E,001.8,174.7,081011,0.2,E,A*3A
$GPGGA,100154.00,4611.962705,N,01258.210101,E,1,05,7.8,120.20,M,46.25,M,,*63
$GPGLL,4611.962705,N,01258.210101,E,100154.00,A,A*68
$GPVTG,152.8,T,152.9,M,001.8,N,003.3,K,A*2B
$GPGSV,2,1,07,21,16,186,27,02,27,050,43,12,34,103,37,25,68,092,40*72
$GPGSV,2,2,07,29,80,263,39,30,61,304,44,31,47,296,41,,,,*4A
$GPGSA,M,3,02,25,29,30,31,,,,,,,,12.7,7.8,10.0*3B
Trace #51 at position 12.500000
$GPZDA,100153.04,08,10,2011,00,00*6F
$GPRMC,100153.00,A,4611.963278,N,01258.209855,E,001.8,174.7,081011,0.2,E,A*3A
$GPGGA,100154.00,4611.962705,N,01258.210101,E,1,05,7.8,120.20,M,46.25,M,,*63
$GPGLL,4611.962705,N,01258.210101,E,100154.00,A,A*68
$GPVTG,152.8,T,152.9,M,001.8,N,003.3,K,A*2B
$GPGSV,2,1,07,21,16,186,27,02,27,050,43,12,34,103,37,25,68,092,40*72
$GPGSV,2,2,07,29,80,263,39,30,61,304,44,31,47,296,41,,,,*4A
$GPGSA,M,3,02,25,29,30,31,,,,,,,,12.7,7.8,10.0*3B
Trace #52 at position 12.750000
$GPZDA,100153.04,08,10,2011,00,00*6F
$GPRMC,100153.00,A,4611.963278,N,01258.209855,E,001.8,174.7,081011,0.2,E,A*3A
$GPGGA,100154.00,4611.962705,N,01258.210101,E,1,05,7.8,120.20,M,46.25,M,,*63
$GPGLL,4611.962705,N,01258.210101,E,100154.00,A,A*68
$GPVTG,152.8,T,152.9,M,001.8,N,003.3,K,A*2B
$GPGSV,2,1,07,21,16,186,27,02,27,050,43,12,34,103,37,25,68,092,40*72
$GPGSV,2,2,07,29,80,263,39,30,61,304,44,31,47,296,41,,,,*4A
$GPGSA,M,3,02,25,29,30,31,,,,,,,,12.7,7.8,10.0*3B
Trace #53 at position 13.000000
$GPZDA,100154.03,08,10,2011,00,00*6F
$GPRMC,100154.00,A,4611.962705,N,01258.210101,E,001.8,152.8,081011,0.2,E,A*38
$GPGGA,100155.00,4611.962187,N,01258.210270,E,1,05,7.8,119.97,M,46.25,M,,*6D
$GPGLL,4611.962187,N,01258.210270,E,100155.00,A,A*60
$GPVTG,188.0,T,188.1,M,001.4,N,002.7,K,A*22
$GPGSV,2,1,07,21,16,186,32,02,27,050,44,12,34,103,39,25,68,092,41*7E
$GPGSV,2,2,07,29,80,263,40,30,61,304,43,31,47,296,41,,,,*43
$GPGSA,M,3,02,25,29,30,31,,,,,,,,12.7,7.8,10.0*3B
Trace #54 at position 13.250000
$GPZDA,100154.03,08,10,2011,00,00*6F
$GPRMC,100154.00,A,4611.962705,N,01258.210101,E,001.8,152.8,081011,0.2,E,A*38
$GPGGA,100155.00,4611.962187,N,01258.210270,E,1,05,7.8,119.97,M,46.25,M,,*6D
$GPGLL,4611.962187,N,01258.210270,E,100155.00,A,A*60
$GPVTG,188.0,T,188.1,M,001.4,N,002.7,K,A*22
$GPGSV,2,1,07,21,16,186,32,02,27,050,44,12,34,103,39,25,68,092,41*7E
$GPGSV,2,2,07,29,80,263,40,30,61,304,43,31,47,296,41,,,,*43
$GPGSA,M,3,02,25,29,30,31,,,,,,,,12.7,7.8,10.0*3B
Trace #55 at position 13.500000
$GPZDA,100154.03,08,10,2011,00,00*6F
$GPRMC,100154.00,A,4611.962705,N,01258.210101,E,001.8,152.8,081011,0.2,E,A*38
$GPGGA,100155.00,4611.962187,N,01258.210270,E,1,05,7.8,119.97,M,46.25,M,,*6D
$GPGLL,4611.962187,N,01258.210270,E,100155.00,A,A*60
$GPVTG,188.0,T,188.1,M,001.4,N,002.7,K,A*22
$GPGSV,2,1,07,21,16,186,32,02,27,050,44,12,34,103,39,25,68,092,41*7E
$GPGSV,2,2,07,29,80,263,40,30,61,304,43,31,47,296,41,,,,*43
$GPGSA,M,3,02,25,29,30,31,,,,,,,,12.7,7.8,10.0*3B
Trace #56 at position 13.750000
$GPZDA,100155.03,08,10,2011,00,00*6E
$GPRMC,100155.00,A,4611.962187,N,01258.210270,E,001.4,188.0,081011,0.2,E,A*33
$GPGGA,100156.00,4611.961733,N,01258.210477,E,1,05,7.8,119.82,M,46.25,M,,*61
$GPGLL,4611.961733,N,01258.210477,E,100156.00,A,A*68
$GPVTG,140.5,T,140.6,M,001.5,N,002.8,K,A*2E
$GPGSV,2,1,07,21,16,186,28,02,27,050,43,12,34,103,,25,68,092,39*77
$GPGSV,2,2,07,29,80,263,39,30,61,304,43,31,47,296,41,,,,*4D
$GPGSA,M,3,02,25,29,30,31,,,,,,,,12.7,7.8,10.0*3B
Trace #57 at position 14.000000
$GPZDA,100155.03,08,10,2011,00,00*6E
$GPRMC,100155.00,A,4611.962187,N,01258.210270,E,001.4,188.0,081011,0.2,E,A*33
$GPGGA,100156.00,4611.961733,N,01258.210477,E,1,05,7.8,119.82,M,46.25,M,,*61
$GPGLL,4611.961733,N,01258.210477,E,100156.00,A,A*68
$GPVTG,140.5,T,140.6,M,001.5,N,002.8,K,A*2E
$GPGSV,2,1,07,21,16,186,28,02,27,050,43,12,34,103,,25,68,092,39*77
$GPGSV,2,2,07,29,80,263,39,30,61,304,43,31,47,296,41,,,,*4D
$GPGSA,M,3,02,25,29,30,31,,,,,,,,12.7,7.8,10.0*3B
Trace #58 at position 14.250000
$GPZDA,100155.03,08,10,2011,00,00*6E
$GPRMC,100155.00,A,4611.962187,N,01258.210270,E,001.4,188.0,081011,0.2,E,A*33
$GPGGA,100156.00,4611.961733,N,01258.210477,E,1,05,7.8,119.82,M,46.25,M,,*61
$GPGLL,4611.961733,N,01258.210477,E,100156.00,A,A*68
$GPVTG,140.5,T,140.6,M,001.5,N,002.8,K,A*2E
$GPGSV,2,1,07,21,16,186,28,02,27,050,43,12,34,103,,25,68,092,39*77
$GPGSV,2,2,07,29,80,263,39,30,61,304,43,31,47,296,41,,,,*4D
$GPGSA,M,3,02,25,29,30,31,,,,,,,,12.7,7.8,10.0*3B
Trace #59 at position 14.500000
$GPZDA,100156.03,08,10,2011,00,00*6D
$GPRMC,100156.00,A,4611.961733,N,01258.210477,E,001.5,140.5,081011,0.2,E,A*3B
$GPGGA,100157.00,4611.961261,N,01258.210860,E,1,05,7.8,119.57,M,46.25,M,,*60
$GPGLL,4611.961261,N,01258.210860,E,100157.00,A,A*61
$GPVTG,154.4,T,154.5,M,001.8,N,003.4,K,A*2C
$GPGSV,2,1,07,21,16,186,29,02,27,050,43,12,34,103,33,25,68,092,40*78
$GPGSV,2,2,07,29,80,263,39,30,61,304,44,31,47,296,41,,,,*4A
$GPGSA,M,3,02,25,29,30,31,,,,,,,,12.7,7.8,10.0*3B
Trace #60 at position 14.750000
$GPZDA,100156.03,08,10,2011,00,00*6D
$GPRMC,100156.00,A,4611.961733,N,01258.210477,E,001.5,140.5,081011,0.2,E,A*3B
$GPGGA,100157.00,4611.961261,N,01258.210860,E,1,05,7.8,119.57,M,46.25,M,,*60
$GPGLL,4611.961261,N,01258.210860,E,100157.00,A,A*61
$GPVTG,154.4,T,154.5,M,001.8,N,003.4,K,A*2C
$GPGSV,2,1,07,21,16,186,29,02,27,050,43,12,34,103,33,25,68,092,40*78
$GPGSV,2,2,07,29,80,263,39,30,61,304,44,31,47,296,41,,,,*4A
$GPGSA,M,3,02,25,29,30,31,,,,,,,,12.7,7.8,10.0*3B
Trace #61 at position 15.000000
$GPZDA,100156.03,08,10,2011,00,00*6D
$GPRMC,100156.00,A,4611.961733,N,01258.210477,E,001.5,140.5,081011,0.2,E,A*3B
$GPGGA,100157.00,4611.961261,N,01258.210860,E,1,05,7.8,119.57,M,46.25,M,,*60
$GPGLL,4611.961261,N,01258.210860,E,100157.00,A,A*61
$GPVTG,154.4,T,154.5,M,001.8,N,003.4,K,A*2C
$GPGSV,2,1,07,21,16,186,29,02,27,050,43,12,34,103,33,25,68,092,40*78
$GPGSV,2,2,07,29,80,263,39,30,61,304,44,31,47,296,41,,,,*4A
$GPGSA,M,3,02,25,29,30,31,,,,,,,,12.7,7.8,10.0*3B
Trace #62 at position 15.250000
$GPZDA,100156.03,08,10,2011,00,00*6D
$GPRMC,100156.00,A,4611.961733,N,01258.210477,E,001.5,140.5,081011,0.2,E,A*3B
$GPGGA,100157.00,4611.961261,N,01258.210860,E,1,05,7.8,119.57,M,46.25,M,,*60
$GPGLL,4611.961261,N,01258.210860,E,100157.00,A,A*61
$GPVTG,154.4,T,154.5,M,001.8,N,003.4,K,A*2C
$GPGSV,2,1,07,21,16,186,29,02,27,050,43,12,34,103,33,25,68,092,40*78
$GPGSV,2,2,07,29,80,263,39,30,61,304,44,31,47,296,41,,,,*4A
$GPGSA,M,3,02,25,29,30,31,,,,,,,,12.7,7.8,10.0*3B
Trace #63 at position 15.500000
$GPZDA,100157.03,08,10,2011,00,00*6C
$GPRMC,100157.00,A,4611.961261,N,01258.210860,E,001.8,154.4,081011,0.2,E,A*3B
$GPGGA,100158.00,4611.960756,N,01258.211062,E,1,05,7.8,119.40,M,46.25,M,,*62
$GPGLL,4611.960756,N,01258.211062,E,100158.00,A,A*65
$GPVTG,176.9,T,177.0,M,001.5,N,002.8,K,A*25
$GPGSV,2,1,07,21,16,186,32,02,27,050,44,12,33,103,33,25,68,092,40*72
$GPGSV,2,2,07,29,80,263,39,30,61,304,43,31,47,296,40,,,,*4C
$GPGSA,M,3,02,25,29,30,31,,,,,,,,12.6,7.8,9.9*0B
Trace #64 at position 15.750000
$GPZDA,100157.03,08,10,2011,00,00*6C
$GPRMC,100157.00,A,4611.961261,N,01258.210860,E,001.8,154.4,081011,0.2,E,A*3B
$GPGGA,100158.00,4611.960756,N,01258.211062,E,1,05,7.8,119.40,M,46.25,M,,*62
$GPGLL,4611.960756,N,01258.211062,E,100158.00,A,A*65
$GPVTG,176.9,T,177.0,M,001.5,N,002.8,K,A*25
$GPGSV,2,1,07,21,16,186,32,02,27,050,44,12,33,103,33,25,68,092,40*72
$GPGSV,2,2,07,29,80,263,39,30,61,304,43,31,47,296,40,,,,*4C
$GPGSA,M,3,02,25,29,30,31,,,,,,,,12.6,7.8,9.9*0B
Trace #65 at position 16.000000
$GPZDA,100157.03,08,10,2011,00,00*6C
$GPRMC,100157.00,A,4611.961261,N,01258.210860,E,001.8,154.4,081011,0.2,E,A*3B
$GPGGA,100158.00,4611.960756,N,01258.211062,E,1,05,7.8,119.40,M,46.25,M,,*62
$GPGLL,4611.960756,N,01258.211062,E,100158.00,A,A*65
$GPVTG,176.9,T,177.0,M,001.5,N,002.8,K,A*25
$GPGSV,2,1,07,21,16,186,32,02,27,050,44,12,33,103,33,25,68,092,40*72
$GPGSV,2,2,07,29,80,263,39,30,61,304,43,31,47,296,40,,,,*4C
$GPGSA,M,3,02,25,29,30,31,,,,,,,,12.6,7.8,9.9*0B
Trace #66 at position 16.250000
$GPZDA,100158.03,08,10,2011,00,00*63
$GPRMC,100158.00,A,4611.960756,N,01258.211062,E,001.5,176.9,081011,0.2,E,A*3F
$GPGGA,100159.00,4611.960228,N,01258.211159,E,1,05,7.8,119.25,M,46.25,M,,*65
$GPGLL,4611.960228,N,01258.211159,E,100159.00,A,A*61
$GPVTG,174.1,T,174.3,M,001.9,N,003.6,K,A*2C
$GPGSV,2,1,07,21,16,186,32,02,27,050,44,12,33,103,34,25,68,092,41*74
$GPGSV,2,2,07,29,80,263,38,30,61,304,43,31,47,296,41,,,,*4C
$GPGSA,M,3,02,25,29,30,31,,,,,,,,12.6,7.8,9.9*0B
Trace #67 at position 16.500000
$GPZDA,100158.03,08,10,2011,00,00*63
$GPRMC,100158.00,A,4611.960756,N,01258.211062,E,001.5,176.9,081011,0.2,E,A*3F
$GPGGA,100159.00,4611.960228,N,01258.211159,E,1,05,7.8,119.25,M,46.25,M,,*65
$GPGLL,4611.960228,N,01258.211159,E,100159.00,A,A*61
$GPVTG,174.1,T,174.3,M,001.9,N,003.6,K,A*2C
$GPGSV,2,1,07,21,16,186,32,02,27,050,44,12,33,103,34,25,68,092,41*74
$GPGSV,2,2,07,29,80,263,38,30,61,304,43,31,47,296,41,,,,*4C
$GPGSA,M,3,02,25,29,30,31,,,,,,,,12.6,7.8,9.9*0B
Trace #68 at position 16.750000
$GPZDA,100158.03,08,10,2011,00,00*63
$GPRMC,100158.00,A,4611.960756,N,01258.211062,E,001.5,176.9,081011,0.2,E,A*3F
$GPGGA,100159.00,4611.960228,N,01258.211159,E,1,05,7.8,119.25,M,46.25,M,,*65
$GPGLL,4611.960228,N,01258.211159,E,100159.00,A,A*61
$GPVTG,174.1,T,174.3,M,001.9,N,003.6,K,A*2C
$GPGSV,2,1,07,21,16,186,32,02,27,050,44,12,33,103,34,25,68,092,41*74
$GPGSV,2,2,07,29,80,263,38,30,61,304,43,31,47,296,41,,,,*4C
$GPGSA,M,3,02,25,29,30,31,,,,,,,,12.6,7.8,9.9*0B
Trace #69 at position 17.000000
$GPZDA,100159.03,08,10,2011,00,00*62
$GPRMC,100159.00,A,4611.960228,N,01258.211159,E,001.9,174.1,081011,0.2,E,A*3D
$GPGGA,100200.00,4611.959670,N,01258.211278,E,1,05,7.8,118.90,M,46.25,M,,*66
$GPGLL,4611.959670,N,01258.211278,E,100200.00,A,A*6D
$GPVTG,175.0,T,175.2,M,001.8,N,003.4,K,A*2F
$GPGSV,2,1,07,21,17,186,30,02,27,050,43,12,33,103,34,25,68,092,41*70
$GPGSV,2,2,07,29,80,263,39,30,61,304,43,31,47,296,40,,,,*4C
$GPGSA,M,3,02,25,29,30,31,,,,,,,,12.6,7.8,9.9*0B
Trace #70 at position 17.250000
$GPZDA,100159.03,08,10,2011,00,00*62
$GPRMC,100159.00,A,4611.960228,N,01258.211159,E,001.9,174.1,081011,0.2,E,A*3D
$GPGGA,100200.00,4611.959670,N,01258.211278,E,1,05,7.8,118.90,M,46.25,M,,*66
$GPGLL,4611.959670,N,01258.211278,E,100200.00,A,A*6D
$GPVTG,175.0,T,175.2,M,001.8,N,003.4,K,A*2F
$GPGSV,2,1,07,21,17,186,30,02,27,050,43,12,33,103,34,25,68,092,41*70
$GPGSV,2,2,07,29,80,263,39,30,61,304,43,31,47,296,40,,,,*4C
$GPGSA,M,3,02,25,29,30,31,,,,,,,,12.6,7.8,9.9*0B
Trace #71 at position 17.500000
$GPZDA,100159.03,08,10,2011,00,00*62
$GPRMC,100159.00,A,4611.960228,N,01258.211159,E,001.9,174.1,081011,0.2,E,A*3D
$GPGGA,100200.00,4611.959670,N,01258.211278,E,1,05,7.8,118.90,M,46.25,M,,*66
$GPGLL,4611.959670,N,01258.211278,E,100200.00,A,A*6D
$GPVTG,175.0,T,175.2,M,001.8,N,003.4,K,A*2F
$GPGSV,2,1,07,21,17,186,30,02,27,050,43,12,33,103,34,25,68,092,41*70
$GPGSV,2,2,07,29,80,263,39,30,61,304,43,31,47,296,40,,,,*4C
$GPGSA,M,3,02,25,29,30,31,,,,,,,,12.6,7.8,9.9*0B
Trace #72 at position 17.750000
$GPZDA,100200.03,08,10,2011,00,00*6D
$GPRMC,100200.00,A,4611.959670,N,01258.211278,E,001.8,175.0,081011,0.2,E,A*30
$GPGGA,100201.00,4611.959147,N,01258.211421,E,1,05,7.8,118.65,M,46.25,M,,*64
$GPGLL,4611.959147,N,01258.211421,E,100201.00,A,A*65
$GPVTG,170.7,T,170.8,M,001.8,N,003.3,K,A*25
$GPGSV,2,1,07,21,17,186,31,02,27,050,43,12,33,103,34,25,68,092,41*71
$GPGSV,2,2,07,29,80,263,40,30,61,304,43,31,47,296,40,,,,*42
$GPGSA,M,3,02,25,29,30,31,,,,,,,,12.6,7.8,9.9*0B
Trace #73 at position 18.000000
$GPZDA,100200.03,08,10,2011,00,00*6D
$GPRMC,100200.00,A,4611.959670,N,01258.211278,E,001.8,175.0,081011,0.2,E,A*30
$GPGGA,100201.00,4611.959147,N,01258.211421,E,1,05,7.8,118.65,M,46.25,M,,*64
$GPGLL,4611.959147,N,01258.211421,E,100201.00,A,A*65
$GPVTG,170.7,T,170.8,M,001.8,N,003.3,K,A*25
$GPGSV,2,1,07,21,17,186,31,02,27,050,43,12,33,103,34,25,68,092,41*71
$GPGSV,2,2,07,29,80,263,40,30,61,304,43,31,47,296,40,,,,*42
$GPGSA,M,3,02,25,29,30,31,,,,,,,,12.6,7.8,9.9*0B
Trace #74 at position 18.250000
$GPZDA,100200.03,08,10,2011,00,00*6D
$GPRMC,100200.00,A,4611.959670,N,01258.211278,E,001.8,175.0,081011,0.2,E,A*30
$GPGGA,100201.00,4611.959147,N,01258.211421,E,1,05,7.8,118.65,M,46.25,M,,*64
$GPGLL,4611.959147,N,01258.211421,E,100201.00,A,A*65
$GPVTG,170.7,T,170.8,M,001.8,N,003.3,K,A*25
$GPGSV,2,1,07,21,17,186,31,02,27,050,43,12,33,103,34,25,68,092,41*71
$GPGSV,2,2,07,29,80,263,40,30,61,304,43,31,47,296,40,,,,*42
$GPGSA,M,3,02,25,29,30,31,,,,,,,,12.6,7.8,9.9*0B
Trace #75 at position 18.500000
$GPZDA,100200.03,08,10,2011,00,00*6D
$GPRMC,100200.00,A,4611.959670,N,01258.211278,E,001.8,175.0,081011,0.2,E,A*30
$GPGGA,100201.00,4611.959147,N,01258.211421,E,1,05,7.8,118.65,M,46.25,M,,*64
$GPGLL,4611.959147,N,01258.211421,E,100201.00,A,A*65
$GPVTG,170.7,T,170.8,M,001.8,N,003.3,K,A*25
$GPGSV,2,1,07,21,17,186,31,02,27,050,43,12,33,103,34,25,68,092,41*71
$GPGSV,2,2,07,29,80,263,40,30,61,304,43,31,47,296,40,,,,*42
$GPGSA,M,3,02,25,29,30,31,,,,,,,,12.6,7.8,9.9*0B
Trace #76 at position 18.750000
$GPZDA,100201.03,08,10,2011,00,00*6C
$GPRMC,100201.00,A,4611.959147,N,01258.211421,E,001.8,170.7,081011,0.2,E,A*3A
$GPGGA,100202.00,4611.958677,N,01258.211641,E,1,05,7.8,118.43,M,46.25,M,,*62
$GPGLL,4611.958677,N,01258.211641,E,100202.00,A,A*67
$GPVTG,158.4,T,158.5,M,001.6,N,002.9,K,A*2E
$GPGSV,2,1,07,21,17,186,31,02,27,050,43,12,33,103,35,25,68,092,42*73
$GPGSV,2,2,07,29,80,263,40,30,61,304,43,31,48,296,40,,,,*4D
$GPGSA,M,3,02,25,29,30,31,,,,,,,,12.6,7.8,9.9*0B
Trace #77 at position 19.000000
$GPZDA,100201.03,08,10,2011,00,00*6C
$GPRMC,100201.00,A,4611.959147,N,01258.211421,E,001.8,170.7,081011,0.2,E,A*3A
$GPGGA,100202.00,4611.958677,N,01258.211641,E,1,05,7.8,118.43,M,46.25,M,,*62
$GPGLL,4611.958677,N,01258.211641,E,100202.00,A,A*67
$GPVTG,158.4,T,158.5,M,001.6,N,002.9,K,A*2E
$GPGSV,2,1,07,21,17,186,31,02,27,050,43,12,33,103,35,25,68,092,42*73
$GPGSV,2,2,07,29,80,263,40,30,61,304,43,31,48,296,40,,,,*4D
$GPGSA,M,3,02,25,29,30,31,,,,,,,,12.6,7.8,9.9*0B
Trace #78 at position 19.250000
$GPZDA,100201.03,08,10,2011,00,00*6C
$GPRMC,100201.00,A,4611.959147,N,01258.211421,E,001.8,170.7,081011,0.2,E,A*3A
$GPGGA,100202.00,4611.958677,N,01258.211641,E,1,05,7.8,118.43,M,46.25,M,,*62
$GPGLL,4611.958677,N,01258.211641,E,100202.00,A,A*67
$GPVTG,158.4,T,158.5,M,001.6,N,002.9,K,A*2E
$GPGSV,2,1,07,21,17,186,31,02,27,050,43,12,33,103,35,25,68,092,42*73
$GPGSV,2,2,07,29,80,263,40,30,61,304,43,31,48,296,40,,,,*4D
$GPGSA,M,3,02,25,29,30,31,,,,,,,,12.6,7.8,9.9*0B
Trace #79 at position 19.500000
$GPZDA,100202.03,08,10,2011,00,00*6F
$GPRMC,100202.00,A,4611.958677,N,01258.211641,E,001.6,158.4,081011,0.2,E,A*3F
$GPGGA,100203.00,4611.958257,N,01258.211925,E,1,05,7.8,118.32,M,46.25,M,,*6E
$GPGLL,4611.958257,N,01258.211925,E,100203.00,A,A*6D
$GPVTG,154.4,T,154.5,M,001.6,N,002.9,K,A*2E
$GPGSV,2,1,07,21,17,186,,02,27,050,44,12,33,103,34,25,68,092,41*74
$GPGSV,2,2,07,29,80,263,39,30,61,304,43,31,48,296,40,,,,*43
$GPGSA,M,3,02,25,29,30,31,,,,,,,,12.6,7.8,9.9*0B
Trace #80 at position 19.750000
$GPZDA,100202.03,08,10,2011,00,00*6F
$GPRMC,100202.00,A,4611.958677,N,01258.211641,E,001.6,158.4,081011,0.2,E,A*3F
$GPGGA,100203.00,4611.958257,N,01258.211925,E,1,05,7.8,118.32,M,46.25,M,,*6E
$GPGLL,4611.958257,N,01258.211925,E,100203.00,A,A*6D
$GPVTG,154.4,T,154.5,M,001.6,N,002.9,K,A*2E
$GPGSV,2,1,07,21,17,186,,02,27,050,44,12,33,103,34,25,68,092,41*74
$GPGSV,2,2,07,29,80,263,39,30,61,304,43,31,48,296,40,,,,*43
$GPGSA,M,3,02,25,29,30,31,,,,,,,,12.6,7.8,9.9*0B
Trace #81 at position 20.000000
$GPZDA,100202.03,08,10,2011,00,00*6F
$GPRMC,100202.00,A,4611.958677,N,01258.211641,E,001.6,158.4,081011,0.2,E,A*3F
$GPGGA,100203.00,4611.958257,N,01258.211925,E,1,05,7.8,118.32,M,46.25,M,,*6E
$GPGLL,4611.958257,N,01258.211925,E,100203.00,A,A*6D
$GPVTG,154.4,T,154.5,M,001.6,N,002.9,K,A*2E
$GPGSV,2,1,07,21,17,186,,02,27,050,44,12,33,103,34,25,68,092,41*74
$GPGSV,2,2,07,29,80,263,39,30,61,304,43,31,48,296,40,,,,*43
$GPGSA,M,3,02,25,29,30,31,,,,,,,,12.6,7.8,9.9*0B
Trace #82 at position 20.250000
$GPZDA,100202.03,08,10,2011,00,00*6F
$GPRMC,100202.00,A,4611.958677,N,01258.211641,E,001.6,158.4,081011,0.2,E,A*3F
$GPGGA,100203.00,4611.958257,N,01258.211925,E,1,05,7.8,118.32,M,46.25,M,,*6E
$GPGLL,4611.958257,N,01258.211925,E,100203.00,A,A*6D
$GPVTG,154.4,T,154.5,M,001.6,N,002.9,K,A*2E
$GPGSV,2,1,07,21,17,186,,02,27,050,44,12,33,103,34,25,68,092,41*74
$GPGSV,2,2,07,29,80,263,39,30,61,304,43,31,48,296,40,,,,*43
$GPGSA,M,3,02,25,29,30,31,,,,,,,,12.6,7.8,9.9*0B
Trace #83 at position 20.500000
$GPZDA,100203.03,08,10,2011,00,00*6E
$GPRMC,100203.00,A,4611.958257,N,01258.211925,E,001.6,154.4,081011,0.2,E,A*39
$GPGGA,100204.00,4611.957872,N,01258.212151,E,1,05,7.8,118.45,M,46.25,M,,*63
$GPGLL,4611.957872,N,01258.212151,E,100204.00,A,A*60
$GPVTG,165.9,T,166.1,M,001.2,N,002.2,K,A*2B
$GPGSV,2,1,07,21,17,186,31,02,27,050,44,12,33,103,34,25,68,092,42*75
$GPGSV,2,2,07,29,80,263,39,30,61,304,43,31,48,296,41,,,,*42
$GPGSA,M,3,02,25,29,30,31,,,,,,,,12.6,7.8,9.9*0B
Trace #84 at position 20.750000
$GPZDA,100203.03,08,10,2011,00,00*6E
$GPRMC,100203.00,A,4611.958257,N,01258.211925,E,001.6,154.4,081011,0.2,E,A*39
$GPGGA,100204.00,4611.957872,N,01258.212151,E,1,05,7.8,118.45,M,46.25,M,,*63
$GPGLL,4611.957872,N,01258.212151,E,100204.00,A,A*60
$GPVTG,165.9,T,166.1,M,001.2,N,002.2,K,A*2B
$GPGSV,2,1,07,21,17,186,31,02,27,050,44,12,33,103,34,25,68,092,42*75
$GPGSV,2,2,07,29,80,263,39,30,61,304,43,31,48,296,41,,,,*42
$GPGSA,M,3,02,25,29,30,31,,,,,,,,12.6,7.8,9.9*0B
Trace #85 at position 21.000000
$GPZDA,100203.03,08,10,2011,00,00*6E
$GPRMC,100203.00,A,4611.958257,N,01258.211925,E,001.6,154.4,081011,0.2,E,A*39
$GPGGA,100204.00,4611.957872,N,01258.212151,E,1,05,7.8,118.45,M,46.25,M,,*63
$GPGLL,4611.957872,N,01258.212151,E,100204.00,A,A*60
$GPVTG,165.9,T,166.1,M,001.2,N,002.2,K,A*2B
$GPGSV,2,1,07,21,17,186,31,02,27,050,44,12,33,103,34,25,68,092,42*75
$GPGSV,2,2,07,29,80,263,39,30,61,304,43,31,48,296,41,,,,*42
$GPGSA,M,3,02,25,29,30,31,,,,,,,,12.6,7.8,9.9*0B
Trace #86 at position 21.250000
$GPZDA,100204.03,08,10,2011,00,00*69
$GPRMC,100204.00,A,4611.957872,N,01258.212151,E,001.2,165.9,081011,0.2,E,A*3F
$GPGGA,100205.00,4611.957478,N,01258.212317,E,1,05,7.8,118.50,M,46.25,M,,*60
$GPGLL,4611.957478,N,01258.212317,E,100205.00,A,A*67
$GPVTG,166.4,T,166.5,M,001.5,N,002.8,K,A*2C
$GPGSV,2,1,07,21,17,186,31,02,27,050,44,12,33,103,32,25,68,092,41*70
$GPGSV,2,2,07,29,80,263,39,30,61,304,42,31,48,296,41,,,,*43
$GPGSA,M,3,02,25,29,30,31,,,,,,,,12.6,7.8,9.9*0B
Trace #87 at position 21.500000
$GPZDA,100204.03,08,10,2011,00,00*69
$GPRMC,100204.00,A,4611.957872,N,01258.212151,E,001.2,165.9,081011,0.2,E,A*3F
$GPGGA,100205.00,4611.957478,N,01258.212317,E,1,05,7.8,118.50,M,46.25,M,,*60
$GPGLL,4611.957478,N,01258.212317,E,100205.00,A,A*67
$GPVTG,166.4,T,166.5,M,001.5,N,002.8,K,A*2C
$GPGSV,2,1,07,21,17,186,31,02,27,050,44,12,33,103,32,25,68,092,41*70
$GPGSV,2,2,07,29,80,263,39,30,61,304,42,31,48,296,41,,,,*43
$GPGSA,M,3,02,25,29,30,31,,,,,,,,12.6,7.8,9.9*0B
Trace #88 at position 21.750000
$GPZDA,100204.03,08,10,2011,00,00*69
$GPRMC,100204.00,A,4611.957872,N,01258.212151,E,001.2,165.9,081011,0.2,E,A*3F
$GPGGA,100205.00,4611.957478,N,01258.212317,E,1,05,7.8,118.50,M,46.25,M,,*60
$GPGLL,4611.957478,N,01258.212317,E,100205.00,A,A*67
$GPVTG,166.4,T,166.5,M,001.5,N,002.8,K,A*2C
$GPGSV,2,1,07,21,17,186,31,02,27,050,44,12,33,103,32,25,68,092,41*70
$GPGSV,2,2,07,29,80,263,39,30,61,304,42,31,48,296,41,,,,*43
$GPGSA,M,3,02,25,29,30,31,,,,,,,,12.6,7.8,9.9*0B
Trace #89 at position 22.000000
$GPZDA,100205.03,08,10,2011,00,00*68
$GPRMC,100205.00,A,4611.957478,N,01258.212317,E,001.5,166.4,081011,0.2,E,A*31
$GPGGA,100206.00,4611.956951,N,01258.212428,E,1,05,7.8,118.33,M,46.25,M,,*6A
$GPGLL,4611.956951,N,01258.212428,E,100206.00,A,A*68
$GPVTG,180.5,T,180.7,M,002.2,N,004.0,K,A*25
$GPGSV,2,1,07,21,17,186,33,02,27,050,43,12,33,103,35,25,68,092,41*72
$GPGSV,2,2,07,29,80,263,40,30,61,304,43,31,48,296,40,,,,*4D
$GPGSA,M,3,02,25,29,30,31,,,,,,,,12.6,7.8,9.9*0B
Trace #90 at position 22.250000
$GPZDA,100205.03,08,10,2011,00,00*68
$GPRMC,100205.00,A,4611.957478,N,01258.212317,E,001.5,166.4,081011,0.2,E,A*31
$GPGGA,100206.00,4611.956951,N,01258.212428,E,1,05,7.8,118.33,M,46.25,M,,*6A
$GPGLL,4611.956951,N,01258.212428,E,100206.00,A,A*68
$GPVTG,180.5,T,180.7,M,002.2,N,004.0,K,A*25
$GPGSV,2,1,07,21,17,186,33,02,27,050,43,12,33,103,35,25,68,092,41*72
$GPGSV,2,2,07,29,80,263,40,30,61,304,43,31,48,296,40,,,,*4D
$GPGSA,M,3,02,25,29,30,31,,,,,,,,12.6,7.8,9.9*0B
Trace #91 at position 22.500000
$GPZDA,100205.03,08,10,2011,00,00*68
$GPRMC,100205.00,A,4611.957478,N,01258.212317,E,001.5,166.4,081011,0.2,E,A*31
$GPGGA,100206.00,4611.956951,N,01258.212428,E,1,05,7.8,118.33,M,46.25,M,,*6A
$GPGLL,4611.956951,N,01258.212428,E,100206.00,A,A*68
$GPVTG,180.5,T,180.7,M,002.2,N,004.0,K,A*25
$GPGSV,2,1,07,21,17,186,33,02,27,050,43,12,33,103,35,25,68,092,41*72
$GPGSV,2,2,07,29,80,263,40,30,61,304,43,31,48,296,40,,,,*4D
$GPGSA,M,3,02,25,29,30,31,,,,,,,,12.6,7.8,9.9*0B
Trace #92 at position 22.750000
$GPZDA,100205.03,08,10,2011,00,00*68
$GPRMC,100205.00,A,4611.957478,N,01258.212317,E,001.5,166.4,081011,0.2,E,A*31
$GPGGA,100206.00,4611.956951,N,01258.212428,E,1,05,7.8,118.33,M,46.25,M,,*6A
$GPGLL,4611.956951,N,01258.212428,E,100206.00,A,A*68
$GPVTG,180.5,T,180.7,M,002.2,N,004.0,K,A*25
$GPGSV,2,1,07,21,17,186,33,02,27,050,43,12,33,103,35,25,68,092,41*72
$GPGSV,2,2,07,29,80,263,40,30,61,304,43,31,48,296,40,,,,*4D
$GPGSA,M,3,02,25,29,30,31,,,,,,,,12.6,7.8,9.9*0B
Trace #93 at position 23.000000
$GPZDA,100206.03,08,10,2011,00,00*6B
$GPRMC,100206.00,A,4611.956951,N,01258.212428,E,002.2,180.5,081011,0.2,E,A*33
$GPGGA,100207.00,4611.956342,N,01258.212583,E,1,05,7.8,118.00,M,46.25,M,,*63
$GPGLL,4611.956342,N,01258.212583,E,100207.00,A,A*61
$GPVTG,165.9,T,166.1,M,002.2,N,004.1,K,A*2D
$GPGSV,2,1,07,21,17,186,33,02,27,050,43,12,33,103,32,25,68,092,42*76
$GPGSV,2,2,07,29,80,263,40,30,61,304,42,31,48,296,40,,,,*4C
$GPGSA,M,3,02,25,29,30,31,,,,,,,,12.6,7.8,9.9*0B
Trace #94 at position 23.250000
$GPZDA,100206.03,08,10,2011,00,00*6B
$GPRMC,100206.00,A,4611.956951,N,01258.212428,E,002.2,180.5,081011,0.2,E,A*33
$GPGGA,100207.00,4611.956342,N,01258.212583,E,1,05,7.8,118.00,M,46.25,M,,*63
$GPGLL,4611.956342,N,01258.212583,E,100207.00,A,A*61
$GPVTG,165.9,T,166.1,M,002.2,N,004.1,K,A*2D
$GPGSV,2,1,07,21,17,186,33,02,27,050,43,12,33,103,32,25,68,092,42*76
$GPGSV,2,2,07,29,80,263,40,30,61,304,42,31,48,296,40,,,,*4C
$GPGSA,M,3,02,25,29,30,31,,,,,,,,12.6,7.8,9.9*0B
Trace #95 at position 23.500000
$GPZDA,100206.03,08,10,2011,00,00*6B
$GPRMC,100206.00,A,4611.956951,N,01258.212428,E,002.2,180.5,081011,0.2,E,A*33
$GPGGA,100207.00,4611.956342,N,01258.212583,E,1,05,7.8,118.00,M,46.25,M,,*63
$GPGLL,4611.956342,N,01258.212583,E,100207.00,A,A*61
$GPVTG,165.9,T,166.1,M,002.2,N,004.1,K,A*2D
$GPGSV,2,1,07,21,17,186,33,02,27,050,43,12,33,103,32,25,68,092,42*76
$GPGSV,2,2,07,29,80,263,40,30,61,304,42,31,48,296,40,,,,*4C
$GPGSA,M,3,02,25,29,30,31,,,,,,,,12.6,7.8,9.9*0B
Trace #96 at position 23.750000
$GPZDA,100207.03,08,10,2011,00,00*6A
$GPRMC,100207.00,A,4611.956342,N,01258.212583,E,002.2,165.9,081011,0.2,E,A*3D
$GPGGA,100208.00,4611.955888,N,01258.212888,E,1,05,7.8,117.88,M,46.25,M,,*6B
$GPGLL,4611.955888,N,01258.212888,E,100208.00,A,A*66
$GPVTG,147.1,T,147.3,M,001.4,N,002.7,K,A*21
$GPGSV,2,1,07,21,17,186,32,02,27,050,44,12,33,103,32,25,68,092,44*76
$GPGSV,2,2,07,29,80,263,41,30,61,304,43,31,48,296,41,,,,*4D
$GPGSA,M,3,02,25,29,30,31,,,,,,,,12.6,7.8,9.9*0B
Trace #97 at position 24.000000
$GPZDA,100207.03,08,10,2011,00,00*6A
$GPRMC,100207.00,A,4611.956342,N,01258.212583,E,002.2,165.9,081011,0.2,E,A*3D
$GPGGA,100208.00,4611.955888,N,01258.212888,E,1,05,7.8,117.88,M,46.25,M,,*6B
$GPGLL,4611.955888,N,01258.212888,E,100208.00,A,A*66
$GPVTG,147.1,T,147.3,M,001.4,N,002.7,K,A*21
$GPGSV,2,1,07,21,17,186,32,02,27,050,44,12,33,103,32,25,68,092,44*76
$GPGSV,2,2,07,29,80,263,41,30,61,304,43,31,48,296,41,,,,*4D
$GPGSA,M,3,02,25,29,30,31,,,,,,,,12.6,7.8,9.9*0B
Trace #98 at position 24.250000
$GPZDA,100208.03,08,10,2011,00,00*65
$GPRMC,100208.00,A,4611.955888,N,01258.212888,E,001.4,147.1,081011,0.2,E,A*37
$GPGGA,100209.00,4611.955499,N,01258.213212,E,1,05,7.8,117.70,M,46.25,M,,*69
$GPGLL,4611.955499,N,01258.213212,E,100209.00,A,A*63
$GPVTG,157.0,T,157.2,M,001.8,N,003.3,K,A*28
$GPGSV,2,1,07,21,17,186,32,02,27,050,44,12,33,103,,25,68,092,41*72
$GPGSV,2,2,07,29,80,264,39,30,61,305,43,31,48,296,41,,,,*44
$GPGSA,M,3,02,25,29,30,31,,,,,,,,12.6,7.8,9.9*0B
Trace #99 at position 24.500000
$GPZDA,100211.03,08,10,2011,00,00*6D
$GPRMC,100211.00,A,4611.954868,N,01258.213785,E,000.7,182.0,081011,0.2,E,A*39
$GPGGA,100212.00,4611.954754,N,01258.213746,E,1,05,7.8,117.56,M,46.25,M,,*60
$GPGLL,4611.954754,N,01258.213746,E,100212.00,A,A*6E
$GPVTG,204.9,T,205.1,M,000.3,N,000.6,K,A*2F
$GPGSV,2,1,07,21,17,186,34,02,27,050,43,12,33,103,34,25,68,092,40*75
$GPGSV,2,2,07,29,80,264,37,30,61,305,42,31,48,296,40,,,,*4A
$GPGSA,M,3,02,25,29,30,31,,,,,,,,12.5,7.8,9.9*08
Trace #100 at position 24.750000
$GPZDA,100211.03,08,10,2011,00,00*6D
$GPRMC,100211.00,A,4611.954868,N,01258.213785,E,000.7,182.0,081011,0.2,E,A*39
$GPGGA,100212.00,4611.954754,N,01258.213746,E,1,05,7.8,117.56,M,46.25,M,,*60
$GPGLL,4611.954754,N,01258.213746,E,100212.00,A,A*6E
$GPVTG,204.9,T,205.1,M,000.3,N,000.6,K,A*2F
$GPGSV,2,1,07,21,17,186,34,02,27,050,43,12,33,103,34,25,68,092,40*75
$GPGSV,2,2,07,29,80,264,37,30,61,305,42,31,48,296,40,,,,*4A
$GPGSA,M,3,02,25,29,30,31,,,,,,,,12.5,7.8,9.9*08
Trace #101 at position 25.000000
$GPZDA,100212.03,08,10,2011,00,00*6E
$GPRMC,100212.00,A,4611.954754,N,01258.213746,E,000.3,204.9,081011,0.2,E,A*35
$GPGGA,100213.00,4611.954754,N,01258.213722,E,1,05,7.7,117.67,M,46.25,M,,*6E
$GPGLL,4611.954754,N,01258.213722,E,100213.00,A,A*6D
$GPVTG,8.8,T,9.0,M,000.2,N,000.3,K,A*2B
$GPGSV,2,1,07,21,17,186,34,02,27,050,40,12,33,104,35,25,68,092,41*71
$GPGSV,2,2,07,29,80,264,37,30,61,305,42,31,48,296,39,,,,*44
$GPGSA,M,3,02,25,29,30,31,,,,,,,,12.5,7.7,9.9*07
Trace #102 at position 25.250000
$GPZDA,100212.03,08,10,2011,00,00*6E
$GPRMC,100212.00,A,4611.954754,N,01258.213746,E,000.3,204.9,081011,0.2,E,A*35
$GPGGA,100213.00,4611.954754,N,01258.213722,E,1,05,7.7,117.67,M,46.25,M,,*6E
$GPGLL,4611.954754,N,01258.213722,E,100213.00,A,A*6D
$GPVTG,8.8,T,9.0,M,000.2,N,000.3,K,A*2B
$GPGSV,2,1,07,21,17,186,34,02,27,050,40,12,33,104,35,25,68,092,41*71
$GPGSV,2,2,07,29,80,264,37,30,61,305,42,31,48,296,39,,,,*44
$GPGSA,M,3,02,25,29,30,31,,,,,,,,12.5,7.7,9.9*07
Trace #103 at position 25.500000
$GPZDA,100212.03,08,10,2011,00,00*6E
$GPRMC,100212.00,A,4611.954754,N,01258.213746,E,000.3,204.9,081011,0.2,E,A*35
$GPGGA,100213.00,4611.954754,N,01258.213722,E,1,05,7.7,117.67,M,46.25,M,,*6E
$GPGLL,4611.954754,N,01258.213722,E,100213.00,A,A*6D
$GPVTG,8.8,T,9.0,M,000.2,N,000.3,K,A*2B
$GPGSV,2,1,07,21,17,186,34,02,27,050,40,12,33,104,35,25,68,092,41*71
$GPGSV,2,2,07,29,80,264,37,30,61,305,42,31,48,296,39,,,,*44
$GPGSA,M,3,02,25,29,30,31,,,,,,,,12.5,7.7,9.9*07
Trace #104 at position 25.750000
$GPZDA,100212.03,08,10,2011,00,00*6E
$GPRMC,100212.00,A,4611.954754,N,01258.213746,E,000.3,204.9,081011,0.2,E,A*35
$GPGGA,100213.00,4611.954754,N,01258.213722,E,1,05,7.7,117.67,M,46.25,M,,*6E
$GPGLL,4611.954754,N,01258.213722,E,100213.00,A,A*6D
$GPVTG,8.8,T,9.0,M,000.2,N,000.3,K,A*2B
$GPGSV,2,1,07,21,17,186,34,02,27,050,40,12,33,104,35,25,68,092,41*71
$GPGSV,2,2,07,29,80,264,37,30,61,305,42,31,48,296,39,,,,*44
$GPGSA,M,3,02,25,29,30,31,,,,,,,,12.5,7.7,9.9*07
Trace #105 at position 26.000000
$GPZDA,100213.03,08,10,2011,00,00*6F
$GPRMC,100213.00,A,4611.954754,N,01258.213722,E,000.2,8.8,081011,0.2,E,A*38
$GPGGA,100214.00,4611.954652,N,01258.213706,E,1,05,7.7,117.59,M,46.25,M,,*65
$GPGLL,4611.954652,N,01258.213706,E,100214.00,A,A*6B
$GPVTG,185.7,T,185.8,M,001.1,N,002.0,K,A*2E
$GPGSV,2,1,07,21,17,186,35,02,27,050,44,12,33,104,36,25,68,092,42*74
$GPGSV,2,2,07,29,80,264,39,30,61,305,43,31,48,296,40,,,,*45
$GPGSA,M,3,02,25,29,30,31,,,,,,,,12.5,7.7,9.9*07
Trace #106 at position 26.250000
$GPZDA,100213.03,08,10,2011,00,00*6F
$GPRMC,100213.00,A,4611.954754,N,01258.213722,E,000.2,8.8,081011,0.2,E,A*38
$GPGGA,100214.00,4611.954652,N,01258.213706,E,1,05,7.7,117.59,M,46.25,M,,*65
$GPGLL,4611.954652,N,01258.213706,E,100214.00,A,A*6B
$GPVTG,185.7,T,185.8,M,001.1,N,002.0,K,A*2E
$GPGSV,2,1,07,21,17,186,35,02,27,050,44,12,33,104,36,25,68,092,42*74
$GPGSV,2,2,07,29,80,264,39,30,61,305,43,31,48,296,40,,,,*45
$GPGSA,M,3,02,25,29,30,31,,,,,,,,12.5,7.7,9.9*07
Trace #107 at position 26.500000
$GPZDA,100213.03,08,10,2011,00,00*6F
$GPRMC,100213.00,A,4611.954754,N,01258.213722,E,000.2,8.8,081011,0.2,E,A*38
$GPGGA,100214.00,4611.954652,N,01258.213706,E,1,05,7.7,117.59,M,46.25,M,,*65
$GPGLL,4611.954652,N,01258.213706,E,100214.00,A,A*6B
$GPVTG,185.7,T,185.8,M,001.1,N,002.0,K,A*2E
$GPGSV,2,1,07,21,17,186,35,02,27,050,44,12,33,104,36,25,68,092,42*74
$GPGSV,2,2,07,29,80,264,39,30,61,305,43,31,48,296,40,,,,*45
$GPGSA,M,3,02,25,29,30,31,,,,,,,,12.5,7.7,9.9*07
Trace #108 at position 26.750000
$GPZDA,100213.03,08,10,2011,00,00*6F
$GPRMC,100213.00,A,4611.954754,N,01258.213722,E,000.2,8.8,081011,0.2,E,A*38
$GPGGA,100214.00,4611.954652,N,01258.213706,E,1,05,7.7,117.59,M,46.25,M,,*65
$GPGLL,4611.954652,N,01258.213706,E,100214.00,A,A*6B
$GPVTG,185.7,T,185.8,M,001.1,N,002.0,K,A*2E
$GPGSV,2,1,07,21,17,186,35,02,27,050,44,12,33,104,36,25,68,092,42*74
$GPGSV,2,2,07,29,80,264,39,30,61,305,43,31,48,296,40,,,,*45
$GPGSA,M,3,02,25,29,30,31,,,,,,,,12.5,7.7,9.9*07
Trace #109 at position 27.000000
$GPZDA,100213.03,08,10,2011,00,00*6F
$GPRMC,100213.00,A,4611.954754,N,01258.213722,E,000.2,8.8,081011,0.2,E,A*38
$GPGGA,100214.00,4611.954652,N,01258.213706,E,1,05,7.7,117.59,M,46.25,M,,*65
$GPGLL,4611.954652,N,01258.213706,E,100214.00,A,A*6B
$GPVTG,185.7,T,185.8,M,001.1,N,002.0,K,A*2E
$GPGSV,2,1,07,21,17,186,35,02,27,050,44,12,33,104,36,25,68,092,42*74
$GPGSV,2,2,07,29,80,264,39,30,61,305,43,31,48,296,40,,,,*45
$GPGSA,M,3,02,25,29,30,31,,,,,,,,12.5,7.7,9.9*07
Trace #110 at position 27.250000
$GPZDA,100214.03,08,10,2011,00,00*68
$GPRMC,100214.00,A,4611.954652,N,01258.213706,E,001.1,185.7,081011,0.2,E,A*37
$GPGGA,100215.00,4611.954321,N,01258.213829,E,1,05,7.7,117.58,M,46.25,M,,*66
$GPGLL,4611.954321,N,01258.213829,E,100215.00,A,A*69
$GPVTG,154.3,T,154.5,M,001.6,N,003.0,K,A*21
$GPGSV,2,1,07,21,17,186,34,02,27,050,44,12,33,104,36,25,68,092,42*75
$GPGSV,2,2,07,29,80,264,40,30,61,305,43,31,48,296,40,,,,*4B
$GPGSA,M,3,02,25,29,30,31,,,,,,,,12.5,7.7,9.8*06
Trace #111 at position 27.500000
$GPZDA,100214.03,08,10,2011,00,00*68
$GPRMC,100214.00,A,4611.954652,N,01258.213706,E,001.1,185.7,081011,0.2,E,A*37
$GPGGA,100215.00,4611.954321,N,01258.213829,E,1,05,7.7,117.58,M,46.25,M,,*66
$GPGLL,4611.954321,N,01258.213829,E,100215.00,A,A*69
$GPVTG,154.3,T,154.5,M,001.6,N,003.0,K,A*21
$GPGSV,2,1,07,21,17,186,34,02,27,050,44,12,33,104,36,25,68,092,42*75
$GPGSV,2,2,07,29,80,264,40,30,61,305,43,31,48,296,40,,,,*4B
$GPGSA,M,3,02,25,29,30,31,,,,,,,,12.5,7.7,9.8*06
Trace #112 at position 27.750000
$GPZDA,100214.03,08,10,2011,00,00*68
$GPRMC,100214.00,A,4611.954652,N,01258.213706,E,001.1,185.7,081011,0.2,E,A*37
$GPGGA,100215.00,4611.954321,N,01258.213829,E,1,05,7.7,117.58,M,46.25,M,,*66
$GPGLL,4611.954321,N,01258.213829,E,100215.00,A,A*69
$GPVTG,154.3,T,154.5,M,001.6,N,003.0,K,A*21
$GPGSV,2,1,07,21,17,186,34,02,27,050,44,12,33,104,36,25,68,092,42*75
$GPGSV,2,2,07,29,80,264,40,30,61,305,43,31,48,296,40,,,,*4B
$GPGSA,M,3,02,25,29,30,31,,,,,,,,12.5,7.7,9.8*06
Trace #113 at position 28.000000
$GPZDA,100214.03,08,10,2011,00,00*68
$GPRMC,100214.00,A,4611.954652,N,01258.213706,E,001.1,185.7,081011,0.2,E,A*37
$GPGGA,100215.00,4611.954321,N,01258.213829,E,1,05,7.7,117.58,M,46.25,M,,*66
$GPGLL,4611.954321,N,01258.213829,E,100215.00,A,A*69
$GPVTG,154.3,T,154.5,M,001.6,N,003.0,K,A*21
$GPGSV,2,1,07,21,17,186,34,02,27,050,44,12,33,104,36,25,68,092,42*75
$GPGSV,2,2,07,29,80,264,40,30,61,305,43,31,48,296,40,,,,*4B
$GPGSA,M,3,02,25,29,30,31,,,,,,,,12.5,7.7,9.8*06
Trace #114 at position 28.250000
$GPZDA,100215.03,08,10,2011,00,00*69
$GPRMC,100215.00,A,4611.954321,N,01258.213829,E,001.6,154.3,081011,0.2,E,A*3A
$GPGGA,100216.00,4611.953826,N,01258.214068,E,1,05,7.7,117.72,M,46.25,M,,*6C
$GPGLL,4611.953826,N,01258.214068,E,100216.00,A,A*6B
$GPVTG,167.2,T,167.4,M,002.3,N,004.3,K,A*23
$GPGSV,2,1,07,21,17,186,29,02,27,050,44,12,33,104,36,25,68,092,41*7A
$GPGSV,2,2,07,29,80,264,40,30,61,305,43,31,48,296,41,,,,*4A
$GPGSA,M,3,02,25,29,30,31,,,,,,,,12.5,7.7,9.8*06
Trace #115 at position 28.500000
$GPZDA,100215.03,08,10,2011,00,00*69
$GPRMC,100215.00,A,4611.954321,N,01258.213829,E,001.6,154.3,081011,0.2,E,A*3A
$GPGGA,100216.00,4611.953826,N,01258.214068,E,1,05,7.7,117.72,M,46.25,M,,*6C
$GPGLL,4611.953826,N,01258.214068,E,100216.00,A,A*6B
$GPVTG,167.2,T,167.4,M,002.3,N,004.3,K,A*23
$GPGSV,2,1,07,21,17,186,29,02,27,050,44,12,33,104,36,25,68,092,41*7A
$GPGSV,2,2,07,29,80,264,40,30,61,305,43,31,48,296,41,,,,*4A
$GPGSA,M,3,02,25,29,30,31,,,,,,,,12.5,7.7,9.8*06
Trace #116 at position 28.750000
$GPZDA,100215.03,08,10,2011,00,00*69
$GPRMC,100215.00,A,4611.954321,N,01258.213829,E,001.6,154.3,081011,0.2,E,A*3A
$GPGGA,100216.00,4611.953826,N,01258.214068,E,1,05,7.7,117.72,M,46.25,M,,*6C
$GPGLL,4611.953826,N,01258.214068,E,100216.00,A,A*6B
$GPVTG,167.2,T,167.4,M,002.3,N,004.3,K,A*23
$GPGSV,2,1,07,21,17,186,29,02,27,050,44,12,33,104,36,25,68,092,41*7A
$GPGSV,2,2,07,29,80,264,40,30,61,305,43,31,48,296,41,,,,*4A
$GPGSA,M,3,02,25,29,30,31,,,,,,,,12.5,7.7,9.8*06
Trace #117 at position 29.000000
$GPZDA,100215.03,08,10,2011,00,00*69
$GPRMC,100215.00,A,4611.954321,N,01258.213829,E,001.6,154.3,081011,0.2,E,A*3A
