Trace #1 at position 0.000000
$GPZDA,102438.03,08,10,2011,00,00*62
$GPRMC,102438.00,A,4611.952056,N,01258.223836,E,000.0,157.7,081011,0.2,E,A*39
$GPGGA,102439.00,4611.952064,N,01258.223819,E,1,04,2.2,138.69,M,46.25,M,,*66
$GPGLL,4611.952064,N,01258.223819,E,102439.00,A,A*67
$GPVTG,270.4,T,270.5,M,000.0,N,000.0,K,A*22
$GPGSV,2,1,07,21,26,186,41,02,20,045,47,12,25,111,45,25,59,107,47*78
$GPGSV,2,2,07,29,83,352,32,30,72,307,36,31,52,281,36,,,,*47
$GPGSA,M,3,21,02,12,25,,,,,,,,,3.4,2.2,2.6*38
Trace #2 at position 0.250000
$GPZDA,102441.03,08,10,2011,00,00*6C
$GPRMC,102441.00,A,4611.952072,N,01258.223802,E,000.0,245.1,081011,0.2,E,A*30
$GPGGA,102442.00,4611.952085,N,01258.223781,E,1,04,2.2,138.66,M,46.25,M,,*64
$GPGLL,4611.952085,N,01258.223781,E,102442.00,A,A*6A
$GPVTG,346.0,T,346.2,M,000.0,N,000.0,K,A*21
$GPGSV,2,1,07,21,26,186,42,02,20,045,47,12,25,111,45,25,59,107,47*7B
$GPGSV,2,2,07,29,83,353,33,30,72,307,34,31,52,281,34,,,,*47
$GPGSA,M,3,21,02,12,25,,,,,,,,,3.4,2.2,2.6*38
Trace #3 at position 0.500000
$GPZDA,102442.03,08,10,2011,00,00*6F
$GPRMC,102442.00,A,4611.952085,N,01258.223781,E,000.0,346.0,081011,0.2,E,A*3C
$GPGGA,102443.00,4611.952124,N,01258.223791,E,1,04,2.2,138.63,M,46.25,M,,*6B
$GPGLL,4611.952124,N,01258.223791,E,102443.00,A,A*60
$GPVTG,32.5,T,32.7,M,000.2,N,000.4,K,A*27
$GPGSV,2,1,07,21,26,186,42,02,20,045,47,12,25,111,44,25,59,107,47*7A
$GPGSV,2,2,07,29,83,353,37,30,72,307,32,31,52,281,32,,,,*43
$GPGSA,M,3,21,02,12,25,,,,,,,,,3.4,2.2,2.6*38
Trace #4 at position 0.750000
$GPZDA,102442.03,08,10,2011,00,00*6F
$GPRMC,102442.00,A,4611.952085,N,01258.223781,E,000.0,346.0,081011,0.2,E,A*3C
$GPGGA,102443.00,4611.952124,N,01258.223791,E,1,04,2.2,138.63,M,46.25,M,,*6B
$GPGLL,4611.952124,N,01258.223791,E,102443.00,A,A*60
$GPVTG,32.5,T,32.7,M,000.2,N,000.4,K,A*27
$GPGSV,2,1,07,21,26,186,42,02,20,045,47,12,25,111,44,25,59,107,47*7A
$GPGSV,2,2,07,29,83,353,37,30,72,307,32,31,52,281,32,,,,*43
$GPGSA,M,3,21,02,12,25,,,,,,,,,3.4,2.2,2.6*38
Trace #5 at position 1.000000
$GPZDA,102443.03,08,10,2011,00,00*6E
$GPRMC,102443.00,A,4611.952124,N,01258.223791,E,000.2,32.5,081011,0.2,E,A*01
$GPGGA,102444.00,4611.952366,N,01258.223552,E,1,05,1.8,138.76,M,46.25,M,,*69
$GPGLL,4611.952366,N,01258.223552,E,102444.00,A,A*6E
$GPVTG,344.3,T,344.5,M,000.9,N,001.7,K,A*2A
$GPGSV,2,1,07,21,26,186,40,02,20,045,46,12,25,111,45,25,59,107,47*78
$GPGSV,2,2,07,29,83,353,40,30,72,307,35,31,52,281,31,,,,*47
$GPGSA,M,3,21,02,12,25,29,,,,,,,,2.7,1.8,2.0*3E
Trace #6 at position 1.250000
$GPZDA,102443.03,08,10,2011,00,00*6E
$GPRMC,102443.00,A,4611.952124,N,01258.223791,E,000.2,32.5,081011,0.2,E,A*01
$GPGGA,102444.00,4611.952366,N,01258.223552,E,1,05,1.8,138.76,M,46.25,M,,*69
$GPGLL,4611.952366,N,01258.223552,E,102444.00,A,A*6E
$GPVTG,344.3,T,344.5,M,000.9,N,001.7,K,A*2A
$GPGSV,2,1,07,21,26,186,40,02,20,045,46,12,25,111,45,25,59,107,47*78
$GPGSV,2,2,07,29,83,353,40,30,72,307,35,31,52,281,31,,,,*47
$GPGSA,M,3,21,02,12,25,29,,,,,,,,2.7,1.8,2.0*3E
Trace #7 at position 1.500000
$GPZDA,102444.03,08,10,2011,00,00*69
$GPRMC,102444.00,A,4611.952366,N,01258.223552,E,000.9,344.3,081011,0.2,E,A*30
$GPGGA,102445.00,4611.952693,N,01258.223254,E,1,05,1.8,138.82,M,46.25,M,,*6D
$GPGLL,4611.952693,N,01258.223254,E,102445.00,A,A*61
$GPVTG,340.5,T,340.6,M,001.0,N,001.9,K,A*29
$GPGSV,2,1,07,21,26,186,40,02,20,045,46,12,25,111,43,25,59,107,46*7F
$GPGSV,2,2,07,29,83,353,42,30,72,307,36,31,52,281,29,,,,*4F
$GPGSA,M,3,21,02,12,25,29,,,,,,,,2.7,1.8,2.0*3E
Trace #8 at position 1.750000
$GPZDA,102445.03,08,10,2011,00,00*68
$GPRMC,102445.00,A,4611.952693,N,01258.223254,E,001.0,340.5,081011,0.2,E,A*35
$GPGGA,102446.00,4611.953034,N,01258.222969,E,1,05,1.8,138.87,M,46.25,M,,*65
$GPGLL,4611.953034,N,01258.222969,E,102446.00,A,A*6C
$GPVTG,342.4,T,342.6,M,001.2,N,002.2,K,A*22
$GPGSV,2,1,07,21,26,186,42,02,20,045,45,12,25,111,43,25,59,107,46*7E
$GPGSV,2,2,07,29,83,353,42,30,72,307,33,31,52,281,31,,,,*43
$GPGSA,M,3,21,02,12,25,29,,,,,,,,2.7,1.8,2.0*3E
Trace #9 at position 2.000000
$GPZDA,102445.03,08,10,2011,00,00*68
$GPRMC,102445.00,A,4611.952693,N,01258.223254,E,001.0,340.5,081011,0.2,E,A*35
$GPGGA,102446.00,4611.953034,N,01258.222969,E,1,05,1.8,138.87,M,46.25,M,,*65
$GPGLL,4611.953034,N,01258.222969,E,102446.00,A,A*6C
$GPVTG,342.4,T,342.6,M,001.2,N,002.2,K,A*22
$GPGSV,2,1,07,21,26,186,42,02,20,045,45,12,25,111,43,25,59,107,46*7E
$GPGSV,2,2,07,29,83,353,42,30,72,307,33,31,52,281,31,,,,*43
$GPGSA,M,3,21,02,12,25,29,,,,,,,,2.7,1.8,2.0*3E
Trace #10 at position 2.250000
$GPZDA,102446.03,08,10,2011,00,00*6B
$GPRMC,102446.00,A,4611.953034,N,01258.222969,E,001.2,342.4,081011,0.2,E,A*39
$GPGGA,102447.00,4611.953323,N,01258.222748,E,1,05,1.8,139.01,M,46.25,M,,*63
$GPGLL,4611.953323,N,01258.222748,E,102447.00,A,A*65
$GPVTG,348.3,T,348.4,M,000.7,N,001.3,K,A*21
$GPGSV,2,1,07,21,26,186,42,02,20,045,43,12,25,111,45,25,59,107,46*7E
$GPGSV,2,2,07,29,83,353,40,30,72,307,31,31,52,281,,,,,*41
$GPGSA,M,3,21,02,12,25,29,,,,,,,,2.7,1.8,2.0*3E
Trace #11 at position 2.500000
$GPZDA,102446.03,08,10,2011,00,00*6B
$GPRMC,102446.00,A,4611.953034,N,01258.222969,E,001.2,342.4,081011,0.2,E,A*39
$GPGGA,102447.00,4611.953323,N,01258.222748,E,1,05,1.8,139.01,M,46.25,M,,*63
$GPGLL,4611.953323,N,01258.222748,E,102447.00,A,A*65
$GPVTG,348.3,T,348.4,M,000.7,N,001.3,K,A*21
$GPGSV,2,1,07,21,26,186,42,02,20,045,43,12,25,111,45,25,59,107,46*7E
$GPGSV,2,2,07,29,83,353,40,30,72,307,31,31,52,281,,,,,*41
$GPGSA,M,3,21,02,12,25,29,,,,,,,,2.7,1.8,2.0*3E
Trace #12 at position 2.750000
$GPZDA,102447.03,08,10,2011,00,00*6A
$GPRMC,102447.00,A,4611.953323,N,01258.222748,E,000.7,348.3,081011,0.2,E,A*39
$GPGGA,102448.00,4611.953603,N,01258.222560,E,1,05,1.8,139.19,M,46.25,M,,*6A
$GPGLL,4611.953603,N,01258.222560,E,102448.00,A,A*65
$GPVTG,345.2,T,345.3,M,001.2,N,002.1,K,A*22
$GPGSV,2,1,07,21,26,186,41,02,20,045,43,12,25,111,47,25,59,107,48*71
$GPGSV,2,2,07,29,83,353,41,30,72,307,,31,52,281,,,,,*42
$GPGSA,M,3,21,02,12,25,29,,,,,,,,2.7,1.8,2.0*3E
Trace #13 at position 3.000000
$GPZDA,102447.03,08,10,2011,00,00*6A
$GPRMC,102447.00,A,4611.953323,N,01258.222748,E,000.7,348.3,081011,0.2,E,A*39
$GPGGA,102448.00,4611.953603,N,01258.222560,E,1,05,1.8,139.19,M,46.25,M,,*6A
$GPGLL,4611.953603,N,01258.222560,E,102448.00,A,A*65
$GPVTG,345.2,T,345.3,M,001.2,N,002.1,K,A*22
$GPGSV,2,1,07,21,26,186,41,02,20,045,43,12,25,111,47,25,59,107,48*71
$GPGSV,2,2,07,29,83,353,41,30,72,307,,31,52,281,,,,,*42
$GPGSA,M,3,21,02,12,25,29,,,,,,,,2.7,1.8,2.0*3E
Trace #14 at position 3.250000
$GPZDA,102448.03,08,10,2011,00,00*65
$GPRMC,102448.00,A,4611.953603,N,01258.222560,E,001.2,345.2,081011,0.2,E,A*31
$GPGGA,102449.00,4611.953900,N,01258.222423,E,1,05,1.8,139.28,M,46.25,M,,*63
$GPGLL,4611.953900,N,01258.222423,E,102449.00,A,A*6E
$GPVTG,2.4,T,2.6,M,000.9,N,001.6,K,A*2F
$GPGSV,2,1,07,21,26,186,42,02,20,045,43,12,25,111,47,25,59,107,47*7D
$GPGSV,2,2,07,29,83,353,41,30,72,307,27,31,52,281,32,,,,*46
$GPGSA,M,3,21,02,12,25,29,,,,,,,,2.7,1.8,2.0*3E
Trace #15 at position 3.500000
$GPZDA,102448.03,08,10,2011,00,00*65
$GPRMC,102448.00,A,4611.953603,N,01258.222560,E,001.2,345.2,081011,0.2,E,A*31
$GPGGA,102449.00,4611.953900,N,01258.222423,E,1,05,1.8,139.28,M,46.25,M,,*63
$GPGLL,4611.953900,N,01258.222423,E,102449.00,A,A*6E
$GPVTG,2.4,T,2.6,M,000.9,N,001.6,K,A*2F
$GPGSV,2,1,07,21,26,186,42,02,20,045,43,12,25,111,47,25,59,107,47*7D
$GPGSV,2,2,07,29,83,353,41,30,72,307,27,31,52,281,32,,,,*46
$GPGSA,M,3,21,02,12,25,29,,,,,,,,2.7,1.8,2.0*3E
Trace #16 at position 3.750000
$GPZDA,102448.03,08,10,2011,00,00*65
$GPRMC,102448.00,A,4611.953603,N,01258.222560,E,001.2,345.2,081011,0.2,E,A*31
$GPGGA,102449.00,4611.953900,N,01258.222423,E,1,05,1.8,139.28,M,46.25,M,,*63
$GPGLL,4611.953900,N,01258.222423,E,102449.00,A,A*6E
$GPVTG,2.4,T,2.6,M,000.9,N,001.6,K,A*2F
$GPGSV,2,1,07,21,26,186,42,02,20,045,43,12,25,111,47,25,59,107,47*7D
$GPGSV,2,2,07,29,83,353,41,30,72,307,27,31,52,281,32,,,,*46
$GPGSA,M,3,21,02,12,25,29,,,,,,,,2.7,1.8,2.0*3E
Trace #17 at position 4.000000
$GPZDA,102449.03,08,10,2011,00,00*64
$GPRMC,102449.00,A,4611.953900,N,01258.222423,E,000.9,2.4,081011,0.2,E,A*36
$GPGGA,102450.00,4611.954234,N,01258.222316,E,1,05,1.8,139.30,M,46.25,M,,*68
$GPGLL,4611.954234,N,01258.222316,E,102450.00,A,A*6C
$GPVTG,354.5,T,354.7,M,001.4,N,002.7,K,A*21
$GPGSV,2,1,07,21,26,186,41,02,20,044,44,12,25,111,46,25,59,107,47*79
$GPGSV,2,2,07,29,83,353,42,30,72,307,,31,52,281,31,,,,*43
$GPGSA,M,3,21,02,12,25,29,,,,,,,,2.7,1.8,2.0*3E
Trace #18 at position 4.250000
$GPZDA,102449.03,08,10,2011,00,00*64
$GPRMC,102449.00,A,4611.953900,N,01258.222423,E,000.9,2.4,081011,0.2,E,A*36
$GPGGA,102450.00,4611.954234,N,01258.222316,E,1,05,1.8,139.30,M,46.25,M,,*68
$GPGLL,4611.954234,N,01258.222316,E,102450.00,A,A*6C
$GPVTG,354.5,T,354.7,M,001.4,N,002.7,K,A*21
$GPGSV,2,1,07,21,26,186,41,02,20,044,44,12,25,111,46,25,59,107,47*79
$GPGSV,2,2,07,29,83,353,42,30,72,307,,31,52,281,31,,,,*43
$GPGSA,M,3,21,02,12,25,29,,,,,,,,2.7,1.8,2.0*3E
Trace #19 at position 4.500000
$GPZDA,102449.03,08,10,2011,00,00*64
$GPRMC,102449.00,A,4611.953900,N,01258.222423,E,000.9,2.4,081011,0.2,E,A*36
$GPGGA,102450.00,4611.954234,N,01258.222316,E,1,05,1.8,139.30,M,46.25,M,,*68
$GPGLL,4611.954234,N,01258.222316,E,102450.00,A,A*6C
$GPVTG,354.5,T,354.7,M,001.4,N,002.7,K,A*21
$GPGSV,2,1,07,21,26,186,41,02,20,044,44,12,25,111,46,25,59,107,47*79
$GPGSV,2,2,07,29,83,353,42,30,72,307,,31,52,281,31,,,,*43
$GPGSA,M,3,21,02,12,25,29,,,,,,,,2.7,1.8,2.0*3E
Trace #20 at position 4.750000
$GPZDA,102450.03,08,10,2011,00,00*6C
$GPRMC,102450.00,A,4611.954234,N,01258.222316,E,001.4,354.5,081011,0.2,E,A*39
$GPGGA,102451.00,4611.954608,N,01258.222140,E,1,05,1.8,139.37,M,46.25,M,,*64
$GPGLL,4611.954608,N,01258.222140,E,102451.00,A,A*67
$GPVTG,342.8,T,343.0,M,001.3,N,002.4,K,A*2E
$GPGSV,2,1,07,21,26,186,43,02,20,044,43,12,25,111,44,25,59,107,45*7C
$GPGSV,2,2,07,29,83,353,39,30,72,307,31,31,52,281,29,,,,*44
$GPGSA,M,3,21,02,12,25,29,,,,,,,,2.7,1.8,2.0*3E
Trace #21 at position 5.000000
$GPZDA,102450.03,08,10,2011,00,00*6C
$GPRMC,102450.00,A,4611.954234,N,01258.222316,E,001.4,354.5,081011,0.2,E,A*39
$GPGGA,102451.00,4611.954608,N,01258.222140,E,1,05,1.8,139.37,M,46.25,M,,*64
$GPGLL,4611.954608,N,01258.222140,E,102451.00,A,A*67
$GPVTG,342.8,T,343.0,M,001.3,N,002.4,K,A*2E
$GPGSV,2,1,07,21,26,186,43,02,20,044,43,12,25,111,44,25,59,107,45*7C
$GPGSV,2,2,07,29,83,353,39,30,72,307,31,31,52,281,29,,,,*44
$GPGSA,M,3,21,02,12,25,29,,,,,,,,2.7,1.8,2.0*3E
Trace #22 at position 5.250000
$GPZDA,102451.03,08,10,2011,00,00*6D
$GPRMC,102451.00,A,4611.954608,N,01258.222140,E,001.3,342.8,081011,0.2,E,A*3F
$GPGGA,102452.00,4611.954959,N,01258.221854,E,1,05,1.8,139.53,M,46.25,M,,*61
$GPGLL,4611.954959,N,01258.221854,E,102452.00,A,A*60
$GPVTG,329.0,T,329.1,M,001.5,N,002.7,K,A*23
$GPGSV,2,1,07,21,26,186,43,02,20,044,42,12,25,111,47,25,59,107,46*7D
$GPGSV,2,2,07,29,83,353,41,30,72,307,,31,52,281,,,,,*42
$GPGSA,M,3,21,02,12,25,29,,,,,,,,2.7,1.8,2.0*3E
Trace #23 at position 5.500000
$GPZDA,102451.03,08,10,2011,00,00*6D
$GPRMC,102451.00,A,4611.954608,N,01258.222140,E,001.3,342.8,081011,0.2,E,A*3F
$GPGGA,102452.00,4611.954959,N,01258.221854,E,1,05,1.8,139.53,M,46.25,M,,*61
$GPGLL,4611.954959,N,01258.221854,E,102452.00,A,A*60
$GPVTG,329.0,T,329.1,M,001.5,N,002.7,K,A*23
$GPGSV,2,1,07,21,26,186,43,02,20,044,42,12,25,111,47,25,59,107,46*7D
$GPGSV,2,2,07,29,83,353,41,30,72,307,,31,52,281,,,,,*42
$GPGSA,M,3,21,02,12,25,29,,,,,,,,2.7,1.8,2.0*3E
Trace #24 at position 5.750000
$GPZDA,102451.03,08,10,2011,00,00*6D
$GPRMC,102451.00,A,4611.954608,N,01258.222140,E,001.3,342.8,081011,0.2,E,A*3F
$GPGGA,102452.00,4611.954959,N,01258.221854,E,1,05,1.8,139.53,M,46.25,M,,*61
$GPGLL,4611.954959,N,01258.221854,E,102452.00,A,A*60
$GPVTG,329.0,T,329.1,M,001.5,N,002.7,K,A*23
$GPGSV,2,1,07,21,26,186,43,02,20,044,42,12,25,111,47,25,59,107,46*7D
$GPGSV,2,2,07,29,83,353,41,30,72,307,,31,52,281,,,,,*42
$GPGSA,M,3,21,02,12,25,29,,,,,,,,2.7,1.8,2.0*3E
Trace #25 at position 6.000000
$GPZDA,102452.03,08,10,2011,00,00*6E
$GPRMC,102452.00,A,4611.954959,N,01258.221854,E,001.5,329.0,081011,0.2,E,A*3B
$GPGGA,102453.00,4611.955405,N,01258.221520,E,1,05,1.8,139.57,M,46.25,M,,*6F
$GPGLL,4611.955405,N,01258.221520,E,102453.00,A,A*6A
$GPVTG,338.8,T,339.0,M,002.1,N,003.9,K,A*23
$GPGSV,2,1,07,21,26,186,40,02,20,044,43,12,25,111,49,25,59,107,49*7E
$GPGSV,2,2,07,29,83,353,43,30,72,307,37,31,52,281,,,,,*44
$GPGSA,M,3,21,02,12,25,29,,,,,,,,2.7,1.8,2.0*3E
Trace #26 at position 6.250000
$GPZDA,102452.03,08,10,2011,00,00*6E
$GPRMC,102452.00,A,4611.954959,N,01258.221854,E,001.5,329.0,081011,0.2,E,A*3B
$GPGGA,102453.00,4611.955405,N,01258.221520,E,1,05,1.8,139.57,M,46.25,M,,*6F
$GPGLL,4611.955405,N,01258.221520,E,102453.00,A,A*6A
$GPVTG,338.8,T,339.0,M,002.1,N,003.9,K,A*23
$GPGSV,2,1,07,21,26,186,40,02,20,044,43,12,25,111,49,25,59,107,49*7E
$GPGSV,2,2,07,29,83,353,43,30,72,307,37,31,52,281,,,,,*44
$GPGSA,M,3,21,02,12,25,29,,,,,,,,2.7,1.8,2.0*3E
Trace #27 at position 6.500000
$GPZDA,102452.03,08,10,2011,00,00*6E
$GPRMC,102452.00,A,4611.954959,N,01258.221854,E,001.5,329.0,081011,0.2,E,A*3B
$GPGGA,102453.00,4611.955405,N,01258.221520,E,1,05,1.8,139.57,M,46.25,M,,*6F
$GPGLL,4611.955405,N,01258.221520,E,102453.00,A,A*6A
$GPVTG,338.8,T,339.0,M,002.1,N,003.9,K,A*23
$GPGSV,2,1,07,21,26,186,40,02,20,044,43,12,25,111,49,25,59,107,49*7E
$GPGSV,2,2,07,29,83,353,43,30,72,307,37,31,52,281,,,,,*44
$GPGSA,M,3,21,02,12,25,29,,,,,,,,2.7,1.8,2.0*3E
Trace #28 at position 6.750000
$GPZDA,102453.04,08,10,2011,00,00*68
$GPRMC,102453.00,A,4611.955405,N,01258.221520,E,002.1,338.8,081011,0.2,E,A*3E
$GPGGA,102454.00,4611.955729,N,01258.221221,E,1,05,1.8,139.66,M,46.25,M,,*61
$GPGLL,4611.955729,N,01258.221221,E,102454.00,A,A*66
$GPVTG,300.4,T,300.6,M,000.8,N,001.5,K,A*2D
$GPGSV,2,1,07,21,27,186,42,02,20,044,41,12,25,111,46,25,59,107,47*7E
$GPGSV,2,2,07,29,83,353,41,30,72,307,35,31,52,281,,,,,*44
$GPGSA,M,3,21,02,12,25,29,,,,,,,,2.7,1.8,2.0*3E
Trace #29 at position 7.000000
$GPZDA,102453.04,08,10,2011,00,00*68
$GPRMC,102453.00,A,4611.955405,N,01258.221520,E,002.1,338.8,081011,0.2,E,A*3E
$GPGGA,102454.00,4611.955729,N,01258.221221,E,1,05,1.8,139.66,M,46.25,M,,*61
$GPGLL,4611.955729,N,01258.221221,E,102454.00,A,A*66
$GPVTG,300.4,T,300.6,M,000.8,N,001.5,K,A*2D
$GPGSV,2,1,07,21,27,186,42,02,20,044,41,12,25,111,46,25,59,107,47*7E
$GPGSV,2,2,07,29,83,353,41,30,72,307,35,31,52,281,,,,,*44
$GPGSA,M,3,21,02,12,25,29,,,,,,,,2.7,1.8,2.0*3E
Trace #30 at position 7.250000
$GPZDA,102454.03,08,10,2011,00,00*68
$GPRMC,102454.00,A,4611.955729,N,01258.221221,E,000.8,300.4,081011,0.2,E,A*3E
$GPGGA,102455.00,4611.955993,N,01258.220938,E,1,05,1.8,139.82,M,46.25,M,,*67
$GPGLL,4611.955993,N,01258.220938,E,102455.00,A,A*6A
$GPVTG,331.4,T,331.6,M,001.6,N,003.0,K,A*25
$GPGSV,2,1,07,21,27,186,43,02,20,044,43,12,25,111,48,25,59,107,48*7C
$GPGSV,2,2,07,29,83,353,40,30,72,307,32,31,52,281,,,,,*42
$GPGSA,M,3,21,02,12,25,29,,,,,,,,2.7,1.8,2.0*3E
Trace #31 at position 7.500000
$GPZDA,102454.03,08,10,2011,00,00*68
$GPRMC,102454.00,A,4611.955729,N,01258.221221,E,000.8,300.4,081011,0.2,E,A*3E
$GPGGA,102455.00,4611.955993,N,01258.220938,E,1,05,1.8,139.82,M,46.25,M,,*67
$GPGLL,4611.955993,N,01258.220938,E,102455.00,A,A*6A
$GPVTG,331.4,T,331.6,M,001.6,N,003.0,K,A*25
$GPGSV,2,1,07,21,27,186,43,02,20,044,43,12,25,111,48,25,59,107,48*7C
$GPGSV,2,2,07,29,83,353,40,30,72,307,32,31,52,281,,,,,*42
$GPGSA,M,3,21,02,12,25,29,,,,,,,,2.7,1.8,2.0*3E
Trace #32 at position 7.750000
$GPZDA,102454.03,08,10,2011,00,00*68
$GPRMC,102454.00,A,4611.955729,N,01258.221221,E,000.8,300.4,081011,0.2,E,A*3E
$GPGGA,102455.00,4611.955993,N,01258.220938,E,1,05,1.8,139.82,M,46.25,M,,*67
$GPGLL,4611.955993,N,01258.220938,E,102455.00,A,A*6A
$GPVTG,331.4,T,331.6,M,001.6,N,003.0,K,A*25
$GPGSV,2,1,07,21,27,186,43,02,20,044,43,12,25,111,48,25,59,107,48*7C
$GPGSV,2,2,07,29,83,353,40,30,72,307,32,31,52,281,,,,,*42
$GPGSA,M,3,21,02,12,25,29,,,,,,,,2.7,1.8,2.0*3E
Trace #33 at position 8.000000
$GPZDA,102455.03,08,10,2011,00,00*69
$GPRMC,102455.00,A,4611.955993,N,01258.220938,E,001.6,331.4,081011,0.2,E,A*3F
$GPGGA,102456.00,4611.956355,N,01258.220773,E,1,05,1.8,139.80,M,46.25,M,,*64
$GPGLL,4611.956355,N,01258.220773,E,102456.00,A,A*6B
$GPVTG,353.5,T,353.7,M,001.2,N,002.2,K,A*22
$GPGSV,2,1,07,21,27,186,43,02,20,044,43,12,25,111,46,25,59,107,49*73
$GPGSV,2,2,07,29,83,353,41,30,72,307,34,31,52,281,,,,,*45
$GPGSA,M,3,21,02,12,25,29,,,,,,,,2.7,1.8,2.0*3E
Trace #34 at position 8.250000
$GPZDA,102455.03,08,10,2011,00,00*69
$GPRMC,102455.00,A,4611.955993,N,01258.220938,E,001.6,331.4,081011,0.2,E,A*3F
$GPGGA,102456.00,4611.956355,N,01258.220773,E,1,05,1.8,139.80,M,46.25,M,,*64
$GPGLL,4611.956355,N,01258.220773,E,102456.00,A,A*6B
$GPVTG,353.5,T,353.7,M,001.2,N,002.2,K,A*22
$GPGSV,2,1,07,21,27,186,43,02,20,044,43,12,25,111,46,25,59,107,49*73
$GPGSV,2,2,07,29,83,353,41,30,72,307,34,31,52,281,,,,,*45
$GPGSA,M,3,21,02,12,25,29,,,,,,,,2.7,1.8,2.0*3E
Trace #35 at position 8.500000
$GPZDA,102455.03,08,10,2011,00,00*69
$GPRMC,102455.00,A,4611.955993,N,01258.220938,E,001.6,331.4,081011,0.2,E,A*3F
$GPGGA,102456.00,4611.956355,N,01258.220773,E,1,05,1.8,139.80,M,46.25,M,,*64
$GPGLL,4611.956355,N,01258.220773,E,102456.00,A,A*6B
$GPVTG,353.5,T,353.7,M,001.2,N,002.2,K,A*22
$GPGSV,2,1,07,21,27,186,43,02,20,044,43,12,25,111,46,25,59,107,49*73
$GPGSV,2,2,07,29,83,353,41,30,72,307,34,31,52,281,,,,,*45
$GPGSA,M,3,21,02,12,25,29,,,,,,,,2.7,1.8,2.0*3E
Trace #36 at position 8.750000
$GPZDA,102456.03,08,10,2011,00,00*6A
$GPRMC,102456.00,A,4611.956355,N,01258.220773,E,001.2,353.5,081011,0.2,E,A*3F
$GPGGA,102457.00,4611.956700,N,01258.220766,E,1,05,1.8,139.78,M,46.25,M,,*62
$GPGLL,4611.956700,N,01258.220766,E,102457.00,A,A*6A
$GPVTG,5.3,T,5.5,M,001.3,N,002.4,K,A*21
$GPGSV,2,1,07,21,27,186,44,02,20,044,43,12,25,111,46,25,59,107,48*75
$GPGSV,2,2,07,29,83,353,41,30,72,307,,31,52,281,,,,,*42
$GPGSA,M,3,21,02,12,25,29,,,,,,,,2.7,1.8,2.0*3E
Trace #37 at position 9.000000
$GPZDA,102456.03,08,10,2011,00,00*6A
$GPRMC,102456.00,A,4611.956355,N,01258.220773,E,001.2,353.5,081011,0.2,E,A*3F
$GPGGA,102457.00,4611.956700,N,01258.220766,E,1,05,1.8,139.78,M,46.25,M,,*62
$GPGLL,4611.956700,N,01258.220766,E,102457.00,A,A*6A
$GPVTG,5.3,T,5.5,M,001.3,N,002.4,K,A*21
$GPGSV,2,1,07,21,27,186,44,02,20,044,43,12,25,111,46,25,59,107,48*75
$GPGSV,2,2,07,29,83,353,41,30,72,307,,31,52,281,,,,,*42
$GPGSA,M,3,21,02,12,25,29,,,,,,,,2.7,1.8,2.0*3E
Trace #38 at position 9.250000
$GPZDA,102456.03,08,10,2011,00,00*6A
$GPRMC,102456.00,A,4611.956355,N,01258.220773,E,001.2,353.5,081011,0.2,E,A*3F
$GPGGA,102457.00,4611.956700,N,01258.220766,E,1,05,1.8,139.78,M,46.25,M,,*62
$GPGLL,4611.956700,N,01258.220766,E,102457.00,A,A*6A
$GPVTG,5.3,T,5.5,M,001.3,N,002.4,K,A*21
$GPGSV,2,1,07,21,27,186,44,02,20,044,43,12,25,111,46,25,59,107,48*75
$GPGSV,2,2,07,29,83,353,41,30,72,307,,31,52,281,,,,,*42
$GPGSA,M,3,21,02,12,25,29,,,,,,,,2.7,1.8,2.0*3E
Trace #39 at position 9.500000
$GPZDA,102457.03,08,10,2011,00,00*6B
$GPRMC,102457.00,A,4611.956700,N,01258.220766,E,001.3,5.3,081011,0.2,E,A*39
$GPGGA,102458.00,4611.957054,N,01258.220755,E,1,05,1.8,139.72,M,46.25,M,,*60
$GPGLL,4611.957054,N,01258.220755,E,102458.00,A,A*62
$GPVTG,355.6,T,355.8,M,001.2,N,002.3,K,A*2F
$GPGSV,2,1,07,21,27,186,42,02,20,044,43,12,25,111,47,25,59,107,48*72
$GPGSV,2,2,07,29,83,354,39,30,72,307,33,31,52,281,,,,,*4A
$GPGSA,M,3,21,02,12,25,29,,,,,,,,2.7,1.8,2.0*3E
Trace #40 at position 9.750000
$GPZDA,102457.03,08,10,2011,00,00*6B
$GPRMC,102457.00,A,4611.956700,N,01258.220766,E,001.3,5.3,081011,0.2,E,A*39
$GPGGA,102458.00,4611.957054,N,01258.220755,E,1,05,1.8,139.72,M,46.25,M,,*60
$GPGLL,4611.957054,N,01258.220755,E,102458.00,A,A*62
$GPVTG,355.6,T,355.8,M,001.2,N,002.3,K,A*2F
$GPGSV,2,1,07,21,27,186,42,02,20,044,43,12,25,111,47,25,59,107,48*72
$GPGSV,2,2,07,29,83,354,39,30,72,307,33,31,52,281,,,,,*4A
$GPGSA,M,3,21,02,12,25,29,,,,,,,,2.7,1.8,2.0*3E
Trace #41 at position 10.000000
$GPZDA,102457.03,08,10,2011,00,00*6B
$GPRMC,102457.00,A,4611.956700,N,01258.220766,E,001.3,5.3,081011,0.2,E,A*39
$GPGGA,102458.00,4611.957054,N,01258.220755,E,1,05,1.8,139.72,M,46.25,M,,*60
$GPGLL,4611.957054,N,01258.220755,E,102458.00,A,A*62
$GPVTG,355.6,T,355.8,M,001.2,N,002.3,K,A*2F
$GPGSV,2,1,07,21,27,186,42,02,20,044,43,12,25,111,47,25,59,107,48*72
$GPGSV,2,2,07,29,83,354,39,30,72,307,33,31,52,281,,,,,*4A
$GPGSA,M,3,21,02,12,25,29,,,,,,,,2.7,1.8,2.0*3E
Trace #42 at position 10.250000
$GPZDA,102458.03,08,10,2011,00,00*64
$GPRMC,102458.00,A,4611.957054,N,01258.220755,E,001.2,355.6,081011,0.2,E,A*33
$GPGGA,102459.00,4611.957403,N,01258.220639,E,1,05,1.8,139.70,M,46.25,M,,*6E
$GPGLL,4611.957403,N,01258.220639,E,102459.00,A,A*6E
$GPVTG,341.5,T,341.7,M,001.3,N,002.4,K,A*25
$GPGSV,2,1,07,21,27,186,43,02,20,044,44,12,25,111,46,25,59,107,49*74
$GPGSV,2,2,07,29,83,354,42,30,72,307,35,31,52,281,30,,,,*43
$GPGSA,M,3,21,02,12,25,29,,,,,,,,2.7,1.8,2.0*3E
Trace #43 at position 10.500000
$GPZDA,102458.03,08,10,2011,00,00*64
$GPRMC,102458.00,A,4611.957054,N,01258.220755,E,001.2,355.6,081011,0.2,E,A*33
$GPGGA,102459.00,4611.957403,N,01258.220639,E,1,05,1.8,139.70,M,46.25,M,,*6E
$GPGLL,4611.957403,N,01258.220639,E,102459.00,A,A*6E
$GPVTG,341.5,T,341.7,M,001.3,N,002.4,K,A*25
$GPGSV,2,1,07,21,27,186,43,02,20,044,44,12,25,111,46,25,59,107,49*74
$GPGSV,2,2,07,29,83,354,42,30,72,307,35,31,52,281,30,,,,*43
$GPGSA,M,3,21,02,12,25,29,,,,,,,,2.7,1.8,2.0*3E
Trace #44 at position 10.750000
$GPZDA,102458.03,08,10,2011,00,00*64
$GPRMC,102458.00,A,4611.957054,N,01258.220755,E,001.2,355.6,081011,0.2,E,A*33
$GPGGA,102459.00,4611.957403,N,01258.220639,E,1,05,1.8,139.70,M,46.25,M,,*6E
$GPGLL,4611.957403,N,01258.220639,E,102459.00,A,A*6E
$GPVTG,341.5,T,341.7,M,001.3,N,002.4,K,A*25
$GPGSV,2,1,07,21,27,186,43,02,20,044,44,12,25,111,46,25,59,107,49*74
$GPGSV,2,2,07,29,83,354,42,30,72,307,35,31,52,281,30,,,,*43
$GPGSA,M,3,21,02,12,25,29,,,,,,,,2.7,1.8,2.0*3E
Trace #45 at position 11.000000
$GPZDA,102459.03,08,10,2011,00,00*65
$GPRMC,102459.00,A,4611.957403,N,01258.220639,E,001.3,341.5,081011,0.2,E,A*38
$GPGGA,102500.00,4611.957758,N,01258.220472,E,1,05,1.8,139.71,M,46.25,M,,*62
$GPGLL,4611.957758,N,01258.220472,E,102500.00,A,A*63
$GPVTG,344.0,T,344.2,M,001.3,N,002.4,K,A*25
$GPGSV,2,1,07,21,27,186,41,02,20,044,44,12,25,111,47,25,59,107,48*76
$GPGSV,2,2,07,29,83,354,41,30,72,307,33,31,52,281,30,,,,*46
$GPGSA,M,3,21,02,12,25,29,,,,,,,,2.7,1.8,2.0*3E
Trace #46 at position 11.250000
$GPZDA,102459.03,08,10,2011,00,00*65
$GPRMC,102459.00,A,4611.957403,N,01258.220639,E,001.3,341.5,081011,0.2,E,A*38
$GPGGA,102500.00,4611.957758,N,01258.220472,E,1,05,1.8,139.71,M,46.25,M,,*62
$GPGLL,4611.957758,N,01258.220472,E,102500.00,A,A*63
$GPVTG,344.0,T,344.2,M,001.3,N,002.4,K,A*25
$GPGSV,2,1,07,21,27,186,41,02,20,044,44,12,25,111,47,25,59,107,48*76
$GPGSV,2,2,07,29,83,354,41,30,72,307,33,31,52,281,30,,,,*46
$GPGSA,M,3,21,02,12,25,29,,,,,,,,2.7,1.8,2.0*3E
Trace #47 at position 11.500000
$GPZDA,102500.03,08,10,2011,00,00*68
$GPRMC,102500.00,A,4611.957758,N,01258.220472,E,001.3,344.0,081011,0.2,E,A*35
$GPGGA,102501.00,4611.958122,N,01258.220217,E,1,05,1.8,139.69,M,46.25,M,,*6B
$GPGLL,4611.958122,N,01258.220217,E,102501.00,A,A*63
$GPVTG,325.6,T,325.7,M,001.6,N,003.0,K,A*26
$GPGSV,2,1,07,21,27,186,42,02,20,044,43,12,25,111,47,25,59,107,49*73
$GPGSV,2,2,07,29,83,354,41,30,72,307,32,31,52,281,,,,,*44
$GPGSA,M,3,21,02,12,25,29,,,,,,,,2.7,1.8,2.0*3E
Trace #48 at position 11.750000
$GPZDA,102500.03,08,10,2011,00,00*68
$GPRMC,102500.00,A,4611.957758,N,01258.220472,E,001.3,344.0,081011,0.2,E,A*35
$GPGGA,102501.00,4611.958122,N,01258.220217,E,1,05,1.8,139.69,M,46.25,M,,*6B
$GPGLL,4611.958122,N,01258.220217,E,102501.00,A,A*63
$GPVTG,325.6,T,325.7,M,001.6,N,003.0,K,A*26
$GPGSV,2,1,07,21,27,186,42,02,20,044,43,12,25,111,47,25,59,107,49*73
$GPGSV,2,2,07,29,83,354,41,30,72,307,32,31,52,281,,,,,*44
$GPGSA,M,3,21,02,12,25,29,,,,,,,,2.7,1.8,2.0*3E
Trace #49 at position 12.000000
$GPZDA,102501.03,08,10,2011,00,00*69
$GPRMC,102501.00,A,4611.958122,N,01258.220217,E,001.6,325.6,081011,0.2,E,A*31
$GPGGA,102502.00,4611.958502,N,01258.219897,E,1,05,1.8,139.76,M,46.25,M,,*68
$GPGLL,4611.958502,N,01258.219897,E,102502.00,A,A*6E
$GPVTG,330.4,T,330.5,M,001.6,N,002.9,K,A*2E
$GPGSV,2,1,07,21,27,186,43,02,20,044,42,12,25,111,47,25,59,107,48*72
$GPGSV,2,2,07,29,83,354,41,30,72,307,,31,52,281,31,,,,*47
$GPGSA,M,3,21,02,12,25,29,,,,,,,,2.7,1.8,2.0*3E
Trace #50 at position 12.250000
$GPZDA,102501.03,08,10,2011,00,00*69
$GPRMC,102501.00,A,4611.958122,N,01258.220217,E,001.6,325.6,081011,0.2,E,A*31
$GPGGA,102502.00,4611.958502,N,01258.219897,E,1,05,1.8,139.76,M,46.25,M,,*68
$GPGLL,4611.958502,N,01258.219897,E,102502.00,A,A*6E
$GPVTG,330.4,T,330.5,M,001.6,N,002.9,K,A*2E
$GPGSV,2,1,07,21,27,186,43,02,20,044,42,12,25,111,47,25,59,107,48*72
$GPGSV,2,2,07,29,83,354,41,30,72,307,,31,52,281,31,,,,*47
$GPGSA,M,3,21,02,12,25,29,,,,,,,,2.7,1.8,2.0*3E
Trace #51 at position 12.500000
$GPZDA,102501.03,08,10,2011,00,00*69
$GPRMC,102501.00,A,4611.958122,N,01258.220217,E,001.6,325.6,081011,0.2,E,A*31
$GPGGA,102502.00,4611.958502,N,01258.219897,E,1,05,1.8,139.76,M,46.25,M,,*68
$GPGLL,4611.958502,N,01258.219897,E,102502.00,A,A*6E
$GPVTG,330.4,T,330.5,M,001.6,N,002.9,K,A*2E
$GPGSV,2,1,07,21,27,186,43,02,20,044,42,12,25,111,47,25,59,107,48*72
$GPGSV,2,2,07,29,83,354,41,30,72,307,,31,52,281,31,,,,*47
$GPGSA,M,3,21,02,12,25,29,,,,,,,,2.7,1.8,2.0*3E
Trace #52 at position 12.750000
$GPZDA,102502.03,08,10,2011,00,00*6A
$GPRMC,102502.00,A,4611.958502,N,01258.219897,E,001.6,330.4,081011,0.2,E,A*3A
$GPGGA,102503.00,4611.958810,N,01258.219760,E,1,05,1.8,139.80,M,46.25,M,,*69
$GPGLL,4611.958810,N,01258.219760,E,102503.00,A,A*66
$GPVTG,0.0,T,0.2,M,000.8,N,001.6,K,A*2E
$GPGSV,2,1,07,21,27,186,41,02,20,044,46,12,25,111,47,25,59,107,48*74
$GPGSV,2,2,07,29,83,354,43,30,72,307,,31,52,281,25,,,,*40
$GPGSA,M,3,21,02,12,25,29,,,,,,,,2.7,1.8,2.0*3E
Trace #53 at position 13.000000
$GPZDA,102502.03,08,10,2011,00,00*6A
$GPRMC,102502.00,A,4611.958502,N,01258.219897,E,001.6,330.4,081011,0.2,E,A*3A
$GPGGA,102503.00,4611.958810,N,01258.219760,E,1,05,1.8,139.80,M,46.25,M,,*69
$GPGLL,4611.958810,N,01258.219760,E,102503.00,A,A*66
$GPVTG,0.0,T,0.2,M,000.8,N,001.6,K,A*2E
$GPGSV,2,1,07,21,27,186,41,02,20,044,46,12,25,111,47,25,59,107,48*74
$GPGSV,2,2,07,29,83,354,43,30,72,307,,31,52,281,25,,,,*40
$GPGSA,M,3,21,02,12,25,29,,,,,,,,2.7,1.8,2.0*3E
Trace #54 at position 13.250000
$GPZDA,102503.03,08,10,2011,00,00*6B
$GPRMC,102503.00,A,4611.958810,N,01258.219760,E,000.8,0.0,081011,0.2,E,A*39
$GPGGA,102504.00,4611.959018,N,01258.219478,E,1,05,1.8,139.87,M,46.25,M,,*62
$GPGLL,4611.959018,N,01258.219478,E,102504.00,A,A*6A
$GPVTG,290.3,T,290.4,M,001.7,N,003.1,K,A*20
$GPGSV,2,1,07,21,27,186,42,02,20,044,46,12,25,111,48,25,59,107,46*76
$GPGSV,2,2,07,29,83,354,43,30,72,307,,31,52,281,,,,,*47
$GPGSA,M,3,21,02,12,25,29,,,,,,,,2.7,1.8,2.0*3E
Trace #55 at position 13.500000
$GPZDA,102503.03,08,10,2011,00,00*6B
$GPRMC,102503.00,A,4611.958810,N,01258.219760,E,000.8,0.0,081011,0.2,E,A*39
$GPGGA,102504.00,4611.959018,N,01258.219478,E,1,05,1.8,139.87,M,46.25,M,,*62
$GPGLL,4611.959018,N,01258.219478,E,102504.00,A,A*6A
$GPVTG,290.3,T,290.4,M,001.7,N,003.1,K,A*20
$GPGSV,2,1,07,21,27,186,42,02,20,044,46,12,25,111,48,25,59,107,46*76
$GPGSV,2,2,07,29,83,354,43,30,72,307,,31,52,281,,,,,*47
$GPGSA,M,3,21,02,12,25,29,,,,,,,,2.7,1.8,2.0*3E
Trace #56 at position 13.750000
$GPZDA,102504.03,08,10,2011,00,00*6C
$GPRMC,102504.00,A,4611.959018,N,01258.219478,E,001.7,290.3,081011,0.2,E,A*33
$GPGGA,102505.00,4611.959239,N,01258.219052,E,1,05,1.8,139.92,M,46.25,M,,*6A
$GPGLL,4611.959239,N,01258.219052,E,102505.00,A,A*66
$GPVTG,312.7,T,312.9,M,001.3,N,002.4,K,A*29
$GPGSV,2,1,07,21,27,186,43,02,20,044,46,12,25,111,48,25,59,107,45*74
$GPGSV,2,2,07,29,83,354,39,30,72,307,,31,52,281,28,,,,*40
$GPGSA,M,3,21,02,12,25,29,,,,,,,,2.7,1.8,2.0*3E
Trace #57 at position 14.000000
$GPZDA,102504.03,08,10,2011,00,00*6C
$GPRMC,102504.00,A,4611.959018,N,01258.219478,E,001.7,290.3,081011,0.2,E,A*33
$GPGGA,102505.00,4611.959239,N,01258.219052,E,1,05,1.8,139.92,M,46.25,M,,*6A
$GPGLL,4611.959239,N,01258.219052,E,102505.00,A,A*66
$GPVTG,312.7,T,312.9,M,001.3,N,002.4,K,A*29
$GPGSV,2,1,07,21,27,186,43,02,20,044,46,12,25,111,48,25,59,107,45*74
$GPGSV,2,2,07,29,83,354,39,30,72,307,,31,52,281,28,,,,*40
$GPGSA,M,3,21,02,12,25,29,,,,,,,,2.7,1.8,2.0*3E
Trace #58 at position 14.250000
$GPZDA,102505.03,08,10,2011,00,00*6D
$GPRMC,102505.00,A,4611.959239,N,01258.219052,E,001.3,312.7,081011,0.2,E,A*34
$GPGGA,102506.00,4611.959492,N,01258.218927,E,1,05,1.8,139.98,M,46.25,M,,*6E
$GPGLL,4611.959492,N,01258.218927,E,102506.00,A,A*68
$GPVTG,350.9,T,351.0,M,000.9,N,001.6,K,A*25
$GPGSV,2,1,07,21,27,186,39,02,20,044,43,12,25,111,50,25,59,107,45*75
$GPGSV,2,2,07,29,83,354,40,30,72,307,30,31,52,281,,,,,*47
$GPGSA,M,3,21,02,12,25,29,,,,,,,,2.7,1.8,2.0*3E
Trace #59 at position 14.500000
$GPZDA,102505.03,08,10,2011,00,00*6D
$GPRMC,102505.00,A,4611.959239,N,01258.219052,E,001.3,312.7,081011,0.2,E,A*34
$GPGGA,102506.00,4611.959492,N,01258.218927,E,1,05,1.8,139.98,M,46.25,M,,*6E
$GPGLL,4611.959492,N,01258.218927,E,102506.00,A,A*68
$GPVTG,350.9,T,351.0,M,000.9,N,001.6,K,A*25
$GPGSV,2,1,07,21,27,186,39,02,20,044,43,12,25,111,50,25,59,107,45*75
$GPGSV,2,2,07,29,83,354,40,30,72,307,30,31,52,281,,,,,*47
$GPGSA,M,3,21,02,12,25,29,,,,,,,,2.7,1.8,2.0*3E
Trace #60 at position 14.750000
$GPZDA,102506.03,08,10,2011,00,00*6E
$GPRMC,102506.00,A,4611.959492,N,01258.218927,E,000.9,350.9,081011,0.2,E,A*39
$GPGGA,102507.00,4611.959796,N,01258.218973,E,1,05,1.8,140.06,M,46.25,M,,*60
$GPGLL,4611.959796,N,01258.218973,E,102507.00,A,A*6F
$GPVTG,0.0,T,0.2,M,001.3,N,002.4,K,A*25
$GPGSV,2,1,07,21,27,186,41,02,20,044,43,12,25,111,49,25,59,107,47*70
$GPGSV,2,2,07,29,83,354,40,30,72,307,33,31,52,281,,,,,*44
$GPGSA,M,3,21,02,12,25,29,,,,,,,,2.7,1.8,2.0*3E
Trace #61 at position 15.000000
$GPZDA,102507.03,08,10,2011,00,00*6F
$GPRMC,102507.00,A,4611.959796,N,01258.218973,E,001.3,0.0,081011,0.2,E,A*3A
$GPGGA,102508.00,4611.960084,N,01258.219061,E,1,05,1.8,140.11,M,46.25,M,,*6C
$GPGLL,4611.960084,N,01258.219061,E,102508.00,A,A*65
$GPVTG,15.5,T,15.7,M,000.8,N,001.5,K,A*2D
$GPGSV,2,1,07,21,27,186,40,02,20,044,43,12,25,111,48,25,59,107,46*71
$GPGSV,2,2,07,29,83,354,39,30,72,307,37,31,52,281,,,,,*4E
$GPGSA,M,3,21,02,12,25,29,,,,,,,,2.7,1.8,2.0*3E
Trace #62 at position 15.250000
$GPZDA,102507.03,08,10,2011,00,00*6F
$GPRMC,102507.00,A,4611.959796,N,01258.218973,E,001.3,0.0,081011,0.2,E,A*3A
$GPGGA,102508.00,4611.960084,N,01258.219061,E,1,05,1.8,140.11,M,46.25,M,,*6C
$GPGLL,4611.960084,N,01258.219061,E,102508.00,A,A*65
$GPVTG,15.5,T,15.7,M,000.8,N,001.5,K,A*2D
$GPGSV,2,1,07,21,27,186,40,02,20,044,43,12,25,111,48,25,59,107,46*71
$GPGSV,2,2,07,29,83,354,39,30,72,307,37,31,52,281,,,,,*4E
$GPGSA,M,3,21,02,12,25,29,,,,,,,,2.7,1.8,2.0*3E
Trace #63 at position 15.500000
$GPZDA,102508.03,08,10,2011,00,00*60
$GPRMC,102508.00,A,4611.960084,N,01258.219061,E,000.8,15.5,081011,0.2,E,A*0B
$GPGGA,102509.00,4611.960288,N,01258.219053,E,1,05,1.8,140.13,M,46.25,M,,*60
$GPGLL,4611.960288,N,01258.219053,E,102509.00,A,A*6B
$GPVTG,328.4,T,328.6,M,000.8,N,001.4,K,A*2C
$GPGSV,2,1,07,21,27,186,40,02,20,044,44,12,25,111,48,25,59,107,46*76
$GPGSV,2,2,07,29,83,354,41,30,72,307,34,31,52,281,,,,,*42
$GPGSA,M,3,21,02,12,25,29,,,,,,,,2.7,1.8,2.0*3E
Trace #64 at position 15.750000
$GPZDA,102508.03,08,10,2011,00,00*60
$GPRMC,102508.00,A,4611.960084,N,01258.219061,E,000.8,15.5,081011,0.2,E,A*0B
$GPGGA,102509.00,4611.960288,N,01258.219053,E,1,05,1.8,140.13,M,46.25,M,,*60
$GPGLL,4611.960288,N,01258.219053,E,102509.00,A,A*6B
$GPVTG,328.4,T,328.6,M,000.8,N,001.4,K,A*2C
$GPGSV,2,1,07,21,27,186,40,02,20,044,44,12,25,111,48,25,59,107,46*76
$GPGSV,2,2,07,29,83,354,41,30,72,307,34,31,52,281,,,,,*42
$GPGSA,M,3,21,02,12,25,29,,,,,,,,2.7,1.8,2.0*3E
Trace #65 at position 16.000000
$GPZDA,102509.03,08,10,2011,00,00*61
$GPRMC,102509.00,A,4611.960288,N,01258.219053,E,000.8,328.4,081011,0.2,E,A*39
$GPGGA,102510.00,4611.960520,N,01258.219082,E,1,05,1.8,140.12,M,46.25,M,,*60
$GPGLL,4611.960520,N,01258.219082,E,102510.00,A,A*6A
$GPVTG,25.2,T,25.4,M,001.1,N,002.0,K,A*27
$GPGSV,2,1,07,21,27,186,40,02,20,044,44,12,25,111,48,25,59,107,48*78
$GPGSV,2,2,07,29,83,354,42,30,72,307,35,31,52,281,,,,,*40
$GPGSA,M,3,21,02,12,25,29,,,,,,,,2.7,1.8,2.0*3E
Trace #66 at position 16.250000
$GPZDA,102509.03,08,10,2011,00,00*61
$GPRMC,102509.00,A,4611.960288,N,01258.219053,E,000.8,328.4,081011,0.2,E,A*39
$GPGGA,102510.00,4611.960520,N,01258.219082,E,1,05,1.8,140.12,M,46.25,M,,*60
$GPGLL,4611.960520,N,01258.219082,E,102510.00,A,A*6A
$GPVTG,25.2,T,25.4,M,001.1,N,002.0,K,A*27
$GPGSV,2,1,07,21,27,186,40,02,20,044,44,12,25,111,48,25,59,107,48*78
$GPGSV,2,2,07,29,83,354,42,30,72,307,35,31,52,281,,,,,*40
$GPGSA,M,3,21,02,12,25,29,,,,,,,,2.7,1.8,2.0*3E
Trace #67 at position 16.500000
$GPZDA,102509.03,08,10,2011,00,00*61
$GPRMC,102509.00,A,4611.960288,N,01258.219053,E,000.8,328.4,081011,0.2,E,A*39
$GPGGA,102510.00,4611.960520,N,01258.219082,E,1,05,1.8,140.12,M,46.25,M,,*60
$GPGLL,4611.960520,N,01258.219082,E,102510.00,A,A*6A
$GPVTG,25.2,T,25.4,M,001.1,N,002.0,K,A*27
$GPGSV,2,1,07,21,27,186,40,02,20,044,44,12,25,111,48,25,59,107,48*78
$GPGSV,2,2,07,29,83,354,42,30,72,307,35,31,52,281,,,,,*40
$GPGSA,M,3,21,02,12,25,29,,,,,,,,2.7,1.8,2.0*3E
Trace #68 at position 16.750000
$GPZDA,102510.03,08,10,2011,00,00*69
$GPRMC,102510.00,A,4611.960520,N,01258.219082,E,001.1,25.2,081011,0.2,E,A*08
$GPGGA,102511.00,4611.960768,N,01258.219209,E,1,05,1.8,140.06,M,46.25,M,,*6B
$GPGLL,4611.960768,N,01258.219209,E,102511.00,A,A*64
$GPVTG,21.6,T,21.8,M,000.8,N,001.5,K,A*21
$GPGSV,2,1,07,21,27,186,42,02,20,044,44,12,25,111,48,25,59,107,49*7B
$GPGSV,2,2,07,29,83,354,40,30,72,307,34,31,52,281,30,,,,*40
$GPGSA,M,3,21,02,12,25,29,,,,,,,,2.7,1.8,2.0*3E
Trace #69 at position 17.000000
$GPZDA,102510.03,08,10,2011,00,00*69
$GPRMC,102510.00,A,4611.960520,N,01258.219082,E,001.1,25.2,081011,0.2,E,A*08
$GPGGA,102511.00,4611.960768,N,01258.219209,E,1,05,1.8,140.06,M,46.25,M,,*6B
$GPGLL,4611.960768,N,01258.219209,E,102511.00,A,A*64
$GPVTG,21.6,T,21.8,M,000.8,N,001.5,K,A*21
$GPGSV,2,1,07,21,27,186,42,02,20,044,44,12,25,111,48,25,59,107,49*7B
$GPGSV,2,2,07,29,83,354,40,30,72,307,34,31,52,281,30,,,,*40
$GPGSA,M,3,21,02,12,25,29,,,,,,,,2.7,1.8,2.0*3E
Trace #70 at position 17.250000
$GPZDA,102511.03,08,10,2011,00,00*68
$GPRMC,102511.00,A,4611.960768,N,01258.219209,E,000.8,21.6,081011,0.2,E,A*0E
$GPGGA,102512.00,4611.961056,N,01258.219113,E,1,05,1.8,140.02,M,46.25,M,,*6F
$GPGLL,4611.961056,N,01258.219113,E,102512.00,A,A*64
$GPVTG,332.2,T,332.3,M,001.4,N,002.5,K,A*20
$GPGSV,2,1,07,21,27,186,43,02,20,044,43,12,25,111,48,25,59,107,47*73
$GPGSV,2,2,07,29,83,354,41,30,72,307,30,31,52,281,31,,,,*44
$GPGSA,M,3,21,02,12,25,29,,,,,,,,2.7,1.8,2.0*3E
Trace #71 at position 17.500000
$GPZDA,102511.03,08,10,2011,00,00*68
$GPRMC,102511.00,A,4611.960768,N,01258.219209,E,000.8,21.6,081011,0.2,E,A*0E
$GPGGA,102512.00,4611.961056,N,01258.219113,E,1,05,1.8,140.02,M,46.25,M,,*6F
$GPGLL,4611.961056,N,01258.219113,E,102512.00,A,A*64
$GPVTG,332.2,T,332.3,M,001.4,N,002.5,K,A*20
$GPGSV,2,1,07,21,27,186,43,02,20,044,43,12,25,111,48,25,59,107,47*73
$GPGSV,2,2,07,29,83,354,41,30,72,307,30,31,52,281,31,,,,*44
$GPGSA,M,3,21,02,12,25,29,,,,,,,,2.7,1.8,2.0*3E
Trace #72 at position 17.750000
$GPZDA,102512.03,08,10,2011,00,00*6B
$GPRMC,102512.00,A,4611.961056,N,01258.219113,E,001.4,332.2,081011,0.2,E,A*36
$GPGGA,102513.00,4611.961406,N,01258.218953,E,1,05,1.8,140.05,M,46.25,M,,*65
$GPGLL,4611.961406,N,01258.218953,E,102513.00,A,A*69
$GPVTG,357.6,T,357.8,M,001.2,N,002.3,K,A*2F
$GPGSV,2,1,07,21,27,186,42,02,20,044,43,12,25,111,46,25,59,107,49*72
$GPGSV,2,2,07,29,83,354,40,30,72,307,,31,52,281,29,,,,*4F
$GPGSA,M,3,21,02,12,25,29,,,,,,,,2.7,1.8,2.0*3E
Trace #73 at position 18.000000
$GPZDA,102512.03,08,10,2011,00,00*6B
$GPRMC,102512.00,A,4611.961056,N,01258.219113,E,001.4,332.2,081011,0.2,E,A*36
$GPGGA,102513.00,4611.961406,N,01258.218953,E,1,05,1.8,140.05,M,46.25,M,,*65
$GPGLL,4611.961406,N,01258.218953,E,102513.00,A,A*69
$GPVTG,357.6,T,357.8,M,001.2,N,002.3,K,A*2F
$GPGSV,2,1,07,21,27,186,42,02,20,044,43,12,25,111,46,25,59,107,49*72
$GPGSV,2,2,07,29,83,354,40,30,72,307,,31,52,281,29,,,,*4F
$GPGSA,M,3,21,02,12,25,29,,,,,,,,2.7,1.8,2.0*3E
Trace #74 at position 18.250000
$GPZDA,102513.03,08,10,2011,00,00*6A
$GPRMC,102513.00,A,4611.961406,N,01258.218953,E,001.2,357.6,081011,0.2,E,A*3A
$GPGGA,102514.00,4611.961717,N,01258.218816,E,1,05,1.8,140.08,M,46.25,M,,*6C
$GPGLL,4611.961717,N,01258.218816,E,102514.00,A,A*6D
$GPVTG,332.1,T,332.2,M,001.1,N,002.0,K,A*22
$GPGSV,2,1,07,21,27,186,41,02,20,044,42,12,25,111,47,25,59,107,47*7F
$GPGSV,2,2,07,29,83,355,41,30,72,307,30,31,52,281,31,,,,*45
$GPGSA,M,3,21,02,12,25,29,,,,,,,,2.7,1.8,2.0*3E
Trace #75 at position 18.500000
$GPZDA,102513.03,08,10,2011,00,00*6A
$GPRMC,102513.00,A,4611.961406,N,01258.218953,E,001.2,357.6,081011,0.2,E,A*3A
$GPGGA,102514.00,4611.961717,N,01258.218816,E,1,05,1.8,140.08,M,46.25,M,,*6C
$GPGLL,4611.961717,N,01258.218816,E,102514.00,A,A*6D
$GPVTG,332.1,T,332.2,M,001.1,N,002.0,K,A*22
$GPGSV,2,1,07,21,27,186,41,02,20,044,42,12,25,111,47,25,59,107,47*7F
$GPGSV,2,2,07,29,83,355,41,30,72,307,30,31,52,281,31,,,,*45
$GPGSA,M,3,21,02,12,25,29,,,,,,,,2.7,1.8,2.0*3E
Trace #76 at position 18.750000
$GPZDA,102513.03,08,10,2011,00,00*6A
$GPRMC,102513.00,A,4611.961406,N,01258.218953,E,001.2,357.6,081011,0.2,E,A*3A
$GPGGA,102514.00,4611.961717,N,01258.218816,E,1,05,1.8,140.08,M,46.25,M,,*6C
$GPGLL,4611.961717,N,01258.218816,E,102514.00,A,A*6D
$GPVTG,332.1,T,332.2,M,001.1,N,002.0,K,A*22
$GPGSV,2,1,07,21,27,186,41,02,20,044,42,12,25,111,47,25,59,107,47*7F
$GPGSV,2,2,07,29,83,355,41,30,72,307,30,31,52,281,31,,,,*45
$GPGSA,M,3,21,02,12,25,29,,,,,,,,2.7,1.8,2.0*3E
Trace #77 at position 19.000000
$GPZDA,102514.03,08,10,2011,00,00*6D
$GPRMC,102514.00,A,4611.961717,N,01258.218816,E,001.1,332.1,081011,0.2,E,A*39
$GPGGA,102515.00,4611.961992,N,01258.218608,E,1,05,1.8,140.13,M,46.25,M,,*65
$GPGLL,4611.961992,N,01258.218608,E,102515.00,A,A*6E
$GPVTG,333.7,T,333.9,M,001.1,N,002.1,K,A*2E
$GPGSV,2,1,07,21,27,186,42,02,20,044,42,12,25,111,48,25,59,107,46*72
$GPGSV,2,2,07,29,83,355,41,30,72,307,26,31,52,281,32,,,,*41
$GPGSA,M,3,21,02,12,25,29,,,,,,,,2.7,1.8,2.0*3E
Trace #78 at position 19.250000
$GPZDA,102514.03,08,10,2011,00,00*6D
$GPRMC,102514.00,A,4611.961717,N,01258.218816,E,001.1,332.1,081011,0.2,E,A*39
$GPGGA,102515.00,4611.961992,N,01258.218608,E,1,05,1.8,140.13,M,46.25,M,,*65
$GPGLL,4611.961992,N,01258.218608,E,102515.00,A,A*6E
$GPVTG,333.7,T,333.9,M,001.1,N,002.1,K,A*2E
$GPGSV,2,1,07,21,27,186,42,02,20,044,42,12,25,111,48,25,59,107,46*72
$GPGSV,2,2,07,29,83,355,41,30,72,307,26,31,52,281,32,,,,*41
$GPGSA,M,3,21,02,12,25,29,,,,,,,,2.7,1.8,2.0*3E
Trace #79 at position 19.500000
$GPZDA,102515.03,08,10,2011,00,00*6C
$GPRMC,102515.00,A,4611.961992,N,01258.218608,E,001.1,333.7,081011,0.2,E,A*3D
$GPGGA,102516.00,4611.962326,N,01258.218407,E,1,05,1.8,140.17,M,46.25,M,,*69
$GPGLL,4611.962326,N,01258.218407,E,102516.00,A,A*66
$GPVTG,339.4,T,339.5,M,001.5,N,002.8,K,A*2C
$GPGSV,2,1,07,21,27,186,44,02,20,044,41,12,25,111,47,25,59,107,46*78
$GPGSV,2,2,07,29,83,355,41,30,72,307,,31,52,281,31,,,,*46
$GPGSA,M,3,21,02,12,25,29,,,,,,,,2.7,1.8,2.0*3E
Trace #80 at position 19.750000
$GPZDA,102515.03,08,10,2011,00,00*6C
$GPRMC,102515.00,A,4611.961992,N,01258.218608,E,001.1,333.7,081011,0.2,E,A*3D
$GPGGA,102516.00,4611.962326,N,01258.218407,E,1,05,1.8,140.17,M,46.25,M,,*69
$GPGLL,4611.962326,N,01258.218407,E,102516.00,A,A*66
$GPVTG,339.4,T,339.5,M,001.5,N,002.8,K,A*2C
$GPGSV,2,1,07,21,27,186,44,02,20,044,41,12,25,111,47,25,59,107,46*78
$GPGSV,2,2,07,29,83,355,41,30,72,307,,31,52,281,31,,,,*46
$GPGSA,M,3,21,02,12,25,29,,,,,,,,2.7,1.8,2.0*3E
Trace #81 at position 20.000000
$GPZDA,102516.03,08,10,2011,00,00*6F
$GPRMC,102516.00,A,4611.962326,N,01258.218407,E,001.5,339.4,081011,0.2,E,A*38
$GPGGA,102517.00,4611.962679,N,01258.218237,E,1,05,1.8,140.19,M,46.25,M,,*6C
$GPGLL,4611.962679,N,01258.218237,E,102517.00,A,A*6D
$GPVTG,342.8,T,343.0,M,001.2,N,002.3,K,A*28
$GPGSV,2,1,07,21,27,186,41,02,20,044,43,12,25,111,47,25,59,107,48*71
$GPGSV,2,2,07,29,83,355,42,30,72,307,34,31,52,281,,,,,*40
$GPGSA,M,3,21,02,12,25,29,,,,,,,,2.7,1.8,2.0*3E
Trace #82 at position 20.250000
$GPZDA,102516.03,08,10,2011,00,00*6F
$GPRMC,102516.00,A,4611.962326,N,01258.218407,E,001.5,339.4,081011,0.2,E,A*38
$GPGGA,102517.00,4611.962679,N,01258.218237,E,1,05,1.8,140.19,M,46.25,M,,*6C
$GPGLL,4611.962679,N,01258.218237,E,102517.00,A,A*6D
$GPVTG,342.8,T,343.0,M,001.2,N,002.3,K,A*28
$GPGSV,2,1,07,21,27,186,41,02,20,044,43,12,25,111,47,25,59,107,48*71
$GPGSV,2,2,07,29,83,355,42,30,72,307,34,31,52,281,,,,,*40
$GPGSA,M,3,21,02,12,25,29,,,,,,,,2.7,1.8,2.0*3E
Trace #83 at position 20.500000
$GPZDA,102516.03,08,10,2011,00,00*6F
$GPRMC,102516.00,A,4611.962326,N,01258.218407,E,001.5,339.4,081011,0.2,E,A*38
$GPGGA,102517.00,4611.962679,N,01258.218237,E,1,05,1.8,140.19,M,46.25,M,,*6C
$GPGLL,4611.962679,N,01258.218237,E,102517.00,A,A*6D
$GPVTG,342.8,T,343.0,M,001.2,N,002.3,K,A*28
$GPGSV,2,1,07,21,27,186,41,02,20,044,43,12,25,111,47,25,59,107,48*71
$GPGSV,2,2,07,29,83,355,42,30,72,307,34,31,52,281,,,,,*40
$GPGSA,M,3,21,02,12,25,29,,,,,,,,2.7,1.8,2.0*3E
Trace #84 at position 20.750000
$GPZDA,102517.03,08,10,2011,00,00*6E
$GPRMC,102517.00,A,4611.962679,N,01258.218237,E,001.2,342.8,081011,0.2,E,A*34
$GPGGA,102518.00,4611.962950,N,01258.218198,E,1,05,1.8,140.16,M,46.25,M,,*6E
$GPGLL,4611.962950,N,01258.218198,E,102518.00,A,A*60
$GPVTG,12.4,T,12.6,M,000.9,N,001.6,K,A*2F
$GPGSV,2,1,07,21,27,186,41,02,20,044,43,12,25,111,49,25,58,107,48*7E
$GPGSV,2,2,07,29,83,355,42,30,72,307,34,31,52,281,31,,,,*42
$GPGSA,M,3,21,02,12,25,29,,,,,,,,2.7,1.8,2.0*3E
Trace #85 at position 21.000000
$GPZDA,102517.03,08,10,2011,00,00*6E
$GPRMC,102517.00,A,4611.962679,N,01258.218237,E,001.2,342.8,081011,0.2,E,A*34
$GPGGA,102518.00,4611.962950,N,01258.218198,E,1,05,1.8,140.16,M,46.25,M,,*6E
$GPGLL,4611.962950,N,01258.218198,E,102518.00,A,A*60
$GPVTG,12.4,T,12.6,M,000.9,N,001.6,K,A*2F
$GPGSV,2,1,07,21,27,186,41,02,20,044,43,12,25,111,49,25,58,107,48*7E
$GPGSV,2,2,07,29,83,355,42,30,72,307,34,31,52,281,31,,,,*42
$GPGSA,M,3,21,02,12,25,29,,,,,,,,2.7,1.8,2.0*3E
Trace #86 at position 21.250000
$GPZDA,102518.03,08,10,2011,00,00*61
$GPRMC,102518.00,A,4611.962950,N,01258.218198,E,000.9,12.4,081011,0.2,E,A*09
$GPGGA,102519.00,4611.963293,N,01258.218168,E,1,05,1.8,140.15,M,46.25,M,,*66
$GPGLL,4611.963293,N,01258.218168,E,102519.00,A,A*6B
$GPVTG,352.4,T,352.6,M,001.7,N,003.2,K,A*26
$GPGSV,2,1,07,21,27,186,41,02,20,044,43,12,25,111,48,25,58,107,47*70
$GPGSV,2,2,07,29,83,355,41,30,72,307,31,31,52,281,31,,,,*44
$GPGSA,M,3,21,02,12,25,29,,,,,,,,2.7,1.8,2.0*3E
Trace #87 at position 21.500000
$GPZDA,102518.03,08,10,2011,00,00*61
$GPRMC,102518.00,A,4611.962950,N,01258.218198,E,000.9,12.4,081011,0.2,E,A*09
$GPGGA,102519.00,4611.963293,N,01258.218168,E,1,05,1.8,140.15,M,46.25,M,,*66
$GPGLL,4611.963293,N,01258.218168,E,102519.00,A,A*6B
$GPVTG,352.4,T,352.6,M,001.7,N,003.2,K,A*26
$GPGSV,2,1,07,21,27,186,41,02,20,044,43,12,25,111,48,25,58,107,47*70
$GPGSV,2,2,07,29,83,355,41,30,72,307,31,31,52,281,31,,,,*44
$GPGSA,M,3,21,02,12,25,29,,,,,,,,2.7,1.8,2.0*3E
Trace #88 at position 21.750000
$GPZDA,102519.03,08,10,2011,00,00*60
$GPRMC,102519.00,A,4611.963293,N,01258.218168,E,001.7,352.4,081011,0.2,E,A*3A
$GPGGA,102520.00,4611.963593,N,01258.218120,E,1,05,1.8,140.18,M,46.25,M,,*6A
$GPGLL,4611.963593,N,01258.218120,E,102520.00,A,A*6A
$GPVTG,11.2,T,11.4,M,000.6,N,001.0,K,A*22
$GPGSV,2,1,07,21,27,186,41,02,20,044,41,12,25,111,49,25,58,107,46*72
$GPGSV,2,2,07,29,83,355,39,30,72,307,29,31,52,281,31,,,,*42
$GPGSA,M,3,21,02,12,25,29,,,,,,,,2.7,1.8,2.0*3E
Trace #89 at position 22.000000
$GPZDA,102519.03,08,10,2011,00,00*60
$GPRMC,102519.00,A,4611.963293,N,01258.218168,E,001.7,352.4,081011,0.2,E,A*3A
$GPGGA,102520.00,4611.963593,N,01258.218120,E,1,05,1.8,140.18,M,46.25,M,,*6A
$GPGLL,4611.963593,N,01258.218120,E,102520.00,A,A*6A
$GPVTG,11.2,T,11.4,M,000.6,N,001.0,K,A*22
$GPGSV,2,1,07,21,27,186,41,02,20,044,41,12,25,111,49,25,58,107,46*72
$GPGSV,2,2,07,29,83,355,39,30,72,307,29,31,52,281,31,,,,*42
$GPGSA,M,3,21,02,12,25,29,,,,,,,,2.7,1.8,2.0*3E
Trace #90 at position 22.250000
$GPZDA,102520.03,08,10,2011,00,00*6A
$GPRMC,102520.00,A,4611.963593,N,01258.218120,E,000.6,11.2,081011,0.2,E,A*09
$GPGGA,102521.00,4611.963778,N,01258.218120,E,1,05,1.8,140.26,M,46.25,M,,*61
$GPGLL,4611.963778,N,01258.218120,E,102521.00,A,A*6C
$GPVTG,5.4,T,5.6,M,000.8,N,001.5,K,A*2D
$GPGSV,2,1,07,21,27,186,41,02,20,044,43,12,25,111,50,25,58,107,48*76
$GPGSV,2,2,07,29,83,355,41,30,72,307,33,31,52,281,33,,,,*44
$GPGSA,M,3,21,02,12,25,29,,,,,,,,2.7,1.8,2.0*3E
Trace #91 at position 22.500000
$GPZDA,102520.03,08,10,2011,00,00*6A
$GPRMC,102520.00,A,4611.963593,N,01258.218120,E,000.6,11.2,081011,0.2,E,A*09
$GPGGA,102521.00,4611.963778,N,01258.218120,E,1,05,1.8,140.26,M,46.25,M,,*61
$GPGLL,4611.963778,N,01258.218120,E,102521.00,A,A*6C
$GPVTG,5.4,T,5.6,M,000.8,N,001.5,K,A*2D
$GPGSV,2,1,07,21,27,186,41,02,20,044,43,12,25,111,50,25,58,107,48*76
$GPGSV,2,2,07,29,83,355,41,30,72,307,33,31,52,281,33,,,,*44
$GPGSA,M,3,21,02,12,25,29,,,,,,,,2.7,1.8,2.0*3E
Trace #92 at position 22.750000
$GPZDA,102521.03,08,10,2011,00,00*6B
$GPRMC,102521.00,A,4611.963778,N,01258.218120,E,000.8,5.4,081011,0.2,E,A*32
$GPGGA,102522.00,4611.964016,N,01258.218048,E,1,05,1.8,140.32,M,46.25,M,,*60
$GPGLL,4611.964016,N,01258.218048,E,102522.00,A,A*68
$GPVTG,346.3,T,346.5,M,000.9,N,001.7,K,A*2A
$GPGSV,2,1,07,21,27,186,41,02,20,044,43,12,25,111,48,25,58,107,48*7F
$GPGSV,2,2,07,29,83,355,39,30,72,307,28,31,52,281,28,,,,*4B
$GPGSA,M,3,21,02,12,25,29,,,,,,,,2.7,1.8,2.0*3E
Trace #93 at position 23.000000
$GPZDA,102521.03,08,10,2011,00,00*6B
$GPRMC,102521.00,A,4611.963778,N,01258.218120,E,000.8,5.4,081011,0.2,E,A*32
$GPGGA,102522.00,4611.964016,N,01258.218048,E,1,05,1.8,140.32,M,46.25,M,,*60
$GPGLL,4611.964016,N,01258.218048,E,102522.00,A,A*68
$GPVTG,346.3,T,346.5,M,000.9,N,001.7,K,A*2A
$GPGSV,2,1,07,21,27,186,41,02,20,044,43,12,25,111,48,25,58,107,48*7F
$GPGSV,2,2,07,29,83,355,39,30,72,307,28,31,52,281,28,,,,*4B
$GPGSA,M,3,21,02,12,25,29,,,,,,,,2.7,1.8,2.0*3E
Trace #94 at position 23.250000
$GPZDA,102522.03,08,10,2011,00,00*68
$GPRMC,102522.00,A,4611.964016,N,01258.218048,E,000.9,346.3,081011,0.2,E,A*34
$GPGGA,102523.00,4611.964303,N,01258.217899,E,1,05,1.8,140.42,M,46.25,M,,*6A
$GPGLL,4611.964303,N,01258.217899,E,102523.00,A,A*65
$GPVTG,344.7,T,344.9,M,001.2,N,002.2,K,A*2E
$GPGSV,2,1,07,21,27,186,42,02,20,044,45,12,25,111,48,25,58,107,49*7B
$GPGSV,2,2,07,29,83,355,41,30,72,307,34,31,52,281,31,,,,*41
$GPGSA,M,3,21,02,12,25,29,,,,,,,,2.7,1.8,2.0*3E
Trace #95 at position 23.500000
$GPZDA,102522.03,08,10,2011,00,00*68
$GPRMC,102522.00,A,4611.964016,N,01258.218048,E,000.9,346.3,081011,0.2,E,A*34
$GPGGA,102523.00,4611.964303,N,01258.217899,E,1,05,1.8,140.42,M,46.25,M,,*6A
$GPGLL,4611.964303,N,01258.217899,E,102523.00,A,A*65
$GPVTG,344.7,T,344.9,M,001.2,N,002.2,K,A*2E
$GPGSV,2,1,07,21,27,186,42,02,20,044,45,12,25,111,48,25,58,107,49*7B
$GPGSV,2,2,07,29,83,355,41,30,72,307,34,31,52,281,31,,,,*41
$GPGSA,M,3,21,02,12,25,29,,,,,,,,2.7,1.8,2.0*3E
Trace #96 at position 23.750000
$GPZDA,102523.04,08,10,2011,00,00*6E
$GPRMC,102523.00,A,4611.964303,N,01258.217899,E,001.2,344.7,081011,0.2,E,A*35
$GPGGA,102524.00,4611.964586,N,01258.217780,E,1,05,1.8,140.45,M,46.25,M,,*66
$GPGLL,4611.964586,N,01258.217780,E,102524.00,A,A*6E
$GPVTG,355.9,T,356.0,M,000.9,N,001.6,K,A*27
$GPGSV,2,1,07,21,27,186,42,02,20,044,43,12,25,111,48,25,58,107,49*7D
$GPGSV,2,2,07,29,83,355,41,30,72,307,33,31,52,281,29,,,,*4F
$GPGSA,M,3,21,02,12,25,29,,,,,,,,2.7,1.8,2.0*3E
Trace #97 at position 24.000000
$GPZDA,102523.04,08,10,2011,00,00*6E
$GPRMC,102523.00,A,4611.964303,N,01258.217899,E,001.2,344.7,081011,0.2,E,A*35
$GPGGA,102524.00,4611.964586,N,01258.217780,E,1,05,1.8,140.45,M,46.25,M,,*66
$GPGLL,4611.964586,N,01258.217780,E,102524.00,A,A*6E
$GPVTG,355.9,T,356.0,M,000.9,N,001.6,K,A*27
$GPGSV,2,1,07,21,27,186,42,02,20,044,43,12,25,111,48,25,58,107,49*7D
$GPGSV,2,2,07,29,83,355,41,30,72,307,33,31,52,281,29,,,,*4F
$GPGSA,M,3,21,02,12,25,29,,,,,,,,2.7,1.8,2.0*3E
Trace #98 at position 24.250000
$GPZDA,102524.03,08,10,2011,00,00*6E
$GPRMC,102524.00,A,4611.964586,N,01258.217780,E,000.9,355.9,081011,0.2,E,A*3A
$GPGGA,102525.00,4611.964844,N,01258.217600,E,1,05,1.8,140.47,M,46.25,M,,*6F
$GPGLL,4611.964844,N,01258.217600,E,102525.00,A,A*65
$GPVTG,325.5,T,325.7,M,001.1,N,002.1,K,A*22
$GPGSV,2,1,07,21,27,186,43,02,20,044,41,12,25,111,47,25,58,107,48*70
$GPGSV,2,2,07,29,83,355,40,30,72,307,29,31,52,281,31,,,,*4C
$GPGSA,M,3,21,02,12,25,29,,,,,,,,2.7,1.8,2.0*3E
Trace #99 at position 24.500000
$GPZDA,102524.03,08,10,2011,00,00*6E
$GPRMC,102524.00,A,4611.964586,N,01258.217780,E,000.9,355.9,081011,0.2,E,A*3A
$GPGGA,102525.00,4611.964844,N,01258.217600,E,1,05,1.8,140.47,M,46.25,M,,*6F
$GPGLL,4611.964844,N,01258.217600,E,102525.00,A,A*65
$GPVTG,325.5,T,325.7,M,001.1,N,002.1,K,A*22
$GPGSV,2,1,07,21,27,186,43,02,20,044,41,12,25,111,47,25,58,107,48*70
$GPGSV,2,2,07,29,83,355,40,30,72,307,29,31,52,281,31,,,,*4C
$GPGSA,M,3,21,02,12,25,29,,,,,,,,2.7,1.8,2.0*3E
Trace #100 at position 24.750000
$GPZDA,102525.03,08,10,2011,00,00*6F
$GPRMC,102525.00,A,4611.964844,N,01258.217600,E,001.1,325.5,081011,0.2,E,A*33
$GPGGA,102526.00,4611.965137,N,01258.217309,E,1,05,1.8,140.55,M,46.25,M,,*6F
$GPGLL,4611.965137,N,01258.217309,E,102526.00,A,A*66
$GPVTG,328.0,T,328.2,M,001.3,N,002.5,K,A*24
$GPGSV,2,1,07,21,27,186,42,02,20,044,43,12,25,111,46,25,58,107,48*72
$GPGSV,2,2,07,29,83,355,39,30,72,307,,31,52,281,31,,,,*49
$GPGSA,M,3,21,02,12,25,29,,,,,,,,2.7,1.8,2.0*3E
Trace #101 at position 25.000000
$GPZDA,102525.03,08,10,2011,00,00*6F
$GPRMC,102525.00,A,4611.964844,N,01258.217600,E,001.1,325.5,081011,0.2,E,A*33
$GPGGA,102526.00,4611.965137,N,01258.217309,E,1,05,1.8,140.55,M,46.25,M,,*6F
$GPGLL,4611.965137,N,01258.217309,E,102526.00,A,A*66
$GPVTG,328.0,T,328.2,M,001.3,N,002.5,K,A*24
$GPGSV,2,1,07,21,27,186,42,02,20,044,43,12,25,111,46,25,58,107,48*72
$GPGSV,2,2,07,29,83,355,39,30,72,307,,31,52,281,31,,,,*49
$GPGSA,M,3,21,02,12,25,29,,,,,,,,2.7,1.8,2.0*3E
Trace #102 at position 25.250000
$GPZDA,102529.03,08,10,2011,00,00*63
$GPRMC,102529.00,A,4611.965611,N,01258.217036,E,000.2,137.9,081011,0.2,E,A*3C
$GPGGA,102530.00,4611.965605,N,01258.217058,E,1,05,1.8,140.48,M,46.25,M,,*65
$GPGLL,4611.965605,N,01258.217058,E,102530.00,A,A*60
$GPVTG,120.6,T,120.8,M,000.1,N,000.1,K,A*2D
$GPGSV,2,1,07,21,27,186,43,02,20,044,41,12,25,111,45,25,58,107,47*7D
$GPGSV,2,2,07,29,83,356,40,30,72,307,,31,52,281,27,,,,*43
$GPGSA,M,3,21,02,12,25,29,,,,,,,,2.7,1.8,2.0*3E
Trace #103 at position 25.500000
$GPZDA,102529.03,08,10,2011,00,00*63
$GPRMC,102529.00,A,4611.965611,N,01258.217036,E,000.2,137.9,081011,0.2,E,A*3C
$GPGGA,102530.00,4611.965605,N,01258.217058,E,1,05,1.8,140.48,M,46.25,M,,*65
$GPGLL,4611.965605,N,01258.217058,E,102530.00,A,A*60
$GPVTG,120.6,T,120.8,M,000.1,N,000.1,K,A*2D
$GPGSV,2,1,07,21,27,186,43,02,20,044,41,12,25,111,45,25,58,107,47*7D
$GPGSV,2,2,07,29,83,356,40,30,72,307,,31,52,281,27,,,,*43
$GPGSA,M,3,21,02,12,25,29,,,,,,,,2.7,1.8,2.0*3E
Trace #104 at position 25.750000
$GPZDA,102530.03,08,10,2011,00,00*6B
$GPRMC,102530.00,A,4611.965605,N,01258.217058,E,000.1,120.6,081011,0.2,E,A*33
$GPGGA,102531.00,4611.965607,N,01258.217079,E,1,05,1.8,140.49,M,46.25,M,,*64
$GPGLL,4611.965607,N,01258.217079,E,102531.00,A,A*60
$GPVTG,123.7,T,123.9,M,000.1,N,000.3,K,A*2F
$GPGSV,2,1,07,21,27,186,43,02,20,044,40,12,25,111,45,25,58,107,46*7D
$GPGSV,2,2,07,29,83,356,40,30,72,307,,31,52,281,31,,,,*44
$GPGSA,M,3,21,02,12,25,29,,,,,,,,2.7,1.8,2.0*3E
Trace #105 at position 26.000000
$GPZDA,102530.03,08,10,2011,00,00*6B
$GPRMC,102530.00,A,4611.965605,N,01258.217058,E,000.1,120.6,081011,0.2,E,A*33
$GPGGA,102531.00,4611.965607,N,01258.217079,E,1,05,1.8,140.49,M,46.25,M,,*64
$GPGLL,4611.965607,N,01258.217079,E,102531.00,A,A*60
$GPVTG,123.7,T,123.9,M,000.1,N,000.3,K,A*2F
$GPGSV,2,1,07,21,27,186,43,02,20,044,40,12,25,111,45,25,58,107,46*7D
$GPGSV,2,2,07,29,83,356,40,30,72,307,,31,52,281,31,,,,*44
$GPGSA,M,3,21,02,12,25,29,,,,,,,,2.7,1.8,2.0*3E
Trace #106 at position 26.250000
$GPZDA,102531.03,08,10,2011,00,00*6A
$GPRMC,102531.00,A,4611.965607,N,01258.217079,E,000.1,123.7,081011,0.2,E,A*31
$GPGGA,102532.00,4611.965683,N,01258.216931,E,1,05,1.8,140.54,M,46.25,M,,*63
$GPGLL,4611.965683,N,01258.216931,E,102532.00,A,A*6B
$GPVTG,296.3,T,296.5,M,000.9,N,001.7,K,A*2A
$GPGSV,2,1,07,21,27,186,44,02,20,044,43,12,25,111,48,25,58,107,48*7A
$GPGSV,2,2,07,29,83,356,41,30,72,307,,31,52,281,31,,,,*45
$GPGSA,M,3,21,02,12,25,29,,,,,,,,2.7,1.8,2.0*3E
Trace #107 at position 26.500000
$GPZDA,102531.03,08,10,2011,00,00*6A
$GPRMC,102531.00,A,4611.965607,N,01258.217079,E,000.1,123.7,081011,0.2,E,A*31
$GPGGA,102532.00,4611.965683,N,01258.216931,E,1,05,1.8,140.54,M,46.25,M,,*63
$GPGLL,4611.965683,N,01258.216931,E,102532.00,A,A*6B
$GPVTG,296.3,T,296.5,M,000.9,N,001.7,K,A*2A
$GPGSV,2,1,07,21,27,186,44,02,20,044,43,12,25,111,48,25,58,107,48*7A
$GPGSV,2,2,07,29,83,356,41,30,72,307,,31,52,281,31,,,,*45
$GPGSA,M,3,21,02,12,25,29,,,,,,,,2.7,1.8,2.0*3E
Trace #108 at position 26.750000
$GPZDA,102532.03,08,10,2011,00,00*69
$GPRMC,102532.00,A,4611.965683,N,01258.216931,E,000.9,296.3,081011,0.2,E,A*3B
$GPGGA,102533.00,4611.965936,N,01258.216660,E,1,05,1.8,140.54,M,46.25,M,,*68
$GPGLL,4611.965936,N,01258.216660,E,102533.00,A,A*60
$GPVTG,333.0,T,333.1,M,001.3,N,002.5,K,A*27
$GPGSV,2,1,07,21,27,186,41,02,20,044,43,12,25,111,47,25,58,107,47*7F
$GPGSV,2,2,07,29,83,356,39,30,72,307,,31,52,281,29,,,,*43
$GPGSA,M,3,21,02,12,25,29,,,,,,,,2.7,1.8,2.0*3E
Trace #109 at position 27.000000
$GPZDA,102532.03,08,10,2011,00,00*69
$GPRMC,102532.00,A,4611.965683,N,01258.216931,E,000.9,296.3,081011,0.2,E,A*3B
$GPGGA,102533.00,4611.965936,N,01258.216660,E,1,05,1.8,140.54,M,46.25,M,,*68
$GPGLL,4611.965936,N,01258.216660,E,102533.00,A,A*60
$GPVTG,333.0,T,333.1,M,001.3,N,002.5,K,A*27
$GPGSV,2,1,07,21,27,186,41,02,20,044,43,12,25,111,47,25,58,107,47*7F
$GPGSV,2,2,07,29,83,356,39,30,72,307,,31,52,281,29,,,,*43
$GPGSA,M,3,21,02,12,25,29,,,,,,,,2.7,1.8,2.0*3E
Trace #110 at position 27.250000
$GPZDA,102533.03,08,10,2011,00,00*68
$GPRMC,102533.00,A,4611.965936,N,01258.216660,E,001.3,333.0,081011,0.2,E,A*36
$GPGGA,102534.00,4611.966242,N,01258.216459,E,1,05,1.8,140.50,M,46.25,M,,*68
$GPGLL,4611.966242,N,01258.216459,E,102534.00,A,A*64
$GPVTG,328.5,T,328.7,M,001.0,N,001.8,K,A*29
$GPGSV,2,1,07,21,27,186,42,02,20,044,43,12,25,111,48,25,58,107,49*7D
$GPGSV,2,2,07,29,83,356,42,30,72,307,36,31,52,281,29,,,,*4A
$GPGSA,M,3,21,02,12,25,29,,,,,,,,2.7,1.8,2.0*3E
Trace #111 at position 27.500000
$GPZDA,102533.03,08,10,2011,00,00*68
$GPRMC,102533.00,A,4611.965936,N,01258.216660,E,001.3,333.0,081011,0.2,E,A*36
$GPGGA,102534.00,4611.966242,N,01258.216459,E,1,05,1.8,140.50,M,46.25,M,,*68
$GPGLL,4611.966242,N,01258.216459,E,102534.00,A,A*64
$GPVTG,328.5,T,328.7,M,001.0,N,001.8,K,A*29
$GPGSV,2,1,07,21,27,186,42,02,20,044,43,12,25,111,48,25,58,107,49*7D
$GPGSV,2,2,07,29,83,356,42,30,72,307,36,31,52,281,29,,,,*4A
$GPGSA,M,3,21,02,12,25,29,,,,,,,,2.7,1.8,2.0*3E
Trace #112 at position 27.750000
$GPZDA,102534.03,08,10,2011,00,00*6F
$GPRMC,102534.00,A,4611.966242,N,01258.216459,E,001.0,328.5,081011,0.2,E,A*3E
$GPGGA,102535.00,4611.966555,N,01258.216334,E,1,05,1.8,140.45,M,46.25,M,,*60
$GPGLL,4611.966555,N,01258.216334,E,102535.00,A,A*68
$GPVTG,349.3,T,349.5,M,001.3,N,002.4,K,A*21
$GPGSV,2,1,07,21,27,186,40,02,20,044,42,12,25,111,48,25,58,107,48*7F
$GPGSV,2,2,07,29,83,356,42,30,72,307,35,31,52,281,28,,,,*48
$GPGSA,M,3,21,02,12,25,29,,,,,,,,2.7,1.8,2.0*3E
Trace #113 at position 28.000000
$GPZDA,102534.03,08,10,2011,00,00*6F
$GPRMC,102534.00,A,4611.966242,N,01258.216459,E,001.0,328.5,081011,0.2,E,A*3E
$GPGGA,102535.00,4611.966555,N,01258.216334,E,1,05,1.8,140.45,M,46.25,M,,*60
$GPGLL,4611.966555,N,01258.216334,E,102535.00,A,A*68
$GPVTG,349.3,T,349.5,M,001.3,N,002.4,K,A*21
$GPGSV,2,1,07,21,27,186,40,02,20,044,42,12,25,111,48,25,58,107,48*7F
$GPGSV,2,2,07,29,83,356,42,30,72,307,35,31,52,281,28,,,,*48
$GPGSA,M,3,21,02,12,25,29,,,,,,,,2.7,1.8,2.0*3E
Trace #114 at position 28.250000
$GPZDA,102535.03,08,10,2011,00,00*6E
$GPRMC,102535.00,A,4611.966555,N,01258.216334,E,001.3,349.3,081011,0.2,E,A*30
$GPGGA,102536.00,4611.966876,N,01258.216145,E,1,05,1.8,140.44,M,46.25,M,,*6A
$GPGLL,4611.966876,N,01258.216145,E,102536.00,A,A*63
$GPVTG,319.0,T,319.2,M,001.3,N,002.5,K,A*24
$GPGSV,2,1,07,21,27,186,40,02,19,044,42,12,25,111,47,25,58,107,49*7B
$GPGSV,2,2,07,29,83,356,41,30,72,307,37,31,52,281,,,,,*43
$GPGSA,M,3,21,02,12,25,29,,,,,,,,2.7,1.8,2.0*3E
Trace #115 at position 28.500000
$GPZDA,102535.03,08,10,2011,00,00*6E
$GPRMC,102535.00,A,4611.966555,N,01258.216334,E,001.3,349.3,081011,0.2,E,A*30
$GPGGA,102536.00,4611.966876,N,01258.216145,E,1,05,1.8,140.44,M,46.25,M,,*6A
$GPGLL,4611.966876,N,01258.216145,E,102536.00,A,A*63
$GPVTG,319.0,T,319.2,M,001.3,N,002.5,K,A*24
$GPGSV,2,1,07,21,27,186,40,02,19,044,42,12,25,111,47,25,58,107,49*7B
$GPGSV,2,2,07,29,83,356,41,30,72,307,37,31,52,281,,,,,*43
$GPGSA,M,3,21,02,12,25,29,,,,,,,,2.7,1.8,2.0*3E
Trace #116 at position 28.750000
$GPZDA,102536.03,08,10,2011,00,00*6D
$GPRMC,102536.00,A,4611.966876,N,01258.216145,E,001.3,319.0,081011,0.2,E,A*3D
$GPGGA,102537.00,4611.967149,N,01258.215963,E,1,05,1.8,140.53,M,46.25,M,,*66
$GPGLL,4611.967149,N,01258.215963,E,102537.00,A,A*69
$GPVTG,345.0,T,345.1,M,001.0,N,001.8,K,A*2A
$GPGSV,2,1,07,21,27,186,43,02,19,044,43,12,25,111,46,25,58,107,48*79
$GPGSV,2,2,07,29,83,356,39,30,72,307,34,31,52,281,31,,,,*4D
$GPGSA,M,3,21,02,12,25,29,,,,,,,,2.7,1.8,2.0*3E
Trace #117 at position 29.000000
$GPZDA,102536.03,08,10,2011,00,00*6D
$GPRMC,102536.00,A,4611.966876,N,01258.216145,E,001.3,319.0,081011,0.2,E,A*3D
$GPGGA,102537.00,4611.967149,N,01258.215963,E,1,05,1.8,140.53,M,46.25,M,,*66
$GPGLL,4611.967149,N,01258.215963,E,102537.00,A,A*69
$GPVTG,345.0,T,345.1,M,001.0,N,001.8,K,A*2A
$GPGSV,2,1,07,21,27,186,43,02,19,044,43,12,25,111,46,25,58,107,48*79
$GPGSV,2,2,07,29,83,356,39,30,72,307,34,31,52,281,31,,,,*4D
$GPGSA,M,3,21,02,12,25,29,,,,,,,,2.7,1.8,2.0*3E
Trace #118 at position 29.250000
