Trace #1 at position 0.000000
$GPZDA,080144.03,09,10,2011,00,00*66
$GPRMC,080144.00,A,4611.953188,N,01258.225316,E,000.1,278.5,091011,0.2,E,A*3C
$GPGGA,080145.00,4611.953179,N,01258.225167,E,1,04,7.2,138.43,M,46.25,M,,*64
$GPGLL,4611.953179,N,01258.225167,E,080145.00,A,A*68
$GPVTG,222.0,T,222.1,M,000.1,N,000.1,K,A*22
$GPGSV,2,1,07,02,31,106,41,04,23,058,40,09,43,142,43,12,74,029,42*70
$GPGSV,2,2,07,14,37,281,,25,58,288,27,29,27,212,32,,,,*47
$GPGSA,M,3,02,04,09,12,,,,,,,,,11.8,7.2,9.3*05
Trace #2 at position 0.250000
$GPZDA,080147.03,09,10,2011,00,00*65
$GPRMC,080147.00,A,4611.953163,N,01258.224845,E,000.1,96.3,091011,0.2,E,A*02
$GPGGA,080148.00,4611.953156,N,01258.224709,E,1,04,7.1,137.67,M,46.25,M,,*61
$GPGLL,4611.953156,N,01258.224709,E,080148.00,A,A*67
$GPVTG,266.5,T,266.7,M,000.3,N,000.6,K,A*24
$GPGSV,2,1,07,02,31,106,42,04,23,058,39,09,43,142,44,12,74,029,42*7A
$GPGSV,2,2,07,14,37,281,,25,58,288,,29,27,212,35,,,,*45
$GPGSA,M,3,02,04,09,12,,,,,,,,,11.7,7.1,9.3*09
Trace #3 at position 0.500000
$GPZDA,080148.03,09,10,2011,00,00*6A
$GPRMC,080148.00,A,4611.953156,N,01258.224709,E,000.3,266.5,091011,0.2,E,A*35
$GPGGA,080149.00,4611.953195,N,01258.224820,E,1,05,1.7,137.80,M,46.25,M,,*63
$GPGLL,4611.953195,N,01258.224820,E,080149.00,A,A*6D
$GPVTG,34.0,T,34.1,M,000.3,N,000.6,K,A*27
$GPGSV,2,1,07,02,31,106,43,04,23,058,40,09,43,142,46,12,74,029,45*70
$GPGSV,2,2,07,14,37,281,,25,58,288,,29,27,212,40,,,,*47
$GPGSA,M,3,02,04,09,12,29,,,,,,,,2.8,1.7,2.3*34
Trace #4 at position 0.750000
$GPZDA,080148.03,09,10,2011,00,00*6A
$GPRMC,080148.00,A,4611.953156,N,01258.224709,E,000.3,266.5,091011,0.2,E,A*35
$GPGGA,080149.00,4611.953195,N,01258.224820,E,1,05,1.7,137.80,M,46.25,M,,*63
$GPGLL,4611.953195,N,01258.224820,E,080149.00,A,A*6D
$GPVTG,34.0,T,34.1,M,000.3,N,000.6,K,A*27
$GPGSV,2,1,07,02,31,106,43,04,23,058,40,09,43,142,46,12,74,029,45*70
$GPGSV,2,2,07,14,37,281,,25,58,288,,29,27,212,40,,,,*47
$GPGSA,M,3,02,04,09,12,29,,,,,,,,2.8,1.7,2.3*34
Trace #5 at position 1.000000
$GPZDA,080149.04,09,10,2011,00,00*6C
$GPRMC,080149.00,A,4611.953195,N,01258.224820,E,000.3,34.0,091011,0.2,E,A*0F
$GPGGA,080150.00,4611.953299,N,01258.224895,E,1,05,1.7,138.01,M,46.25,M,,*6C
$GPGLL,4611.953299,N,01258.224895,E,080150.00,A,A*64
$GPVTG,317.5,T,317.7,M,000.6,N,001.0,K,A*26
$GPGSV,2,1,07,02,31,106,45,04,23,058,40,09,43,142,45,12,74,029,44*74
$GPGSV,2,2,07,14,37,281,,25,58,288,,29,27,212,41,,,,*46
$GPGSA,M,3,02,04,09,12,29,,,,,,,,2.8,1.7,2.3*34
Trace #6 at position 1.250000
$GPZDA,080150.03,09,10,2011,00,00*63
$GPRMC,080150.00,A,4611.953299,N,01258.224895,E,000.6,317.5,091011,0.2,E,A*34
$GPGGA,080151.00,4611.953495,N,01258.224870,E,1,05,1.7,138.18,M,46.25,M,,*64
$GPGLL,4611.953495,N,01258.224870,E,080151.00,A,A*64
$GPVTG,342.6,T,342.8,M,001.0,N,001.8,K,A*25
$GPGSV,2,1,07,02,31,106,43,04,23,058,39,09,43,142,43,12,74,029,41*7F
$GPGSV,2,2,07,14,37,281,,25,58,288,39,29,27,212,40,,,,*4D
$GPGSA,M,3,02,04,09,12,29,,,,,,,,2.8,1.7,2.3*34
Trace #7 at position 1.500000
$GPZDA,080150.03,09,10,2011,00,00*63
$GPRMC,080150.00,A,4611.953299,N,01258.224895,E,000.6,317.5,091011,0.2,E,A*34
$GPGGA,080151.00,4611.953495,N,01258.224870,E,1,05,1.7,138.18,M,46.25,M,,*64
$GPGLL,4611.953495,N,01258.224870,E,080151.00,A,A*64
$GPVTG,342.6,T,342.8,M,001.0,N,001.8,K,A*25
$GPGSV,2,1,07,02,31,106,43,04,23,058,39,09,43,142,43,12,74,029,41*7F
$GPGSV,2,2,07,14,37,281,,25,58,288,39,29,27,212,40,,,,*4D
$GPGSA,M,3,02,04,09,12,29,,,,,,,,2.8,1.7,2.3*34
Trace #8 at position 1.750000
$GPZDA,080151.03,09,10,2011,00,00*62
$GPRMC,080151.00,A,4611.953495,N,01258.224870,E,001.0,342.6,091011,0.2,E,A*30
$GPGGA,080152.00,4611.953751,N,01258.224904,E,1,05,1.7,138.31,M,46.25,M,,*65
$GPGLL,4611.953751,N,01258.224904,E,080152.00,A,A*6E
$GPVTG,359.3,T,359.4,M,000.9,N,001.6,K,A*2A
$GPGSV,2,1,07,02,31,106,43,04,23,058,40,09,43,142,44,12,74,029,42*75
$GPGSV,2,2,07,14,37,281,,25,58,288,40,29,27,212,42,,,,*41
$GPGSA,M,3,02,04,09,12,29,,,,,,,,2.8,1.7,2.3*34
Trace #9 at position 2.000000
$GPZDA,080151.03,09,10,2011,00,00*62
$GPRMC,080151.00,A,4611.953495,N,01258.224870,E,001.0,342.6,091011,0.2,E,A*30
$GPGGA,080152.00,4611.953751,N,01258.224904,E,1,05,1.7,138.31,M,46.25,M,,*65
$GPGLL,4611.953751,N,01258.224904,E,080152.00,A,A*6E
$GPVTG,359.3,T,359.4,M,000.9,N,001.6,K,A*2A
$GPGSV,2,1,07,02,31,106,43,04,23,058,40,09,43,142,44,12,74,029,42*75
$GPGSV,2,2,07,14,37,281,,25,58,288,40,29,27,212,42,,,,*41
$GPGSA,M,3,02,04,09,12,29,,,,,,,,2.8,1.7,2.3*34
Trace #10 at position 2.250000
$GPZDA,080152.03,09,10,2011,00,00*61
$GPRMC,080152.00,A,4611.953751,N,01258.224904,E,000.9,359.3,091011,0.2,E,A*3D
$GPGGA,080153.00,4611.953962,N,01258.224929,E,1,06,1.4,138.47,M,46.25,M,,*64
$GPGLL,4611.953962,N,01258.224929,E,080153.00,A,A*6E
$GPVTG,326.3,T,326.5,M,001.1,N,001.9,K,A*2D
$GPGSV,2,1,07,02,31,106,44,04,23,058,41,09,43,142,45,12,74,029,40*70
$GPGSV,2,2,07,14,37,281,34,25,58,288,40,29,27,212,42,,,,*46
$GPGSA,M,3,02,04,09,12,25,29,,,,,,,2.7,1.4,2.3*3F
Trace #11 at position 2.500000
$GPZDA,080153.04,09,10,2011,00,00*67
$GPRMC,080153.00,A,4611.953962,N,01258.224929,E,001.1,326.3,091011,0.2,E,A*3C
$GPGGA,080154.00,4611.954187,N,01258.224922,E,1,06,1.4,138.62,M,46.25,M,,*6B
$GPGLL,4611.954187,N,01258.224922,E,080154.00,A,A*66
$GPVTG,355.4,T,355.6,M,001.0,N,001.8,K,A*29
$GPGSV,2,1,07,02,31,106,45,04,23,058,40,09,43,142,44,12,74,029,40*71
$GPGSV,2,2,07,14,37,281,37,25,58,289,40,29,27,212,41,,,,*47
$GPGSA,M,3,02,04,09,12,25,29,,,,,,,2.7,1.4,2.3*3F
Trace #12 at position 2.750000
$GPZDA,080153.04,09,10,2011,00,00*67
$GPRMC,080153.00,A,4611.953962,N,01258.224929,E,001.1,326.3,091011,0.2,E,A*3C
$GPGGA,080154.00,4611.954187,N,01258.224922,E,1,06,1.4,138.62,M,46.25,M,,*6B
$GPGLL,4611.954187,N,01258.224922,E,080154.00,A,A*66
$GPVTG,355.4,T,355.6,M,001.0,N,001.8,K,A*29
$GPGSV,2,1,07,02,31,106,45,04,23,058,40,09,43,142,44,12,74,029,40*71
$GPGSV,2,2,07,14,37,281,37,25,58,289,40,29,27,212,41,,,,*47
$GPGSA,M,3,02,04,09,12,25,29,,,,,,,2.7,1.4,2.3*3F
Trace #13 at position 3.000000
$GPZDA,080154.03,09,10,2011,00,00*67
$GPRMC,080154.00,A,4611.954187,N,01258.224922,E,001.0,355.4,091011,0.2,E,A*36
$GPGGA,080155.00,4611.954365,N,01258.224992,E,1,06,1.4,138.75,M,46.25,M,,*69
$GPGLL,4611.954365,N,01258.224992,E,080155.00,A,A*62
$GPVTG,350.2,T,350.3,M,000.5,N,000.9,K,A*2E
$GPGSV,2,1,07,02,31,106,45,04,23,058,41,09,43,142,43,12,74,029,41*76
$GPGSV,2,2,07,14,37,281,36,25,58,289,41,29,27,212,42,,,,*44
$GPGSA,M,3,02,04,09,12,25,29,,,,,,,2.7,1.4,2.3*3F
Trace #14 at position 3.250000
$GPZDA,080154.03,09,10,2011,00,00*67
$GPRMC,080154.00,A,4611.954187,N,01258.224922,E,001.0,355.4,091011,0.2,E,A*36
$GPGGA,080155.00,4611.954365,N,01258.224992,E,1,06,1.4,138.75,M,46.25,M,,*69
$GPGLL,4611.954365,N,01258.224992,E,080155.00,A,A*62
$GPVTG,350.2,T,350.3,M,000.5,N,000.9,K,A*2E
$GPGSV,2,1,07,02,31,106,45,04,23,058,41,09,43,142,43,12,74,029,41*76
$GPGSV,2,2,07,14,37,281,36,25,58,289,41,29,27,212,42,,,,*44
$GPGSA,M,3,02,04,09,12,25,29,,,,,,,2.7,1.4,2.3*3F
Trace #15 at position 3.500000
$GPZDA,080155.03,09,10,2011,00,00*66
$GPRMC,080155.00,A,4611.954365,N,01258.224992,E,000.5,350.2,091011,0.2,E,A*35
$GPGGA,080156.00,4611.954522,N,01258.225023,E,1,06,1.4,138.90,M,46.25,M,,*66
$GPGLL,4611.954522,N,01258.225023,E,080156.00,A,A*66
$GPVTG,345.2,T,345.4,M,000.8,N,001.5,K,A*29
$GPGSV,2,1,07,02,31,106,45,04,23,058,41,09,43,142,45,12,74,029,42*73
$GPGSV,2,2,07,14,37,281,35,25,58,289,38,29,28,212,40,,,,*44
$GPGSA,M,3,02,04,09,12,25,29,,,,,,,2.7,1.4,2.3*3F
Trace #16 at position 3.750000
$GPZDA,080155.03,09,10,2011,00,00*66
$GPRMC,080155.00,A,4611.954365,N,01258.224992,E,000.5,350.2,091011,0.2,E,A*35
$GPGGA,080156.00,4611.954522,N,01258.225023,E,1,06,1.4,138.90,M,46.25,M,,*66
$GPGLL,4611.954522,N,01258.225023,E,080156.00,A,A*66
$GPVTG,345.2,T,345.4,M,000.8,N,001.5,K,A*29
$GPGSV,2,1,07,02,31,106,45,04,23,058,41,09,43,142,45,12,74,029,42*73
$GPGSV,2,2,07,14,37,281,35,25,58,289,38,29,28,212,40,,,,*44
$GPGSA,M,3,02,04,09,12,25,29,,,,,,,2.7,1.4,2.3*3F
Trace #17 at position 4.000000
$GPZDA,080156.03,09,10,2011,00,00*65
$GPRMC,080156.00,A,4611.954522,N,01258.225023,E,000.8,345.2,091011,0.2,E,A*38
$GPGGA,080157.00,4611.954687,N,01258.224954,E,1,06,1.4,139.01,M,46.25,M,,*6A
$GPGLL,4611.954687,N,01258.224954,E,080157.00,A,A*63
$GPVTG,310.5,T,310.7,M,000.7,N,001.3,K,A*24
$GPGSV,2,1,07,02,31,106,44,04,23,058,40,09,43,142,44,12,74,029,43*73
$GPGSV,2,2,07,14,37,281,37,25,58,289,40,29,28,212,40,,,,*49
$GPGSA,M,3,02,04,09,12,25,29,,,,,,,2.7,1.4,2.3*3F
Trace #18 at position 4.250000
$GPZDA,080156.03,09,10,2011,00,00*65
$GPRMC,080156.00,A,4611.954522,N,01258.225023,E,000.8,345.2,091011,0.2,E,A*38
$GPGGA,080157.00,4611.954687,N,01258.224954,E,1,06,1.4,139.01,M,46.25,M,,*6A
$GPGLL,4611.954687,N,01258.224954,E,080157.00,A,A*63
$GPVTG,310.5,T,310.7,M,000.7,N,001.3,K,A*24
$GPGSV,2,1,07,02,31,106,44,04,23,058,40,09,43,142,44,12,74,029,43*73
$GPGSV,2,2,07,14,37,281,37,25,58,289,40,29,28,212,40,,,,*49
$GPGSA,M,3,02,04,09,12,25,29,,,,,,,2.7,1.4,2.3*3F
Trace #19 at position 4.500000
$GPZDA,080157.03,09,10,2011,00,00*64
$GPRMC,080157.00,A,4611.954687,N,01258.224954,E,000.7,310.5,091011,0.2,E,A*35
$GPGGA,080158.00,4611.954883,N,01258.224908,E,1,06,1.4,139.09,M,46.25,M,,*6E
$GPGLL,4611.954883,N,01258.224908,E,080158.00,A,A*6F
$GPVTG,358.9,T,359.0,M,000.9,N,001.7,K,A*24
$GPGSV,2,1,07,02,31,106,44,04,23,058,41,09,43,142,44,12,74,029,43*72
$GPGSV,2,2,07,14,37,281,36,25,58,289,40,29,28,212,40,,,,*48
$GPGSA,M,3,02,04,09,12,25,29,,,,,,,2.7,1.4,2.3*3F
Trace #20 at position 4.750000
$GPZDA,080157.03,09,10,2011,00,00*64
$GPRMC,080157.00,A,4611.954687,N,01258.224954,E,000.7,310.5,091011,0.2,E,A*35
$GPGGA,080158.00,4611.954883,N,01258.224908,E,1,06,1.4,139.09,M,46.25,M,,*6E
$GPGLL,4611.954883,N,01258.224908,E,080158.00,A,A*6F
$GPVTG,358.9,T,359.0,M,000.9,N,001.7,K,A*24
$GPGSV,2,1,07,02,31,106,44,04,23,058,41,09,43,142,44,12,74,029,43*72
$GPGSV,2,2,07,14,37,281,36,25,58,289,40,29,28,212,40,,,,*48
$GPGSA,M,3,02,04,09,12,25,29,,,,,,,2.7,1.4,2.3*3F
Trace #21 at position 5.000000
$GPZDA,080157.03,09,10,2011,00,00*64
$GPRMC,080157.00,A,4611.954687,N,01258.224954,E,000.7,310.5,091011,0.2,E,A*35
$GPGGA,080158.00,4611.954883,N,01258.224908,E,1,06,1.4,139.09,M,46.25,M,,*6E
$GPGLL,4611.954883,N,01258.224908,E,080158.00,A,A*6F
$GPVTG,358.9,T,359.0,M,000.9,N,001.7,K,A*24
$GPGSV,2,1,07,02,31,106,44,04,23,058,41,09,43,142,44,12,74,029,43*72
$GPGSV,2,2,07,14,37,281,36,25,58,289,40,29,28,212,40,,,,*48
$GPGSA,M,3,02,04,09,12,25,29,,,,,,,2.7,1.4,2.3*3F
Trace #22 at position 5.250000
$GPZDA,080158.04,09,10,2011,00,00*6C
$GPRMC,080158.00,A,4611.954883,N,01258.224908,E,000.9,358.9,091011,0.2,E,A*37
$GPGGA,080159.00,4611.955217,N,01258.224852,E,1,06,1.4,139.14,M,46.25,M,,*6B
$GPGLL,4611.955217,N,01258.224852,E,080159.00,A,A*66
$GPVTG,340.1,T,340.3,M,001.5,N,002.8,K,A*2F
$GPGSV,2,1,07,02,31,106,44,04,23,058,41,09,43,142,44,12,74,029,42*73
$GPGSV,2,2,07,14,37,281,37,25,58,289,39,29,28,212,39,,,,*49
$GPGSA,M,3,02,04,09,12,25,29,,,,,,,2.7,1.4,2.3*3F
Trace #23 at position 5.500000
$GPZDA,080158.04,09,10,2011,00,00*6C
$GPRMC,080158.00,A,4611.954883,N,01258.224908,E,000.9,358.9,091011,0.2,E,A*37
$GPGGA,080159.00,4611.955217,N,01258.224852,E,1,06,1.4,139.14,M,46.25,M,,*6B
$GPGLL,4611.955217,N,01258.224852,E,080159.00,A,A*66
$GPVTG,340.1,T,340.3,M,001.5,N,002.8,K,A*2F
$GPGSV,2,1,07,02,31,106,44,04,23,058,41,09,43,142,44,12,74,029,42*73
$GPGSV,2,2,07,14,37,281,37,25,58,289,39,29,28,212,39,,,,*49
$GPGSA,M,3,02,04,09,12,25,29,,,,,,,2.7,1.4,2.3*3F
Trace #24 at position 5.750000
$GPZDA,080159.04,09,10,2011,00,00*6D
$GPRMC,080159.00,A,4611.955217,N,01258.224852,E,001.5,340.1,091011,0.2,E,A*32
$GPGGA,080200.00,4611.955607,N,01258.224685,E,1,06,1.4,139.16,M,46.25,M,,*67
$GPGLL,4611.955607,N,01258.224685,E,080200.00,A,A*68
$GPVTG,338.7,T,338.9,M,001.5,N,002.8,K,A*23
$GPGSV,2,1,07,02,31,106,44,04,23,058,39,09,43,142,45,12,74,029,42*7D
$GPGSV,2,2,07,14,37,281,36,25,58,289,40,29,28,212,40,,,,*48
$GPGSA,M,3,02,04,09,12,25,29,,,,,,,2.7,1.4,2.3*3F
Trace #25 at position 6.000000
$GPZDA,080159.04,09,10,2011,00,00*6D
$GPRMC,080159.00,A,4611.955217,N,01258.224852,E,001.5,340.1,091011,0.2,E,A*32
$GPGGA,080200.00,4611.955607,N,01258.224685,E,1,06,1.4,139.16,M,46.25,M,,*67
$GPGLL,4611.955607,N,01258.224685,E,080200.00,A,A*68
$GPVTG,338.7,T,338.9,M,001.5,N,002.8,K,A*23
$GPGSV,2,1,07,02,31,106,44,04,23,058,39,09,43,142,45,12,74,029,42*7D
$GPGSV,2,2,07,14,37,281,36,25,58,289,40,29,28,212,40,,,,*48
$GPGSA,M,3,02,04,09,12,25,29,,,,,,,2.7,1.4,2.3*3F
Trace #26 at position 6.250000
$GPZDA,080159.04,09,10,2011,00,00*6D
$GPRMC,080159.00,A,4611.955217,N,01258.224852,E,001.5,340.1,091011,0.2,E,A*32
$GPGGA,080200.00,4611.955607,N,01258.224685,E,1,06,1.4,139.16,M,46.25,M,,*67
$GPGLL,4611.955607,N,01258.224685,E,080200.00,A,A*68
$GPVTG,338.7,T,338.9,M,001.5,N,002.8,K,A*23
$GPGSV,2,1,07,02,31,106,44,04,23,058,39,09,43,142,45,12,74,029,42*7D
$GPGSV,2,2,07,14,37,281,36,25,58,289,40,29,28,212,40,,,,*48
$GPGSA,M,3,02,04,09,12,25,29,,,,,,,2.7,1.4,2.3*3F
Trace #27 at position 6.500000
$GPZDA,080200.03,09,10,2011,00,00*65
$GPRMC,080200.00,A,4611.955607,N,01258.224685,E,001.5,338.7,091011,0.2,E,A*35
$GPGGA,080201.00,4611.955933,N,01258.224506,E,1,06,1.4,139.21,M,46.25,M,,*62
$GPGLL,4611.955933,N,01258.224506,E,080201.00,A,A*69
$GPVTG,328.7,T,328.8,M,001.1,N,002.1,K,A*2F
$GPGSV,2,1,07,02,31,106,44,04,23,058,40,09,43,142,44,12,74,029,43*73
$GPGSV,2,2,07,14,37,281,35,25,58,289,39,29,28,212,41,,,,*44
$GPGSA,M,3,02,04,09,12,25,29,,,,,,,2.7,1.4,2.3*3F
Trace #28 at position 6.750000
$GPZDA,080200.03,09,10,2011,00,00*65
$GPRMC,080200.00,A,4611.955607,N,01258.224685,E,001.5,338.7,091011,0.2,E,A*35
$GPGGA,080201.00,4611.955933,N,01258.224506,E,1,06,1.4,139.21,M,46.25,M,,*62
$GPGLL,4611.955933,N,01258.224506,E,080201.00,A,A*69
$GPVTG,328.7,T,328.8,M,001.1,N,002.1,K,A*2F
$GPGSV,2,1,07,02,31,106,44,04,23,058,40,09,43,142,44,12,74,029,43*73
$GPGSV,2,2,07,14,37,281,35,25,58,289,39,29,28,212,41,,,,*44
$GPGSA,M,3,02,04,09,12,25,29,,,,,,,2.7,1.4,2.3*3F
Trace #29 at position 7.000000
$GPZDA,080201.03,09,10,2011,00,00*64
$GPRMC,080201.00,A,4611.955933,N,01258.224506,E,001.1,328.7,091011,0.2,E,A*31
$GPGGA,080202.00,4611.956151,N,01258.224313,E,1,06,1.4,139.34,M,46.25,M,,*68
$GPGLL,4611.956151,N,01258.224313,E,080202.00,A,A*67
$GPVTG,310.0,T,310.1,M,000.9,N,001.6,K,A*2C
$GPGSV,2,1,07,02,31,106,43,04,23,058,39,09,43,142,44,12,74,029,43*7A
$GPGSV,2,2,07,14,37,281,35,25,58,289,39,29,28,212,41,,,,*44
$GPGSA,M,3,02,04,09,12,25,29,,,,,,,2.7,1.4,2.3*3F
Trace #30 at position 7.250000
$GPZDA,080201.03,09,10,2011,00,00*64
$GPRMC,080201.00,A,4611.955933,N,01258.224506,E,001.1,328.7,091011,0.2,E,A*31
$GPGGA,080202.00,4611.956151,N,01258.224313,E,1,06,1.4,139.34,M,46.25,M,,*68
$GPGLL,4611.956151,N,01258.224313,E,080202.00,A,A*67
$GPVTG,310.0,T,310.1,M,000.9,N,001.6,K,A*2C
$GPGSV,2,1,07,02,31,106,43,04,23,058,39,09,43,142,44,12,74,029,43*7A
$GPGSV,2,2,07,14,37,281,35,25,58,289,39,29,28,212,41,,,,*44
$GPGSA,M,3,02,04,09,12,25,29,,,,,,,2.7,1.4,2.3*3F
Trace #31 at position 7.500000
$GPZDA,080201.03,09,10,2011,00,00*64
$GPRMC,080201.00,A,4611.955933,N,01258.224506,E,001.1,328.7,091011,0.2,E,A*31
$GPGGA,080202.00,4611.956151,N,01258.224313,E,1,06,1.4,139.34,M,46.25,M,,*68
$GPGLL,4611.956151,N,01258.224313,E,080202.00,A,A*67
$GPVTG,310.0,T,310.1,M,000.9,N,001.6,K,A*2C
$GPGSV,2,1,07,02,31,106,43,04,23,058,39,09,43,142,44,12,74,029,43*7A
$GPGSV,2,2,07,14,37,281,35,25,58,289,39,29,28,212,41,,,,*44
$GPGSA,M,3,02,04,09,12,25,29,,,,,,,2.7,1.4,2.3*3F
Trace #32 at position 7.750000
$GPZDA,080202.03,09,10,2011,00,00*67
$GPRMC,080202.00,A,4611.956151,N,01258.224313,E,000.9,310.0,091011,0.2,E,A*3A
$GPGGA,080203.00,4611.956392,N,01258.224124,E,1,06,1.4,139.46,M,46.25,M,,*67
$GPGLL,4611.956392,N,01258.224124,E,080203.00,A,A*6D
$GPVTG,331.0,T,331.2,M,001.2,N,002.1,K,A*21
$GPGSV,2,1,07,02,31,106,43,04,23,058,40,09,43,142,45,12,74,029,41*77
$GPGSV,2,2,07,14,37,281,36,25,58,289,40,29,28,212,40,,,,*48
$GPGSA,M,3,02,04,09,12,25,29,,,,,,,2.7,1.4,2.3*3F
Trace #33 at position 8.000000
$GPZDA,080202.03,09,10,2011,00,00*67
$GPRMC,080202.00,A,4611.956151,N,01258.224313,E,000.9,310.0,091011,0.2,E,A*3A
$GPGGA,080203.00,4611.956392,N,01258.224124,E,1,06,1.4,139.46,M,46.25,M,,*67
$GPGLL,4611.956392,N,01258.224124,E,080203.00,A,A*6D
$GPVTG,331.0,T,331.2,M,001.2,N,002.1,K,A*21
$GPGSV,2,1,07,02,31,106,43,04,23,058,40,09,43,142,45,12,74,029,41*77
$GPGSV,2,2,07,14,37,281,36,25,58,289,40,29,28,212,40,,,,*48
$GPGSA,M,3,02,04,09,12,25,29,,,,,,,2.7,1.4,2.3*3F
Trace #34 at position 8.250000
$GPZDA,080202.03,09,10,2011,00,00*67
$GPRMC,080202.00,A,4611.956151,N,01258.224313,E,000.9,310.0,091011,0.2,E,A*3A
$GPGGA,080203.00,4611.956392,N,01258.224124,E,1,06,1.4,139.46,M,46.25,M,,*67
$GPGLL,4611.956392,N,01258.224124,E,080203.00,A,A*6D
$GPVTG,331.0,T,331.2,M,001.2,N,002.1,K,A*21
$GPGSV,2,1,07,02,31,106,43,04,23,058,40,09,43,142,45,12,74,029,41*77
$GPGSV,2,2,07,14,37,281,36,25,58,289,40,29,28,212,40,,,,*48
$GPGSA,M,3,02,04,09,12,25,29,,,,,,,2.7,1.4,2.3*3F
Trace #35 at position 8.500000
$GPZDA,080203.04,09,10,2011,00,00*61
$GPRMC,080203.00,A,4611.956392,N,01258.224124,E,001.2,331.0,091011,0.2,E,A*39
$GPGGA,080204.00,4611.956703,N,01258.223898,E,1,06,1.4,139.50,M,46.25,M,,*62
$GPGLL,4611.956703,N,01258.223898,E,080204.00,A,A*6F
$GPVTG,319.7,T,319.9,M,001.3,N,002.4,K,A*29
$GPGSV,2,1,07,02,31,106,43,04,23,058,41,09,43,142,44,12,74,029,43*75
$GPGSV,2,2,07,14,37,281,34,25,58,289,40,29,28,212,40,,,,*4A
$GPGSA,M,3,02,04,09,12,25,29,,,,,,,2.7,1.4,2.3*3F
Trace #36 at position 8.750000
$GPZDA,080203.04,09,10,2011,00,00*61
$GPRMC,080203.00,A,4611.956392,N,01258.224124,E,001.2,331.0,091011,0.2,E,A*39
$GPGGA,080204.00,4611.956703,N,01258.223898,E,1,06,1.4,139.50,M,46.25,M,,*62
$GPGLL,4611.956703,N,01258.223898,E,080204.00,A,A*6F
$GPVTG,319.7,T,319.9,M,001.3,N,002.4,K,A*29
$GPGSV,2,1,07,02,31,106,43,04,23,058,41,09,43,142,44,12,74,029,43*75
$GPGSV,2,2,07,14,37,281,34,25,58,289,40,29,28,212,40,,,,*4A
$GPGSA,M,3,02,04,09,12,25,29,,,,,,,2.7,1.4,2.3*3F
Trace #37 at position 9.000000
$GPZDA,080203.04,09,10,2011,00,00*61
$GPRMC,080203.00,A,4611.956392,N,01258.224124,E,001.2,331.0,091011,0.2,E,A*39
$GPGGA,080204.00,4611.956703,N,01258.223898,E,1,06,1.4,139.50,M,46.25,M,,*62
$GPGLL,4611.956703,N,01258.223898,E,080204.00,A,A*6F
$GPVTG,319.7,T,319.9,M,001.3,N,002.4,K,A*29
$GPGSV,2,1,07,02,31,106,43,04,23,058,41,09,43,142,44,12,74,029,43*75
$GPGSV,2,2,07,14,37,281,34,25,58,289,40,29,28,212,40,,,,*4A
$GPGSA,M,3,02,04,09,12,25,29,,,,,,,2.7,1.4,2.3*3F
Trace #38 at position 9.250000
$GPZDA,080204.03,09,10,2011,00,00*61
$GPRMC,080204.00,A,4611.956703,N,01258.223898,E,001.3,319.7,091011,0.2,E,A*37
$GPGGA,080205.00,4611.957088,N,01258.223776,E,1,06,1.4,139.53,M,46.25,M,,*6A
$GPGLL,4611.957088,N,01258.223776,E,080205.00,A,A*64
$GPVTG,358.2,T,358.3,M,001.5,N,002.8,K,A*2C
$GPGSV,2,1,07,02,31,106,43,04,23,058,41,09,43,142,43,12,74,029,42*73
$GPGSV,2,2,07,14,37,281,32,25,58,289,40,29,28,212,42,,,,*4E
$GPGSA,M,3,02,04,09,12,25,29,,,,,,,2.7,1.4,2.3*3F
Trace #39 at position 9.500000
$GPZDA,080204.03,09,10,2011,00,00*61
$GPRMC,080204.00,A,4611.956703,N,01258.223898,E,001.3,319.7,091011,0.2,E,A*37
$GPGGA,080205.00,4611.957088,N,01258.223776,E,1,06,1.4,139.53,M,46.25,M,,*6A
$GPGLL,4611.957088,N,01258.223776,E,080205.00,A,A*64
$GPVTG,358.2,T,358.3,M,001.5,N,002.8,K,A*2C
$GPGSV,2,1,07,02,31,106,43,04,23,058,41,09,43,142,43,12,74,029,42*73
$GPGSV,2,2,07,14,37,281,32,25,58,289,40,29,28,212,42,,,,*4E
$GPGSA,M,3,02,04,09,12,25,29,,,,,,,2.7,1.4,2.3*3F
Trace #40 at position 9.750000
$GPZDA,080205.03,09,10,2011,00,00*60
$GPRMC,080205.00,A,4611.957088,N,01258.223776,E,001.5,358.2,091011,0.2,E,A*3A
$GPGGA,080206.00,4611.957507,N,01258.223610,E,1,06,1.4,139.72,M,46.25,M,,*69
$GPGLL,4611.957507,N,01258.223610,E,080206.00,A,A*64
$GPVTG,321.3,T,321.4,M,001.6,N,003.0,K,A*20
$GPGSV,2,1,07,02,31,106,44,04,23,058,40,09,43,142,44,12,74,030,42*7A
$GPGSV,2,2,07,14,37,281,36,25,58,289,40,29,28,212,40,,,,*48
$GPGSA,M,3,02,04,09,12,25,29,,,,,,,2.7,1.4,2.3*3F
Trace #41 at position 10.000000
$GPZDA,080205.03,09,10,2011,00,00*60
$GPRMC,080205.00,A,4611.957088,N,01258.223776,E,001.5,358.2,091011,0.2,E,A*3A
$GPGGA,080206.00,4611.957507,N,01258.223610,E,1,06,1.4,139.72,M,46.25,M,,*69
$GPGLL,4611.957507,N,01258.223610,E,080206.00,A,A*64
$GPVTG,321.3,T,321.4,M,001.6,N,003.0,K,A*20
$GPGSV,2,1,07,02,31,106,44,04,23,058,40,09,43,142,44,12,74,030,42*7A
$GPGSV,2,2,07,14,37,281,36,25,58,289,40,29,28,212,40,,,,*48
$GPGSA,M,3,02,04,09,12,25,29,,,,,,,2.7,1.4,2.3*3F
Trace #42 at position 10.250000
$GPZDA,080206.03,09,10,2011,00,00*63
$GPRMC,080206.00,A,4611.957507,N,01258.223610,E,001.6,321.3,091011,0.2,E,A*36
$GPGGA,080207.00,4611.957810,N,01258.223390,E,1,06,1.4,139.94,M,46.25,M,,*66
$GPGLL,4611.957810,N,01258.223390,E,080207.00,A,A*63
$GPVTG,331.6,T,331.8,M,000.8,N,001.4,K,A*20
$GPGSV,2,1,07,02,31,106,43,04,23,058,41,09,43,142,44,12,74,030,42*7C
$GPGSV,2,2,07,14,37,281,33,25,58,289,39,29,28,212,41,,,,*42
$GPGSA,M,3,02,04,09,12,25,29,,,,,,,2.7,1.4,2.3*3F
Trace #43 at position 10.500000
$GPZDA,080206.03,09,10,2011,00,00*63
$GPRMC,080206.00,A,4611.957507,N,01258.223610,E,001.6,321.3,091011,0.2,E,A*36
$GPGGA,080207.00,4611.957810,N,01258.223390,E,1,06,1.4,139.94,M,46.25,M,,*66
$GPGLL,4611.957810,N,01258.223390,E,080207.00,A,A*63
$GPVTG,331.6,T,331.8,M,000.8,N,001.4,K,A*20
$GPGSV,2,1,07,02,31,106,43,04,23,058,41,09,43,142,44,12,74,030,42*7C
$GPGSV,2,2,07,14,37,281,33,25,58,289,39,29,28,212,41,,,,*42
$GPGSA,M,3,02,04,09,12,25,29,,,,,,,2.7,1.4,2.3*3F
Trace #44 at position 10.750000
$GPZDA,080206.03,09,10,2011,00,00*63
$GPRMC,080206.00,A,4611.957507,N,01258.223610,E,001.6,321.3,091011,0.2,E,A*36
$GPGGA,080207.00,4611.957810,N,01258.223390,E,1,06,1.4,139.94,M,46.25,M,,*66
$GPGLL,4611.957810,N,01258.223390,E,080207.00,A,A*63
$GPVTG,331.6,T,331.8,M,000.8,N,001.4,K,A*20
$GPGSV,2,1,07,02,31,106,43,04,23,058,41,09,43,142,44,12,74,030,42*7C
$GPGSV,2,2,07,14,37,281,33,25,58,289,39,29,28,212,41,,,,*42
$GPGSA,M,3,02,04,09,12,25,29,,,,,,,2.7,1.4,2.3*3F
Trace #45 at position 11.000000
$GPZDA,080207.03,09,10,2011,00,00*62
$GPRMC,080207.00,A,4611.957810,N,01258.223390,E,000.8,331.6,091011,0.2,E,A*3A
$GPGGA,080208.00,4611.958071,N,01258.223314,E,1,06,1.4,140.06,M,46.25,M,,*60
$GPGLL,4611.958071,N,01258.223314,E,080208.00,A,A*60
$GPVTG,344.9,T,345.0,M,001.0,N,001.8,K,A*23
$GPGSV,2,1,07,02,31,106,44,04,23,058,40,09,43,142,44,12,74,030,43*7B
$GPGSV,2,2,07,14,37,281,32,25,58,289,40,29,28,212,40,,,,*4C
$GPGSA,M,3,02,04,09,12,25,29,,,,,,,2.7,1.4,2.3*3F
Trace #46 at position 11.250000
$GPZDA,080207.03,09,10,2011,00,00*62
$GPRMC,080207.00,A,4611.957810,N,01258.223390,E,000.8,331.6,091011,0.2,E,A*3A
$GPGGA,080208.00,4611.958071,N,01258.223314,E,1,06,1.4,140.06,M,46.25,M,,*60
$GPGLL,4611.958071,N,01258.223314,E,080208.00,A,A*60
$GPVTG,344.9,T,345.0,M,001.0,N,001.8,K,A*23
$GPGSV,2,1,07,02,31,106,44,04,23,058,40,09,43,142,44,12,74,030,43*7B
$GPGSV,2,2,07,14,37,281,32,25,58,289,40,29,28,212,40,,,,*4C
$GPGSA,M,3,02,04,09,12,25,29,,,,,,,2.7,1.4,2.3*3F
Trace #47 at position 11.500000
$GPZDA,080207.03,09,10,2011,00,00*62
$GPRMC,080207.00,A,4611.957810,N,01258.223390,E,000.8,331.6,091011,0.2,E,A*3A
$GPGGA,080208.00,4611.958071,N,01258.223314,E,1,06,1.4,140.06,M,46.25,M,,*60
$GPGLL,4611.958071,N,01258.223314,E,080208.00,A,A*60
$GPVTG,344.9,T,345.0,M,001.0,N,001.8,K,A*23
$GPGSV,2,1,07,02,31,106,44,04,23,058,40,09,43,142,44,12,74,030,43*7B
$GPGSV,2,2,07,14,37,281,32,25,58,289,40,29,28,212,40,,,,*4C
$GPGSA,M,3,02,04,09,12,25,29,,,,,,,2.7,1.4,2.3*3F
Trace #48 at position 11.750000
$GPZDA,080207.03,09,10,2011,00,00*62
$GPRMC,080207.00,A,4611.957810,N,01258.223390,E,000.8,331.6,091011,0.2,E,A*3A
$GPGGA,080208.00,4611.958071,N,01258.223314,E,1,06,1.4,140.06,M,46.25,M,,*60
$GPGLL,4611.958071,N,01258.223314,E,080208.00,A,A*60
$GPVTG,344.9,T,345.0,M,001.0,N,001.8,K,A*23
$GPGSV,2,1,07,02,31,106,44,04,23,058,40,09,43,142,44,12,74,030,43*7B
$GPGSV,2,2,07,14,37,281,32,25,58,289,40,29,28,212,40,,,,*4C
$GPGSA,M,3,02,04,09,12,25,29,,,,,,,2.7,1.4,2.3*3F
Trace #49 at position 12.000000
$GPZDA,080208.04,09,10,2011,00,00*6A
$GPRMC,080208.00,A,4611.958071,N,01258.223314,E,001.0,344.9,091011,0.2,E,A*3D
$GPGGA,080209.00,4611.958394,N,01258.223246,E,1,06,1.4,140.10,M,46.25,M,,*68
$GPGLL,4611.958394,N,01258.223246,E,080209.00,A,A*6F
$GPVTG,347.8,T,348.0,M,001.1,N,002.0,K,A*26
$GPGSV,2,1,07,02,31,106,43,04,23,058,40,09,43,142,44,12,74,030,43*7C
$GPGSV,2,2,07,14,37,281,35,25,58,289,39,29,28,212,41,,,,*44
$GPGSA,M,3,02,04,09,12,25,29,,,,,,,2.7,1.4,2.3*3F
Trace #50 at position 12.250000
$GPZDA,080208.04,09,10,2011,00,00*6A
$GPRMC,080208.00,A,4611.958071,N,01258.223314,E,001.0,344.9,091011,0.2,E,A*3D
$GPGGA,080209.00,4611.958394,N,01258.223246,E,1,06,1.4,140.10,M,46.25,M,,*68
$GPGLL,4611.958394,N,01258.223246,E,080209.00,A,A*6F
$GPVTG,347.8,T,348.0,M,001.1,N,002.0,K,A*26
$GPGSV,2,1,07,02,31,106,43,04,23,058,40,09,43,142,44,12,74,030,43*7C
$GPGSV,2,2,07,14,37,281,35,25,58,289,39,29,28,212,41,,,,*44
$GPGSA,M,3,02,04,09,12,25,29,,,,,,,2.7,1.4,2.3*3F
Trace #51 at position 12.500000
$GPZDA,080208.04,09,10,2011,00,00*6A
$GPRMC,080208.00,A,4611.958071,N,01258.223314,E,001.0,344.9,091011,0.2,E,A*3D
$GPGGA,080209.00,4611.958394,N,01258.223246,E,1,06,1.4,140.10,M,46.25,M,,*68
$GPGLL,4611.958394,N,01258.223246,E,080209.00,A,A*6F
$GPVTG,347.8,T,348.0,M,001.1,N,002.0,K,A*26
$GPGSV,2,1,07,02,31,106,43,04,23,058,40,09,43,142,44,12,74,030,43*7C
$GPGSV,2,2,07,14,37,281,35,25,58,289,39,29,28,212,41,,,,*44
$GPGSA,M,3,02,04,09,12,25,29,,,,,,,2.7,1.4,2.3*3F
Trace #52 at position 12.750000
$GPZDA,080209.03,09,10,2011,00,00*6C
$GPRMC,080209.00,A,4611.958394,N,01258.223246,E,001.1,347.8,091011,0.2,E,A*31
$GPGGA,080210.00,4611.958864,N,01258.223110,E,1,06,1.4,140.04,M,46.25,M,,*61
$GPGLL,4611.958864,N,01258.223110,E,080210.00,A,A*63
$GPVTG,345.1,T,345.3,M,002.1,N,003.9,K,A*28
$GPGSV,2,1,07,02,31,106,42,04,23,058,40,09,43,142,44,12,74,030,42*7C
$GPGSV,2,2,07,14,37,280,36,25,58,289,40,29,28,212,41,,,,*48
$GPGSA,M,3,02,04,09,12,25,29,,,,,,,2.7,1.4,2.3*3F
Trace #53 at position 13.000000
$GPZDA,080209.03,09,10,2011,00,00*6C
$GPRMC,080209.00,A,4611.958394,N,01258.223246,E,001.1,347.8,091011,0.2,E,A*31
$GPGGA,080210.00,4611.958864,N,01258.223110,E,1,06,1.4,140.04,M,46.25,M,,*61
$GPGLL,4611.958864,N,01258.223110,E,080210.00,A,A*63
$GPVTG,345.1,T,345.3,M,002.1,N,003.9,K,A*28
$GPGSV,2,1,07,02,31,106,42,04,23,058,40,09,43,142,44,12,74,030,42*7C
$GPGSV,2,2,07,14,37,280,36,25,58,289,40,29,28,212,41,,,,*48
$GPGSA,M,3,02,04,09,12,25,29,,,,,,,2.7,1.4,2.3*3F
Trace #54 at position 13.250000
$GPZDA,080209.03,09,10,2011,00,00*6C
$GPRMC,080209.00,A,4611.958394,N,01258.223246,E,001.1,347.8,091011,0.2,E,A*31
$GPGGA,080210.00,4611.958864,N,01258.223110,E,1,06,1.4,140.04,M,46.25,M,,*61
$GPGLL,4611.958864,N,01258.223110,E,080210.00,A,A*63
$GPVTG,345.1,T,345.3,M,002.1,N,003.9,K,A*28
$GPGSV,2,1,07,02,31,106,42,04,23,058,40,09,43,142,44,12,74,030,42*7C
$GPGSV,2,2,07,14,37,280,36,25,58,289,40,29,28,212,41,,,,*48
$GPGSA,M,3,02,04,09,12,25,29,,,,,,,2.7,1.4,2.3*3F
Trace #55 at position 13.500000
$GPZDA,080210.03,09,10,2011,00,00*64
$GPRMC,080210.00,A,4611.958864,N,01258.223110,E,002.1,345.1,091011,0.2,E,A*35
$GPGGA,080211.00,4611.959270,N,01258.222857,E,1,06,1.4,140.07,M,46.25,M,,*66
$GPGLL,4611.959270,N,01258.222857,E,080211.00,A,A*67
$GPVTG,305.6,T,305.7,M,001.0,N,001.9,K,A*2B
$GPGSV,2,1,07,02,31,106,43,04,23,058,40,09,43,142,44,12,74,030,42*7D
$GPGSV,2,2,07,14,37,280,35,25,58,289,39,29,28,212,42,,,,*46
$GPGSA,M,3,02,04,09,12,25,29,,,,,,,2.7,1.4,2.3*3F
Trace #56 at position 13.750000
$GPZDA,080210.03,09,10,2011,00,00*64
$GPRMC,080210.00,A,4611.958864,N,01258.223110,E,002.1,345.1,091011,0.2,E,A*35
$GPGGA,080211.00,4611.959270,N,01258.222857,E,1,06,1.4,140.07,M,46.25,M,,*66
$GPGLL,4611.959270,N,01258.222857,E,080211.00,A,A*67
$GPVTG,305.6,T,305.7,M,001.0,N,001.9,K,A*2B
$GPGSV,2,1,07,02,31,106,43,04,23,058,40,09,43,142,44,12,74,030,42*7D
$GPGSV,2,2,07,14,37,280,35,25,58,289,39,29,28,212,42,,,,*46
$GPGSA,M,3,02,04,09,12,25,29,,,,,,,2.7,1.4,2.3*3F
Trace #57 at position 14.000000
$GPZDA,080211.03,09,10,2011,00,00*65
$GPRMC,080211.00,A,4611.959270,N,01258.222857,E,001.0,305.6,091011,0.2,E,A*30
$GPGGA,080212.00,4611.959603,N,01258.222662,E,1,06,1.4,140.18,M,46.25,M,,*63
$GPGLL,4611.959603,N,01258.222662,E,080212.00,A,A*6C
$GPVTG,348.8,T,349.0,M,001.5,N,002.7,K,A*2B
$GPGSV,2,1,07,02,31,106,44,04,23,058,41,09,43,142,44,12,74,030,42*7B
$GPGSV,2,2,07,14,37,280,30,25,58,289,40,29,28,212,41,,,,*4E
$GPGSA,M,3,02,04,09,12,25,29,,,,,,,2.7,1.4,2.3*3F
Trace #58 at position 14.250000
$GPZDA,080211.03,09,10,2011,00,00*65
$GPRMC,080211.00,A,4611.959270,N,01258.222857,E,001.0,305.6,091011,0.2,E,A*30
$GPGGA,080212.00,4611.959603,N,01258.222662,E,1,06,1.4,140.18,M,46.25,M,,*63
$GPGLL,4611.959603,N,01258.222662,E,080212.00,A,A*6C
$GPVTG,348.8,T,349.0,M,001.5,N,002.7,K,A*2B
$GPGSV,2,1,07,02,31,106,44,04,23,058,41,09,43,142,44,12,74,030,42*7B
$GPGSV,2,2,07,14,37,280,30,25,58,289,40,29,28,212,41,,,,*4E
$GPGSA,M,3,02,04,09,12,25,29,,,,,,,2.7,1.4,2.3*3F
Trace #59 at position 14.500000
$GPZDA,080212.03,09,10,2011,00,00*66
$GPRMC,080212.00,A,4611.959603,N,01258.222662,E,001.5,348.8,091011,0.2,E,A*39
$GPGGA,080213.00,4611.959990,N,01258.222622,E,1,06,1.4,140.26,M,46.25,M,,*6E
$GPGLL,4611.959990,N,01258.222622,E,080213.00,A,A*6C
$GPVTG,0.0,T,0.2,M,001.1,N,002.0,K,A*23
$GPGSV,2,1,07,02,31,106,44,04,23,058,40,09,43,142,44,12,74,030,43*7B
$GPGSV,2,2,07,14,37,280,31,25,58,289,40,29,28,212,41,,,,*4F
$GPGSA,M,3,02,04,09,12,25,29,,,,,,,2.7,1.4,2.3*3F
Trace #60 at position 14.750000
$GPZDA,080212.03,09,10,2011,00,00*66
$GPRMC,080212.00,A,4611.959603,N,01258.222662,E,001.5,348.8,091011,0.2,E,A*39
$GPGGA,080213.00,4611.959990,N,01258.222622,E,1,06,1.4,140.26,M,46.25,M,,*6E
$GPGLL,4611.959990,N,01258.222622,E,080213.00,A,A*6C
$GPVTG,0.0,T,0.2,M,001.1,N,002.0,K,A*23
$GPGSV,2,1,07,02,31,106,44,04,23,058,40,09,43,142,44,12,74,030,43*7B
$GPGSV,2,2,07,14,37,280,31,25,58,289,40,29,28,212,41,,,,*4F
$GPGSA,M,3,02,04,09,12,25,29,,,,,,,2.7,1.4,2.3*3F
Trace #61 at position 15.000000
$GPZDA,080212.03,09,10,2011,00,00*66
$GPRMC,080212.00,A,4611.959603,N,01258.222662,E,001.5,348.8,091011,0.2,E,A*39
$GPGGA,080213.00,4611.959990,N,01258.222622,E,1,06,1.4,140.26,M,46.25,M,,*6E
$GPGLL,4611.959990,N,01258.222622,E,080213.00,A,A*6C
$GPVTG,0.0,T,0.2,M,001.1,N,002.0,K,A*23
$GPGSV,2,1,07,02,31,106,44,04,23,058,40,09,43,142,44,12,74,030,43*7B
$GPGSV,2,2,07,14,37,280,31,25,58,289,40,29,28,212,41,,,,*4F
$GPGSA,M,3,02,04,09,12,25,29,,,,,,,2.7,1.4,2.3*3F
Trace #62 at position 15.250000
$GPZDA,080213.04,09,10,2011,00,00*60
$GPRMC,080213.00,A,4611.959990,N,01258.222622,E,001.1,0.0,091011,0.2,E,A*3A
$GPGGA,080214.00,4611.960336,N,01258.222506,E,1,06,1.4,140.29,M,46.25,M,,*6F
$GPGLL,4611.960336,N,01258.222506,E,080214.00,A,A*62
$GPVTG,331.8,T,331.9,M,001.4,N,002.5,K,A*20
$GPGSV,2,1,07,02,31,106,43,04,23,058,40,09,43,142,44,12,74,030,44*7B
$GPGSV,2,2,07,14,37,280,35,25,58,289,40,29,28,212,40,,,,*4A
$GPGSA,M,3,02,04,09,12,25,29,,,,,,,2.7,1.4,2.3*3F
Trace #63 at position 15.500000
$GPZDA,080213.04,09,10,2011,00,00*60
$GPRMC,080213.00,A,4611.959990,N,01258.222622,E,001.1,0.0,091011,0.2,E,A*3A
$GPGGA,080214.00,4611.960336,N,01258.222506,E,1,06,1.4,140.29,M,46.25,M,,*6F
$GPGLL,4611.960336,N,01258.222506,E,080214.00,A,A*62
$GPVTG,331.8,T,331.9,M,001.4,N,002.5,K,A*20
$GPGSV,2,1,07,02,31,106,43,04,23,058,40,09,43,142,44,12,74,030,44*7B
$GPGSV,2,2,07,14,37,280,35,25,58,289,40,29,28,212,40,,,,*4A
$GPGSA,M,3,02,04,09,12,25,29,,,,,,,2.7,1.4,2.3*3F
Trace #64 at position 15.750000
$GPZDA,080214.04,09,10,2011,00,00*67
$GPRMC,080214.00,A,4611.960336,N,01258.222506,E,001.4,331.8,091011,0.2,E,A*38
$GPGGA,080215.00,4611.960622,N,01258.222372,E,1,06,1.4,140.24,M,46.25,M,,*66
$GPGLL,4611.960622,N,01258.222372,E,080215.00,A,A*66
$GPVTG,350.3,T,350.5,M,000.6,N,001.1,K,A*23
$GPGSV,2,1,07,02,31,106,44,04,23,058,40,09,43,142,44,12,74,030,44*7C
$GPGSV,2,2,07,14,37,280,34,25,58,289,39,29,28,212,41,,,,*44
$GPGSA,M,3,02,04,09,12,25,29,,,,,,,2.7,1.4,2.3*3F
Trace #65 at position 16.000000
$GPZDA,080214.04,09,10,2011,00,00*67
$GPRMC,080214.00,A,4611.960336,N,01258.222506,E,001.4,331.8,091011,0.2,E,A*38
$GPGGA,080215.00,4611.960622,N,01258.222372,E,1,06,1.4,140.24,M,46.25,M,,*66
$GPGLL,4611.960622,N,01258.222372,E,080215.00,A,A*66
$GPVTG,350.3,T,350.5,M,000.6,N,001.1,K,A*23
$GPGSV,2,1,07,02,31,106,44,04,23,058,40,09,43,142,44,12,74,030,44*7C
$GPGSV,2,2,07,14,37,280,34,25,58,289,39,29,28,212,41,,,,*44
$GPGSA,M,3,02,04,09,12,25,29,,,,,,,2.7,1.4,2.3*3F
Trace #66 at position 16.250000
$GPZDA,080214.04,09,10,2011,00,00*67
$GPRMC,080214.00,A,4611.960336,N,01258.222506,E,001.4,331.8,091011,0.2,E,A*38
$GPGGA,080215.00,4611.960622,N,01258.222372,E,1,06,1.4,140.24,M,46.25,M,,*66
$GPGLL,4611.960622,N,01258.222372,E,080215.00,A,A*66
$GPVTG,350.3,T,350.5,M,000.6,N,001.1,K,A*23
$GPGSV,2,1,07,02,31,106,44,04,23,058,40,09,43,142,44,12,74,030,44*7C
$GPGSV,2,2,07,14,37,280,34,25,58,289,39,29,28,212,41,,,,*44
$GPGSA,M,3,02,04,09,12,25,29,,,,,,,2.7,1.4,2.3*3F
Trace #67 at position 16.500000
$GPZDA,080215.03,09,10,2011,00,00*61
$GPRMC,080215.00,A,4611.960622,N,01258.222372,E,000.6,350.3,091011,0.2,E,A*33
$GPGGA,080216.00,4611.960797,N,01258.222364,E,1,06,1.4,140.20,M,46.25,M,,*69
$GPGLL,4611.960797,N,01258.222364,E,080216.00,A,A*6D
$GPVTG,11.8,T,11.9,M,000.3,N,000.6,K,A*27
$GPGSV,2,1,07,02,32,106,43,04,23,058,39,09,43,142,43,12,74,030,40*75
$GPGSV,2,2,07,14,37,280,36,25,58,289,36,29,28,212,40,,,,*48
$GPGSA,M,3,02,04,09,12,25,29,,,,,,,2.7,1.4,2.3*3F
Trace #68 at position 16.750000
$GPZDA,080215.03,09,10,2011,00,00*61
$GPRMC,080215.00,A,4611.960622,N,01258.222372,E,000.6,350.3,091011,0.2,E,A*33
$GPGGA,080216.00,4611.960797,N,01258.222364,E,1,06,1.4,140.20,M,46.25,M,,*69
$GPGLL,4611.960797,N,01258.222364,E,080216.00,A,A*6D
$GPVTG,11.8,T,11.9,M,000.3,N,000.6,K,A*27
$GPGSV,2,1,07,02,32,106,43,04,23,058,39,09,43,142,43,12,74,030,40*75
$GPGSV,2,2,07,14,37,280,36,25,58,289,36,29,28,212,40,,,,*48
$GPGSA,M,3,02,04,09,12,25,29,,,,,,,2.7,1.4,2.3*3F
Trace #69 at position 17.000000
$GPZDA,080215.03,09,10,2011,00,00*61
$GPRMC,080215.00,A,4611.960622,N,01258.222372,E,000.6,350.3,091011,0.2,E,A*33
$GPGGA,080216.00,4611.960797,N,01258.222364,E,1,06,1.4,140.20,M,46.25,M,,*69
$GPGLL,4611.960797,N,01258.222364,E,080216.00,A,A*6D
$GPVTG,11.8,T,11.9,M,000.3,N,000.6,K,A*27
$GPGSV,2,1,07,02,32,106,43,04,23,058,39,09,43,142,43,12,74,030,40*75
$GPGSV,2,2,07,14,37,280,36,25,58,289,36,29,28,212,40,,,,*48
$GPGSA,M,3,02,04,09,12,25,29,,,,,,,2.7,1.4,2.3*3F
Trace #70 at position 17.250000
$GPZDA,080216.03,09,10,2011,00,00*62
$GPRMC,080216.00,A,4611.960797,N,01258.222364,E,000.3,11.8,091011,0.2,E,A*00
$GPGGA,080217.00,4611.961096,N,01258.222185,E,1,06,1.4,140.23,M,46.25,M,,*61
$GPGLL,4611.961096,N,01258.222185,E,080217.00,A,A*66
$GPVTG,324.6,T,324.8,M,001.7,N,003.1,K,A*29
$GPGSV,2,1,07,02,32,106,44,04,23,058,38,09,43,142,44,12,74,030,41*75
$GPGSV,2,2,07,14,37,280,36,25,58,289,39,29,28,212,39,,,,*49
$GPGSA,M,3,02,04,09,12,25,29,,,,,,,2.7,1.4,2.3*3F
Trace #71 at position 17.500000
$GPZDA,080216.03,09,10,2011,00,00*62
$GPRMC,080216.00,A,4611.960797,N,01258.222364,E,000.3,11.8,091011,0.2,E,A*00
$GPGGA,080217.00,4611.961096,N,01258.222185,E,1,06,1.4,140.23,M,46.25,M,,*61
$GPGLL,4611.961096,N,01258.222185,E,080217.00,A,A*66
$GPVTG,324.6,T,324.8,M,001.7,N,003.1,K,A*29
$GPGSV,2,1,07,02,32,106,44,04,23,058,38,09,43,142,44,12,74,030,41*75
$GPGSV,2,2,07,14,37,280,36,25,58,289,39,29,28,212,39,,,,*49
$GPGSA,M,3,02,04,09,12,25,29,,,,,,,2.7,1.4,2.3*3F
Trace #72 at position 17.750000
$GPZDA,080217.03,09,10,2011,00,00*63
$GPRMC,080217.00,A,4611.961096,N,01258.222185,E,001.7,324.6,091011,0.2,E,A*35
$GPGGA,080218.00,4611.961499,N,01258.221904,E,1,06,1.4,140.30,M,46.25,M,,*65
$GPGLL,4611.961499,N,01258.221904,E,080218.00,A,A*60
$GPVTG,335.1,T,335.3,M,001.2,N,002.3,K,A*23
$GPGSV,2,1,07,02,32,106,42,04,23,058,39,09,43,142,44,12,74,030,37*73
$GPGSV,2,2,07,14,37,280,35,25,58,289,38,29,28,212,41,,,,*44
$GPGSA,M,3,02,04,09,12,25,29,,,,,,,2.7,1.4,2.3*3F
Trace #73 at position 18.000000
$GPZDA,080217.03,09,10,2011,00,00*63
$GPRMC,080217.00,A,4611.961096,N,01258.222185,E,001.7,324.6,091011,0.2,E,A*35
$GPGGA,080218.00,4611.961499,N,01258.221904,E,1,06,1.4,140.30,M,46.25,M,,*65
$GPGLL,4611.961499,N,01258.221904,E,080218.00,A,A*60
$GPVTG,335.1,T,335.3,M,001.2,N,002.3,K,A*23
$GPGSV,2,1,07,02,32,106,42,04,23,058,39,09,43,142,44,12,74,030,37*73
$GPGSV,2,2,07,14,37,280,35,25,58,289,38,29,28,212,41,,,,*44
$GPGSA,M,3,02,04,09,12,25,29,,,,,,,2.7,1.4,2.3*3F
Trace #74 at position 18.250000
$GPZDA,080218.04,09,10,2011,00,00*6B
$GPRMC,080218.00,A,4611.961499,N,01258.221904,E,001.2,335.1,091011,0.2,E,A*31
$GPGGA,080219.00,4611.961873,N,01258.221742,E,1,06,1.4,140.32,M,46.25,M,,*62
$GPGLL,4611.961873,N,01258.221742,E,080219.00,A,A*65
$GPVTG,341.7,T,341.8,M,001.3,N,002.5,K,A*29
$GPGSV,2,1,07,02,32,106,43,04,23,058,40,09,43,142,43,12,74,030,43*78
$GPGSV,2,2,07,14,37,280,37,25,58,289,39,29,28,212,40,,,,*46
$GPGSA,M,3,02,04,09,12,25,29,,,,,,,2.7,1.4,2.3*3F
Trace #75 at position 18.500000
$GPZDA,080218.04,09,10,2011,00,00*6B
$GPRMC,080218.00,A,4611.961499,N,01258.221904,E,001.2,335.1,091011,0.2,E,A*31
$GPGGA,080219.00,4611.961873,N,01258.221742,E,1,06,1.4,140.32,M,46.25,M,,*62
$GPGLL,4611.961873,N,01258.221742,E,080219.00,A,A*65
$GPVTG,341.7,T,341.8,M,001.3,N,002.5,K,A*29
$GPGSV,2,1,07,02,32,106,43,04,23,058,40,09,43,142,43,12,74,030,43*78
$GPGSV,2,2,07,14,37,280,37,25,58,289,39,29,28,212,40,,,,*46
$GPGSA,M,3,02,04,09,12,25,29,,,,,,,2.7,1.4,2.3*3F
Trace #76 at position 18.750000
$GPZDA,080218.04,09,10,2011,00,00*6B
$GPRMC,080218.00,A,4611.961499,N,01258.221904,E,001.2,335.1,091011,0.2,E,A*31
$GPGGA,080219.00,4611.961873,N,01258.221742,E,1,06,1.4,140.32,M,46.25,M,,*62
$GPGLL,4611.961873,N,01258.221742,E,080219.00,A,A*65
$GPVTG,341.7,T,341.8,M,001.3,N,002.5,K,A*29
$GPGSV,2,1,07,02,32,106,43,04,23,058,40,09,43,142,43,12,74,030,43*78
$GPGSV,2,2,07,14,37,280,37,25,58,289,39,29,28,212,40,,,,*46
$GPGSA,M,3,02,04,09,12,25,29,,,,,,,2.7,1.4,2.3*3F
Trace #77 at position 19.000000
$GPZDA,080219.03,09,10,2011,00,00*6D
$GPRMC,080219.00,A,4611.961873,N,01258.221742,E,001.3,341.7,091011,0.2,E,A*30
$GPGGA,080220.00,4611.962264,N,01258.221621,E,1,06,1.4,140.27,M,46.25,M,,*67
$GPGLL,4611.962264,N,01258.221621,E,080220.00,A,A*64
$GPVTG,347.7,T,347.8,M,001.3,N,002.5,K,A*29
$GPGSV,2,1,07,02,32,106,44,04,23,058,41,09,43,142,45,12,74,030,42*79
$GPGSV,2,2,07,14,37,280,34,25,58,289,39,29,28,212,41,,,,*44
$GPGSA,M,3,02,04,09,12,25,29,,,,,,,2.7,1.4,2.3*3F
Trace #78 at position 19.250000
$GPZDA,080219.03,09,10,2011,00,00*6D
$GPRMC,080219.00,A,4611.961873,N,01258.221742,E,001.3,341.7,091011,0.2,E,A*30
$GPGGA,080220.00,4611.962264,N,01258.221621,E,1,06,1.4,140.27,M,46.25,M,,*67
$GPGLL,4611.962264,N,01258.221621,E,080220.00,A,A*64
$GPVTG,347.7,T,347.8,M,001.3,N,002.5,K,A*29
$GPGSV,2,1,07,02,32,106,44,04,23,058,41,09,43,142,45,12,74,030,42*79
$GPGSV,2,2,07,14,37,280,34,25,58,289,39,29,28,212,41,,,,*44
$GPGSA,M,3,02,04,09,12,25,29,,,,,,,2.7,1.4,2.3*3F
Trace #79 at position 19.500000
$GPZDA,080219.03,09,10,2011,00,00*6D
$GPRMC,080219.00,A,4611.961873,N,01258.221742,E,001.3,341.7,091011,0.2,E,A*30
$GPGGA,080220.00,4611.962264,N,01258.221621,E,1,06,1.4,140.27,M,46.25,M,,*67
$GPGLL,4611.962264,N,01258.221621,E,080220.00,A,A*64
$GPVTG,347.7,T,347.8,M,001.3,N,002.5,K,A*29
$GPGSV,2,1,07,02,32,106,44,04,23,058,41,09,43,142,45,12,74,030,42*79
$GPGSV,2,2,07,14,37,280,34,25,58,289,39,29,28,212,41,,,,*44
$GPGSA,M,3,02,04,09,12,25,29,,,,,,,2.7,1.4,2.3*3F
Trace #80 at position 19.750000
$GPZDA,080220.03,09,10,2011,00,00*67
$GPRMC,080220.00,A,4611.962264,N,01258.221621,E,001.3,347.7,091011,0.2,E,A*37
$GPGGA,080221.00,4611.962586,N,01258.221432,E,1,06,1.4,140.22,M,46.25,M,,*68
$GPGLL,4611.962586,N,01258.221432,E,080221.00,A,A*6E
$GPVTG,315.6,T,315.8,M,001.1,N,002.0,K,A*2F
$GPGSV,2,1,07,02,32,106,43,04,23,058,40,09,43,142,44,12,74,030,43*7F
$GPGSV,2,2,07,14,37,280,33,25,58,289,40,29,28,212,41,,,,*4D
$GPGSA,M,3,02,04,09,12,25,29,,,,,,,2.7,1.4,2.3*3F
Trace #81 at position 20.000000
$GPZDA,080220.03,09,10,2011,00,00*67
$GPRMC,080220.00,A,4611.962264,N,01258.221621,E,001.3,347.7,091011,0.2,E,A*37
$GPGGA,080221.00,4611.962586,N,01258.221432,E,1,06,1.4,140.22,M,46.25,M,,*68
$GPGLL,4611.962586,N,01258.221432,E,080221.00,A,A*6E
$GPVTG,315.6,T,315.8,M,001.1,N,002.0,K,A*2F
$GPGSV,2,1,07,02,32,106,43,04,23,058,40,09,43,142,44,12,74,030,43*7F
$GPGSV,2,2,07,14,37,280,33,25,58,289,40,29,28,212,41,,,,*4D
$GPGSA,M,3,02,04,09,12,25,29,,,,,,,2.7,1.4,2.3*3F
Trace #82 at position 20.250000
$GPZDA,080220.03,09,10,2011,00,00*67
$GPRMC,080220.00,A,4611.962264,N,01258.221621,E,001.3,347.7,091011,0.2,E,A*37
$GPGGA,080221.00,4611.962586,N,01258.221432,E,1,06,1.4,140.22,M,46.25,M,,*68
$GPGLL,4611.962586,N,01258.221432,E,080221.00,A,A*6E
$GPVTG,315.6,T,315.8,M,001.1,N,002.0,K,A*2F
$GPGSV,2,1,07,02,32,106,43,04,23,058,40,09,43,142,44,12,74,030,43*7F
$GPGSV,2,2,07,14,37,280,33,25,58,289,40,29,28,212,41,,,,*4D
$GPGSA,M,3,02,04,09,12,25,29,,,,,,,2.7,1.4,2.3*3F
Trace #83 at position 20.500000
$GPZDA,080221.03,09,10,2011,00,00*66
$GPRMC,080221.00,A,4611.962586,N,01258.221432,E,001.1,315.6,091011,0.2,E,A*39
$GPGGA,080222.00,4611.962972,N,01258.221223,E,1,06,1.4,140.13,M,46.25,M,,*68
$GPGLL,4611.962972,N,01258.221223,E,080222.00,A,A*6C
$GPVTG,347.1,T,347.2,M,001.8,N,003.3,K,A*29
$GPGSV,2,1,07,02,32,106,43,04,23,058,40,09,43,142,44,12,74,030,43*7F
$GPGSV,2,2,07,14,37,280,34,25,58,289,40,29,28,212,41,,,,*4A
$GPGSA,M,3,02,04,09,12,25,29,,,,,,,2.7,1.4,2.3*3F
Trace #84 at position 20.750000
$GPZDA,080221.03,09,10,2011,00,00*66
$GPRMC,080221.00,A,4611.962586,N,01258.221432,E,001.1,315.6,091011,0.2,E,A*39
$GPGGA,080222.00,4611.962972,N,01258.221223,E,1,06,1.4,140.13,M,46.25,M,,*68
$GPGLL,4611.962972,N,01258.221223,E,080222.00,A,A*6C
$GPVTG,347.1,T,347.2,M,001.8,N,003.3,K,A*29
$GPGSV,2,1,07,02,32,106,43,04,23,058,40,09,43,142,44,12,74,030,43*7F
$GPGSV,2,2,07,14,37,280,34,25,58,289,40,29,28,212,41,,,,*4A
$GPGSA,M,3,02,04,09,12,25,29,,,,,,,2.7,1.4,2.3*3F
Trace #85 at position 21.000000
$GPZDA,080221.03,09,10,2011,00,00*66
$GPRMC,080221.00,A,4611.962586,N,01258.221432,E,001.1,315.6,091011,0.2,E,A*39
$GPGGA,080222.00,4611.962972,N,01258.221223,E,1,06,1.4,140.13,M,46.25,M,,*68
$GPGLL,4611.962972,N,01258.221223,E,080222.00,A,A*6C
$GPVTG,347.1,T,347.2,M,001.8,N,003.3,K,A*29
$GPGSV,2,1,07,02,32,106,43,04,23,058,40,09,43,142,44,12,74,030,43*7F
$GPGSV,2,2,07,14,37,280,34,25,58,289,40,29,28,212,41,,,,*4A
$GPGSA,M,3,02,04,09,12,25,29,,,,,,,2.7,1.4,2.3*3F
Trace #86 at position 21.250000
$GPZDA,080222.03,09,10,2011,00,00*65
$GPRMC,080222.00,A,4611.962972,N,01258.221223,E,001.8,347.1,091011,0.2,E,A*32
$GPGGA,080223.00,4611.963391,N,01258.221078,E,1,06,1.4,140.06,M,46.25,M,,*67
$GPGLL,4611.963391,N,01258.221078,E,080223.00,A,A*67
$GPVTG,338.5,T,338.7,M,001.1,N,002.1,K,A*22
$GPGSV,2,1,07,02,32,106,44,04,23,058,41,09,43,142,44,12,74,030,42*78
$GPGSV,2,2,07,14,37,280,35,25,58,289,39,29,28,212,41,,,,*45
$GPGSA,M,3,02,04,09,12,25,29,,,,,,,2.7,1.4,2.3*3F
Trace #87 at position 21.500000
$GPZDA,080222.03,09,10,2011,00,00*65
$GPRMC,080222.00,A,4611.962972,N,01258.221223,E,001.8,347.1,091011,0.2,E,A*32
$GPGGA,080223.00,4611.963391,N,01258.221078,E,1,06,1.4,140.06,M,46.25,M,,*67
$GPGLL,4611.963391,N,01258.221078,E,080223.00,A,A*67
$GPVTG,338.5,T,338.7,M,001.1,N,002.1,K,A*22
$GPGSV,2,1,07,02,32,106,44,04,23,058,41,09,43,142,44,12,74,030,42*78
$GPGSV,2,2,07,14,37,280,35,25,58,289,39,29,28,212,41,,,,*45
$GPGSA,M,3,02,04,09,12,25,29,,,,,,,2.7,1.4,2.3*3F
Trace #88 at position 21.750000
$GPZDA,080222.03,09,10,2011,00,00*65
$GPRMC,080222.00,A,4611.962972,N,01258.221223,E,001.8,347.1,091011,0.2,E,A*32
$GPGGA,080223.00,4611.963391,N,01258.221078,E,1,06,1.4,140.06,M,46.25,M,,*67
$GPGLL,4611.963391,N,01258.221078,E,080223.00,A,A*67
$GPVTG,338.5,T,338.7,M,001.1,N,002.1,K,A*22
$GPGSV,2,1,07,02,32,106,44,04,23,058,41,09,43,142,44,12,74,030,42*78
$GPGSV,2,2,07,14,37,280,35,25,58,289,39,29,28,212,41,,,,*45
$GPGSA,M,3,02,04,09,12,25,29,,,,,,,2.7,1.4,2.3*3F
Trace #89 at position 22.000000
$GPZDA,080223.04,09,10,2011,00,00*63
$GPRMC,080223.00,A,4611.963391,N,01258.221078,E,001.1,338.5,091011,0.2,E,A*3C
$GPGGA,080224.00,4611.963810,N,01258.220860,E,1,06,1.4,140.03,M,46.25,M,,*67
$GPGLL,4611.963810,N,01258.220860,E,080224.00,A,A*62
$GPVTG,336.5,T,336.7,M,001.9,N,003.5,K,A*2F
$GPGSV,2,1,07,02,32,106,44,04,23,058,40,09,43,142,44,12,74,030,42*79
$GPGSV,2,2,07,14,37,280,33,25,58,289,40,29,28,212,40,,,,*4C
$GPGSA,M,3,02,04,09,12,25,29,,,,,,,2.7,1.4,2.3*3F
Trace #90 at position 22.250000
$GPZDA,080223.04,09,10,2011,00,00*63
$GPRMC,080223.00,A,4611.963391,N,01258.221078,E,001.1,338.5,091011,0.2,E,A*3C
$GPGGA,080224.00,4611.963810,N,01258.220860,E,1,06,1.4,140.03,M,46.25,M,,*67
$GPGLL,4611.963810,N,01258.220860,E,080224.00,A,A*62
$GPVTG,336.5,T,336.7,M,001.9,N,003.5,K,A*2F
$GPGSV,2,1,07,02,32,106,44,04,23,058,40,09,43,142,44,12,74,030,42*79
$GPGSV,2,2,07,14,37,280,33,25,58,289,40,29,28,212,40,,,,*4C
$GPGSA,M,3,02,04,09,12,25,29,,,,,,,2.7,1.4,2.3*3F
Trace #91 at position 22.500000
$GPZDA,080223.04,09,10,2011,00,00*63
$GPRMC,080223.00,A,4611.963391,N,01258.221078,E,001.1,338.5,091011,0.2,E,A*3C
$GPGGA,080224.00,4611.963810,N,01258.220860,E,1,06,1.4,140.03,M,46.25,M,,*67
$GPGLL,4611.963810,N,01258.220860,E,080224.00,A,A*62
$GPVTG,336.5,T,336.7,M,001.9,N,003.5,K,A*2F
$GPGSV,2,1,07,02,32,106,44,04,23,058,40,09,43,142,44,12,74,030,42*79
$GPGSV,2,2,07,14,37,280,33,25,58,289,40,29,28,212,40,,,,*4C
$GPGSA,M,3,02,04,09,12,25,29,,,,,,,2.7,1.4,2.3*3F
Trace #92 at position 22.750000
$GPZDA,080224.03,09,10,2011,00,00*63
$GPRMC,080224.00,A,4611.963810,N,01258.220860,E,001.9,336.5,091011,0.2,E,A*3F
$GPGGA,080225.00,4611.964271,N,01258.220594,E,1,06,1.4,140.06,M,46.25,M,,*6F
$GPGLL,4611.964271,N,01258.220594,E,080225.00,A,A*6F
$GPVTG,332.1,T,332.2,M,001.6,N,002.9,K,A*2C
$GPGSV,2,1,07,02,32,106,44,04,23,058,40,09,43,142,45,12,74,030,43*79
$GPGSV,2,2,07,14,37,280,,25,58,289,40,29,28,212,39,,,,*42
$GPGSA,M,3,02,04,09,12,25,29,,,,,,,2.7,1.4,2.3*3F
Trace #93 at position 23.000000
$GPZDA,080224.03,09,10,2011,00,00*63
$GPRMC,080224.00,A,4611.963810,N,01258.220860,E,001.9,336.5,091011,0.2,E,A*3F
$GPGGA,080225.00,4611.964271,N,01258.220594,E,1,06,1.4,140.06,M,46.25,M,,*6F
$GPGLL,4611.964271,N,01258.220594,E,080225.00,A,A*6F
$GPVTG,332.1,T,332.2,M,001.6,N,002.9,K,A*2C
$GPGSV,2,1,07,02,32,106,44,04,23,058,40,09,43,142,45,12,74,030,43*79
$GPGSV,2,2,07,14,37,280,,25,58,289,40,29,28,212,39,,,,*42
$GPGSA,M,3,02,04,09,12,25,29,,,,,,,2.7,1.4,2.3*3F
Trace #94 at position 23.250000
$GPZDA,080225.03,09,10,2011,00,00*62
$GPRMC,080225.00,A,4611.964271,N,01258.220594,E,001.6,332.1,091011,0.2,E,A*3D
$GPGGA,080226.00,4611.964702,N,01258.220403,E,1,06,1.4,140.15,M,46.25,M,,*60
$GPGLL,4611.964702,N,01258.220403,E,080226.00,A,A*62
$GPVTG,345.4,T,345.6,M,001.6,N,003.0,K,A*25
$GPGSV,2,1,07,02,32,106,44,04,23,058,41,09,43,142,44,12,74,030,42*78
$GPGSV,2,2,07,14,37,280,32,25,58,289,41,29,28,212,40,,,,*4C
$GPGSA,M,3,02,04,09,12,25,29,,,,,,,2.7,1.4,2.3*3F
Trace #95 at position 23.500000
$GPZDA,080225.03,09,10,2011,00,00*62
$GPRMC,080225.00,A,4611.964271,N,01258.220594,E,001.6,332.1,091011,0.2,E,A*3D
$GPGGA,080226.00,4611.964702,N,01258.220403,E,1,06,1.4,140.15,M,46.25,M,,*60
$GPGLL,4611.964702,N,01258.220403,E,080226.00,A,A*62
$GPVTG,345.4,T,345.6,M,001.6,N,003.0,K,A*25
$GPGSV,2,1,07,02,32,106,44,04,23,058,41,09,43,142,44,12,74,030,42*78
$GPGSV,2,2,07,14,37,280,32,25,58,289,41,29,28,212,40,,,,*4C
$GPGSA,M,3,02,04,09,12,25,29,,,,,,,2.7,1.4,2.3*3F
Trace #96 at position 23.750000
$GPZDA,080227.03,09,10,2011,00,00*60
$GPRMC,080227.00,A,4611.965040,N,01258.220306,E,000.8,340.4,091011,0.2,E,A*3C
$GPGGA,080228.00,4611.965212,N,01258.220272,E,1,06,1.4,140.14,M,46.25,M,,*6A
$GPGLL,4611.965212,N,01258.220272,E,080228.00,A,A*69
$GPVTG,352.5,T,352.6,M,000.3,N,000.6,K,A*25
$GPGSV,2,1,07,02,32,106,43,04,23,058,40,09,43,142,44,12,74,030,40*7C
$GPGSV,2,2,07,14,37,280,35,25,58,289,38,29,28,212,39,,,,*4B
$GPGSA,M,3,02,04,09,12,25,29,,,,,,,2.7,1.4,2.3*3F
Trace #97 at position 24.000000
$GPZDA,080227.03,09,10,2011,00,00*60
$GPRMC,080227.00,A,4611.965040,N,01258.220306,E,000.8,340.4,091011,0.2,E,A*3C
$GPGGA,080228.00,4611.965212,N,01258.220272,E,1,06,1.4,140.14,M,46.25,M,,*6A
$GPGLL,4611.965212,N,01258.220272,E,080228.00,A,A*69
$GPVTG,352.5,T,352.6,M,000.3,N,000.6,K,A*25
$GPGSV,2,1,07,02,32,106,43,04,23,058,40,09,43,142,44,12,74,030,40*7C
$GPGSV,2,2,07,14,37,280,35,25,58,289,38,29,28,212,39,,,,*4B
$GPGSA,M,3,02,04,09,12,25,29,,,,,,,2.7,1.4,2.3*3F
Trace #98 at position 24.250000
$GPZDA,080228.04,09,10,2011,00,00*68
$GPRMC,080228.00,A,4611.965212,N,01258.220272,E,000.3,352.5,091011,0.2,E,A*3D
$GPGGA,080229.00,4611.965313,N,01258.220239,E,1,06,1.4,140.11,M,46.25,M,,*61
$GPGLL,4611.965313,N,01258.220239,E,080229.00,A,A*67
$GPVTG,317.9,T,318.1,M,000.4,N,000.7,K,A*27
$GPGSV,2,1,07,02,32,106,43,04,23,058,39,09,43,142,45,12,74,030,41*72
$GPGSV,2,2,07,14,37,280,38,25,58,289,39,29,28,212,40,,,,*49
$GPGSA,M,3,02,04,09,12,25,29,,,,,,,2.7,1.4,2.3*3F
Trace #99 at position 24.500000
$GPZDA,080228.04,09,10,2011,00,00*68
$GPRMC,080228.00,A,4611.965212,N,01258.220272,E,000.3,352.5,091011,0.2,E,A*3D
$GPGGA,080229.00,4611.965313,N,01258.220239,E,1,06,1.4,140.11,M,46.25,M,,*61
$GPGLL,4611.965313,N,01258.220239,E,080229.00,A,A*67
$GPVTG,317.9,T,318.1,M,000.4,N,000.7,K,A*27
$GPGSV,2,1,07,02,32,106,43,04,23,058,39,09,43,142,45,12,74,030,41*72
$GPGSV,2,2,07,14,37,280,38,25,58,289,39,29,28,212,40,,,,*49
$GPGSA,M,3,02,04,09,12,25,29,,,,,,,2.7,1.4,2.3*3F
Trace #100 at position 24.750000
$GPZDA,080234.03,09,10,2011,00,00*62
$GPRMC,080234.00,A,4611.965979,N,01258.220221,E,000.1,275.7,091011,0.2,E,A*34
$GPGGA,080235.00,4611.965997,N,01258.220184,E,1,05,1.7,140.21,M,46.25,M,,*6C
$GPGLL,4611.965997,N,01258.220184,E,080235.00,A,A*69
$GPVTG,61.2,T,61.3,M,000.0,N,000.0,K,A*22
$GPGSV,2,1,07,02,32,106,43,04,23,058,40,09,43,142,44,12,74,030,40*7C
$GPGSV,2,2,07,14,37,280,34,25,58,289,,29,28,212,41,,,,*4E
$GPGSA,M,3,02,04,09,12,29,,,,,,,,2.9,1.7,2.3*35
Trace #101 at position 25.000000
$GPZDA,080235.03,09,10,2011,00,00*63
$GPRMC,080235.00,A,4611.965997,N,01258.220184,E,000.0,61.2,091011,0.2,E,A*0A
$GPGGA,080236.00,4611.966003,N,01258.220183,E,1,05,1.7,140.10,M,46.25,M,,*6D
$GPGLL,4611.966003,N,01258.220183,E,080236.00,A,A*6A
$GPVTG,125.1,T,125.2,M,000.1,N,000.2,K,A*23
$GPGSV,2,1,07,02,32,106,43,04,23,058,38,09,43,142,43,12,74,030,42*76
$GPGSV,2,2,07,14,37,280,33,25,58,289,,29,28,212,40,,,,*48
$GPGSA,M,3,02,04,09,12,29,,,,,,,,2.9,1.7,2.3*35
Trace #102 at position 25.250000
$GPZDA,080235.03,09,10,2011,00,00*63
$GPRMC,080235.00,A,4611.965997,N,01258.220184,E,000.0,61.2,091011,0.2,E,A*0A
$GPGGA,080236.00,4611.966003,N,01258.220183,E,1,05,1.7,140.10,M,46.25,M,,*6D
$GPGLL,4611.966003,N,01258.220183,E,080236.00,A,A*6A
$GPVTG,125.1,T,125.2,M,000.1,N,000.2,K,A*23
$GPGSV,2,1,07,02,32,106,43,04,23,058,38,09,43,142,43,12,74,030,42*76
$GPGSV,2,2,07,14,37,280,33,25,58,289,,29,28,212,40,,,,*48
$GPGSA,M,3,02,04,09,12,29,,,,,,,,2.9,1.7,2.3*35
Trace #103 at position 25.500000
$GPZDA,080238.04,09,10,2011,00,00*69
$GPRMC,080238.00,A,4611.966203,N,01258.220146,E,001.0,352.7,091011,0.2,E,A*3B
$GPGGA,080239.00,4611.966369,N,01258.220017,E,1,05,1.7,140.07,M,46.25,M,,*67
$GPGLL,4611.966369,N,01258.220017,E,080239.00,A,A*66
$GPVTG,277.1,T,277.3,M,000.4,N,000.7,K,A*22
$GPGSV,2,1,07,02,32,106,43,04,23,058,41,09,43,142,44,12,74,030,42*7F
$GPGSV,2,2,07,14,37,280,35,25,58,289,,29,28,212,39,,,,*40
$GPGSA,M,3,02,04,09,12,29,,,,,,,,2.9,1.7,2.3*35
Trace #104 at position 25.750000
$GPZDA,080239.03,09,10,2011,00,00*6F
$GPRMC,080239.00,A,4611.966369,N,01258.220017,E,000.4,277.1,091011,0.2,E,A*37
$GPGGA,080240.00,4611.966386,N,01258.219925,E,1,05,1.7,140.13,M,46.25,M,,*6F
$GPGLL,4611.966386,N,01258.219925,E,080240.00,A,A*6B
$GPVTG,220.0,T,220.2,M,000.0,N,000.1,K,A*20
$GPGSV,2,1,07,02,32,106,41,04,23,058,40,09,43,142,43,12,74,030,42*7B
$GPGSV,2,2,07,14,37,280,33,25,58,289,36,29,28,212,36,,,,*4C
$GPGSA,M,3,02,04,09,12,29,,,,,,,,2.9,1.7,2.3*35
Trace #105 at position 26.000000
$GPZDA,080239.03,09,10,2011,00,00*6F
$GPRMC,080239.00,A,4611.966369,N,01258.220017,E,000.4,277.1,091011,0.2,E,A*37
$GPGGA,080240.00,4611.966386,N,01258.219925,E,1,05,1.7,140.13,M,46.25,M,,*6F
$GPGLL,4611.966386,N,01258.219925,E,080240.00,A,A*6B
$GPVTG,220.0,T,220.2,M,000.0,N,000.1,K,A*20
$GPGSV,2,1,07,02,32,106,41,04,23,058,40,09,43,142,43,12,74,030,42*7B
$GPGSV,2,2,07,14,37,280,33,25,58,289,36,29,28,212,36,,,,*4C
$GPGSA,M,3,02,04,09,12,29,,,,,,,,2.9,1.7,2.3*35
Trace #106 at position 26.250000
$GPZDA,080240.03,09,10,2011,00,00*61
$GPRMC,080240.00,A,4611.966386,N,01258.219925,E,000.0,220.0,091011,0.2,E,A*3D
$GPGGA,080241.00,4611.966421,N,01258.219853,E,1,05,1.7,140.16,M,46.25,M,,*61
$GPGLL,4611.966421,N,01258.219853,E,080241.00,A,A*60
$GPVTG,303.8,T,303.9,M,000.3,N,000.6,K,A*27
$GPGSV,2,1,07,02,32,106,41,04,23,058,41,09,43,142,45,12,74,030,43*7D
$GPGSV,2,2,07,14,37,280,35,25,58,289,36,29,28,212,39,,,,*45
$GPGSA,M,3,02,04,09,12,29,,,,,,,,2.9,1.7,2.3*35
Trace #107 at position 26.500000
$GPZDA,080241.03,09,10,2011,00,00*60
$GPRMC,080241.00,A,4611.966421,N,01258.219853,E,000.3,303.8,091011,0.2,E,A*3D
$GPGGA,080242.00,4611.966636,N,01258.219659,E,1,05,1.7,140.17,M,46.25,M,,*63
$GPGLL,4611.966636,N,01258.219659,E,080242.00,A,A*63
$GPVTG,331.4,T,331.6,M,001.4,N,002.5,K,A*23
$GPGSV,2,1,07,02,32,106,40,04,23,058,41,09,43,142,43,12,74,030,43*7A
$GPGSV,2,2,07,14,37,280,32,25,58,289,37,29,28,212,38,,,,*42
$GPGSA,M,3,02,04,09,12,29,,,,,,,,2.9,1.7,2.3*35
Trace #108 at position 26.750000
$GPZDA,080243.04,09,10,2011,00,00*65
$GPRMC,080243.00,A,4611.966926,N,01258.219518,E,000.8,358.2,091011,0.2,E,A*38
$GPGGA,080244.00,4611.967035,N,01258.219517,E,1,05,1.7,140.09,M,46.25,M,,*67
$GPGLL,4611.967035,N,01258.219517,E,080244.00,A,A*68
$GPVTG,125.4,T,125.6,M,000.1,N,000.2,K,A*22
$GPGSV,2,1,07,02,32,106,42,04,23,058,41,09,43,142,44,12,74,030,43*7F
$GPGSV,2,2,07,14,37,280,37,25,58,289,36,29,28,212,41,,,,*48
$GPGSA,M,3,02,04,09,12,29,,,,,,,,2.9,1.7,2.3*35
Trace #109 at position 27.000000
$GPZDA,080244.04,09,10,2011,00,00*62
$GPRMC,080244.00,A,4611.967035,N,01258.219517,E,000.1,125.4,091011,0.2,E,A*3D
$GPGGA,080245.00,4611.967032,N,01258.219525,E,1,05,1.7,140.15,M,46.25,M,,*6D
$GPGLL,4611.967032,N,01258.219525,E,080245.00,A,A*6F
$GPVTG,102.6,T,102.8,M,000.0,N,000.0,K,A*2D
$GPGSV,2,1,07,02,32,106,42,04,23,058,41,09,43,142,44,12,74,030,41*7D
$GPGSV,2,2,07,14,37,280,37,25,58,289,36,29,28,212,41,,,,*48
$GPGSA,M,3,02,04,09,12,29,,,,,,,,2.9,1.7,2.3*35
Trace #110 at position 27.250000
$GPZDA,080244.04,09,10,2011,00,00*62
$GPRMC,080244.00,A,4611.967035,N,01258.219517,E,000.1,125.4,091011,0.2,E,A*3D
$GPGGA,080245.00,4611.967032,N,01258.219525,E,1,05,1.7,140.15,M,46.25,M,,*6D
$GPGLL,4611.967032,N,01258.219525,E,080245.00,A,A*6F
$GPVTG,102.6,T,102.8,M,000.0,N,000.0,K,A*2D
$GPGSV,2,1,07,02,32,106,42,04,23,058,41,09,43,142,44,12,74,030,41*7D
$GPGSV,2,2,07,14,37,280,37,25,58,289,36,29,28,212,41,,,,*48
$GPGSA,M,3,02,04,09,12,29,,,,,,,,2.9,1.7,2.3*35
Trace #111 at position 27.500000
$GPZDA,080245.03,09,10,2011,00,00*64
$GPRMC,080245.00,A,4611.967032,N,01258.219525,E,000.0,102.6,091011,0.2,E,A*3C
$GPGGA,080246.00,4611.967124,N,01258.219512,E,1,06,1.4,140.20,M,46.25,M,,*6A
$GPGLL,4611.967124,N,01258.219512,E,080246.00,A,A*6E
$GPVTG,340.5,T,340.7,M,000.8,N,001.5,K,A*2D
$GPGSV,2,1,07,02,32,106,42,04,23,058,40,09,43,142,44,12,74,031,42*7E
$GPGSV,2,2,07,14,37,280,37,25,58,289,40,29,28,212,39,,,,*46
$GPGSA,M,3,02,04,09,12,25,29,,,,,,,2.7,1.4,2.3*3F
Trace #112 at position 27.750000
$GPZDA,080245.03,09,10,2011,00,00*64
$GPRMC,080245.00,A,4611.967032,N,01258.219525,E,000.0,102.6,091011,0.2,E,A*3C
$GPGGA,080246.00,4611.967124,N,01258.219512,E,1,06,1.4,140.20,M,46.25,M,,*6A
$GPGLL,4611.967124,N,01258.219512,E,080246.00,A,A*6E
$GPVTG,340.5,T,340.7,M,000.8,N,001.5,K,A*2D
$GPGSV,2,1,07,02,32,106,42,04,23,058,40,09,43,142,44,12,74,031,42*7E
$GPGSV,2,2,07,14,37,280,37,25,58,289,40,29,28,212,39,,,,*46
$GPGSA,M,3,02,04,09,12,25,29,,,,,,,2.7,1.4,2.3*3F
Trace #113 at position 28.000000
$GPZDA,080246.04,09,10,2011,00,00*60
$GPRMC,080246.00,A,4611.967124,N,01258.219512,E,000.8,340.5,091011,0.2,E,A*32
$GPGGA,080247.00,4611.967362,N,01258.219475,E,1,06,1.4,140.27,M,46.25,M,,*6C
$GPGLL,4611.967362,N,01258.219475,E,080247.00,A,A*6F
$GPVTG,355.4,T,355.6,M,001.0,N,001.9,K,A*28
$GPGSV,2,1,07,02,32,106,42,04,23,058,41,09,43,142,44,12,74,031,43*7E
$GPGSV,2,2,07,14,37,280,34,25,58,289,40,29,28,212,39,,,,*45
$GPGSA,M,3,02,04,09,12,25,29,,,,,,,2.7,1.4,2.3*3F
Trace #114 at position 28.250000
$GPZDA,080246.04,09,10,2011,00,00*60
$GPRMC,080246.00,A,4611.967124,N,01258.219512,E,000.8,340.5,091011,0.2,E,A*32
$GPGGA,080247.00,4611.967362,N,01258.219475,E,1,06,1.4,140.27,M,46.25,M,,*6C
$GPGLL,4611.967362,N,01258.219475,E,080247.00,A,A*6F
$GPVTG,355.4,T,355.6,M,001.0,N,001.9,K,A*28
$GPGSV,2,1,07,02,32,106,42,04,23,058,41,09,43,142,44,12,74,031,43*7E
$GPGSV,2,2,07,14,37,280,34,25,58,289,40,29,28,212,39,,,,*45
$GPGSA,M,3,02,04,09,12,25,29,,,,,,,2.7,1.4,2.3*3F
Trace #115 at position 28.500000
$GPZDA,080247.04,09,10,2011,00,00*61
$GPRMC,080247.00,A,4611.967362,N,01258.219475,E,001.0,355.4,091011,0.2,E,A*3F
$GPGGA,080248.00,4611.967638,N,01258.219497,E,1,06,1.4,140.37,M,46.25,M,,*64
$GPGLL,4611.967638,N,01258.219497,E,080248.00,A,A*66
$GPVTG,5.8,T,6.0,M,001.0,N,001.9,K,A*21
$GPGSV,2,1,07,02,32,106,42,04,23,058,40,09,43,142,44,12,74,031,43*7F
$GPGSV,2,2,07,14,37,280,33,25,58,289,39,29,28,212,40,,,,*42
$GPGSA,M,3,02,04,09,12,25,29,,,,,,,2.7,1.4,2.3*3F
Trace #116 at position 28.750000
$GPZDA,080247.04,09,10,2011,00,00*61
$GPRMC,080247.00,A,4611.967362,N,01258.219475,E,001.0,355.4,091011,0.2,E,A*3F
$GPGGA,080248.00,4611.967638,N,01258.219497,E,1,06,1.4,140.37,M,46.25,M,,*64
$GPGLL,4611.967638,N,01258.219497,E,080248.00,A,A*66
$GPVTG,5.8,T,6.0,M,001.0,N,001.9,K,A*21
$GPGSV,2,1,07,02,32,106,42,04,23,058,40,09,43,142,44,12,74,031,43*7F
$GPGSV,2,2,07,14,37,280,33,25,58,289,39,29,28,212,40,,,,*42
$GPGSA,M,3,02,04,09,12,25,29,,,,,,,2.7,1.4,2.3*3F
Trace #117 at position 29.000000
$GPZDA,080247.04,09,10,2011,00,00*61
$GPRMC,080247.00,A,4611.967362,N,01258.219475,E,001.0,355.4,091011,0.2,E,A*3F
