Trace #1 at position 0.000000
$GPZDA,091842.03,09,10,2011,00,00*69
$GPRMC,091842.00,A,4611.954375,N,01258.231505,E,000.1,309.9,091011,0.2,E,A*3E
$GPGGA,091843.00,4611.954364,N,01258.231493,E,1,04,4.4,140.13,M,46.25,M,,*66
$GPGLL,4611.954364,N,01258.231493,E,091843.00,A,A*65
$GPVTG,16.7,T,16.8,M,000.0,N,000.1,K,A*2D
$GPGSV,2,1,07,02,36,066,44,12,48,088,44,14,21,244,38,25,79,032,47*71
$GPGSV,2,2,07,29,63,231,45,30,43,296,,31,34,310,,,,,*4F
$GPGSA,M,3,02,12,25,29,,,,,,,,,7.3,4.4,5.8*3A
Trace #2 at position 0.250000
$GPZDA,091844.03,09,10,2011,00,00*6F
$GPRMC,091844.00,A,4611.954327,N,01258.231532,E,000.2,127.3,091011,0.2,E,A*3C
$GPGGA,091845.00,4611.954289,N,01258.231541,E,1,04,4.4,140.09,M,46.25,M,,*67
$GPGLL,4611.954289,N,01258.231541,E,091845.00,A,A*6F
$GPVTG,271.0,T,271.2,M,000.1,N,000.2,K,A*22
$GPGSV,2,1,07,02,36,066,45,12,48,088,47,14,21,244,36,25,79,032,45*7F
$GPGSV,2,2,07,29,63,231,43,30,43,296,33,31,34,310,,,,,*49
$GPGSA,M,3,02,12,25,29,,,,,,,,,7.3,4.4,5.8*3A
Trace #3 at position 0.500000
$GPZDA,091844.03,09,10,2011,00,00*6F
$GPRMC,091844.00,A,4611.954327,N,01258.231532,E,000.2,127.3,091011,0.2,E,A*3C
$GPGGA,091845.00,4611.954289,N,01258.231541,E,1,04,4.4,140.09,M,46.25,M,,*67
$GPGLL,4611.954289,N,01258.231541,E,091845.00,A,A*6F
$GPVTG,271.0,T,271.2,M,000.1,N,000.2,K,A*22
$GPGSV,2,1,07,02,36,066,45,12,48,088,47,14,21,244,36,25,79,032,45*7F
$GPGSV,2,2,07,29,63,231,43,30,43,296,33,31,34,310,,,,,*49
$GPGSA,M,3,02,12,25,29,,,,,,,,,7.3,4.4,5.8*3A
Trace #4 at position 0.750000
$GPZDA,091845.03,09,10,2011,00,00*6E
$GPRMC,091845.00,A,4611.954289,N,01258.231541,E,000.1,271.0,091011,0.2,E,A*3C
$GPGGA,091846.00,4611.954380,N,01258.231551,E,1,05,3.8,140.24,M,46.25,M,,*68
$GPGLL,4611.954380,N,01258.231551,E,091846.00,A,A*65
$GPVTG,359.2,T,359.4,M,001.0,N,001.8,K,A*2D
$GPGSV,2,1,07,02,36,066,43,12,48,088,46,14,21,244,41,25,79,032,47*7A
$GPGSV,2,2,07,29,63,231,45,30,43,296,31,31,34,310,,,,,*4D
$GPGSA,M,3,02,12,14,25,29,,,,,,,,4.4,3.8,2.1*3E
Trace #5 at position 1.000000
$GPZDA,091845.03,09,10,2011,00,00*6E
$GPRMC,091845.00,A,4611.954289,N,01258.231541,E,000.1,271.0,091011,0.2,E,A*3C
$GPGGA,091846.00,4611.954380,N,01258.231551,E,1,05,3.8,140.24,M,46.25,M,,*68
$GPGLL,4611.954380,N,01258.231551,E,091846.00,A,A*65
$GPVTG,359.2,T,359.4,M,001.0,N,001.8,K,A*2D
$GPGSV,2,1,07,02,36,066,43,12,48,088,46,14,21,244,41,25,79,032,47*7A
$GPGSV,2,2,07,29,63,231,45,30,43,296,31,31,34,310,,,,,*4D
$GPGSA,M,3,02,12,14,25,29,,,,,,,,4.4,3.8,2.1*3E
Trace #6 at position 1.250000
$GPZDA,091846.03,09,10,2011,00,00*6D
$GPRMC,091846.00,A,4611.954380,N,01258.231551,E,001.0,359.2,091011,0.2,E,A*3F
$GPGGA,091847.00,4611.954594,N,01258.231540,E,1,05,3.8,140.24,M,46.25,M,,*6A
$GPGLL,4611.954594,N,01258.231540,E,091847.00,A,A*67
$GPVTG,348.6,T,348.8,M,000.9,N,001.7,K,A*22
$GPGSV,2,1,07,02,36,066,43,12,48,088,45,14,21,244,40,25,79,032,47*78
$GPGSV,2,2,07,29,63,231,44,30,43,296,34,31,34,310,,,,,*49
$GPGSA,M,3,02,12,14,25,29,,,,,,,,4.4,3.8,2.1*3E
Trace #7 at position 1.500000
$GPZDA,091846.03,09,10,2011,00,00*6D
$GPRMC,091846.00,A,4611.954380,N,01258.231551,E,001.0,359.2,091011,0.2,E,A*3F
$GPGGA,091847.00,4611.954594,N,01258.231540,E,1,05,3.8,140.24,M,46.25,M,,*6A
$GPGLL,4611.954594,N,01258.231540,E,091847.00,A,A*67
$GPVTG,348.6,T,348.8,M,000.9,N,001.7,K,A*22
$GPGSV,2,1,07,02,36,066,43,12,48,088,45,14,21,244,40,25,79,032,47*78
$GPGSV,2,2,07,29,63,231,44,30,43,296,34,31,34,310,,,,,*49
$GPGSA,M,3,02,12,14,25,29,,,,,,,,4.4,3.8,2.1*3E
Trace #8 at position 1.750000
$GPZDA,091847.03,09,10,2011,00,00*6C
$GPRMC,091847.00,A,4611.954594,N,01258.231540,E,000.9,348.6,091011,0.2,E,A*31
$GPGGA,091848.00,4611.954799,N,01258.231408,E,1,05,3.8,140.24,M,46.25,M,,*67
$GPGLL,4611.954799,N,01258.231408,E,091848.00,A,A*6A
$GPVTG,323.3,T,323.5,M,001.1,N,002.0,K,A*27
$GPGSV,2,1,07,02,36,066,42,12,48,088,45,14,21,244,41,25,79,032,45*7A
$GPGSV,2,2,07,29,63,231,43,30,43,296,,31,34,310,,,,,*49
$GPGSA,M,3,02,12,14,25,29,,,,,,,,4.4,3.8,2.1*3E
Trace #9 at position 2.000000
$GPZDA,091847.03,09,10,2011,00,00*6C
$GPRMC,091847.00,A,4611.954594,N,01258.231540,E,000.9,348.6,091011,0.2,E,A*31
$GPGGA,091848.00,4611.954799,N,01258.231408,E,1,05,3.8,140.24,M,46.25,M,,*67
$GPGLL,4611.954799,N,01258.231408,E,091848.00,A,A*6A
$GPVTG,323.3,T,323.5,M,001.1,N,002.0,K,A*27
$GPGSV,2,1,07,02,36,066,42,12,48,088,45,14,21,244,41,25,79,032,45*7A
$GPGSV,2,2,07,29,63,231,43,30,43,296,,31,34,310,,,,,*49
$GPGSA,M,3,02,12,14,25,29,,,,,,,,4.4,3.8,2.1*3E
Trace #10 at position 2.250000
$GPZDA,091848.03,09,10,2011,00,00*63
$GPRMC,091848.00,A,4611.954799,N,01258.231408,E,001.1,323.3,091011,0.2,E,A*3D
$GPGGA,091849.00,4611.955049,N,01258.231215,E,1,05,3.8,140.25,M,46.25,M,,*66
$GPGLL,4611.955049,N,01258.231215,E,091849.00,A,A*6A
$GPVTG,336.7,T,336.8,M,001.3,N,002.4,K,A*28
$GPGSV,2,1,07,02,36,066,41,12,48,088,44,14,21,244,40,25,79,032,44*78
$GPGSV,2,2,07,29,63,231,44,30,43,296,,31,34,310,,,,,*4E
$GPGSA,M,3,02,12,14,25,29,,,,,,,,4.4,3.8,2.1*3E
Trace #11 at position 2.500000
$GPZDA,091848.03,09,10,2011,00,00*63
$GPRMC,091848.00,A,4611.954799,N,01258.231408,E,001.1,323.3,091011,0.2,E,A*3D
$GPGGA,091849.00,4611.955049,N,01258.231215,E,1,05,3.8,140.25,M,46.25,M,,*66
$GPGLL,4611.955049,N,01258.231215,E,091849.00,A,A*6A
$GPVTG,336.7,T,336.8,M,001.3,N,002.4,K,A*28
$GPGSV,2,1,07,02,36,066,41,12,48,088,44,14,21,244,40,25,79,032,44*78
$GPGSV,2,2,07,29,63,231,44,30,43,296,,31,34,310,,,,,*4E
$GPGSA,M,3,02,12,14,25,29,,,,,,,,4.4,3.8,2.1*3E
Trace #12 at position 2.750000
$GPZDA,091849.03,09,10,2011,00,00*62
$GPRMC,091849.00,A,4611.955049,N,01258.231215,E,001.3,336.7,091011,0.2,E,A*3F
$GPGGA,091850.00,4611.955327,N,01258.231084,E,1,05,3.8,140.26,M,46.25,M,,*6C
$GPGLL,4611.955327,N,01258.231084,E,091850.00,A,A*63
$GPVTG,343.7,T,343.9,M,001.1,N,002.0,K,A*2F
$GPGSV,2,1,07,02,36,066,44,12,48,088,45,14,21,244,37,25,79,032,45*7D
$GPGSV,2,2,07,29,63,231,44,30,43,296,,31,34,310,,,,,*4E
$GPGSA,M,3,02,12,14,25,29,,,,,,,,4.4,3.8,2.1*3E
Trace #13 at position 3.000000
$GPZDA,091849.03,09,10,2011,00,00*62
$GPRMC,091849.00,A,4611.955049,N,01258.231215,E,001.3,336.7,091011,0.2,E,A*3F
$GPGGA,091850.00,4611.955327,N,01258.231084,E,1,05,3.8,140.26,M,46.25,M,,*6C
$GPGLL,4611.955327,N,01258.231084,E,091850.00,A,A*63
$GPVTG,343.7,T,343.9,M,001.1,N,002.0,K,A*2F
$GPGSV,2,1,07,02,36,066,44,12,48,088,45,14,21,244,37,25,79,032,45*7D
$GPGSV,2,2,07,29,63,231,44,30,43,296,,31,34,310,,,,,*4E
$GPGSA,M,3,02,12,14,25,29,,,,,,,,4.4,3.8,2.1*3E
Trace #14 at position 3.250000
$GPZDA,091849.03,09,10,2011,00,00*62
$GPRMC,091849.00,A,4611.955049,N,01258.231215,E,001.3,336.7,091011,0.2,E,A*3F
$GPGGA,091850.00,4611.955327,N,01258.231084,E,1,05,3.8,140.26,M,46.25,M,,*6C
$GPGLL,4611.955327,N,01258.231084,E,091850.00,A,A*63
$GPVTG,343.7,T,343.9,M,001.1,N,002.0,K,A*2F
$GPGSV,2,1,07,02,36,066,44,12,48,088,45,14,21,244,37,25,79,032,45*7D
$GPGSV,2,2,07,29,63,231,44,30,43,296,,31,34,310,,,,,*4E
$GPGSA,M,3,02,12,14,25,29,,,,,,,,4.4,3.8,2.1*3E
Trace #15 at position 3.500000
$GPZDA,091850.03,09,10,2011,00,00*6A
$GPRMC,091850.00,A,4611.955327,N,01258.231084,E,001.1,343.7,091011,0.2,E,A*36
$GPGGA,091851.00,4611.955613,N,01258.231015,E,1,05,3.8,140.22,M,46.25,M,,*63
$GPGLL,4611.955613,N,01258.231015,E,091851.00,A,A*68
$GPVTG,352.5,T,352.6,M,001.2,N,002.3,K,A*22
$GPGSV,2,1,07,02,36,066,42,12,48,088,44,14,21,244,40,25,79,032,46*79
$GPGSV,2,2,07,29,63,231,44,30,43,296,,31,34,310,,,,,*4E
$GPGSA,M,3,02,12,14,25,29,,,,,,,,4.4,3.8,2.1*3E
Trace #16 at position 3.750000
$GPZDA,091850.03,09,10,2011,00,00*6A
$GPRMC,091850.00,A,4611.955327,N,01258.231084,E,001.1,343.7,091011,0.2,E,A*36
$GPGGA,091851.00,4611.955613,N,01258.231015,E,1,05,3.8,140.22,M,46.25,M,,*63
$GPGLL,4611.955613,N,01258.231015,E,091851.00,A,A*68
$GPVTG,352.5,T,352.6,M,001.2,N,002.3,K,A*22
$GPGSV,2,1,07,02,36,066,42,12,48,088,44,14,21,244,40,25,79,032,46*79
$GPGSV,2,2,07,29,63,231,44,30,43,296,,31,34,310,,,,,*4E
$GPGSA,M,3,02,12,14,25,29,,,,,,,,4.4,3.8,2.1*3E
Trace #17 at position 4.000000
$GPZDA,091851.03,09,10,2011,00,00*6B
$GPRMC,091851.00,A,4611.955613,N,01258.231015,E,001.2,352.5,091011,0.2,E,A*3C
$GPGGA,091852.00,4611.955892,N,01258.231039,E,1,05,3.8,140.18,M,46.25,M,,*60
$GPGLL,4611.955892,N,01258.231039,E,091852.00,A,A*62
$GPVTG,13.3,T,13.4,M,001.0,N,001.9,K,A*2D
$GPGSV,2,1,07,02,36,066,44,12,48,088,45,14,21,244,37,25,79,032,46*7E
$GPGSV,2,2,07,29,63,231,44,30,43,296,,31,34,310,,,,,*4E
$GPGSA,M,3,02,12,14,25,29,,,,,,,,4.4,3.8,2.1*3E
Trace #18 at position 4.250000
$GPZDA,091851.03,09,10,2011,00,00*6B
$GPRMC,091851.00,A,4611.955613,N,01258.231015,E,001.2,352.5,091011,0.2,E,A*3C
$GPGGA,091852.00,4611.955892,N,01258.231039,E,1,05,3.8,140.18,M,46.25,M,,*60
$GPGLL,4611.955892,N,01258.231039,E,091852.00,A,A*62
$GPVTG,13.3,T,13.4,M,001.0,N,001.9,K,A*2D
$GPGSV,2,1,07,02,36,066,44,12,48,088,45,14,21,244,37,25,79,032,46*7E
$GPGSV,2,2,07,29,63,231,44,30,43,296,,31,34,310,,,,,*4E
$GPGSA,M,3,02,12,14,25,29,,,,,,,,4.4,3.8,2.1*3E
Trace #19 at position 4.500000
$GPZDA,091851.03,09,10,2011,00,00*6B
$GPRMC,091851.00,A,4611.955613,N,01258.231015,E,001.2,352.5,091011,0.2,E,A*3C
$GPGGA,091852.00,4611.955892,N,01258.231039,E,1,05,3.8,140.18,M,46.25,M,,*60
$GPGLL,4611.955892,N,01258.231039,E,091852.00,A,A*62
$GPVTG,13.3,T,13.4,M,001.0,N,001.9,K,A*2D
$GPGSV,2,1,07,02,36,066,44,12,48,088,45,14,21,244,37,25,79,032,46*7E
$GPGSV,2,2,07,29,63,231,44,30,43,296,,31,34,310,,,,,*4E
$GPGSA,M,3,02,12,14,25,29,,,,,,,,4.4,3.8,2.1*3E
Trace #20 at position 4.750000
$GPZDA,091852.03,09,10,2011,00,00*68
$GPRMC,091852.00,A,4611.955892,N,01258.231039,E,001.0,13.3,091011,0.2,E,A*04
$GPGGA,091853.00,4611.956092,N,01258.231029,E,1,05,3.8,140.18,M,46.25,M,,*6B
$GPGLL,4611.956092,N,01258.231029,E,091853.00,A,A*69
$GPVTG,338.1,T,338.3,M,000.6,N,001.2,K,A*24
$GPGSV,2,1,07,02,36,066,43,12,48,088,44,14,21,244,38,25,79,032,46*77
$GPGSV,2,2,07,29,63,231,43,30,43,296,,31,34,310,,,,,*49
$GPGSA,M,3,02,12,14,25,29,,,,,,,,4.4,3.8,2.1*3E
Trace #21 at position 5.000000
$GPZDA,091852.03,09,10,2011,00,00*68
$GPRMC,091852.00,A,4611.955892,N,01258.231039,E,001.0,13.3,091011,0.2,E,A*04
$GPGGA,091853.00,4611.956092,N,01258.231029,E,1,05,3.8,140.18,M,46.25,M,,*6B
$GPGLL,4611.956092,N,01258.231029,E,091853.00,A,A*69
$GPVTG,338.1,T,338.3,M,000.6,N,001.2,K,A*24
$GPGSV,2,1,07,02,36,066,43,12,48,088,44,14,21,244,38,25,79,032,46*77
$GPGSV,2,2,07,29,63,231,43,30,43,296,,31,34,310,,,,,*49
$GPGSA,M,3,02,12,14,25,29,,,,,,,,4.4,3.8,2.1*3E
Trace #22 at position 5.250000
$GPZDA,091852.03,09,10,2011,00,00*68
$GPRMC,091852.00,A,4611.955892,N,01258.231039,E,001.0,13.3,091011,0.2,E,A*04
$GPGGA,091853.00,4611.956092,N,01258.231029,E,1,05,3.8,140.18,M,46.25,M,,*6B
$GPGLL,4611.956092,N,01258.231029,E,091853.00,A,A*69
$GPVTG,338.1,T,338.3,M,000.6,N,001.2,K,A*24
$GPGSV,2,1,07,02,36,066,43,12,48,088,44,14,21,244,38,25,79,032,46*77
$GPGSV,2,2,07,29,63,231,43,30,43,296,,31,34,310,,,,,*49
$GPGSA,M,3,02,12,14,25,29,,,,,,,,4.4,3.8,2.1*3E
Trace #23 at position 5.500000
$GPZDA,091853.03,09,10,2011,00,00*69
$GPRMC,091853.00,A,4611.956092,N,01258.231029,E,000.6,338.1,091011,0.2,E,A*30
$GPGGA,091854.00,4611.956393,N,01258.230983,E,1,05,3.8,140.24,M,46.25,M,,*69
$GPGLL,4611.956393,N,01258.230983,E,091854.00,A,A*64
$GPVTG,2.8,T,2.9,M,001.6,N,003.1,K,A*27
$GPGSV,2,1,07,02,36,066,42,12,48,088,44,14,21,244,38,25,79,032,44*74
$GPGSV,2,2,07,29,63,231,44,30,43,296,,31,34,310,,,,,*4E
$GPGSA,M,3,02,12,14,25,29,,,,,,,,4.4,3.8,2.1*3E
Trace #24 at position 5.750000
$GPZDA,091853.03,09,10,2011,00,00*69
$GPRMC,091853.00,A,4611.956092,N,01258.231029,E,000.6,338.1,091011,0.2,E,A*30
$GPGGA,091854.00,4611.956393,N,01258.230983,E,1,05,3.8,140.24,M,46.25,M,,*69
$GPGLL,4611.956393,N,01258.230983,E,091854.00,A,A*64
$GPVTG,2.8,T,2.9,M,001.6,N,003.1,K,A*27
$GPGSV,2,1,07,02,36,066,42,12,48,088,44,14,21,244,38,25,79,032,44*74
$GPGSV,2,2,07,29,63,231,44,30,43,296,,31,34,310,,,,,*4E
$GPGSA,M,3,02,12,14,25,29,,,,,,,,4.4,3.8,2.1*3E
Trace #25 at position 6.000000
$GPZDA,091853.03,09,10,2011,00,00*69
$GPRMC,091853.00,A,4611.956092,N,01258.231029,E,000.6,338.1,091011,0.2,E,A*30
$GPGGA,091854.00,4611.956393,N,01258.230983,E,1,05,3.8,140.24,M,46.25,M,,*69
$GPGLL,4611.956393,N,01258.230983,E,091854.00,A,A*64
$GPVTG,2.8,T,2.9,M,001.6,N,003.1,K,A*27
$GPGSV,2,1,07,02,36,066,42,12,48,088,44,14,21,244,38,25,79,032,44*74
$GPGSV,2,2,07,29,63,231,44,30,43,296,,31,34,310,,,,,*4E
$GPGSA,M,3,02,12,14,25,29,,,,,,,,4.4,3.8,2.1*3E
Trace #26 at position 6.250000
$GPZDA,091853.03,09,10,2011,00,00*69
$GPRMC,091853.00,A,4611.956092,N,01258.231029,E,000.6,338.1,091011,0.2,E,A*30
$GPGGA,091854.00,4611.956393,N,01258.230983,E,1,05,3.8,140.24,M,46.25,M,,*69
$GPGLL,4611.956393,N,01258.230983,E,091854.00,A,A*64
$GPVTG,2.8,T,2.9,M,001.6,N,003.1,K,A*27
$GPGSV,2,1,07,02,36,066,42,12,48,088,44,14,21,244,38,25,79,032,44*74
$GPGSV,2,2,07,29,63,231,44,30,43,296,,31,34,310,,,,,*4E
$GPGSA,M,3,02,12,14,25,29,,,,,,,,4.4,3.8,2.1*3E
Trace #27 at position 6.500000
$GPZDA,091854.03,09,10,2011,00,00*6E
$GPRMC,091854.00,A,4611.956393,N,01258.230983,E,001.6,2.8,091011,0.2,E,A*3F
$GPGGA,091855.00,4611.956791,N,01258.230852,E,1,05,3.8,140.34,M,46.25,M,,*62
$GPGLL,4611.956791,N,01258.230852,E,091855.00,A,A*6E
$GPVTG,333.1,T,333.2,M,001.4,N,002.6,K,A*21
$GPGSV,2,1,07,02,36,066,42,12,48,088,45,14,21,244,38,25,79,032,44*75
$GPGSV,2,2,07,29,63,231,43,30,43,296,,31,34,310,,,,,*49
$GPGSA,M,3,02,12,14,25,29,,,,,,,,4.4,3.8,2.1*3E
Trace #28 at position 6.750000
$GPZDA,091854.03,09,10,2011,00,00*6E
$GPRMC,091854.00,A,4611.956393,N,01258.230983,E,001.6,2.8,091011,0.2,E,A*3F
$GPGGA,091855.00,4611.956791,N,01258.230852,E,1,05,3.8,140.34,M,46.25,M,,*62
$GPGLL,4611.956791,N,01258.230852,E,091855.00,A,A*6E
$GPVTG,333.1,T,333.2,M,001.4,N,002.6,K,A*21
$GPGSV,2,1,07,02,36,066,42,12,48,088,45,14,21,244,38,25,79,032,44*75
$GPGSV,2,2,07,29,63,231,43,30,43,296,,31,34,310,,,,,*49
$GPGSA,M,3,02,12,14,25,29,,,,,,,,4.4,3.8,2.1*3E
Trace #29 at position 7.000000
$GPZDA,091854.03,09,10,2011,00,00*6E
$GPRMC,091854.00,A,4611.956393,N,01258.230983,E,001.6,2.8,091011,0.2,E,A*3F
$GPGGA,091855.00,4611.956791,N,01258.230852,E,1,05,3.8,140.34,M,46.25,M,,*62
$GPGLL,4611.956791,N,01258.230852,E,091855.00,A,A*6E
$GPVTG,333.1,T,333.2,M,001.4,N,002.6,K,A*21
$GPGSV,2,1,07,02,36,066,42,12,48,088,45,14,21,244,38,25,79,032,44*75
$GPGSV,2,2,07,29,63,231,43,30,43,296,,31,34,310,,,,,*49
$GPGSA,M,3,02,12,14,25,29,,,,,,,,4.4,3.8,2.1*3E
Trace #30 at position 7.250000
$GPZDA,091855.03,09,10,2011,00,00*6F
$GPRMC,091855.00,A,4611.956791,N,01258.230852,E,001.4,333.1,091011,0.2,E,A*3F
$GPGGA,091856.00,4611.957211,N,01258.230628,E,1,05,3.8,140.40,M,46.25,M,,*6D
$GPGLL,4611.957211,N,01258.230628,E,091856.00,A,A*62
$GPVTG,345.9,T,346.0,M,001.8,N,003.3,K,A*20
$GPGSV,2,1,07,02,36,066,44,12,48,088,45,14,21,244,38,25,79,032,44*73
$GPGSV,2,2,07,29,63,231,43,30,43,296,,31,34,310,,,,,*49
$GPGSA,M,3,02,12,14,25,29,,,,,,,,4.4,3.8,2.1*3E
Trace #31 at position 7.500000
$GPZDA,091855.03,09,10,2011,00,00*6F
$GPRMC,091855.00,A,4611.956791,N,01258.230852,E,001.4,333.1,091011,0.2,E,A*3F
$GPGGA,091856.00,4611.957211,N,01258.230628,E,1,05,3.8,140.40,M,46.25,M,,*6D
$GPGLL,4611.957211,N,01258.230628,E,091856.00,A,A*62
$GPVTG,345.9,T,346.0,M,001.8,N,003.3,K,A*20
$GPGSV,2,1,07,02,36,066,44,12,48,088,45,14,21,244,38,25,79,032,44*73
$GPGSV,2,2,07,29,63,231,43,30,43,296,,31,34,310,,,,,*49
$GPGSA,M,3,02,12,14,25,29,,,,,,,,4.4,3.8,2.1*3E
Trace #32 at position 7.750000
$GPZDA,091855.03,09,10,2011,00,00*6F
$GPRMC,091855.00,A,4611.956791,N,01258.230852,E,001.4,333.1,091011,0.2,E,A*3F
$GPGGA,091856.00,4611.957211,N,01258.230628,E,1,05,3.8,140.40,M,46.25,M,,*6D
$GPGLL,4611.957211,N,01258.230628,E,091856.00,A,A*62
$GPVTG,345.9,T,346.0,M,001.8,N,003.3,K,A*20
$GPGSV,2,1,07,02,36,066,44,12,48,088,45,14,21,244,38,25,79,032,44*73
$GPGSV,2,2,07,29,63,231,43,30,43,296,,31,34,310,,,,,*49
$GPGSA,M,3,02,12,14,25,29,,,,,,,,4.4,3.8,2.1*3E
Trace #33 at position 8.000000
$GPZDA,091855.03,09,10,2011,00,00*6F
$GPRMC,091855.00,A,4611.956791,N,01258.230852,E,001.4,333.1,091011,0.2,E,A*3F
$GPGGA,091856.00,4611.957211,N,01258.230628,E,1,05,3.8,140.40,M,46.25,M,,*6D
$GPGLL,4611.957211,N,01258.230628,E,091856.00,A,A*62
$GPVTG,345.9,T,346.0,M,001.8,N,003.3,K,A*20
$GPGSV,2,1,07,02,36,066,44,12,48,088,45,14,21,244,38,25,79,032,44*73
$GPGSV,2,2,07,29,63,231,43,30,43,296,,31,34,310,,,,,*49
$GPGSA,M,3,02,12,14,25,29,,,,,,,,4.4,3.8,2.1*3E
Trace #34 at position 8.250000
$GPZDA,091856.03,09,10,2011,00,00*6C
$GPRMC,091856.00,A,4611.957211,N,01258.230628,E,001.8,345.9,091011,0.2,E,A*36
$GPGGA,091857.00,4611.957598,N,01258.230492,E,1,05,3.8,140.59,M,46.25,M,,*61
$GPGLL,4611.957598,N,01258.230492,E,091857.00,A,A*66
$GPVTG,350.0,T,350.2,M,001.0,N,001.8,K,A*29
$GPGSV,2,1,07,02,36,066,44,12,48,088,45,14,21,244,39,25,79,032,44*72
$GPGSV,2,2,07,29,63,231,43,30,43,296,,31,34,310,,,,,*49
$GPGSA,M,3,02,12,14,25,29,,,,,,,,4.4,3.8,2.1*3E
Trace #35 at position 8.500000
$GPZDA,091856.03,09,10,2011,00,00*6C
$GPRMC,091856.00,A,4611.957211,N,01258.230628,E,001.8,345.9,091011,0.2,E,A*36
$GPGGA,091857.00,4611.957598,N,01258.230492,E,1,05,3.8,140.59,M,46.25,M,,*61
$GPGLL,4611.957598,N,01258.230492,E,091857.00,A,A*66
$GPVTG,350.0,T,350.2,M,001.0,N,001.8,K,A*29
$GPGSV,2,1,07,02,36,066,44,12,48,088,45,14,21,244,39,25,79,032,44*72
$GPGSV,2,2,07,29,63,231,43,30,43,296,,31,34,310,,,,,*49
$GPGSA,M,3,02,12,14,25,29,,,,,,,,4.4,3.8,2.1*3E
Trace #36 at position 8.750000
$GPZDA,091856.03,09,10,2011,00,00*6C
$GPRMC,091856.00,A,4611.957211,N,01258.230628,E,001.8,345.9,091011,0.2,E,A*36
$GPGGA,091857.00,4611.957598,N,01258.230492,E,1,05,3.8,140.59,M,46.25,M,,*61
$GPGLL,4611.957598,N,01258.230492,E,091857.00,A,A*66
$GPVTG,350.0,T,350.2,M,001.0,N,001.8,K,A*29
$GPGSV,2,1,07,02,36,066,44,12,48,088,45,14,21,244,39,25,79,032,44*72
$GPGSV,2,2,07,29,63,231,43,30,43,296,,31,34,310,,,,,*49
$GPGSA,M,3,02,12,14,25,29,,,,,,,,4.4,3.8,2.1*3E
Trace #37 at position 9.000000
$GPZDA,091856.03,09,10,2011,00,00*6C
$GPRMC,091856.00,A,4611.957211,N,01258.230628,E,001.8,345.9,091011,0.2,E,A*36
$GPGGA,091857.00,4611.957598,N,01258.230492,E,1,05,3.8,140.59,M,46.25,M,,*61
$GPGLL,4611.957598,N,01258.230492,E,091857.00,A,A*66
$GPVTG,350.0,T,350.2,M,001.0,N,001.8,K,A*29
$GPGSV,2,1,07,02,36,066,44,12,48,088,45,14,21,244,39,25,79,032,44*72
$GPGSV,2,2,07,29,63,231,43,30,43,296,,31,34,310,,,,,*49
$GPGSA,M,3,02,12,14,25,29,,,,,,,,4.4,3.8,2.1*3E
Trace #38 at position 9.250000
$GPZDA,091857.03,09,10,2011,00,00*6D
$GPRMC,091857.00,A,4611.957598,N,01258.230492,E,001.0,350.0,091011,0.2,E,A*37
$GPGGA,091858.00,4611.958073,N,01258.230249,E,1,05,3.8,140.65,M,46.25,M,,*6E
$GPGLL,4611.958073,N,01258.230249,E,091858.00,A,A*66
$GPVTG,338.1,T,338.3,M,002.5,N,004.6,K,A*24
$GPGSV,2,1,07,02,36,065,44,12,48,089,45,14,21,244,38,25,79,032,44*71
$GPGSV,2,2,07,29,63,231,44,30,43,296,,31,34,310,,,,,*4E
$GPGSA,M,3,02,12,14,25,29,,,,,,,,4.4,3.8,2.1*3E
Trace #39 at position 9.500000
$GPZDA,091857.03,09,10,2011,00,00*6D
$GPRMC,091857.00,A,4611.957598,N,01258.230492,E,001.0,350.0,091011,0.2,E,A*37
$GPGGA,091858.00,4611.958073,N,01258.230249,E,1,05,3.8,140.65,M,46.25,M,,*6E
$GPGLL,4611.958073,N,01258.230249,E,091858.00,A,A*66
$GPVTG,338.1,T,338.3,M,002.5,N,004.6,K,A*24
$GPGSV,2,1,07,02,36,065,44,12,48,089,45,14,21,244,38,25,79,032,44*71
$GPGSV,2,2,07,29,63,231,44,30,43,296,,31,34,310,,,,,*4E
$GPGSA,M,3,02,12,14,25,29,,,,,,,,4.4,3.8,2.1*3E
Trace #40 at position 9.750000
$GPZDA,091857.03,09,10,2011,00,00*6D
$GPRMC,091857.00,A,4611.957598,N,01258.230492,E,001.0,350.0,091011,0.2,E,A*37
$GPGGA,091858.00,4611.958073,N,01258.230249,E,1,05,3.8,140.65,M,46.25,M,,*6E
$GPGLL,4611.958073,N,01258.230249,E,091858.00,A,A*66
$GPVTG,338.1,T,338.3,M,002.5,N,004.6,K,A*24
$GPGSV,2,1,07,02,36,065,44,12,48,089,45,14,21,244,38,25,79,032,44*71
$GPGSV,2,2,07,29,63,231,44,30,43,296,,31,34,310,,,,,*4E
$GPGSA,M,3,02,12,14,25,29,,,,,,,,4.4,3.8,2.1*3E
Trace #41 at position 10.000000
$GPZDA,091857.03,09,10,2011,00,00*6D
$GPRMC,091857.00,A,4611.957598,N,01258.230492,E,001.0,350.0,091011,0.2,E,A*37
$GPGGA,091858.00,4611.958073,N,01258.230249,E,1,05,3.8,140.65,M,46.25,M,,*6E
$GPGLL,4611.958073,N,01258.230249,E,091858.00,A,A*66
$GPVTG,338.1,T,338.3,M,002.5,N,004.6,K,A*24
$GPGSV,2,1,07,02,36,065,44,12,48,089,45,14,21,244,38,25,79,032,44*71
$GPGSV,2,2,07,29,63,231,44,30,43,296,,31,34,310,,,,,*4E
$GPGSA,M,3,02,12,14,25,29,,,,,,,,4.4,3.8,2.1*3E
Trace #42 at position 10.250000
$GPZDA,091857.03,09,10,2011,00,00*6D
$GPRMC,091857.00,A,4611.957598,N,01258.230492,E,001.0,350.0,091011,0.2,E,A*37
$GPGGA,091858.00,4611.958073,N,01258.230249,E,1,05,3.8,140.65,M,46.25,M,,*6E
$GPGLL,4611.958073,N,01258.230249,E,091858.00,A,A*66
$GPVTG,338.1,T,338.3,M,002.5,N,004.6,K,A*24
$GPGSV,2,1,07,02,36,065,44,12,48,089,45,14,21,244,38,25,79,032,44*71
$GPGSV,2,2,07,29,63,231,44,30,43,296,,31,34,310,,,,,*4E
$GPGSA,M,3,02,12,14,25,29,,,,,,,,4.4,3.8,2.1*3E
Trace #43 at position 10.500000
$GPZDA,091858.04,09,10,2011,00,00*65
$GPRMC,091858.00,A,4611.958073,N,01258.230249,E,002.5,338.1,091011,0.2,E,A*3E
$GPGGA,091859.00,4611.958575,N,01258.229926,E,1,05,3.8,140.59,M,46.25,M,,*69
$GPGLL,4611.958575,N,01258.229926,E,091859.00,A,A*6E
$GPVTG,330.9,T,331.0,M,001.3,N,002.4,K,A*2F
$GPGSV,2,1,07,02,36,065,45,12,48,089,45,14,21,244,38,25,79,032,45*71
$GPGSV,2,2,07,29,63,231,44,30,43,296,36,31,34,310,37,,,,*4F
$GPGSA,M,3,02,12,14,25,29,,,,,,,,4.4,3.8,2.1*3E
Trace #44 at position 10.750000
$GPZDA,091858.04,09,10,2011,00,00*65
$GPRMC,091858.00,A,4611.958073,N,01258.230249,E,002.5,338.1,091011,0.2,E,A*3E
$GPGGA,091859.00,4611.958575,N,01258.229926,E,1,05,3.8,140.59,M,46.25,M,,*69
$GPGLL,4611.958575,N,01258.229926,E,091859.00,A,A*6E
$GPVTG,330.9,T,331.0,M,001.3,N,002.4,K,A*2F
$GPGSV,2,1,07,02,36,065,45,12,48,089,45,14,21,244,38,25,79,032,45*71
$GPGSV,2,2,07,29,63,231,44,30,43,296,36,31,34,310,37,,,,*4F
$GPGSA,M,3,02,12,14,25,29,,,,,,,,4.4,3.8,2.1*3E
Trace #45 at position 11.000000
$GPZDA,091858.04,09,10,2011,00,00*65
$GPRMC,091858.00,A,4611.958073,N,01258.230249,E,002.5,338.1,091011,0.2,E,A*3E
$GPGGA,091859.00,4611.958575,N,01258.229926,E,1,05,3.8,140.59,M,46.25,M,,*69
$GPGLL,4611.958575,N,01258.229926,E,091859.00,A,A*6E
$GPVTG,330.9,T,331.0,M,001.3,N,002.4,K,A*2F
$GPGSV,2,1,07,02,36,065,45,12,48,089,45,14,21,244,38,25,79,032,45*71
$GPGSV,2,2,07,29,63,231,44,30,43,296,36,31,34,310,37,,,,*4F
$GPGSA,M,3,02,12,14,25,29,,,,,,,,4.4,3.8,2.1*3E
Trace #46 at position 11.250000
$GPZDA,091858.04,09,10,2011,00,00*65
$GPRMC,091858.00,A,4611.958073,N,01258.230249,E,002.5,338.1,091011,0.2,E,A*3E
$GPGGA,091859.00,4611.958575,N,01258.229926,E,1,05,3.8,140.59,M,46.25,M,,*69
$GPGLL,4611.958575,N,01258.229926,E,091859.00,A,A*6E
$GPVTG,330.9,T,331.0,M,001.3,N,002.4,K,A*2F
$GPGSV,2,1,07,02,36,065,45,12,48,089,45,14,21,244,38,25,79,032,45*71
$GPGSV,2,2,07,29,63,231,44,30,43,296,36,31,34,310,37,,,,*4F
$GPGSA,M,3,02,12,14,25,29,,,,,,,,4.4,3.8,2.1*3E
Trace #47 at position 11.500000
$GPZDA,091859.03,09,10,2011,00,00*63
$GPRMC,091859.00,A,4611.958575,N,01258.229926,E,001.3,330.9,091011,0.2,E,A*33
$GPGGA,091900.00,4611.959076,N,01258.229681,E,1,05,3.8,140.63,M,46.25,M,,*68
$GPGLL,4611.959076,N,01258.229681,E,091900.00,A,A*66
$GPVTG,346.6,T,346.8,M,002.3,N,004.3,K,A*2B
$GPGSV,2,1,07,02,36,065,45,12,48,089,45,14,21,244,38,25,79,032,45*71
$GPGSV,2,2,07,29,63,231,44,30,43,296,36,31,34,310,36,,,,*4E
$GPGSA,M,3,02,12,14,25,29,,,,,,,,4.4,3.8,2.1*3E
Trace #48 at position 11.750000
$GPZDA,091859.03,09,10,2011,00,00*63
$GPRMC,091859.00,A,4611.958575,N,01258.229926,E,001.3,330.9,091011,0.2,E,A*33
$GPGGA,091900.00,4611.959076,N,01258.229681,E,1,05,3.8,140.63,M,46.25,M,,*68
$GPGLL,4611.959076,N,01258.229681,E,091900.00,A,A*66
$GPVTG,346.6,T,346.8,M,002.3,N,004.3,K,A*2B
$GPGSV,2,1,07,02,36,065,45,12,48,089,45,14,21,244,38,25,79,032,45*71
$GPGSV,2,2,07,29,63,231,44,30,43,296,36,31,34,310,36,,,,*4E
$GPGSA,M,3,02,12,14,25,29,,,,,,,,4.4,3.8,2.1*3E
Trace #49 at position 12.000000
$GPZDA,091859.03,09,10,2011,00,00*63
$GPRMC,091859.00,A,4611.958575,N,01258.229926,E,001.3,330.9,091011,0.2,E,A*33
$GPGGA,091900.00,4611.959076,N,01258.229681,E,1,05,3.8,140.63,M,46.25,M,,*68
$GPGLL,4611.959076,N,01258.229681,E,091900.00,A,A*66
$GPVTG,346.6,T,346.8,M,002.3,N,004.3,K,A*2B
$GPGSV,2,1,07,02,36,065,45,12,48,089,45,14,21,244,38,25,79,032,45*71
$GPGSV,2,2,07,29,63,231,44,30,43,296,36,31,34,310,36,,,,*4E
$GPGSA,M,3,02,12,14,25,29,,,,,,,,4.4,3.8,2.1*3E
Trace #50 at position 12.250000
$GPZDA,091859.03,09,10,2011,00,00*63
$GPRMC,091859.00,A,4611.958575,N,01258.229926,E,001.3,330.9,091011,0.2,E,A*33
$GPGGA,091900.00,4611.959076,N,01258.229681,E,1,05,3.8,140.63,M,46.25,M,,*68
$GPGLL,4611.959076,N,01258.229681,E,091900.00,A,A*66
$GPVTG,346.6,T,346.8,M,002.3,N,004.3,K,A*2B
$GPGSV,2,1,07,02,36,065,45,12,48,089,45,14,21,244,38,25,79,032,45*71
$GPGSV,2,2,07,29,63,231,44,30,43,296,36,31,34,310,36,,,,*4E
$GPGSA,M,3,02,12,14,25,29,,,,,,,,4.4,3.8,2.1*3E
Trace #51 at position 12.500000
$GPZDA,091859.03,09,10,2011,00,00*63
$GPRMC,091859.00,A,4611.958575,N,01258.229926,E,001.3,330.9,091011,0.2,E,A*33
$GPGGA,091900.00,4611.959076,N,01258.229681,E,1,05,3.8,140.63,M,46.25,M,,*68
$GPGLL,4611.959076,N,01258.229681,E,091900.00,A,A*66
$GPVTG,346.6,T,346.8,M,002.3,N,004.3,K,A*2B
$GPGSV,2,1,07,02,36,065,45,12,48,089,45,14,21,244,38,25,79,032,45*71
$GPGSV,2,2,07,29,63,231,44,30,43,296,36,31,34,310,36,,,,*4E
$GPGSA,M,3,02,12,14,25,29,,,,,,,,4.4,3.8,2.1*3E
Trace #52 at position 12.750000
$GPZDA,091900.03,09,10,2011,00,00*6E
$GPRMC,091900.00,A,4611.959076,N,01258.229681,E,002.3,346.6,091011,0.2,E,A*36
$GPGGA,091901.00,4611.959695,N,01258.229459,E,1,05,3.8,140.68,M,46.25,M,,*6E
$GPGLL,4611.959695,N,01258.229459,E,091901.00,A,A*6B
$GPVTG,347.1,T,347.2,M,002.0,N,003.8,K,A*29
$GPGSV,2,1,07,02,36,065,44,12,48,089,45,14,21,244,38,25,79,032,44*71
$GPGSV,2,2,07,29,63,231,43,30,43,296,39,31,34,310,34,,,,*44
$GPGSA,M,3,02,12,14,25,29,,,,,,,,4.4,3.8,2.1*3E
Trace #53 at position 13.000000
$GPZDA,091900.03,09,10,2011,00,00*6E
$GPRMC,091900.00,A,4611.959076,N,01258.229681,E,002.3,346.6,091011,0.2,E,A*36
$GPGGA,091901.00,4611.959695,N,01258.229459,E,1,05,3.8,140.68,M,46.25,M,,*6E
$GPGLL,4611.959695,N,01258.229459,E,091901.00,A,A*6B
$GPVTG,347.1,T,347.2,M,002.0,N,003.8,K,A*29
$GPGSV,2,1,07,02,36,065,44,12,48,089,45,14,21,244,38,25,79,032,44*71
$GPGSV,2,2,07,29,63,231,43,30,43,296,39,31,34,310,34,,,,*44
$GPGSA,M,3,02,12,14,25,29,,,,,,,,4.4,3.8,2.1*3E
Trace #54 at position 13.250000
$GPZDA,091900.03,09,10,2011,00,00*6E
$GPRMC,091900.00,A,4611.959076,N,01258.229681,E,002.3,346.6,091011,0.2,E,A*36
$GPGGA,091901.00,4611.959695,N,01258.229459,E,1,05,3.8,140.68,M,46.25,M,,*6E
$GPGLL,4611.959695,N,01258.229459,E,091901.00,A,A*6B
$GPVTG,347.1,T,347.2,M,002.0,N,003.8,K,A*29
$GPGSV,2,1,07,02,36,065,44,12,48,089,45,14,21,244,38,25,79,032,44*71
$GPGSV,2,2,07,29,63,231,43,30,43,296,39,31,34,310,34,,,,*44
$GPGSA,M,3,02,12,14,25,29,,,,,,,,4.4,3.8,2.1*3E
Trace #55 at position 13.500000
$GPZDA,091900.03,09,10,2011,00,00*6E
$GPRMC,091900.00,A,4611.959076,N,01258.229681,E,002.3,346.6,091011,0.2,E,A*36
$GPGGA,091901.00,4611.959695,N,01258.229459,E,1,05,3.8,140.68,M,46.25,M,,*6E
$GPGLL,4611.959695,N,01258.229459,E,091901.00,A,A*6B
$GPVTG,347.1,T,347.2,M,002.0,N,003.8,K,A*29
$GPGSV,2,1,07,02,36,065,44,12,48,089,45,14,21,244,38,25,79,032,44*71
$GPGSV,2,2,07,29,63,231,43,30,43,296,39,31,34,310,34,,,,*44
$GPGSA,M,3,02,12,14,25,29,,,,,,,,4.4,3.8,2.1*3E
Trace #56 at position 13.750000
$GPZDA,091900.03,09,10,2011,00,00*6E
$GPRMC,091900.00,A,4611.959076,N,01258.229681,E,002.3,346.6,091011,0.2,E,A*36
$GPGGA,091901.00,4611.959695,N,01258.229459,E,1,05,3.8,140.68,M,46.25,M,,*6E
$GPGLL,4611.959695,N,01258.229459,E,091901.00,A,A*6B
$GPVTG,347.1,T,347.2,M,002.0,N,003.8,K,A*29
$GPGSV,2,1,07,02,36,065,44,12,48,089,45,14,21,244,38,25,79,032,44*71
$GPGSV,2,2,07,29,63,231,43,30,43,296,39,31,34,310,34,,,,*44
$GPGSA,M,3,02,12,14,25,29,,,,,,,,4.4,3.8,2.1*3E
Trace #57 at position 14.000000
$GPZDA,091901.03,09,10,2011,00,00*6F
$GPRMC,091901.00,A,4611.959695,N,01258.229459,E,002.0,347.1,091011,0.2,E,A*3E
$GPGGA,091902.00,4611.960341,N,01258.229139,E,1,05,3.8,140.68,M,46.25,M,,*68
$GPGLL,4611.960341,N,01258.229139,E,091902.00,A,A*6D
$GPVTG,336.3,T,336.5,M,002.7,N,005.0,K,A*25
$GPGSV,2,1,07,02,36,065,43,12,48,089,44,14,21,244,39,25,79,032,45*77
$GPGSV,2,2,07,29,63,231,44,30,43,296,38,31,34,310,36,,,,*40
$GPGSA,M,3,02,12,14,25,29,,,,,,,,4.4,3.8,2.1*3E
Trace #58 at position 14.250000
$GPZDA,091901.03,09,10,2011,00,00*6F
$GPRMC,091901.00,A,4611.959695,N,01258.229459,E,002.0,347.1,091011,0.2,E,A*3E
$GPGGA,091902.00,4611.960341,N,01258.229139,E,1,05,3.8,140.68,M,46.25,M,,*68
$GPGLL,4611.960341,N,01258.229139,E,091902.00,A,A*6D
$GPVTG,336.3,T,336.5,M,002.7,N,005.0,K,A*25
$GPGSV,2,1,07,02,36,065,43,12,48,089,44,14,21,244,39,25,79,032,45*77
$GPGSV,2,2,07,29,63,231,44,30,43,296,38,31,34,310,36,,,,*40
$GPGSA,M,3,02,12,14,25,29,,,,,,,,4.4,3.8,2.1*3E
Trace #59 at position 14.500000
$GPZDA,091901.03,09,10,2011,00,00*6F
$GPRMC,091901.00,A,4611.959695,N,01258.229459,E,002.0,347.1,091011,0.2,E,A*3E
$GPGGA,091902.00,4611.960341,N,01258.229139,E,1,05,3.8,140.68,M,46.25,M,,*68
$GPGLL,4611.960341,N,01258.229139,E,091902.00,A,A*6D
$GPVTG,336.3,T,336.5,M,002.7,N,005.0,K,A*25
$GPGSV,2,1,07,02,36,065,43,12,48,089,44,14,21,244,39,25,79,032,45*77
$GPGSV,2,2,07,29,63,231,44,30,43,296,38,31,34,310,36,,,,*40
$GPGSA,M,3,02,12,14,25,29,,,,,,,,4.4,3.8,2.1*3E
Trace #60 at position 14.750000
$GPZDA,091901.03,09,10,2011,00,00*6F
$GPRMC,091901.00,A,4611.959695,N,01258.229459,E,002.0,347.1,091011,0.2,E,A*3E
$GPGGA,091902.00,4611.960341,N,01258.229139,E,1,05,3.8,140.68,M,46.25,M,,*68
$GPGLL,4611.960341,N,01258.229139,E,091902.00,A,A*6D
$GPVTG,336.3,T,336.5,M,002.7,N,005.0,K,A*25
$GPGSV,2,1,07,02,36,065,43,12,48,089,44,14,21,244,39,25,79,032,45*77
$GPGSV,2,2,07,29,63,231,44,30,43,296,38,31,34,310,36,,,,*40
$GPGSA,M,3,02,12,14,25,29,,,,,,,,4.4,3.8,2.1*3E
Trace #61 at position 15.000000
$GPZDA,091901.03,09,10,2011,00,00*6F
$GPRMC,091901.00,A,4611.959695,N,01258.229459,E,002.0,347.1,091011,0.2,E,A*3E
$GPGGA,091902.00,4611.960341,N,01258.229139,E,1,05,3.8,140.68,M,46.25,M,,*68
$GPGLL,4611.960341,N,01258.229139,E,091902.00,A,A*6D
$GPVTG,336.3,T,336.5,M,002.7,N,005.0,K,A*25
$GPGSV,2,1,07,02,36,065,43,12,48,089,44,14,21,244,39,25,79,032,45*77
$GPGSV,2,2,07,29,63,231,44,30,43,296,38,31,34,310,36,,,,*40
$GPGSA,M,3,02,12,14,25,29,,,,,,,,4.4,3.8,2.1*3E
Trace #62 at position 15.250000
$GPZDA,091902.03,09,10,2011,00,00*6C
$GPRMC,091902.00,A,4611.960341,N,01258.229139,E,002.7,336.3,091011,0.2,E,A*3B
$GPGGA,091903.00,4611.960972,N,01258.228813,E,1,05,3.8,140.60,M,46.25,M,,*6B
$GPGLL,4611.960972,N,01258.228813,E,091903.00,A,A*66
$GPVTG,345.1,T,345.3,M,002.0,N,003.7,K,A*27
$GPGSV,2,1,07,02,36,065,44,12,48,089,45,14,21,244,36,25,79,032,44*7F
$GPGSV,2,2,07,29,63,231,44,30,43,296,34,31,34,310,36,,,,*4C
$GPGSA,M,3,02,12,14,25,29,,,,,,,,4.4,3.8,2.1*3E
Trace #63 at position 15.500000
$GPZDA,091902.03,09,10,2011,00,00*6C
$GPRMC,091902.00,A,4611.960341,N,01258.229139,E,002.7,336.3,091011,0.2,E,A*3B
$GPGGA,091903.00,4611.960972,N,01258.228813,E,1,05,3.8,140.60,M,46.25,M,,*6B
$GPGLL,4611.960972,N,01258.228813,E,091903.00,A,A*66
$GPVTG,345.1,T,345.3,M,002.0,N,003.7,K,A*27
$GPGSV,2,1,07,02,36,065,44,12,48,089,45,14,21,244,36,25,79,032,44*7F
$GPGSV,2,2,07,29,63,231,44,30,43,296,34,31,34,310,36,,,,*4C
$GPGSA,M,3,02,12,14,25,29,,,,,,,,4.4,3.8,2.1*3E
Trace #64 at position 15.750000
$GPZDA,091902.03,09,10,2011,00,00*6C
$GPRMC,091902.00,A,4611.960341,N,01258.229139,E,002.7,336.3,091011,0.2,E,A*3B
$GPGGA,091903.00,4611.960972,N,01258.228813,E,1,05,3.8,140.60,M,46.25,M,,*6B
$GPGLL,4611.960972,N,01258.228813,E,091903.00,A,A*66
$GPVTG,345.1,T,345.3,M,002.0,N,003.7,K,A*27
$GPGSV,2,1,07,02,36,065,44,12,48,089,45,14,21,244,36,25,79,032,44*7F
$GPGSV,2,2,07,29,63,231,44,30,43,296,34,31,34,310,36,,,,*4C
$GPGSA,M,3,02,12,14,25,29,,,,,,,,4.4,3.8,2.1*3E
Trace #65 at position 16.000000
$GPZDA,091902.03,09,10,2011,00,00*6C
$GPRMC,091902.00,A,4611.960341,N,01258.229139,E,002.7,336.3,091011,0.2,E,A*3B
$GPGGA,091903.00,4611.960972,N,01258.228813,E,1,05,3.8,140.60,M,46.25,M,,*6B
$GPGLL,4611.960972,N,01258.228813,E,091903.00,A,A*66
$GPVTG,345.1,T,345.3,M,002.0,N,003.7,K,A*27
$GPGSV,2,1,07,02,36,065,44,12,48,089,45,14,21,244,36,25,79,032,44*7F
$GPGSV,2,2,07,29,63,231,44,30,43,296,34,31,34,310,36,,,,*4C
$GPGSA,M,3,02,12,14,25,29,,,,,,,,4.4,3.8,2.1*3E
Trace #66 at position 16.250000
$GPZDA,091903.03,09,10,2011,00,00*6D
$GPRMC,091903.00,A,4611.960972,N,01258.228813,E,002.0,345.1,091011,0.2,E,A*31
$GPGGA,091904.00,4611.961565,N,01258.228527,E,1,05,3.8,140.53,M,46.25,M,,*6D
$GPGLL,4611.961565,N,01258.228527,E,091904.00,A,A*60
$GPVTG,337.8,T,338.0,M,002.4,N,004.5,K,A*23
$GPGSV,2,1,07,02,36,065,43,12,48,089,45,14,21,244,38,25,79,032,44*76
$GPGSV,2,2,07,29,63,231,43,30,43,296,36,31,34,310,35,,,,*4A
$GPGSA,M,3,02,12,14,25,29,,,,,,,,4.4,3.8,2.1*3E
Trace #67 at position 16.500000
$GPZDA,091903.03,09,10,2011,00,00*6D
$GPRMC,091903.00,A,4611.960972,N,01258.228813,E,002.0,345.1,091011,0.2,E,A*31
$GPGGA,091904.00,4611.961565,N,01258.228527,E,1,05,3.8,140.53,M,46.25,M,,*6D
$GPGLL,4611.961565,N,01258.228527,E,091904.00,A,A*60
$GPVTG,337.8,T,338.0,M,002.4,N,004.5,K,A*23
$GPGSV,2,1,07,02,36,065,43,12,48,089,45,14,21,244,38,25,79,032,44*76
$GPGSV,2,2,07,29,63,231,43,30,43,296,36,31,34,310,35,,,,*4A
$GPGSA,M,3,02,12,14,25,29,,,,,,,,4.4,3.8,2.1*3E
Trace #68 at position 16.750000
$GPZDA,091903.03,09,10,2011,00,00*6D
$GPRMC,091903.00,A,4611.960972,N,01258.228813,E,002.0,345.1,091011,0.2,E,A*31
$GPGGA,091904.00,4611.961565,N,01258.228527,E,1,05,3.8,140.53,M,46.25,M,,*6D
$GPGLL,4611.961565,N,01258.228527,E,091904.00,A,A*60
$GPVTG,337.8,T,338.0,M,002.4,N,004.5,K,A*23
$GPGSV,2,1,07,02,36,065,43,12,48,089,45,14,21,244,38,25,79,032,44*76
$GPGSV,2,2,07,29,63,231,43,30,43,296,36,31,34,310,35,,,,*4A
$GPGSA,M,3,02,12,14,25,29,,,,,,,,4.4,3.8,2.1*3E
Trace #69 at position 17.000000
$GPZDA,091903.03,09,10,2011,00,00*6D
$GPRMC,091903.00,A,4611.960972,N,01258.228813,E,002.0,345.1,091011,0.2,E,A*31
$GPGGA,091904.00,4611.961565,N,01258.228527,E,1,05,3.8,140.53,M,46.25,M,,*6D
$GPGLL,4611.961565,N,01258.228527,E,091904.00,A,A*60
$GPVTG,337.8,T,338.0,M,002.4,N,004.5,K,A*23
$GPGSV,2,1,07,02,36,065,43,12,48,089,45,14,21,244,38,25,79,032,44*76
$GPGSV,2,2,07,29,63,231,43,30,43,296,36,31,34,310,35,,,,*4A
$GPGSA,M,3,02,12,14,25,29,,,,,,,,4.4,3.8,2.1*3E
Trace #70 at position 17.250000
$GPZDA,091903.03,09,10,2011,00,00*6D
$GPRMC,091903.00,A,4611.960972,N,01258.228813,E,002.0,345.1,091011,0.2,E,A*31
$GPGGA,091904.00,4611.961565,N,01258.228527,E,1,05,3.8,140.53,M,46.25,M,,*6D
$GPGLL,4611.961565,N,01258.228527,E,091904.00,A,A*60
$GPVTG,337.8,T,338.0,M,002.4,N,004.5,K,A*23
$GPGSV,2,1,07,02,36,065,43,12,48,089,45,14,21,244,38,25,79,032,44*76
$GPGSV,2,2,07,29,63,231,43,30,43,296,36,31,34,310,35,,,,*4A
$GPGSA,M,3,02,12,14,25,29,,,,,,,,4.4,3.8,2.1*3E
Trace #71 at position 17.500000
$GPZDA,091904.03,09,10,2011,00,00*6A
$GPRMC,091904.00,A,4611.961565,N,01258.228527,E,002.4,337.8,091011,0.2,E,A*3F
$GPGGA,091905.00,4611.962058,N,01258.228306,E,1,05,3.8,140.56,M,46.25,M,,*64
$GPGLL,4611.962058,N,01258.228306,E,091905.00,A,A*6C
$GPVTG,349.3,T,349.5,M,001.1,N,002.1,K,A*26
$GPGSV,2,1,07,02,36,065,42,12,48,089,45,14,21,244,39,25,79,032,45*77
$GPGSV,2,2,07,29,63,231,44,30,43,296,35,31,34,310,36,,,,*4D
$GPGSA,M,3,02,12,14,25,29,,,,,,,,4.4,3.8,2.1*3E
Trace #72 at position 17.750000
$GPZDA,091904.03,09,10,2011,00,00*6A
$GPRMC,091904.00,A,4611.961565,N,01258.228527,E,002.4,337.8,091011,0.2,E,A*3F
$GPGGA,091905.00,4611.962058,N,01258.228306,E,1,05,3.8,140.56,M,46.25,M,,*64
$GPGLL,4611.962058,N,01258.228306,E,091905.00,A,A*6C
$GPVTG,349.3,T,349.5,M,001.1,N,002.1,K,A*26
$GPGSV,2,1,07,02,36,065,42,12,48,089,45,14,21,244,39,25,79,032,45*77
$GPGSV,2,2,07,29,63,231,44,30,43,296,35,31,34,310,36,,,,*4D
$GPGSA,M,3,02,12,14,25,29,,,,,,,,4.4,3.8,2.1*3E
Trace #73 at position 18.000000
$GPZDA,091904.03,09,10,2011,00,00*6A
$GPRMC,091904.00,A,4611.961565,N,01258.228527,E,002.4,337.8,091011,0.2,E,A*3F
$GPGGA,091905.00,4611.962058,N,01258.228306,E,1,05,3.8,140.56,M,46.25,M,,*64
$GPGLL,4611.962058,N,01258.228306,E,091905.00,A,A*6C
$GPVTG,349.3,T,349.5,M,001.1,N,002.1,K,A*26
$GPGSV,2,1,07,02,36,065,42,12,48,089,45,14,21,244,39,25,79,032,45*77
$GPGSV,2,2,07,29,63,231,44,30,43,296,35,31,34,310,36,,,,*4D
$GPGSA,M,3,02,12,14,25,29,,,,,,,,4.4,3.8,2.1*3E
Trace #74 at position 18.250000
$GPZDA,091904.03,09,10,2011,00,00*6A
$GPRMC,091904.00,A,4611.961565,N,01258.228527,E,002.4,337.8,091011,0.2,E,A*3F
$GPGGA,091905.00,4611.962058,N,01258.228306,E,1,05,3.8,140.56,M,46.25,M,,*64
$GPGLL,4611.962058,N,01258.228306,E,091905.00,A,A*6C
$GPVTG,349.3,T,349.5,M,001.1,N,002.1,K,A*26
$GPGSV,2,1,07,02,36,065,42,12,48,089,45,14,21,244,39,25,79,032,45*77
$GPGSV,2,2,07,29,63,231,44,30,43,296,35,31,34,310,36,,,,*4D
$GPGSA,M,3,02,12,14,25,29,,,,,,,,4.4,3.8,2.1*3E
Trace #75 at position 18.500000
$GPZDA,091904.03,09,10,2011,00,00*6A
$GPRMC,091904.00,A,4611.961565,N,01258.228527,E,002.4,337.8,091011,0.2,E,A*3F
$GPGGA,091905.00,4611.962058,N,01258.228306,E,1,05,3.8,140.56,M,46.25,M,,*64
$GPGLL,4611.962058,N,01258.228306,E,091905.00,A,A*6C
$GPVTG,349.3,T,349.5,M,001.1,N,002.1,K,A*26
$GPGSV,2,1,07,02,36,065,42,12,48,089,45,14,21,244,39,25,79,032,45*77
$GPGSV,2,2,07,29,63,231,44,30,43,296,35,31,34,310,36,,,,*4D
$GPGSA,M,3,02,12,14,25,29,,,,,,,,4.4,3.8,2.1*3E
Trace #76 at position 18.750000
$GPZDA,091905.03,09,10,2011,00,00*6B
$GPRMC,091905.00,A,4611.962058,N,01258.228306,E,001.1,349.3,091011,0.2,E,A*37
$GPGGA,091906.00,4611.962534,N,01258.228076,E,1,05,3.8,140.63,M,46.25,M,,*6A
$GPGLL,4611.962534,N,01258.228076,E,091906.00,A,A*64
$GPVTG,335.3,T,335.5,M,002.2,N,004.2,K,A*23
$GPGSV,2,1,07,02,36,065,42,12,48,089,45,14,21,244,38,25,79,033,45*77
$GPGSV,2,2,07,29,63,231,43,30,43,296,39,31,34,310,36,,,,*46
$GPGSA,M,3,02,12,14,25,29,,,,,,,,4.4,3.8,2.1*3E
Trace #77 at position 19.000000
$GPZDA,091905.03,09,10,2011,00,00*6B
$GPRMC,091905.00,A,4611.962058,N,01258.228306,E,001.1,349.3,091011,0.2,E,A*37
$GPGGA,091906.00,4611.962534,N,01258.228076,E,1,05,3.8,140.63,M,46.25,M,,*6A
$GPGLL,4611.962534,N,01258.228076,E,091906.00,A,A*64
$GPVTG,335.3,T,335.5,M,002.2,N,004.2,K,A*23
$GPGSV,2,1,07,02,36,065,42,12,48,089,45,14,21,244,38,25,79,033,45*77
$GPGSV,2,2,07,29,63,231,43,30,43,296,39,31,34,310,36,,,,*46
$GPGSA,M,3,02,12,14,25,29,,,,,,,,4.4,3.8,2.1*3E
Trace #78 at position 19.250000
$GPZDA,091905.03,09,10,2011,00,00*6B
$GPRMC,091905.00,A,4611.962058,N,01258.228306,E,001.1,349.3,091011,0.2,E,A*37
$GPGGA,091906.00,4611.962534,N,01258.228076,E,1,05,3.8,140.63,M,46.25,M,,*6A
$GPGLL,4611.962534,N,01258.228076,E,091906.00,A,A*64
$GPVTG,335.3,T,335.5,M,002.2,N,004.2,K,A*23
$GPGSV,2,1,07,02,36,065,42,12,48,089,45,14,21,244,38,25,79,033,45*77
$GPGSV,2,2,07,29,63,231,43,30,43,296,39,31,34,310,36,,,,*46
$GPGSA,M,3,02,12,14,25,29,,,,,,,,4.4,3.8,2.1*3E
Trace #79 at position 19.500000
$GPZDA,091906.03,09,10,2011,00,00*68
$GPRMC,091906.00,A,4611.962534,N,01258.228076,E,002.2,335.3,091011,0.2,E,A*34
$GPGGA,091907.00,4611.963208,N,01258.227730,E,1,05,3.8,140.65,M,46.25,M,,*6E
$GPGLL,4611.963208,N,01258.227730,E,091907.00,A,A*66
$GPVTG,341.8,T,342.0,M,002.7,N,005.0,K,A*28
$GPGSV,2,1,07,02,36,065,42,12,48,089,45,14,21,244,38,25,79,033,45*77
$GPGSV,2,2,07,29,63,231,44,30,43,296,37,31,34,310,37,,,,*4E
$GPGSA,M,3,02,12,14,25,29,,,,,,,,4.4,3.8,2.1*3E
Trace #80 at position 19.750000
$GPZDA,091906.03,09,10,2011,00,00*68
$GPRMC,091906.00,A,4611.962534,N,01258.228076,E,002.2,335.3,091011,0.2,E,A*34
$GPGGA,091907.00,4611.963208,N,01258.227730,E,1,05,3.8,140.65,M,46.25,M,,*6E
$GPGLL,4611.963208,N,01258.227730,E,091907.00,A,A*66
$GPVTG,341.8,T,342.0,M,002.7,N,005.0,K,A*28
$GPGSV,2,1,07,02,36,065,42,12,48,089,45,14,21,244,38,25,79,033,45*77
$GPGSV,2,2,07,29,63,231,44,30,43,296,37,31,34,310,37,,,,*4E
$GPGSA,M,3,02,12,14,25,29,,,,,,,,4.4,3.8,2.1*3E
Trace #81 at position 20.000000
$GPZDA,091906.03,09,10,2011,00,00*68
$GPRMC,091906.00,A,4611.962534,N,01258.228076,E,002.2,335.3,091011,0.2,E,A*34
$GPGGA,091907.00,4611.963208,N,01258.227730,E,1,05,3.8,140.65,M,46.25,M,,*6E
$GPGLL,4611.963208,N,01258.227730,E,091907.00,A,A*66
$GPVTG,341.8,T,342.0,M,002.7,N,005.0,K,A*28
$GPGSV,2,1,07,02,36,065,42,12,48,089,45,14,21,244,38,25,79,033,45*77
$GPGSV,2,2,07,29,63,231,44,30,43,296,37,31,34,310,37,,,,*4E
$GPGSA,M,3,02,12,14,25,29,,,,,,,,4.4,3.8,2.1*3E
Trace #82 at position 20.250000
$GPZDA,091906.03,09,10,2011,00,00*68
$GPRMC,091906.00,A,4611.962534,N,01258.228076,E,002.2,335.3,091011,0.2,E,A*34
$GPGGA,091907.00,4611.963208,N,01258.227730,E,1,05,3.8,140.65,M,46.25,M,,*6E
$GPGLL,4611.963208,N,01258.227730,E,091907.00,A,A*66
$GPVTG,341.8,T,342.0,M,002.7,N,005.0,K,A*28
$GPGSV,2,1,07,02,36,065,42,12,48,089,45,14,21,244,38,25,79,033,45*77
$GPGSV,2,2,07,29,63,231,44,30,43,296,37,31,34,310,37,,,,*4E
$GPGSA,M,3,02,12,14,25,29,,,,,,,,4.4,3.8,2.1*3E
Trace #83 at position 20.500000
$GPZDA,091907.03,09,10,2011,00,00*69
$GPRMC,091907.00,A,4611.963208,N,01258.227730,E,002.7,341.8,091011,0.2,E,A*3B
$GPGGA,091908.00,4611.963784,N,01258.227514,E,1,05,3.8,140.74,M,46.25,M,,*64
$GPGLL,4611.963784,N,01258.227514,E,091908.00,A,A*6C
$GPVTG,349.6,T,349.7,M,001.4,N,002.5,K,A*20
$GPGSV,2,1,07,02,36,065,42,12,48,089,45,14,21,244,38,25,79,033,45*77
$GPGSV,2,2,07,29,63,231,43,30,43,296,,31,35,310,37,,,,*4C
$GPGSA,M,3,02,12,14,25,29,,,,,,,,4.4,3.8,2.1*3E
Trace #84 at position 20.750000
$GPZDA,091907.03,09,10,2011,00,00*69
$GPRMC,091907.00,A,4611.963208,N,01258.227730,E,002.7,341.8,091011,0.2,E,A*3B
$GPGGA,091908.00,4611.963784,N,01258.227514,E,1,05,3.8,140.74,M,46.25,M,,*64
$GPGLL,4611.963784,N,01258.227514,E,091908.00,A,A*6C
$GPVTG,349.6,T,349.7,M,001.4,N,002.5,K,A*20
$GPGSV,2,1,07,02,36,065,42,12,48,089,45,14,21,244,38,25,79,033,45*77
$GPGSV,2,2,07,29,63,231,43,30,43,296,,31,35,310,37,,,,*4C
$GPGSA,M,3,02,12,14,25,29,,,,,,,,4.4,3.8,2.1*3E
Trace #85 at position 21.000000
$GPZDA,091907.03,09,10,2011,00,00*69
$GPRMC,091907.00,A,4611.963208,N,01258.227730,E,002.7,341.8,091011,0.2,E,A*3B
$GPGGA,091908.00,4611.963784,N,01258.227514,E,1,05,3.8,140.74,M,46.25,M,,*64
$GPGLL,4611.963784,N,01258.227514,E,091908.00,A,A*6C
$GPVTG,349.6,T,349.7,M,001.4,N,002.5,K,A*20
$GPGSV,2,1,07,02,36,065,42,12,48,089,45,14,21,244,38,25,79,033,45*77
$GPGSV,2,2,07,29,63,231,43,30,43,296,,31,35,310,37,,,,*4C
$GPGSA,M,3,02,12,14,25,29,,,,,,,,4.4,3.8,2.1*3E
Trace #86 at position 21.250000
$GPZDA,091907.03,09,10,2011,00,00*69
$GPRMC,091907.00,A,4611.963208,N,01258.227730,E,002.7,341.8,091011,0.2,E,A*3B
$GPGGA,091908.00,4611.963784,N,01258.227514,E,1,05,3.8,140.74,M,46.25,M,,*64
$GPGLL,4611.963784,N,01258.227514,E,091908.00,A,A*6C
$GPVTG,349.6,T,349.7,M,001.4,N,002.5,K,A*20
$GPGSV,2,1,07,02,36,065,42,12,48,089,45,14,21,244,38,25,79,033,45*77
$GPGSV,2,2,07,29,63,231,43,30,43,296,,31,35,310,37,,,,*4C
$GPGSA,M,3,02,12,14,25,29,,,,,,,,4.4,3.8,2.1*3E
Trace #87 at position 21.500000
$GPZDA,091908.03,09,10,2011,00,00*66
$GPRMC,091908.00,A,4611.963784,N,01258.227514,E,001.4,349.6,091011,0.2,E,A*37
$GPGGA,091909.00,4611.964342,N,01258.227266,E,1,05,3.8,140.85,M,46.25,M,,*60
$GPGLL,4611.964342,N,01258.227266,E,091909.00,A,A*66
$GPVTG,337.8,T,338.0,M,002.7,N,005.1,K,A*25
$GPGSV,2,1,07,02,36,065,44,12,48,089,45,14,21,244,39,25,79,033,46*73
$GPGSV,2,2,07,29,63,231,43,30,43,296,33,31,35,310,33,,,,*48
$GPGSA,M,3,02,12,14,25,29,,,,,,,,4.4,3.8,2.1*3E
Trace #88 at position 21.750000
$GPZDA,091908.03,09,10,2011,00,00*66
$GPRMC,091908.00,A,4611.963784,N,01258.227514,E,001.4,349.6,091011,0.2,E,A*37
$GPGGA,091909.00,4611.964342,N,01258.227266,E,1,05,3.8,140.85,M,46.25,M,,*60
$GPGLL,4611.964342,N,01258.227266,E,091909.00,A,A*66
$GPVTG,337.8,T,338.0,M,002.7,N,005.1,K,A*25
$GPGSV,2,1,07,02,36,065,44,12,48,089,45,14,21,244,39,25,79,033,46*73
$GPGSV,2,2,07,29,63,231,43,30,43,296,33,31,35,310,33,,,,*48
$GPGSA,M,3,02,12,14,25,29,,,,,,,,4.4,3.8,2.1*3E
Trace #89 at position 22.000000
$GPZDA,091908.03,09,10,2011,00,00*66
$GPRMC,091908.00,A,4611.963784,N,01258.227514,E,001.4,349.6,091011,0.2,E,A*37
$GPGGA,091909.00,4611.964342,N,01258.227266,E,1,05,3.8,140.85,M,46.25,M,,*60
$GPGLL,4611.964342,N,01258.227266,E,091909.00,A,A*66
$GPVTG,337.8,T,338.0,M,002.7,N,005.1,K,A*25
$GPGSV,2,1,07,02,36,065,44,12,48,089,45,14,21,244,39,25,79,033,46*73
$GPGSV,2,2,07,29,63,231,43,30,43,296,33,31,35,310,33,,,,*48
$GPGSA,M,3,02,12,14,25,29,,,,,,,,4.4,3.8,2.1*3E
Trace #90 at position 22.250000
$GPZDA,091908.03,09,10,2011,00,00*66
$GPRMC,091908.00,A,4611.963784,N,01258.227514,E,001.4,349.6,091011,0.2,E,A*37
$GPGGA,091909.00,4611.964342,N,01258.227266,E,1,05,3.8,140.85,M,46.25,M,,*60
$GPGLL,4611.964342,N,01258.227266,E,091909.00,A,A*66
$GPVTG,337.8,T,338.0,M,002.7,N,005.1,K,A*25
$GPGSV,2,1,07,02,36,065,44,12,48,089,45,14,21,244,39,25,79,033,46*73
$GPGSV,2,2,07,29,63,231,43,30,43,296,33,31,35,310,33,,,,*48
$GPGSA,M,3,02,12,14,25,29,,,,,,,,4.4,3.8,2.1*3E
Trace #91 at position 22.500000
$GPZDA,091909.03,09,10,2011,00,00*67
$GPRMC,091909.00,A,4611.964342,N,01258.227266,E,002.7,337.8,091011,0.2,E,A*3A
$GPGGA,091910.00,4611.965007,N,01258.226895,E,1,05,3.8,140.90,M,46.25,M,,*68
$GPGLL,4611.965007,N,01258.226895,E,091910.00,A,A*6A
$GPVTG,336.2,T,336.3,M,002.4,N,004.5,K,A*25
$GPGSV,2,1,07,02,36,065,43,12,48,089,45,14,21,244,40,25,79,033,45*79
$GPGSV,2,2,07,29,63,231,45,30,43,296,32,31,35,310,29,,,,*44
$GPGSA,M,3,02,12,14,25,29,,,,,,,,4.4,3.8,2.1*3E
Trace #92 at position 22.750000
$GPZDA,091909.03,09,10,2011,00,00*67
$GPRMC,091909.00,A,4611.964342,N,01258.227266,E,002.7,337.8,091011,0.2,E,A*3A
$GPGGA,091910.00,4611.965007,N,01258.226895,E,1,05,3.8,140.90,M,46.25,M,,*68
$GPGLL,4611.965007,N,01258.226895,E,091910.00,A,A*6A
$GPVTG,336.2,T,336.3,M,002.4,N,004.5,K,A*25
$GPGSV,2,1,07,02,36,065,43,12,48,089,45,14,21,244,40,25,79,033,45*79
$GPGSV,2,2,07,29,63,231,45,30,43,296,32,31,35,310,29,,,,*44
$GPGSA,M,3,02,12,14,25,29,,,,,,,,4.4,3.8,2.1*3E
Trace #93 at position 23.000000
$GPZDA,091909.03,09,10,2011,00,00*67
$GPRMC,091909.00,A,4611.964342,N,01258.227266,E,002.7,337.8,091011,0.2,E,A*3A
$GPGGA,091910.00,4611.965007,N,01258.226895,E,1,05,3.8,140.90,M,46.25,M,,*68
$GPGLL,4611.965007,N,01258.226895,E,091910.00,A,A*6A
$GPVTG,336.2,T,336.3,M,002.4,N,004.5,K,A*25
$GPGSV,2,1,07,02,36,065,43,12,48,089,45,14,21,244,40,25,79,033,45*79
$GPGSV,2,2,07,29,63,231,45,30,43,296,32,31,35,310,29,,,,*44
$GPGSA,M,3,02,12,14,25,29,,,,,,,,4.4,3.8,2.1*3E
Trace #94 at position 23.250000
$GPZDA,091910.03,09,10,2011,00,00*6F
$GPRMC,091910.00,A,4611.965007,N,01258.226895,E,002.4,336.2,091011,0.2,E,A*3E
$GPGGA,091911.00,4611.965542,N,01258.226643,E,1,05,3.8,140.91,M,46.25,M,,*69
$GPGLL,4611.965542,N,01258.226643,E,091911.00,A,A*6A
$GPVTG,343.8,T,344.0,M,001.7,N,003.1,K,A*28
$GPGSV,2,1,07,02,36,065,43,12,48,089,45,14,21,244,40,25,79,033,46*7A
$GPGSV,2,2,07,29,63,231,45,30,43,296,25,31,35,310,30,,,,*4A
$GPGSA,M,3,02,12,14,25,29,,,,,,,,4.4,3.8,2.1*3E
Trace #95 at position 23.500000
$GPZDA,091910.03,09,10,2011,00,00*6F
$GPRMC,091910.00,A,4611.965007,N,01258.226895,E,002.4,336.2,091011,0.2,E,A*3E
$GPGGA,091911.00,4611.965542,N,01258.226643,E,1,05,3.8,140.91,M,46.25,M,,*69
$GPGLL,4611.965542,N,01258.226643,E,091911.00,A,A*6A
$GPVTG,343.8,T,344.0,M,001.7,N,003.1,K,A*28
$GPGSV,2,1,07,02,36,065,43,12,48,089,45,14,21,244,40,25,79,033,46*7A
$GPGSV,2,2,07,29,63,231,45,30,43,296,25,31,35,310,30,,,,*4A
$GPGSA,M,3,02,12,14,25,29,,,,,,,,4.4,3.8,2.1*3E
Trace #96 at position 23.750000
$GPZDA,091910.03,09,10,2011,00,00*6F
$GPRMC,091910.00,A,4611.965007,N,01258.226895,E,002.4,336.2,091011,0.2,E,A*3E
$GPGGA,091911.00,4611.965542,N,01258.226643,E,1,05,3.8,140.91,M,46.25,M,,*69
$GPGLL,4611.965542,N,01258.226643,E,091911.00,A,A*6A
$GPVTG,343.8,T,344.0,M,001.7,N,003.1,K,A*28
$GPGSV,2,1,07,02,36,065,43,12,48,089,45,14,21,244,40,25,79,033,46*7A
$GPGSV,2,2,07,29,63,231,45,30,43,296,25,31,35,310,30,,,,*4A
$GPGSA,M,3,02,12,14,25,29,,,,,,,,4.4,3.8,2.1*3E
Trace #97 at position 24.000000
$GPZDA,091910.03,09,10,2011,00,00*6F
$GPRMC,091910.00,A,4611.965007,N,01258.226895,E,002.4,336.2,091011,0.2,E,A*3E
$GPGGA,091911.00,4611.965542,N,01258.226643,E,1,05,3.8,140.91,M,46.25,M,,*69
$GPGLL,4611.965542,N,01258.226643,E,091911.00,A,A*6A
$GPVTG,343.8,T,344.0,M,001.7,N,003.1,K,A*28
$GPGSV,2,1,07,02,36,065,43,12,48,089,45,14,21,244,40,25,79,033,46*7A
$GPGSV,2,2,07,29,63,231,45,30,43,296,25,31,35,310,30,,,,*4A
$GPGSA,M,3,02,12,14,25,29,,,,,,,,4.4,3.8,2.1*3E
Trace #98 at position 24.250000
$GPZDA,091911.03,09,10,2011,00,00*6E
$GPRMC,091911.00,A,4611.965542,N,01258.226643,E,001.7,343.8,091011,0.2,E,A*36
$GPGGA,091912.00,4611.966006,N,01258.226494,E,1,05,3.8,140.91,M,46.25,M,,*64
$GPGLL,4611.966006,N,01258.226494,E,091912.00,A,A*67
$GPVTG,346.5,T,346.7,M,001.8,N,003.3,K,A*28
$GPGSV,2,1,07,02,36,065,42,12,48,089,44,14,21,244,40,25,79,033,47*7B
$GPGSV,2,2,07,29,63,231,44,30,43,296,26,31,35,310,30,,,,*48
$GPGSA,M,3,02,12,14,25,29,,,,,,,,4.4,3.8,2.1*3E
Trace #99 at position 24.500000
$GPZDA,091911.03,09,10,2011,00,00*6E
$GPRMC,091911.00,A,4611.965542,N,01258.226643,E,001.7,343.8,091011,0.2,E,A*36
$GPGGA,091912.00,4611.966006,N,01258.226494,E,1,05,3.8,140.91,M,46.25,M,,*64
$GPGLL,4611.966006,N,01258.226494,E,091912.00,A,A*67
$GPVTG,346.5,T,346.7,M,001.8,N,003.3,K,A*28
$GPGSV,2,1,07,02,36,065,42,12,48,089,44,14,21,244,40,25,79,033,47*7B
$GPGSV,2,2,07,29,63,231,44,30,43,296,26,31,35,310,30,,,,*48
$GPGSA,M,3,02,12,14,25,29,,,,,,,,4.4,3.8,2.1*3E
Trace #100 at position 24.750000
$GPZDA,091912.03,09,10,2011,00,00*6D
$GPRMC,091912.00,A,4611.966006,N,01258.226494,E,001.8,346.5,091011,0.2,E,A*3C
$GPGGA,091913.00,4611.966424,N,01258.226372,E,1,05,3.8,140.92,M,46.25,M,,*6D
$GPGLL,4611.966424,N,01258.226372,E,091913.00,A,A*6D
$GPVTG,347.1,T,347.2,M,001.3,N,002.4,K,A*24
$GPGSV,2,1,07,02,36,065,44,12,48,089,44,14,21,244,39,25,79,033,46*72
$GPGSV,2,2,07,29,63,231,44,30,43,296,,31,35,310,27,,,,*4A
$GPGSA,M,3,02,12,14,25,29,,,,,,,,4.4,3.8,2.1*3E
Trace #101 at position 25.000000
$GPZDA,091914.03,09,10,2011,00,00*6B
$GPRMC,091914.00,A,4611.966718,N,01258.226270,E,000.8,341.3,091011,0.2,E,A*3E
$GPGGA,091915.00,4611.966806,N,01258.226268,E,1,05,3.8,140.90,M,46.25,M,,*6F
$GPGLL,4611.966806,N,01258.226268,E,091915.00,A,A*6D
$GPVTG,133.1,T,133.3,M,000.3,N,000.6,K,A*24
$GPGSV,2,1,07,02,36,065,43,12,48,089,44,14,21,244,39,25,79,033,45*76
$GPGSV,2,2,07,29,63,231,44,30,43,296,32,31,35,310,,,,,*4E
$GPGSA,M,3,02,12,14,25,29,,,,,,,,4.4,3.8,2.1*3E
Trace #102 at position 25.250000
$GPZDA,091914.03,09,10,2011,00,00*6B
$GPRMC,091914.00,A,4611.966718,N,01258.226270,E,000.8,341.3,091011,0.2,E,A*3E
$GPGGA,091915.00,4611.966806,N,01258.226268,E,1,05,3.8,140.90,M,46.25,M,,*6F
$GPGLL,4611.966806,N,01258.226268,E,091915.00,A,A*6D
$GPVTG,133.1,T,133.3,M,000.3,N,000.6,K,A*24
$GPGSV,2,1,07,02,36,065,43,12,48,089,44,14,21,244,39,25,79,033,45*76
$GPGSV,2,2,07,29,63,231,44,30,43,296,32,31,35,310,,,,,*4E
$GPGSA,M,3,02,12,14,25,29,,,,,,,,4.4,3.8,2.1*3E
Trace #103 at position 25.500000
$GPZDA,091915.03,09,10,2011,00,00*6A
$GPRMC,091915.00,A,4611.966806,N,01258.226268,E,000.3,133.1,091011,0.2,E,A*38
$GPGGA,091916.00,4611.966794,N,01258.226274,E,1,04,4.4,140.68,M,46.25,M,,*68
$GPGLL,4611.966794,N,01258.226274,E,091916.00,A,A*67
$GPVTG,148.2,T,148.4,M,000.2,N,000.3,K,A*24
$GPGSV,2,1,07,02,36,065,42,12,48,089,42,14,20,244,34,25,79,033,44*7C
$GPGSV,2,2,07,29,63,231,43,30,43,296,,31,35,310,,,,,*48
$GPGSA,M,3,02,12,25,29,,,,,,,,,7.2,4.4,5.8*3B
Trace #104 at position 25.750000
$GPZDA,091915.03,09,10,2011,00,00*6A
$GPRMC,091915.00,A,4611.966806,N,01258.226268,E,000.3,133.1,091011,0.2,E,A*38
$GPGGA,091916.00,4611.966794,N,01258.226274,E,1,04,4.4,140.68,M,46.25,M,,*68
$GPGLL,4611.966794,N,01258.226274,E,091916.00,A,A*67
$GPVTG,148.2,T,148.4,M,000.2,N,000.3,K,A*24
$GPGSV,2,1,07,02,36,065,42,12,48,089,42,14,20,244,34,25,79,033,44*7C
$GPGSV,2,2,07,29,63,231,43,30,43,296,,31,35,310,,,,,*48
$GPGSA,M,3,02,12,25,29,,,,,,,,,7.2,4.4,5.8*3B
Trace #105 at position 26.000000
$GPZDA,091915.03,09,10,2011,00,00*6A
$GPRMC,091915.00,A,4611.966806,N,01258.226268,E,000.3,133.1,091011,0.2,E,A*38
$GPGGA,091916.00,4611.966794,N,01258.226274,E,1,04,4.4,140.68,M,46.25,M,,*68
$GPGLL,4611.966794,N,01258.226274,E,091916.00,A,A*67
$GPVTG,148.2,T,148.4,M,000.2,N,000.3,K,A*24
$GPGSV,2,1,07,02,36,065,42,12,48,089,42,14,20,244,34,25,79,033,44*7C
$GPGSV,2,2,07,29,63,231,43,30,43,296,,31,35,310,,,,,*48
$GPGSA,M,3,02,12,25,29,,,,,,,,,7.2,4.4,5.8*3B
Trace #106 at position 26.250000
$GPZDA,091916.03,09,10,2011,00,00*69
$GPRMC,091916.00,A,4611.966794,N,01258.226274,E,000.2,148.2,091011,0.2,E,A*3C
$GPGGA,091917.00,4611.966938,N,01258.226246,E,1,05,3.8,140.72,M,46.25,M,,*61
$GPGLL,4611.966938,N,01258.226246,E,091917.00,A,A*6F
$GPVTG,348.8,T,349.0,M,001.1,N,002.1,K,A*29
$GPGSV,2,1,07,02,36,065,43,12,48,089,44,14,20,244,39,25,79,033,45*77
$GPGSV,2,2,07,29,63,231,44,30,43,296,36,31,35,310,,,,,*4A
$GPGSA,M,3,02,12,14,25,29,,,,,,,,4.4,3.8,2.1*3E
Trace #107 at position 26.500000
$GPZDA,091916.03,09,10,2011,00,00*69
$GPRMC,091916.00,A,4611.966794,N,01258.226274,E,000.2,148.2,091011,0.2,E,A*3C
$GPGGA,091917.00,4611.966938,N,01258.226246,E,1,05,3.8,140.72,M,46.25,M,,*61
$GPGLL,4611.966938,N,01258.226246,E,091917.00,A,A*6F
$GPVTG,348.8,T,349.0,M,001.1,N,002.1,K,A*29
$GPGSV,2,1,07,02,36,065,43,12,48,089,44,14,20,244,39,25,79,033,45*77
$GPGSV,2,2,07,29,63,231,44,30,43,296,36,31,35,310,,,,,*4A
$GPGSA,M,3,02,12,14,25,29,,,,,,,,4.4,3.8,2.1*3E
Trace #108 at position 26.750000
$GPZDA,091917.03,09,10,2011,00,00*68
$GPRMC,091917.00,A,4611.966938,N,01258.226246,E,001.1,348.8,091011,0.2,E,A*3E
$GPGGA,091918.00,4611.967209,N,01258.226182,E,1,05,3.8,140.76,M,46.25,M,,*69
$GPGLL,4611.967209,N,01258.226182,E,091918.00,A,A*63
$GPVTG,0.9,T,1.1,M,000.7,N,001.2,K,A*2E
$GPGSV,2,1,07,02,36,065,43,12,48,089,44,14,20,244,38,25,79,033,46*75
$GPGSV,2,2,07,29,63,231,44,30,43,296,,31,35,310,,,,,*4F
$GPGSA,M,3,02,12,14,25,29,,,,,,,,4.4,3.8,2.1*3E
Trace #109 at position 27.000000
$GPZDA,091917.03,09,10,2011,00,00*68
$GPRMC,091917.00,A,4611.966938,N,01258.226246,E,001.1,348.8,091011,0.2,E,A*3E
$GPGGA,091918.00,4611.967209,N,01258.226182,E,1,05,3.8,140.76,M,46.25,M,,*69
$GPGLL,4611.967209,N,01258.226182,E,091918.00,A,A*63
$GPVTG,0.9,T,1.1,M,000.7,N,001.2,K,A*2E
$GPGSV,2,1,07,02,36,065,43,12,48,089,44,14,20,244,38,25,79,033,46*75
$GPGSV,2,2,07,29,63,231,44,30,43,296,,31,35,310,,,,,*4F
$GPGSA,M,3,02,12,14,25,29,,,,,,,,4.4,3.8,2.1*3E
Trace #110 at position 27.250000
$GPZDA,091918.03,09,10,2011,00,00*67
$GPRMC,091918.00,A,4611.967209,N,01258.226182,E,000.7,0.9,091011,0.2,E,A*3B
$GPGGA,091919.00,4611.967490,N,01258.226030,E,1,05,3.8,140.75,M,46.25,M,,*65
$GPGLL,4611.967490,N,01258.226030,E,091919.00,A,A*6C
$GPVTG,330.0,T,330.2,M,001.3,N,002.4,K,A*25
$GPGSV,2,1,07,02,36,065,44,12,48,089,44,14,20,244,36,25,79,033,44*7E
$GPGSV,2,2,07,29,63,231,43,30,43,296,,31,35,310,,,,,*48
$GPGSA,M,3,02,12,14,25,29,,,,,,,,4.4,3.8,2.1*3E
Trace #111 at position 27.500000
$GPZDA,091918.03,09,10,2011,00,00*67
$GPRMC,091918.00,A,4611.967209,N,01258.226182,E,000.7,0.9,091011,0.2,E,A*3B
$GPGGA,091919.00,4611.967490,N,01258.226030,E,1,05,3.8,140.75,M,46.25,M,,*65
$GPGLL,4611.967490,N,01258.226030,E,091919.00,A,A*6C
$GPVTG,330.0,T,330.2,M,001.3,N,002.4,K,A*25
$GPGSV,2,1,07,02,36,065,44,12,48,089,44,14,20,244,36,25,79,033,44*7E
$GPGSV,2,2,07,29,63,231,43,30,43,296,,31,35,310,,,,,*48
$GPGSA,M,3,02,12,14,25,29,,,,,,,,4.4,3.8,2.1*3E
Trace #112 at position 27.750000
$GPZDA,091918.03,09,10,2011,00,00*67
$GPRMC,091918.00,A,4611.967209,N,01258.226182,E,000.7,0.9,091011,0.2,E,A*3B
$GPGGA,091919.00,4611.967490,N,01258.226030,E,1,05,3.8,140.75,M,46.25,M,,*65
$GPGLL,4611.967490,N,01258.226030,E,091919.00,A,A*6C
$GPVTG,330.0,T,330.2,M,001.3,N,002.4,K,A*25
$GPGSV,2,1,07,02,36,065,44,12,48,089,44,14,20,244,36,25,79,033,44*7E
$GPGSV,2,2,07,29,63,231,43,30,43,296,,31,35,310,,,,,*48
$GPGSA,M,3,02,12,14,25,29,,,,,,,,4.4,3.8,2.1*3E
Trace #113 at position 28.000000
$GPZDA,091919.03,09,10,2011,00,00*66
$GPRMC,091919.00,A,4611.967490,N,01258.226030,E,001.3,330.0,091011,0.2,E,A*38
$GPGGA,091920.00,4611.967755,N,01258.225840,E,1,05,3.8,140.83,M,46.25,M,,*60
$GPGLL,4611.967755,N,01258.225840,E,091920.00,A,A*60
$GPVTG,338.2,T,338.3,M,000.7,N,001.2,K,A*26
$GPGSV,2,1,07,02,36,065,43,12,48,089,45,14,20,244,38,25,79,033,43*71
$GPGSV,2,2,07,29,63,231,43,30,43,296,,31,35,310,,,,,*48
$GPGSA,M,3,02,12,14,25,29,,,,,,,,4.4,3.8,2.1*3E
Trace #114 at position 28.250000
$GPZDA,091919.03,09,10,2011,00,00*66
$GPRMC,091919.00,A,4611.967490,N,01258.226030,E,001.3,330.0,091011,0.2,E,A*38
$GPGGA,091920.00,4611.967755,N,01258.225840,E,1,05,3.8,140.83,M,46.25,M,,*60
$GPGLL,4611.967755,N,01258.225840,E,091920.00,A,A*60
$GPVTG,338.2,T,338.3,M,000.7,N,001.2,K,A*26
$GPGSV,2,1,07,02,36,065,43,12,48,089,45,14,20,244,38,25,79,033,43*71
$GPGSV,2,2,07,29,63,231,43,30,43,296,,31,35,310,,,,,*48
$GPGSA,M,3,02,12,14,25,29,,,,,,,,4.4,3.8,2.1*3E
Trace #115 at position 28.500000
$GPZDA,091919.03,09,10,2011,00,00*66
$GPRMC,091919.00,A,4611.967490,N,01258.226030,E,001.3,330.0,091011,0.2,E,A*38
$GPGGA,091920.00,4611.967755,N,01258.225840,E,1,05,3.8,140.83,M,46.25,M,,*60
$GPGLL,4611.967755,N,01258.225840,E,091920.00,A,A*60
$GPVTG,338.2,T,338.3,M,000.7,N,001.2,K,A*26
$GPGSV,2,1,07,02,36,065,43,12,48,089,45,14,20,244,38,25,79,033,43*71
$GPGSV,2,2,07,29,63,231,43,30,43,296,,31,35,310,,,,,*48
$GPGSA,M,3,02,12,14,25,29,,,,,,,,4.4,3.8,2.1*3E
Trace #116 at position 28.750000
$GPZDA,091920.03,09,10,2011,00,00*6C
$GPRMC,091920.00,A,4611.967755,N,01258.225840,E,000.7,338.2,091011,0.2,E,A*3B
$GPGGA,091921.00,4611.968082,N,01258.225707,E,1,05,3.8,140.94,M,46.25,M,,*69
$GPGLL,4611.968082,N,01258.225707,E,091921.00,A,A*6F
$GPVTG,345.0,T,345.1,M,001.5,N,002.7,K,A*23
$GPGSV,2,1,07,02,36,065,43,12,48,089,44,14,20,244,38,25,79,033,44*77
$GPGSV,2,2,07,29,63,231,44,30,43,296,,31,35,310,33,,,,*4F
$GPGSA,M,3,02,12,14,25,29,,,,,,,,4.4,3.8,2.1*3E
Trace #117 at position 29.000000
$GPZDA,091920.03,09,10,2011,00,00*6C
$GPRMC,091920.00,A,4611.967755,N,01258.225840,E,000.7,338.2,091011,0.2,E,A*3B
$GPGGA,091921.00,4611.968082,N,01258.225707,E,1,05,3.8,140.94,M,46.25,M,,*69
$GPGLL,4611.968082,N,01258.225707,E,091921.00,A,A*6F
$GPVTG,345.0,T,345.1,M,001.5,N,002.7,K,A*23
$GPGSV,2,1,07,02,36,065,43,12,48,089,44,14,20,244,38,25,79,033,44*77
$GPGSV,2,2,07,29,63,231,44,30,43,296,,31,35,310,33,,,,*4F
$GPGSA,M,3,02,12,14,25,29,,,,,,,,4.4,3.8,2.1*3E
Trace #118 at position 29.250000
