Trace #1 at position 0.000000
$GPZDA,104414.03,08,10,2011,00,00*6A
$GPRMC,104414.00,A,4611.984127,N,01258.214566,E,000.2,203.6,081011,0.2,E,A*30
$GPGGA,104415.00,4611.984131,N,01258.214557,E,1,04,6.6,109.70,M,46.25,M,,*6D
$GPGLL,4611.984131,N,01258.214557,E,104415.00,A,A*66
$GPVTG,235.1,T,235.2,M,000.1,N,000.2,K,A*23
$GPGSV,2,1,07,21,35,185,39,05,16,074,35,25,51,116,30,29,77,033,44*74
$GPGSV,2,2,07,30,81,304,45,31,53,266,45,12,18,116,,,,,*49
$GPGSA,M,3,21,29,30,31,,,,,,,,,16.0,6.6,14.6*33
Trace #2 at position 0.250000
$GPZDA,104420.03,08,10,2011,00,00*6D
$GPRMC,104420.00,A,4611.984114,N,01258.214534,E,000.2,25.7,081011,0.2,E,A*07
$GPGGA,104421.00,4611.984095,N,01258.214498,E,1,05,4.7,110.19,M,46.25,M,,*62
$GPGLL,4611.984095,N,01258.214498,E,104421.00,A,A*6C
$GPVTG,338.6,T,338.7,M,000.1,N,000.1,K,A*22
$GPGSV,2,1,07,21,35,185,42,05,16,074,31,25,50,116,40,29,77,033,45*7B
$GPGSV,2,2,07,30,81,304,44,31,53,266,45,12,18,116,,,,,*48
$GPGSA,M,3,21,25,29,30,31,,,,,,,,11.7,4.7,10.7*32
Trace #3 at position 0.500000
$GPZDA,104420.03,08,10,2011,00,00*6D
$GPRMC,104420.00,A,4611.984114,N,01258.214534,E,000.2,25.7,081011,0.2,E,A*07
$GPGGA,104421.00,4611.984095,N,01258.214498,E,1,05,4.7,110.19,M,46.25,M,,*62
$GPGLL,4611.984095,N,01258.214498,E,104421.00,A,A*6C
$GPVTG,338.6,T,338.7,M,000.1,N,000.1,K,A*22
$GPGSV,2,1,07,21,35,185,42,05,16,074,31,25,50,116,40,29,77,033,45*7B
$GPGSV,2,2,07,30,81,304,44,31,53,266,45,12,18,116,,,,,*48
$GPGSA,M,3,21,25,29,30,31,,,,,,,,11.7,4.7,10.7*32
Trace #4 at position 0.750000
$GPZDA,104421.03,08,10,2011,00,00*6C
$GPRMC,104421.00,A,4611.984095,N,01258.214498,E,000.1,338.6,081011,0.2,E,A*34
$GPGGA,104422.00,4611.983919,N,01258.214498,E,1,05,4.7,110.52,M,46.25,M,,*64
$GPGLL,4611.983919,N,01258.214498,E,104422.00,A,A*65
$GPVTG,164.3,T,164.5,M,001.0,N,001.9,K,A*2C
$GPGSV,2,1,07,21,35,185,42,05,16,074,32,25,50,116,43,29,76,033,43*7C
$GPGSV,2,2,07,30,81,304,43,31,53,266,45,12,18,116,,,,,*4F
$GPGSA,M,3,21,25,29,30,31,,,,,,,,11.7,4.7,10.7*32
Trace #5 at position 1.000000
$GPZDA,104421.03,08,10,2011,00,00*6C
$GPRMC,104421.00,A,4611.984095,N,01258.214498,E,000.1,338.6,081011,0.2,E,A*34
$GPGGA,104422.00,4611.983919,N,01258.214498,E,1,05,4.7,110.52,M,46.25,M,,*64
$GPGLL,4611.983919,N,01258.214498,E,104422.00,A,A*65
$GPVTG,164.3,T,164.5,M,001.0,N,001.9,K,A*2C
$GPGSV,2,1,07,21,35,185,42,05,16,074,32,25,50,116,43,29,76,033,43*7C
$GPGSV,2,2,07,30,81,304,43,31,53,266,45,12,18,116,,,,,*4F
$GPGSA,M,3,21,25,29,30,31,,,,,,,,11.7,4.7,10.7*32
Trace #6 at position 1.250000
$GPZDA,104422.03,08,10,2011,00,00*6F
$GPRMC,104422.00,A,4611.983919,N,01258.214498,E,001.0,164.3,081011,0.2,E,A*33
$GPGGA,104423.00,4611.983626,N,01258.214567,E,1,05,4.7,110.82,M,46.25,M,,*6A
$GPGLL,4611.983626,N,01258.214567,E,104423.00,A,A*66
$GPVTG,157.7,T,157.8,M,000.8,N,001.5,K,A*20
$GPGSV,2,1,07,21,35,185,41,05,16,074,34,25,50,116,43,29,76,033,43*79
$GPGSV,2,2,07,30,81,304,42,31,53,266,44,12,18,116,,,,,*4F
$GPGSA,M,3,21,25,29,30,31,,,,,,,,11.7,4.7,10.7*32
Trace #7 at position 1.500000
$GPZDA,104422.03,08,10,2011,00,00*6F
$GPRMC,104422.00,A,4611.983919,N,01258.214498,E,001.0,164.3,081011,0.2,E,A*33
$GPGGA,104423.00,4611.983626,N,01258.214567,E,1,05,4.7,110.82,M,46.25,M,,*6A
$GPGLL,4611.983626,N,01258.214567,E,104423.00,A,A*66
$GPVTG,157.7,T,157.8,M,000.8,N,001.5,K,A*20
$GPGSV,2,1,07,21,35,185,41,05,16,074,34,25,50,116,43,29,76,033,43*79
$GPGSV,2,2,07,30,81,304,42,31,53,266,44,12,18,116,,,,,*4F
$GPGSA,M,3,21,25,29,30,31,,,,,,,,11.7,4.7,10.7*32
Trace #8 at position 1.750000
$GPZDA,104423.03,08,10,2011,00,00*6E
$GPRMC,104423.00,A,4611.983626,N,01258.214567,E,000.8,157.7,081011,0.2,E,A*3D
$GPGGA,104424.00,4611.983369,N,01258.214568,E,1,05,4.7,111.09,M,46.25,M,,*6E
$GPGLL,4611.983369,N,01258.214568,E,104424.00,A,A*60
$GPVTG,187.5,T,187.7,M,000.7,N,001.3,K,A*24
$GPGSV,2,1,07,21,35,185,41,05,16,074,33,25,50,116,43,29,76,033,44*79
$GPGSV,2,2,07,30,81,304,43,31,53,266,45,12,18,116,,,,,*4F
$GPGSA,M,3,21,25,29,30,31,,,,,,,,11.7,4.7,10.7*32
Trace #9 at position 2.000000
$GPZDA,104423.03,08,10,2011,00,00*6E
$GPRMC,104423.00,A,4611.983626,N,01258.214567,E,000.8,157.7,081011,0.2,E,A*3D
$GPGGA,104424.00,4611.983369,N,01258.214568,E,1,05,4.7,111.09,M,46.25,M,,*6E
$GPGLL,4611.983369,N,01258.214568,E,104424.00,A,A*60
$GPVTG,187.5,T,187.7,M,000.7,N,001.3,K,A*24
$GPGSV,2,1,07,21,35,185,41,05,16,074,33,25,50,116,43,29,76,033,44*79
$GPGSV,2,2,07,30,81,304,43,31,53,266,45,12,18,116,,,,,*4F
$GPGSA,M,3,21,25,29,30,31,,,,,,,,11.7,4.7,10.7*32
Trace #10 at position 2.250000
$GPZDA,104424.03,08,10,2011,00,00*69
$GPRMC,104424.00,A,4611.983369,N,01258.214568,E,000.7,187.5,081011,0.2,E,A*3B
$GPGGA,104425.00,4611.983158,N,01258.214651,E,1,05,4.7,111.31,M,46.25,M,,*6D
$GPGLL,4611.983158,N,01258.214651,E,104425.00,A,A*68
$GPVTG,119.8,T,120.0,M,000.9,N,001.6,K,A*2F
$GPGSV,2,1,07,21,35,185,42,05,16,074,31,25,50,116,43,29,76,033,44*78
$GPGSV,2,2,07,30,81,304,44,31,53,266,45,12,18,116,,,,,*48
$GPGSA,M,3,21,25,29,30,31,,,,,,,,11.7,4.7,10.7*32
Trace #11 at position 2.500000
$GPZDA,104424.03,08,10,2011,00,00*69
$GPRMC,104424.00,A,4611.983369,N,01258.214568,E,000.7,187.5,081011,0.2,E,A*3B
$GPGGA,104425.00,4611.983158,N,01258.214651,E,1,05,4.7,111.31,M,46.25,M,,*6D
$GPGLL,4611.983158,N,01258.214651,E,104425.00,A,A*68
$GPVTG,119.8,T,120.0,M,000.9,N,001.6,K,A*2F
$GPGSV,2,1,07,21,35,185,42,05,16,074,31,25,50,116,43,29,76,033,44*78
$GPGSV,2,2,07,30,81,304,44,31,53,266,45,12,18,116,,,,,*48
$GPGSA,M,3,21,25,29,30,31,,,,,,,,11.7,4.7,10.7*32
Trace #12 at position 2.750000
$GPZDA,104424.03,08,10,2011,00,00*69
$GPRMC,104424.00,A,4611.983369,N,01258.214568,E,000.7,187.5,081011,0.2,E,A*3B
$GPGGA,104425.00,4611.983158,N,01258.214651,E,1,05,4.7,111.31,M,46.25,M,,*6D
$GPGLL,4611.983158,N,01258.214651,E,104425.00,A,A*68
$GPVTG,119.8,T,120.0,M,000.9,N,001.6,K,A*2F
$GPGSV,2,1,07,21,35,185,42,05,16,074,31,25,50,116,43,29,76,033,44*78
$GPGSV,2,2,07,30,81,304,44,31,53,266,45,12,18,116,,,,,*48
$GPGSA,M,3,21,25,29,30,31,,,,,,,,11.7,4.7,10.7*32
Trace #13 at position 3.000000
$GPZDA,104425.03,08,10,2011,00,00*68
$GPRMC,104425.00,A,4611.983158,N,01258.214651,E,000.9,119.8,081011,0.2,E,A*37
$GPGGA,104426.00,4611.982912,N,01258.214800,E,1,05,4.7,111.62,M,46.25,M,,*65
$GPGLL,4611.982912,N,01258.214800,E,104426.00,A,A*66
$GPVTG,162.8,T,162.9,M,000.9,N,001.7,K,A*2D
$GPGSV,2,1,07,21,35,185,42,05,16,074,33,25,50,116,44,29,76,033,44*7D
$GPGSV,2,2,07,30,81,304,43,31,53,266,45,12,18,116,,,,,*4F
$GPGSA,M,3,21,25,29,30,31,,,,,,,,11.7,4.7,10.7*32
Trace #14 at position 3.250000
$GPZDA,104425.03,08,10,2011,00,00*68
$GPRMC,104425.00,A,4611.983158,N,01258.214651,E,000.9,119.8,081011,0.2,E,A*37
$GPGGA,104426.00,4611.982912,N,01258.214800,E,1,05,4.7,111.62,M,46.25,M,,*65
$GPGLL,4611.982912,N,01258.214800,E,104426.00,A,A*66
$GPVTG,162.8,T,162.9,M,000.9,N,001.7,K,A*2D
$GPGSV,2,1,07,21,35,185,42,05,16,074,33,25,50,116,44,29,76,033,44*7D
$GPGSV,2,2,07,30,81,304,43,31,53,266,45,12,18,116,,,,,*4F
$GPGSA,M,3,21,25,29,30,31,,,,,,,,11.7,4.7,10.7*32
Trace #15 at position 3.500000
$GPZDA,104425.03,08,10,2011,00,00*68
$GPRMC,104425.00,A,4611.983158,N,01258.214651,E,000.9,119.8,081011,0.2,E,A*37
$GPGGA,104426.00,4611.982912,N,01258.214800,E,1,05,4.7,111.62,M,46.25,M,,*65
$GPGLL,4611.982912,N,01258.214800,E,104426.00,A,A*66
$GPVTG,162.8,T,162.9,M,000.9,N,001.7,K,A*2D
$GPGSV,2,1,07,21,35,185,42,05,16,074,33,25,50,116,44,29,76,033,44*7D
$GPGSV,2,2,07,30,81,304,43,31,53,266,45,12,18,116,,,,,*4F
$GPGSA,M,3,21,25,29,30,31,,,,,,,,11.7,4.7,10.7*32
Trace #16 at position 3.750000
$GPZDA,104426.03,08,10,2011,00,00*6B
$GPRMC,104426.00,A,4611.982912,N,01258.214800,E,000.9,162.8,081011,0.2,E,A*35
$GPGGA,104427.00,4611.982510,N,01258.214938,E,1,05,4.7,111.77,M,46.25,M,,*64
$GPGLL,4611.982510,N,01258.214938,E,104427.00,A,A*63
$GPVTG,157.1,T,157.3,M,001.7,N,003.2,K,A*26
$GPGSV,2,1,07,21,35,185,43,05,16,074,34,25,50,116,43,29,76,033,44*7C
$GPGSV,2,2,07,30,81,304,43,31,53,266,45,12,18,116,,,,,*4F
$GPGSA,M,3,21,25,29,30,31,,,,,,,,11.7,4.7,10.7*32
Trace #17 at position 4.000000
$GPZDA,104427.03,08,10,2011,00,00*6A
$GPRMC,104427.00,A,4611.982510,N,01258.214938,E,001.7,157.1,081011,0.2,E,A*30
$GPGGA,104428.00,4611.982033,N,01258.214990,E,1,05,4.7,111.77,M,46.25,M,,*6D
$GPGLL,4611.982033,N,01258.214990,E,104428.00,A,A*6A
$GPVTG,187.0,T,187.1,M,001.5,N,002.8,K,A*2C
$GPGSV,2,1,07,21,35,185,44,05,16,074,,25,50,116,44,29,76,033,44*7B
$GPGSV,2,2,07,30,81,304,44,31,53,266,45,12,18,116,,,,,*48
$GPGSA,M,3,21,25,29,30,31,,,,,,,,11.7,4.7,10.7*32
Trace #18 at position 4.250000
$GPZDA,104427.03,08,10,2011,00,00*6A
$GPRMC,104427.00,A,4611.982510,N,01258.214938,E,001.7,157.1,081011,0.2,E,A*30
$GPGGA,104428.00,4611.982033,N,01258.214990,E,1,05,4.7,111.77,M,46.25,M,,*6D
$GPGLL,4611.982033,N,01258.214990,E,104428.00,A,A*6A
$GPVTG,187.0,T,187.1,M,001.5,N,002.8,K,A*2C
$GPGSV,2,1,07,21,35,185,44,05,16,074,,25,50,116,44,29,76,033,44*7B
$GPGSV,2,2,07,30,81,304,44,31,53,266,45,12,18,116,,,,,*48
$GPGSA,M,3,21,25,29,30,31,,,,,,,,11.7,4.7,10.7*32
Trace #19 at position 4.500000
$GPZDA,104428.03,08,10,2011,00,00*65
$GPRMC,104428.00,A,4611.982033,N,01258.214990,E,001.5,187.0,081011,0.2,E,A*37
$GPGGA,104429.00,4611.981700,N,01258.214960,E,1,05,4.7,111.88,M,46.25,M,,*67
$GPGLL,4611.981700,N,01258.214960,E,104429.00,A,A*60
$GPVTG,165.1,T,165.2,M,000.6,N,001.1,K,A*26
$GPGSV,2,1,07,21,35,185,45,05,16,074,33,25,50,116,44,29,76,033,45*7B
$GPGSV,2,2,07,30,81,304,44,31,53,266,45,12,18,116,,,,,*48
$GPGSA,M,3,21,25,29,30,31,,,,,,,,11.7,4.7,10.7*32
Trace #20 at position 4.750000
$GPZDA,104428.03,08,10,2011,00,00*65
$GPRMC,104428.00,A,4611.982033,N,01258.214990,E,001.5,187.0,081011,0.2,E,A*37
$GPGGA,104429.00,4611.981700,N,01258.214960,E,1,05,4.7,111.88,M,46.25,M,,*67
$GPGLL,4611.981700,N,01258.214960,E,104429.00,A,A*60
$GPVTG,165.1,T,165.2,M,000.6,N,001.1,K,A*26
$GPGSV,2,1,07,21,35,185,45,05,16,074,33,25,50,116,44,29,76,033,45*7B
$GPGSV,2,2,07,30,81,304,44,31,53,266,45,12,18,116,,,,,*48
$GPGSA,M,3,21,25,29,30,31,,,,,,,,11.7,4.7,10.7*32
Trace #21 at position 5.000000
$GPZDA,104428.03,08,10,2011,00,00*65
$GPRMC,104428.00,A,4611.982033,N,01258.214990,E,001.5,187.0,081011,0.2,E,A*37
$GPGGA,104429.00,4611.981700,N,01258.214960,E,1,05,4.7,111.88,M,46.25,M,,*67
$GPGLL,4611.981700,N,01258.214960,E,104429.00,A,A*60
$GPVTG,165.1,T,165.2,M,000.6,N,001.1,K,A*26
$GPGSV,2,1,07,21,35,185,45,05,16,074,33,25,50,116,44,29,76,033,45*7B
$GPGSV,2,2,07,30,81,304,44,31,53,266,45,12,18,116,,,,,*48
$GPGSA,M,3,21,25,29,30,31,,,,,,,,11.7,4.7,10.7*32
Trace #22 at position 5.250000
$GPZDA,104429.03,08,10,2011,00,00*64
$GPRMC,104429.00,A,4611.981700,N,01258.214960,E,000.6,165.1,081011,0.2,E,A*32
$GPGGA,104430.00,4611.981401,N,01258.215031,E,1,05,4.7,112.19,M,46.25,M,,*6A
$GPGLL,4611.981401,N,01258.215031,E,104430.00,A,A*66
$GPVTG,166.4,T,166.6,M,001.4,N,002.6,K,A*20
$GPGSV,2,1,07,21,35,185,44,05,16,074,32,25,50,116,43,29,76,034,44*7A
$GPGSV,2,2,07,30,81,304,44,31,53,266,45,12,18,116,,,,,*48
$GPGSA,M,3,21,25,29,30,31,,,,,,,,11.7,4.7,10.7*32
Trace #23 at position 5.500000
$GPZDA,104429.03,08,10,2011,00,00*64
$GPRMC,104429.00,A,4611.981700,N,01258.214960,E,000.6,165.1,081011,0.2,E,A*32
$GPGGA,104430.00,4611.981401,N,01258.215031,E,1,05,4.7,112.19,M,46.25,M,,*6A
$GPGLL,4611.981401,N,01258.215031,E,104430.00,A,A*66
$GPVTG,166.4,T,166.6,M,001.4,N,002.6,K,A*20
$GPGSV,2,1,07,21,35,185,44,05,16,074,32,25,50,116,43,29,76,034,44*7A
$GPGSV,2,2,07,30,81,304,44,31,53,266,45,12,18,116,,,,,*48
$GPGSA,M,3,21,25,29,30,31,,,,,,,,11.7,4.7,10.7*32
Trace #24 at position 5.750000
$GPZDA,104430.03,08,10,2011,00,00*6C
$GPRMC,104430.00,A,4611.981401,N,01258.215031,E,001.4,166.4,081011,0.2,E,A*31
$GPGGA,104431.00,4611.980976,N,01258.215170,E,1,05,4.7,112.66,M,46.25,M,,*6B
$GPGLL,4611.980976,N,01258.215170,E,104431.00,A,A*6F
$GPVTG,162.3,T,162.4,M,001.6,N,003.0,K,A*20
$GPGSV,2,1,07,21,35,185,44,05,16,074,34,25,50,116,43,29,76,034,43*7B
$GPGSV,2,2,07,30,81,304,43,31,53,266,45,12,18,116,,,,,*4F
$GPGSA,M,3,21,25,29,30,31,,,,,,,,11.7,4.7,10.7*32
Trace #25 at position 6.000000
$GPZDA,104430.03,08,10,2011,00,00*6C
$GPRMC,104430.00,A,4611.981401,N,01258.215031,E,001.4,166.4,081011,0.2,E,A*31
$GPGGA,104431.00,4611.980976,N,01258.215170,E,1,05,4.7,112.66,M,46.25,M,,*6B
$GPGLL,4611.980976,N,01258.215170,E,104431.00,A,A*6F
$GPVTG,162.3,T,162.4,M,001.6,N,003.0,K,A*20
$GPGSV,2,1,07,21,35,185,44,05,16,074,34,25,50,116,43,29,76,034,43*7B
$GPGSV,2,2,07,30,81,304,43,31,53,266,45,12,18,116,,,,,*4F
$GPGSA,M,3,21,25,29,30,31,,,,,,,,11.7,4.7,10.7*32
Trace #26 at position 6.250000
$GPZDA,104430.03,08,10,2011,00,00*6C
$GPRMC,104430.00,A,4611.981401,N,01258.215031,E,001.4,166.4,081011,0.2,E,A*31
$GPGGA,104431.00,4611.980976,N,01258.215170,E,1,05,4.7,112.66,M,46.25,M,,*6B
$GPGLL,4611.980976,N,01258.215170,E,104431.00,A,A*6F
$GPVTG,162.3,T,162.4,M,001.6,N,003.0,K,A*20
$GPGSV,2,1,07,21,35,185,44,05,16,074,34,25,50,116,43,29,76,034,43*7B
$GPGSV,2,2,07,30,81,304,43,31,53,266,45,12,18,116,,,,,*4F
$GPGSA,M,3,21,25,29,30,31,,,,,,,,11.7,4.7,10.7*32
Trace #27 at position 6.500000
$GPZDA,104431.03,08,10,2011,00,00*6D
$GPRMC,104431.00,A,4611.980976,N,01258.215170,E,001.6,162.3,081011,0.2,E,A*39
$GPGGA,104432.00,4611.980577,N,01258.215349,E,1,05,4.7,112.93,M,46.25,M,,*67
$GPGLL,4611.980577,N,01258.215349,E,104432.00,A,A*69
$GPVTG,155.9,T,156.0,M,001.4,N,002.6,K,A*28
$GPGSV,2,1,07,21,35,185,44,05,16,074,35,25,50,116,44,29,76,034,43*7D
$GPGSV,2,2,07,30,81,304,43,31,53,266,44,12,18,116,,,,,*4E
$GPGSA,M,3,21,25,29,30,31,,,,,,,,11.6,4.7,10.7*33
Trace #28 at position 6.750000
$GPZDA,104431.03,08,10,2011,00,00*6D
$GPRMC,104431.00,A,4611.980976,N,01258.215170,E,001.6,162.3,081011,0.2,E,A*39
$GPGGA,104432.00,4611.980577,N,01258.215349,E,1,05,4.7,112.93,M,46.25,M,,*67
$GPGLL,4611.980577,N,01258.215349,E,104432.00,A,A*69
$GPVTG,155.9,T,156.0,M,001.4,N,002.6,K,A*28
$GPGSV,2,1,07,21,35,185,44,05,16,074,35,25,50,116,44,29,76,034,43*7D
$GPGSV,2,2,07,30,81,304,43,31,53,266,44,12,18,116,,,,,*4E
$GPGSA,M,3,21,25,29,30,31,,,,,,,,11.6,4.7,10.7*33
Trace #29 at position 7.000000
$GPZDA,104432.03,08,10,2011,00,00*6E
$GPRMC,104432.00,A,4611.980577,N,01258.215349,E,001.4,155.9,081011,0.2,E,A*33
$GPGGA,104433.00,4611.980212,N,01258.215490,E,1,05,4.7,113.14,M,46.25,M,,*6F
$GPGLL,4611.980212,N,01258.215490,E,104433.00,A,A*6F
$GPVTG,166.2,T,166.4,M,001.4,N,002.5,K,A*27
$GPGSV,2,1,07,21,35,185,43,05,16,074,33,25,50,116,43,29,76,034,44*7C
$GPGSV,2,2,07,30,81,304,42,31,53,266,45,12,18,116,,,,,*4E
$GPGSA,M,3,21,25,29,30,31,,,,,,,,11.6,4.7,10.7*33
Trace #30 at position 7.250000
$GPZDA,104432.03,08,10,2011,00,00*6E
$GPRMC,104432.00,A,4611.980577,N,01258.215349,E,001.4,155.9,081011,0.2,E,A*33
$GPGGA,104433.00,4611.980212,N,01258.215490,E,1,05,4.7,113.14,M,46.25,M,,*6F
$GPGLL,4611.980212,N,01258.215490,E,104433.00,A,A*6F
$GPVTG,166.2,T,166.4,M,001.4,N,002.5,K,A*27
$GPGSV,2,1,07,21,35,185,43,05,16,074,33,25,50,116,43,29,76,034,44*7C
$GPGSV,2,2,07,30,81,304,42,31,53,266,45,12,18,116,,,,,*4E
$GPGSA,M,3,21,25,29,30,31,,,,,,,,11.6,4.7,10.7*33
Trace #31 at position 7.500000
$GPZDA,104433.03,08,10,2011,00,00*6F
$GPRMC,104433.00,A,4611.980212,N,01258.215490,E,001.4,166.2,081011,0.2,E,A*3E
$GPGGA,104434.00,4611.979836,N,01258.215509,E,1,05,4.7,113.28,M,46.25,M,,*6C
$GPGLL,4611.979836,N,01258.215509,E,104434.00,A,A*63
$GPVTG,184.3,T,184.5,M,001.4,N,002.7,K,A*25
$GPGSV,2,1,07,21,35,185,43,05,16,074,34,25,50,116,43,29,76,034,44*7B
$GPGSV,2,2,07,30,81,303,43,31,53,266,45,12,18,116,,,,,*48
$GPGSA,M,3,21,25,29,30,31,,,,,,,,11.6,4.7,10.7*33
Trace #32 at position 7.750000
$GPZDA,104433.03,08,10,2011,00,00*6F
$GPRMC,104433.00,A,4611.980212,N,01258.215490,E,001.4,166.2,081011,0.2,E,A*3E
$GPGGA,104434.00,4611.979836,N,01258.215509,E,1,05,4.7,113.28,M,46.25,M,,*6C
$GPGLL,4611.979836,N,01258.215509,E,104434.00,A,A*63
$GPVTG,184.3,T,184.5,M,001.4,N,002.7,K,A*25
$GPGSV,2,1,07,21,35,185,43,05,16,074,34,25,50,116,43,29,76,034,44*7B
$GPGSV,2,2,07,30,81,303,43,31,53,266,45,12,18,116,,,,,*48
$GPGSA,M,3,21,25,29,30,31,,,,,,,,11.6,4.7,10.7*33
Trace #33 at position 8.000000
$GPZDA,104434.03,08,10,2011,00,00*68
$GPRMC,104434.00,A,4611.979836,N,01258.215509,E,001.4,184.3,081011,0.2,E,A*3F
$GPGGA,104435.00,4611.979463,N,01258.215489,E,1,05,4.7,113.46,M,46.25,M,,*60
$GPGLL,4611.979463,N,01258.215489,E,104435.00,A,A*67
$GPVTG,178.1,T,178.3,M,001.4,N,002.6,K,A*20
$GPGSV,2,1,07,21,35,185,43,05,16,074,34,25,50,116,44,29,76,034,45*7D
$GPGSV,2,2,07,30,81,303,44,31,53,266,44,12,18,116,,,,,*4E
$GPGSA,M,3,21,25,29,30,31,,,,,,,,11.6,4.7,10.7*33
Trace #34 at position 8.250000
$GPZDA,104434.03,08,10,2011,00,00*68
$GPRMC,104434.00,A,4611.979836,N,01258.215509,E,001.4,184.3,081011,0.2,E,A*3F
$GPGGA,104435.00,4611.979463,N,01258.215489,E,1,05,4.7,113.46,M,46.25,M,,*60
$GPGLL,4611.979463,N,01258.215489,E,104435.00,A,A*67
$GPVTG,178.1,T,178.3,M,001.4,N,002.6,K,A*20
$GPGSV,2,1,07,21,35,185,43,05,16,074,34,25,50,116,44,29,76,034,45*7D
$GPGSV,2,2,07,30,81,303,44,31,53,266,44,12,18,116,,,,,*4E
$GPGSA,M,3,21,25,29,30,31,,,,,,,,11.6,4.7,10.7*33
Trace #35 at position 8.500000
$GPZDA,104435.03,08,10,2011,00,00*69
$GPRMC,104435.00,A,4611.979463,N,01258.215489,E,001.4,178.1,081011,0.2,E,A*3A
$GPGGA,104436.00,4611.979108,N,01258.215591,E,1,05,4.7,113.63,M,46.25,M,,*64
$GPGLL,4611.979108,N,01258.215591,E,104436.00,A,A*64
$GPVTG,159.5,T,159.6,M,001.5,N,002.7,K,A*21
$GPGSV,2,1,07,21,35,185,44,05,16,074,31,25,50,116,43,29,76,034,44*79
$GPGSV,2,2,07,30,81,303,44,31,53,266,45,12,18,116,,,,,*4F
$GPGSA,M,3,21,25,29,30,31,,,,,,,,11.6,4.7,10.6*32
Trace #36 at position 8.750000
$GPZDA,104435.03,08,10,2011,00,00*69
$GPRMC,104435.00,A,4611.979463,N,01258.215489,E,001.4,178.1,081011,0.2,E,A*3A
$GPGGA,104436.00,4611.979108,N,01258.215591,E,1,05,4.7,113.63,M,46.25,M,,*64
$GPGLL,4611.979108,N,01258.215591,E,104436.00,A,A*64
$GPVTG,159.5,T,159.6,M,001.5,N,002.7,K,A*21
$GPGSV,2,1,07,21,35,185,44,05,16,074,31,25,50,116,43,29,76,034,44*79
$GPGSV,2,2,07,30,81,303,44,31,53,266,45,12,18,116,,,,,*4F
$GPGSA,M,3,21,25,29,30,31,,,,,,,,11.6,4.7,10.6*32
Trace #37 at position 9.000000
$GPZDA,104436.03,08,10,2011,00,00*6A
$GPRMC,104436.00,A,4611.979108,N,01258.215591,E,001.5,159.5,081011,0.2,E,A*3F
$GPGGA,104437.00,4611.978885,N,01258.215752,E,1,05,4.7,113.70,M,46.25,M,,*67
$GPGLL,4611.978885,N,01258.215752,E,104437.00,A,A*65
$GPVTG,142.3,T,142.5,M,000.6,N,001.1,K,A*23
$GPGSV,2,1,07,21,35,185,43,05,16,074,,25,50,116,43,29,76,034,45*7D
$GPGSV,2,2,07,30,81,303,43,31,53,266,44,12,18,116,,,,,*49
$GPGSA,M,3,21,25,29,30,31,,,,,,,,11.6,4.7,10.6*32
Trace #38 at position 9.250000
$GPZDA,104436.03,08,10,2011,00,00*6A
$GPRMC,104436.00,A,4611.979108,N,01258.215591,E,001.5,159.5,081011,0.2,E,A*3F
$GPGGA,104437.00,4611.978885,N,01258.215752,E,1,05,4.7,113.70,M,46.25,M,,*67
$GPGLL,4611.978885,N,01258.215752,E,104437.00,A,A*65
$GPVTG,142.3,T,142.5,M,000.6,N,001.1,K,A*23
$GPGSV,2,1,07,21,35,185,43,05,16,074,,25,50,116,43,29,76,034,45*7D
$GPGSV,2,2,07,30,81,303,43,31,53,266,44,12,18,116,,,,,*49
$GPGSA,M,3,21,25,29,30,31,,,,,,,,11.6,4.7,10.6*32
Trace #39 at position 9.500000
$GPZDA,104437.03,08,10,2011,00,00*6B
$GPRMC,104437.00,A,4611.978885,N,01258.215752,E,000.6,142.3,081011,0.2,E,A*30
$GPGGA,104438.00,4611.978661,N,01258.215925,E,1,05,4.7,113.76,M,46.25,M,,*64
$GPGLL,4611.978661,N,01258.215925,E,104438.00,A,A*60
$GPVTG,155.9,T,156.0,M,001.5,N,002.7,K,A*28
$GPGSV,2,1,07,21,35,185,42,05,16,074,32,25,50,116,42,29,76,034,44*7D
$GPGSV,2,2,07,30,81,303,43,31,53,266,44,12,18,116,,,,,*49
$GPGSA,M,3,21,25,29,30,31,,,,,,,,11.6,4.7,10.6*32
Trace #40 at position 9.750000
$GPZDA,104437.03,08,10,2011,00,00*6B
$GPRMC,104437.00,A,4611.978885,N,01258.215752,E,000.6,142.3,081011,0.2,E,A*30
$GPGGA,104438.00,4611.978661,N,01258.215925,E,1,05,4.7,113.76,M,46.25,M,,*64
$GPGLL,4611.978661,N,01258.215925,E,104438.00,A,A*60
$GPVTG,155.9,T,156.0,M,001.5,N,002.7,K,A*28
$GPGSV,2,1,07,21,35,185,42,05,16,074,32,25,50,116,42,29,76,034,44*7D
$GPGSV,2,2,07,30,81,303,43,31,53,266,44,12,18,116,,,,,*49
$GPGSA,M,3,21,25,29,30,31,,,,,,,,11.6,4.7,10.6*32
Trace #41 at position 10.000000
$GPZDA,104438.03,08,10,2011,00,00*64
$GPRMC,104438.00,A,4611.978661,N,01258.215925,E,001.5,155.9,081011,0.2,E,A*3B
$GPGGA,104439.00,4611.978325,N,01258.216003,E,1,05,4.7,113.83,M,46.25,M,,*64
$GPGLL,4611.978325,N,01258.216003,E,104439.00,A,A*6A
$GPVTG,184.8,T,184.9,M,001.4,N,002.5,K,A*20
$GPGSV,2,1,07,21,35,185,42,05,16,074,33,25,50,116,43,29,76,034,44*7D
$GPGSV,2,2,07,30,81,303,43,31,53,266,44,12,18,116,,,,,*49
$GPGSA,M,3,21,25,29,30,31,,,,,,,,11.6,4.7,10.6*32
Trace #42 at position 10.250000
$GPZDA,104438.03,08,10,2011,00,00*64
$GPRMC,104438.00,A,4611.978661,N,01258.215925,E,001.5,155.9,081011,0.2,E,A*3B
$GPGGA,104439.00,4611.978325,N,01258.216003,E,1,05,4.7,113.83,M,46.25,M,,*64
$GPGLL,4611.978325,N,01258.216003,E,104439.00,A,A*6A
$GPVTG,184.8,T,184.9,M,001.4,N,002.5,K,A*20
$GPGSV,2,1,07,21,35,185,42,05,16,074,33,25,50,116,43,29,76,034,44*7D
$GPGSV,2,2,07,30,81,303,43,31,53,266,44,12,18,116,,,,,*49
$GPGSA,M,3,21,25,29,30,31,,,,,,,,11.6,4.7,10.6*32
Trace #43 at position 10.500000
$GPZDA,104439.03,08,10,2011,00,00*65
$GPRMC,104439.00,A,4611.978325,N,01258.216003,E,001.4,184.8,081011,0.2,E,A*3D
$GPGGA,104440.00,4611.978035,N,01258.216084,E,1,05,4.7,113.96,M,46.25,M,,*63
$GPGLL,4611.978035,N,01258.216084,E,104440.00,A,A*69
$GPVTG,152.4,T,152.5,M,001.2,N,002.2,K,A*21
$GPGSV,2,1,07,21,35,185,43,05,16,074,34,25,50,116,43,29,76,034,44*7B
$GPGSV,2,2,07,30,81,303,43,31,53,266,45,12,18,116,,,,,*48
$GPGSA,M,3,21,25,29,30,31,,,,,,,,11.6,4.7,10.6*32
Trace #44 at position 10.750000
$GPZDA,104440.03,08,10,2011,00,00*6B
$GPRMC,104440.00,A,4611.978035,N,01258.216084,E,001.2,152.4,081011,0.2,E,A*3F
$GPGGA,104441.00,4611.977766,N,01258.216295,E,1,05,4.7,114.11,M,46.25,M,,*66
$GPGLL,4611.977766,N,01258.216295,E,104441.00,A,A*64
$GPVTG,152.0,T,152.2,M,001.4,N,002.5,K,A*23
$GPGSV,2,1,07,21,35,185,42,05,16,074,33,25,50,116,43,29,76,034,44*7D
$GPGSV,2,2,07,30,81,303,43,31,53,266,45,12,18,116,,,,,*48
$GPGSA,M,3,21,25,29,30,31,,,,,,,,11.6,4.7,10.6*32
Trace #45 at position 11.000000
$GPZDA,104440.03,08,10,2011,00,00*6B
$GPRMC,104440.00,A,4611.978035,N,01258.216084,E,001.2,152.4,081011,0.2,E,A*3F
$GPGGA,104441.00,4611.977766,N,01258.216295,E,1,05,4.7,114.11,M,46.25,M,,*66
$GPGLL,4611.977766,N,01258.216295,E,104441.00,A,A*64
$GPVTG,152.0,T,152.2,M,001.4,N,002.5,K,A*23
$GPGSV,2,1,07,21,35,185,42,05,16,074,33,25,50,116,43,29,76,034,44*7D
$GPGSV,2,2,07,30,81,303,43,31,53,266,45,12,18,116,,,,,*48
$GPGSA,M,3,21,25,29,30,31,,,,,,,,11.6,4.7,10.6*32
Trace #46 at position 11.250000
$GPZDA,104441.03,08,10,2011,00,00*6A
$GPRMC,104441.00,A,4611.977766,N,01258.216295,E,001.4,152.0,081011,0.2,E,A*30
$GPGGA,104442.00,4611.977527,N,01258.216369,E,1,05,4.6,114.08,M,46.25,M,,*69
$GPGLL,4611.977527,N,01258.216369,E,104442.00,A,A*62
$GPVTG,188.5,T,188.6,M,000.8,N,001.5,K,A*2C
$GPGSV,2,1,07,21,35,185,42,05,16,074,32,25,50,116,43,29,76,034,44*7C
$GPGSV,2,2,07,30,81,303,43,31,53,266,45,12,18,116,,,,,*48
$GPGSA,M,3,21,25,29,30,31,,,,,,,,11.6,4.6,10.6*33
Trace #47 at position 11.500000
$GPZDA,104441.03,08,10,2011,00,00*6A
$GPRMC,104441.00,A,4611.977766,N,01258.216295,E,001.4,152.0,081011,0.2,E,A*30
$GPGGA,104442.00,4611.977527,N,01258.216369,E,1,05,4.6,114.08,M,46.25,M,,*69
$GPGLL,4611.977527,N,01258.216369,E,104442.00,A,A*62
$GPVTG,188.5,T,188.6,M,000.8,N,001.5,K,A*2C
$GPGSV,2,1,07,21,35,185,42,05,16,074,32,25,50,116,43,29,76,034,44*7C
$GPGSV,2,2,07,30,81,303,43,31,53,266,45,12,18,116,,,,,*48
$GPGSA,M,3,21,25,29,30,31,,,,,,,,11.6,4.6,10.6*33
Trace #48 at position 11.750000
$GPZDA,104442.03,08,10,2011,00,00*69
$GPRMC,104442.00,A,4611.977527,N,01258.216369,E,000.8,188.5,081011,0.2,E,A*39
$GPGGA,104443.00,4611.977325,N,01258.216400,E,1,05,4.6,114.11,M,46.25,M,,*6C
$GPGLL,4611.977325,N,01258.216400,E,104443.00,A,A*6F
$GPVTG,158.5,T,158.6,M,000.9,N,001.7,K,A*2F
$GPGSV,2,1,07,21,35,185,44,05,16,074,32,25,50,116,43,29,76,034,45*7B
$GPGSV,2,2,07,30,81,303,43,31,53,266,45,12,18,116,,,,,*48
$GPGSA,M,3,21,25,29,30,31,,,,,,,,11.6,4.6,10.6*33
Trace #49 at position 12.000000
$GPZDA,104442.03,08,10,2011,00,00*69
$GPRMC,104442.00,A,4611.977527,N,01258.216369,E,000.8,188.5,081011,0.2,E,A*39
$GPGGA,104443.00,4611.977325,N,01258.216400,E,1,05,4.6,114.11,M,46.25,M,,*6C
$GPGLL,4611.977325,N,01258.216400,E,104443.00,A,A*6F
$GPVTG,158.5,T,158.6,M,000.9,N,001.7,K,A*2F
$GPGSV,2,1,07,21,35,185,44,05,16,074,32,25,50,116,43,29,76,034,45*7B
$GPGSV,2,2,07,30,81,303,43,31,53,266,45,12,18,116,,,,,*48
$GPGSA,M,3,21,25,29,30,31,,,,,,,,11.6,4.6,10.6*33
Trace #50 at position 12.250000
$GPZDA,104442.03,08,10,2011,00,00*69
$GPRMC,104442.00,A,4611.977527,N,01258.216369,E,000.8,188.5,081011,0.2,E,A*39
$GPGGA,104443.00,4611.977325,N,01258.216400,E,1,05,4.6,114.11,M,46.25,M,,*6C
$GPGLL,4611.977325,N,01258.216400,E,104443.00,A,A*6F
$GPVTG,158.5,T,158.6,M,000.9,N,001.7,K,A*2F
$GPGSV,2,1,07,21,35,185,44,05,16,074,32,25,50,116,43,29,76,034,45*7B
$GPGSV,2,2,07,30,81,303,43,31,53,266,45,12,18,116,,,,,*48
$GPGSA,M,3,21,25,29,30,31,,,,,,,,11.6,4.6,10.6*33
Trace #51 at position 12.500000
$GPZDA,104443.03,08,10,2011,00,00*68
$GPRMC,104443.00,A,4611.977325,N,01258.216400,E,000.9,158.5,081011,0.2,E,A*38
$GPGGA,104444.00,4611.977124,N,01258.216410,E,1,05,4.6,114.17,M,46.25,M,,*6F
$GPGLL,4611.977124,N,01258.216410,E,104444.00,A,A*6A
$GPVTG,199.6,T,199.8,M,000.8,N,001.5,K,A*21
$GPGSV,2,1,07,21,36,185,42,05,16,074,33,25,50,116,44,29,76,034,45*78
$GPGSV,2,2,07,30,81,303,44,31,53,266,45,12,18,116,,,,,*4F
$GPGSA,M,3,21,25,29,30,31,,,,,,,,11.6,4.6,10.6*33
Trace #52 at position 12.750000
$GPZDA,104443.03,08,10,2011,00,00*68
$GPRMC,104443.00,A,4611.977325,N,01258.216400,E,000.9,158.5,081011,0.2,E,A*38
$GPGGA,104444.00,4611.977124,N,01258.216410,E,1,05,4.6,114.17,M,46.25,M,,*6F
$GPGLL,4611.977124,N,01258.216410,E,104444.00,A,A*6A
$GPVTG,199.6,T,199.8,M,000.8,N,001.5,K,A*21
$GPGSV,2,1,07,21,36,185,42,05,16,074,33,25,50,116,44,29,76,034,45*78
$GPGSV,2,2,07,30,81,303,44,31,53,266,45,12,18,116,,,,,*4F
$GPGSA,M,3,21,25,29,30,31,,,,,,,,11.6,4.6,10.6*33
Trace #53 at position 13.000000
$GPZDA,104444.03,08,10,2011,00,00*6F
$GPRMC,104444.00,A,4611.977124,N,01258.216410,E,000.8,199.6,081011,0.2,E,A*32
$GPGGA,104445.00,4611.976843,N,01258.216367,E,1,05,4.6,114.13,M,46.25,M,,*64
$GPGLL,4611.976843,N,01258.216367,E,104445.00,A,A*65
$GPVTG,181.8,T,182.0,M,001.4,N,002.6,K,A*29
$GPGSV,2,1,07,21,36,185,44,05,16,074,32,25,50,116,43,29,76,034,45*78
$GPGSV,2,2,07,30,81,303,42,31,53,266,44,12,18,116,,,,,*48
$GPGSA,M,3,21,25,29,30,31,,,,,,,,11.6,4.6,10.6*33
Trace #54 at position 13.250000
$GPZDA,104444.03,08,10,2011,00,00*6F
$GPRMC,104444.00,A,4611.977124,N,01258.216410,E,000.8,199.6,081011,0.2,E,A*32
$GPGGA,104445.00,4611.976843,N,01258.216367,E,1,05,4.6,114.13,M,46.25,M,,*64
$GPGLL,4611.976843,N,01258.216367,E,104445.00,A,A*65
$GPVTG,181.8,T,182.0,M,001.4,N,002.6,K,A*29
$GPGSV,2,1,07,21,36,185,44,05,16,074,32,25,50,116,43,29,76,034,45*78
$GPGSV,2,2,07,30,81,303,42,31,53,266,44,12,18,116,,,,,*48
$GPGSA,M,3,21,25,29,30,31,,,,,,,,11.6,4.6,10.6*33
Trace #55 at position 13.500000
$GPZDA,104444.03,08,10,2011,00,00*6F
$GPRMC,104444.00,A,4611.977124,N,01258.216410,E,000.8,199.6,081011,0.2,E,A*32
$GPGGA,104445.00,4611.976843,N,01258.216367,E,1,05,4.6,114.13,M,46.25,M,,*64
$GPGLL,4611.976843,N,01258.216367,E,104445.00,A,A*65
$GPVTG,181.8,T,182.0,M,001.4,N,002.6,K,A*29
$GPGSV,2,1,07,21,36,185,44,05,16,074,32,25,50,116,43,29,76,034,45*78
$GPGSV,2,2,07,30,81,303,42,31,53,266,44,12,18,116,,,,,*48
$GPGSA,M,3,21,25,29,30,31,,,,,,,,11.6,4.6,10.6*33
Trace #56 at position 13.750000
$GPZDA,104445.03,08,10,2011,00,00*6E
$GPRMC,104445.00,A,4611.976843,N,01258.216367,E,001.4,181.8,081011,0.2,E,A*37
$GPGGA,104446.00,4611.976509,N,01258.216399,E,1,05,4.6,114.21,M,46.25,M,,*64
$GPGLL,4611.976509,N,01258.216399,E,104446.00,A,A*64
$GPVTG,178.2,T,178.3,M,001.1,N,002.0,K,A*20
$GPGSV,2,1,07,21,36,185,41,05,16,074,33,25,50,116,43,29,76,034,44*7D
$GPGSV,2,2,07,30,81,303,43,31,53,266,44,12,18,116,,,,,*49
$GPGSA,M,3,21,25,29,30,31,,,,,,,,11.6,4.6,10.6*33
Trace #57 at position 14.000000
$GPZDA,104445.03,08,10,2011,00,00*6E
$GPRMC,104445.00,A,4611.976843,N,01258.216367,E,001.4,181.8,081011,0.2,E,A*37
$GPGGA,104446.00,4611.976509,N,01258.216399,E,1,05,4.6,114.21,M,46.25,M,,*64
$GPGLL,4611.976509,N,01258.216399,E,104446.00,A,A*64
$GPVTG,178.2,T,178.3,M,001.1,N,002.0,K,A*20
$GPGSV,2,1,07,21,36,185,41,05,16,074,33,25,50,116,43,29,76,034,44*7D
$GPGSV,2,2,07,30,81,303,43,31,53,266,44,12,18,116,,,,,*49
$GPGSA,M,3,21,25,29,30,31,,,,,,,,11.6,4.6,10.6*33
Trace #58 at position 14.250000
$GPZDA,104446.03,08,10,2011,00,00*6D
$GPRMC,104446.00,A,4611.976509,N,01258.216399,E,001.1,178.2,081011,0.2,E,A*3F
$GPGGA,104447.00,4611.976197,N,01258.216458,E,1,05,4.6,114.30,M,46.25,M,,*6C
$GPGLL,4611.976197,N,01258.216458,E,104447.00,A,A*6C
$GPVTG,176.7,T,176.9,M,001.2,N,002.2,K,A*2E
$GPGSV,2,1,07,21,36,185,41,05,16,074,31,25,50,116,43,29,76,034,44*7F
$GPGSV,2,2,07,30,81,303,43,31,53,266,44,12,18,116,,,,,*49
$GPGSA,M,3,21,25,29,30,31,,,,,,,,11.6,4.6,10.6*33
Trace #59 at position 14.500000
$GPZDA,104446.03,08,10,2011,00,00*6D
$GPRMC,104446.00,A,4611.976509,N,01258.216399,E,001.1,178.2,081011,0.2,E,A*3F
$GPGGA,104447.00,4611.976197,N,01258.216458,E,1,05,4.6,114.30,M,46.25,M,,*6C
$GPGLL,4611.976197,N,01258.216458,E,104447.00,A,A*6C
$GPVTG,176.7,T,176.9,M,001.2,N,002.2,K,A*2E
$GPGSV,2,1,07,21,36,185,41,05,16,074,31,25,50,116,43,29,76,034,44*7F
$GPGSV,2,2,07,30,81,303,43,31,53,266,44,12,18,116,,,,,*49
$GPGSA,M,3,21,25,29,30,31,,,,,,,,11.6,4.6,10.6*33
Trace #60 at position 14.750000
$GPZDA,104447.03,08,10,2011,00,00*6C
$GPRMC,104447.00,A,4611.976197,N,01258.216458,E,001.2,176.7,081011,0.2,E,A*3F
$GPGGA,104448.00,4611.975928,N,01258.216712,E,1,05,4.6,114.19,M,46.25,M,,*6A
$GPGLL,4611.975928,N,01258.216712,E,104448.00,A,A*61
$GPVTG,125.0,T,125.1,M,001.3,N,002.4,K,A*26
$GPGSV,2,1,07,21,36,185,41,05,16,074,,25,50,116,44,29,76,034,44*7A
$GPGSV,2,2,07,30,81,303,43,31,53,266,45,12,18,116,,,,,*48
$GPGSA,M,3,21,25,29,30,31,,,,,,,,11.5,4.6,10.6*30
Trace #61 at position 15.000000
$GPZDA,104447.03,08,10,2011,00,00*6C
$GPRMC,104447.00,A,4611.976197,N,01258.216458,E,001.2,176.7,081011,0.2,E,A*3F
$GPGGA,104448.00,4611.975928,N,01258.216712,E,1,05,4.6,114.19,M,46.25,M,,*6A
$GPGLL,4611.975928,N,01258.216712,E,104448.00,A,A*61
$GPVTG,125.0,T,125.1,M,001.3,N,002.4,K,A*26
$GPGSV,2,1,07,21,36,185,41,05,16,074,,25,50,116,44,29,76,034,44*7A
$GPGSV,2,2,07,30,81,303,43,31,53,266,45,12,18,116,,,,,*48
$GPGSA,M,3,21,25,29,30,31,,,,,,,,11.5,4.6,10.6*30
Trace #62 at position 15.250000
$GPZDA,104448.03,08,10,2011,00,00*63
$GPRMC,104448.00,A,4611.975928,N,01258.216712,E,001.3,125.0,081011,0.2,E,A*32
$GPGGA,104449.00,4611.975694,N,01258.217062,E,1,05,4.6,114.03,M,46.25,M,,*69
$GPGLL,4611.975694,N,01258.217062,E,104449.00,A,A*69
$GPVTG,142.0,T,142.2,M,001.1,N,002.1,K,A*22
$GPGSV,2,1,07,21,36,185,41,05,16,074,,25,50,116,44,29,76,034,44*7A
$GPGSV,2,2,07,30,81,303,43,31,53,266,46,12,18,116,,,,,*4B
$GPGSA,M,3,21,25,29,30,31,,,,,,,,11.5,4.6,10.6*30
Trace #63 at position 15.500000
$GPZDA,104448.03,08,10,2011,00,00*63
$GPRMC,104448.00,A,4611.975928,N,01258.216712,E,001.3,125.0,081011,0.2,E,A*32
$GPGGA,104449.00,4611.975694,N,01258.217062,E,1,05,4.6,114.03,M,46.25,M,,*69
$GPGLL,4611.975694,N,01258.217062,E,104449.00,A,A*69
$GPVTG,142.0,T,142.2,M,001.1,N,002.1,K,A*22
$GPGSV,2,1,07,21,36,185,41,05,16,074,,25,50,116,44,29,76,034,44*7A
$GPGSV,2,2,07,30,81,303,43,31,53,266,46,12,18,116,,,,,*4B
$GPGSA,M,3,21,25,29,30,31,,,,,,,,11.5,4.6,10.6*30
Trace #64 at position 15.750000
$GPZDA,104448.03,08,10,2011,00,00*63
$GPRMC,104448.00,A,4611.975928,N,01258.216712,E,001.3,125.0,081011,0.2,E,A*32
$GPGGA,104449.00,4611.975694,N,01258.217062,E,1,05,4.6,114.03,M,46.25,M,,*69
$GPGLL,4611.975694,N,01258.217062,E,104449.00,A,A*69
$GPVTG,142.0,T,142.2,M,001.1,N,002.1,K,A*22
$GPGSV,2,1,07,21,36,185,41,05,16,074,,25,50,116,44,29,76,034,44*7A
$GPGSV,2,2,07,30,81,303,43,31,53,266,46,12,18,116,,,,,*4B
$GPGSA,M,3,21,25,29,30,31,,,,,,,,11.5,4.6,10.6*30
Trace #65 at position 16.000000
$GPZDA,104449.03,08,10,2011,00,00*62
$GPRMC,104449.00,A,4611.975694,N,01258.217062,E,001.1,142.0,081011,0.2,E,A*39
$GPGGA,104450.00,4611.975483,N,01258.217226,E,1,05,4.6,114.13,M,46.25,M,,*66
$GPGLL,4611.975483,N,01258.217226,E,104450.00,A,A*67
$GPVTG,161.2,T,161.4,M,000.6,N,001.1,K,A*23
$GPGSV,2,1,07,21,36,185,42,05,16,074,,25,50,116,44,29,76,034,45*78
$GPGSV,2,2,07,30,81,303,43,31,53,266,45,12,18,116,,,,,*48
$GPGSA,M,3,21,25,29,30,31,,,,,,,,11.5,4.6,10.6*30
Trace #66 at position 16.250000
$GPZDA,104449.03,08,10,2011,00,00*62
$GPRMC,104449.00,A,4611.975694,N,01258.217062,E,001.1,142.0,081011,0.2,E,A*39
$GPGGA,104450.00,4611.975483,N,01258.217226,E,1,05,4.6,114.13,M,46.25,M,,*66
$GPGLL,4611.975483,N,01258.217226,E,104450.00,A,A*67
$GPVTG,161.2,T,161.4,M,000.6,N,001.1,K,A*23
$GPGSV,2,1,07,21,36,185,42,05,16,074,,25,50,116,44,29,76,034,45*78
$GPGSV,2,2,07,30,81,303,43,31,53,266,45,12,18,116,,,,,*48
$GPGSA,M,3,21,25,29,30,31,,,,,,,,11.5,4.6,10.6*30
Trace #67 at position 16.500000
$GPZDA,104450.03,08,10,2011,00,00*6A
$GPRMC,104450.00,A,4611.975483,N,01258.217226,E,000.6,161.2,081011,0.2,E,A*32
$GPGGA,104451.00,4611.975229,N,01258.217323,E,1,05,4.6,114.05,M,46.25,M,,*62
$GPGLL,4611.975229,N,01258.217323,E,104451.00,A,A*64
$GPVTG,164.0,T,164.1,M,001.2,N,002.2,K,A*21
$GPGSV,2,1,07,21,36,185,43,05,16,074,32,25,50,116,43,29,76,034,44*7E
$GPGSV,2,2,07,30,81,303,43,31,53,266,45,12,18,116,,,,,*48
$GPGSA,M,3,21,25,29,30,31,,,,,,,,11.5,4.6,10.6*30
Trace #68 at position 16.750000
$GPZDA,104450.03,08,10,2011,00,00*6A
$GPRMC,104450.00,A,4611.975483,N,01258.217226,E,000.6,161.2,081011,0.2,E,A*32
$GPGGA,104451.00,4611.975229,N,01258.217323,E,1,05,4.6,114.05,M,46.25,M,,*62
$GPGLL,4611.975229,N,01258.217323,E,104451.00,A,A*64
$GPVTG,164.0,T,164.1,M,001.2,N,002.2,K,A*21
$GPGSV,2,1,07,21,36,185,43,05,16,074,32,25,50,116,43,29,76,034,44*7E
$GPGSV,2,2,07,30,81,303,43,31,53,266,45,12,18,116,,,,,*48
$GPGSA,M,3,21,25,29,30,31,,,,,,,,11.5,4.6,10.6*30
Trace #69 at position 17.000000
$GPZDA,104450.03,08,10,2011,00,00*6A
$GPRMC,104450.00,A,4611.975483,N,01258.217226,E,000.6,161.2,081011,0.2,E,A*32
$GPGGA,104451.00,4611.975229,N,01258.217323,E,1,05,4.6,114.05,M,46.25,M,,*62
$GPGLL,4611.975229,N,01258.217323,E,104451.00,A,A*64
$GPVTG,164.0,T,164.1,M,001.2,N,002.2,K,A*21
$GPGSV,2,1,07,21,36,185,43,05,16,074,32,25,50,116,43,29,76,034,44*7E
$GPGSV,2,2,07,30,81,303,43,31,53,266,45,12,18,116,,,,,*48
$GPGSA,M,3,21,25,29,30,31,,,,,,,,11.5,4.6,10.6*30
Trace #70 at position 17.250000
$GPZDA,104451.03,08,10,2011,00,00*6B
$GPRMC,104451.00,A,4611.975229,N,01258.217323,E,001.2,164.0,081011,0.2,E,A*33
$GPGGA,104452.00,4611.974838,N,01258.217369,E,1,05,4.6,114.09,M,46.25,M,,*68
$GPGLL,4611.974838,N,01258.217369,E,104452.00,A,A*62
$GPVTG,184.7,T,184.8,M,001.6,N,002.9,K,A*20
$GPGSV,2,1,07,21,36,185,41,05,16,074,31,25,50,116,43,29,76,034,44*7F
$GPGSV,2,2,07,30,81,303,43,31,53,266,45,12,18,116,,,,,*48
$GPGSA,M,3,21,25,29,30,31,,,,,,,,11.5,4.6,10.6*30
Trace #71 at position 17.500000
$GPZDA,104451.03,08,10,2011,00,00*6B
$GPRMC,104451.00,A,4611.975229,N,01258.217323,E,001.2,164.0,081011,0.2,E,A*33
$GPGGA,104452.00,4611.974838,N,01258.217369,E,1,05,4.6,114.09,M,46.25,M,,*68
$GPGLL,4611.974838,N,01258.217369,E,104452.00,A,A*62
$GPVTG,184.7,T,184.8,M,001.6,N,002.9,K,A*20
$GPGSV,2,1,07,21,36,185,41,05,16,074,31,25,50,116,43,29,76,034,44*7F
$GPGSV,2,2,07,30,81,303,43,31,53,266,45,12,18,116,,,,,*48
$GPGSA,M,3,21,25,29,30,31,,,,,,,,11.5,4.6,10.6*30
Trace #72 at position 17.750000
$GPZDA,104455.03,08,10,2011,00,00*6F
$GPRMC,104455.00,A,4611.974113,N,01258.217520,E,000.4,279.7,081011,0.2,E,A*36
$GPGGA,104456.00,4611.974124,N,01258.217483,E,1,05,4.6,114.48,M,46.25,M,,*6E
$GPGLL,4611.974124,N,01258.217483,E,104456.00,A,A*61
$GPVTG,21.8,T,22.0,M,000.1,N,000.2,K,A*2B
$GPGSV,2,1,07,21,36,185,41,05,16,074,35,25,50,116,44,29,76,034,44*7C
$GPGSV,2,2,07,30,81,303,43,31,53,265,45,12,17,116,,,,,*44
$GPGSA,M,3,21,25,29,30,31,,,,,,,,11.5,4.6,10.5*33
Trace #73 at position 18.000000
$GPZDA,104456.03,08,10,2011,00,00*6C
$GPRMC,104456.00,A,4611.974124,N,01258.217483,E,000.1,21.8,081011,0.2,E,A*0C
$GPGGA,104457.00,4611.974121,N,01258.217513,E,1,05,4.6,114.47,M,46.25,M,,*6D
$GPGLL,4611.974121,N,01258.217513,E,104457.00,A,A*6D
$GPVTG,5.2,T,5.4,M,000.0,N,000.0,K,A*25
$GPGSV,2,1,07,21,36,185,42,05,16,074,32,25,50,116,44,29,76,034,44*78
$GPGSV,2,2,07,30,81,303,43,31,53,265,45,12,17,116,,,,,*44
$GPGSA,M,3,21,25,29,30,31,,,,,,,,11.5,4.6,10.5*33
Trace #74 at position 18.250000
$GPZDA,104457.03,08,10,2011,00,00*6D
$GPRMC,104457.00,A,4611.974121,N,01258.217513,E,000.0,5.2,081011,0.2,E,A*3D
$GPGGA,104458.00,4611.974060,N,01258.217537,E,1,05,4.6,114.61,M,46.25,M,,*64
$GPGLL,4611.974060,N,01258.217537,E,104458.00,A,A*60
$GPVTG,175.3,T,175.5,M,000.3,N,000.6,K,A*20
$GPGSV,2,1,07,21,36,185,42,05,16,074,32,25,50,116,44,29,76,034,44*78
$GPGSV,2,2,07,30,81,303,43,31,53,265,45,12,17,116,,,,,*44
$GPGSA,M,3,21,25,29,30,31,,,,,,,,11.5,4.6,10.5*33
Trace #75 at position 18.500000
$GPZDA,104457.03,08,10,2011,00,00*6D
$GPRMC,104457.00,A,4611.974121,N,01258.217513,E,000.0,5.2,081011,0.2,E,A*3D
$GPGGA,104458.00,4611.974060,N,01258.217537,E,1,05,4.6,114.61,M,46.25,M,,*64
$GPGLL,4611.974060,N,01258.217537,E,104458.00,A,A*60
$GPVTG,175.3,T,175.5,M,000.3,N,000.6,K,A*20
$GPGSV,2,1,07,21,36,185,42,05,16,074,32,25,50,116,44,29,76,034,44*78
$GPGSV,2,2,07,30,81,303,43,31,53,265,45,12,17,116,,,,,*44
$GPGSA,M,3,21,25,29,30,31,,,,,,,,11.5,4.6,10.5*33
Trace #76 at position 18.750000
$GPZDA,104457.03,08,10,2011,00,00*6D
$GPRMC,104457.00,A,4611.974121,N,01258.217513,E,000.0,5.2,081011,0.2,E,A*3D
$GPGGA,104458.00,4611.974060,N,01258.217537,E,1,05,4.6,114.61,M,46.25,M,,*64
$GPGLL,4611.974060,N,01258.217537,E,104458.00,A,A*60
$GPVTG,175.3,T,175.5,M,000.3,N,000.6,K,A*20
$GPGSV,2,1,07,21,36,185,42,05,16,074,32,25,50,116,44,29,76,034,44*78
$GPGSV,2,2,07,30,81,303,43,31,53,265,45,12,17,116,,,,,*44
$GPGSA,M,3,21,25,29,30,31,,,,,,,,11.5,4.6,10.5*33
Trace #77 at position 19.000000
$GPZDA,104458.03,08,10,2011,00,00*62
$GPRMC,104458.00,A,4611.974060,N,01258.217537,E,000.3,175.3,081011,0.2,E,A*34
$GPGGA,104459.00,4611.973809,N,01258.217618,E,1,05,4.6,114.62,M,46.25,M,,*68
$GPGLL,4611.973809,N,01258.217618,E,104459.00,A,A*6F
$GPVTG,168.1,T,168.3,M,001.4,N,002.5,K,A*23
$GPGSV,2,1,07,21,36,185,40,05,16,074,33,25,50,116,44,29,76,034,44*7B
$GPGSV,2,2,07,30,81,303,43,31,53,265,45,12,17,116,,,,,*44
$GPGSA,M,3,21,25,29,30,31,,,,,,,,11.5,4.6,10.5*33
Trace #78 at position 19.250000
$GPZDA,104458.03,08,10,2011,00,00*62
$GPRMC,104458.00,A,4611.974060,N,01258.217537,E,000.3,175.3,081011,0.2,E,A*34
$GPGGA,104459.00,4611.973809,N,01258.217618,E,1,05,4.6,114.62,M,46.25,M,,*68
$GPGLL,4611.973809,N,01258.217618,E,104459.00,A,A*6F
$GPVTG,168.1,T,168.3,M,001.4,N,002.5,K,A*23
$GPGSV,2,1,07,21,36,185,40,05,16,074,33,25,50,116,44,29,76,034,44*7B
$GPGSV,2,2,07,30,81,303,43,31,53,265,45,12,17,116,,,,,*44
$GPGSA,M,3,21,25,29,30,31,,,,,,,,11.5,4.6,10.5*33
Trace #79 at position 19.500000
$GPZDA,104459.03,08,10,2011,00,00*63
$GPRMC,104459.00,A,4611.973809,N,01258.217618,E,001.4,168.1,081011,0.2,E,A*33
$GPGGA,104500.00,4611.973441,N,01258.217717,E,1,05,4.6,114.41,M,46.25,M,,*6A
$GPGLL,4611.973441,N,01258.217717,E,104500.00,A,A*6C
$GPVTG,174.4,T,174.6,M,001.3,N,002.4,K,A*25
$GPGSV,2,1,07,21,36,185,40,05,16,074,31,25,50,116,45,29,76,034,44*78
$GPGSV,2,2,07,30,81,303,43,31,53,265,45,12,17,116,,,,,*44
$GPGSA,M,3,21,25,29,30,31,,,,,,,,11.5,4.6,10.5*33
Trace #80 at position 19.750000
$GPZDA,104459.03,08,10,2011,00,00*63
$GPRMC,104459.00,A,4611.973809,N,01258.217618,E,001.4,168.1,081011,0.2,E,A*33
$GPGGA,104500.00,4611.973441,N,01258.217717,E,1,05,4.6,114.41,M,46.25,M,,*6A
$GPGLL,4611.973441,N,01258.217717,E,104500.00,A,A*6C
$GPVTG,174.4,T,174.6,M,001.3,N,002.4,K,A*25
$GPGSV,2,1,07,21,36,185,40,05,16,074,31,25,50,116,45,29,76,034,44*78
$GPGSV,2,2,07,30,81,303,43,31,53,265,45,12,17,116,,,,,*44
$GPGSA,M,3,21,25,29,30,31,,,,,,,,11.5,4.6,10.5*33
Trace #81 at position 20.000000
$GPZDA,104500.03,08,10,2011,00,00*6E
$GPRMC,104500.00,A,4611.973441,N,01258.217717,E,001.3,174.4,081011,0.2,E,A*3F
$GPGGA,104501.00,4611.973158,N,01258.217845,E,1,05,4.6,114.23,M,46.25,M,,*6A
$GPGLL,4611.973158,N,01258.217845,E,104501.00,A,A*68
$GPVTG,148.3,T,148.5,M,000.8,N,001.5,K,A*29
$GPGSV,2,1,07,21,36,185,40,05,16,074,,25,50,116,43,29,76,034,44*7C
$GPGSV,2,2,07,30,81,303,44,31,53,265,45,12,17,116,,,,,*43
$GPGSA,M,3,21,25,29,30,31,,,,,,,,11.5,4.6,10.5*33
Trace #82 at position 20.250000
$GPZDA,104500.03,08,10,2011,00,00*6E
$GPRMC,104500.00,A,4611.973441,N,01258.217717,E,001.3,174.4,081011,0.2,E,A*3F
$GPGGA,104501.00,4611.973158,N,01258.217845,E,1,05,4.6,114.23,M,46.25,M,,*6A
$GPGLL,4611.973158,N,01258.217845,E,104501.00,A,A*68
$GPVTG,148.3,T,148.5,M,000.8,N,001.5,K,A*29
$GPGSV,2,1,07,21,36,185,40,05,16,074,,25,50,116,43,29,76,034,44*7C
$GPGSV,2,2,07,30,81,303,44,31,53,265,45,12,17,116,,,,,*43
$GPGSA,M,3,21,25,29,30,31,,,,,,,,11.5,4.6,10.5*33
Trace #83 at position 20.500000
$GPZDA,104501.03,08,10,2011,00,00*6F
$GPRMC,104501.00,A,4611.973158,N,01258.217845,E,000.8,148.3,081011,0.2,E,A*39
$GPGGA,104502.00,4611.972867,N,01258.218003,E,1,05,4.6,114.16,M,46.25,M,,*6E
$GPGLL,4611.972867,N,01258.218003,E,104502.00,A,A*6A
$GPVTG,168.8,T,169.0,M,001.4,N,002.6,K,A*2B
$GPGSV,2,1,07,21,36,185,41,05,16,074,34,25,50,116,44,29,76,034,44*7D
$GPGSV,2,2,07,30,81,303,44,31,53,265,45,12,17,117,,,,,*42
$GPGSA,M,3,21,25,29,30,31,,,,,,,,11.5,4.6,10.5*33
Trace #84 at position 20.750000
$GPZDA,104501.03,08,10,2011,00,00*6F
$GPRMC,104501.00,A,4611.973158,N,01258.217845,E,000.8,148.3,081011,0.2,E,A*39
$GPGGA,104502.00,4611.972867,N,01258.218003,E,1,05,4.6,114.16,M,46.25,M,,*6E
$GPGLL,4611.972867,N,01258.218003,E,104502.00,A,A*6A
$GPVTG,168.8,T,169.0,M,001.4,N,002.6,K,A*2B
$GPGSV,2,1,07,21,36,185,41,05,16,074,34,25,50,116,44,29,76,034,44*7D
$GPGSV,2,2,07,30,81,303,44,31,53,265,45,12,17,117,,,,,*42
$GPGSA,M,3,21,25,29,30,31,,,,,,,,11.5,4.6,10.5*33
Trace #85 at position 21.000000
$GPZDA,104501.03,08,10,2011,00,00*6F
$GPRMC,104501.00,A,4611.973158,N,01258.217845,E,000.8,148.3,081011,0.2,E,A*39
$GPGGA,104502.00,4611.972867,N,01258.218003,E,1,05,4.6,114.16,M,46.25,M,,*6E
$GPGLL,4611.972867,N,01258.218003,E,104502.00,A,A*6A
$GPVTG,168.8,T,169.0,M,001.4,N,002.6,K,A*2B
$GPGSV,2,1,07,21,36,185,41,05,16,074,34,25,50,116,44,29,76,034,44*7D
$GPGSV,2,2,07,30,81,303,44,31,53,265,45,12,17,117,,,,,*42
$GPGSA,M,3,21,25,29,30,31,,,,,,,,11.5,4.6,10.5*33
Trace #86 at position 21.250000
$GPZDA,104502.03,08,10,2011,00,00*6C
$GPRMC,104502.00,A,4611.972867,N,01258.218003,E,001.4,168.8,081011,0.2,E,A*3F
$GPGGA,104503.00,4611.972607,N,01258.218180,E,1,05,4.6,114.29,M,46.25,M,,*61
$GPGLL,4611.972607,N,01258.218180,E,104503.00,A,A*69
$GPVTG,129.7,T,129.8,M,000.7,N,001.3,K,A*29
$GPGSV,2,1,07,21,36,185,40,05,16,074,32,25,50,116,44,29,76,034,44*7A
$GPGSV,2,2,07,30,81,303,43,31,53,265,44,12,17,117,,,,,*44
$GPGSA,M,3,21,25,29,30,31,,,,,,,,11.5,4.6,10.5*33
Trace #87 at position 21.500000
$GPZDA,104502.03,08,10,2011,00,00*6C
$GPRMC,104502.00,A,4611.972867,N,01258.218003,E,001.4,168.8,081011,0.2,E,A*3F
$GPGGA,104503.00,4611.972607,N,01258.218180,E,1,05,4.6,114.29,M,46.25,M,,*61
$GPGLL,4611.972607,N,01258.218180,E,104503.00,A,A*69
$GPVTG,129.7,T,129.8,M,000.7,N,001.3,K,A*29
$GPGSV,2,1,07,21,36,185,40,05,16,074,32,25,50,116,44,29,76,034,44*7A
$GPGSV,2,2,07,30,81,303,43,31,53,265,44,12,17,117,,,,,*44
$GPGSA,M,3,21,25,29,30,31,,,,,,,,11.5,4.6,10.5*33
Trace #88 at position 21.750000
$GPZDA,104503.03,08,10,2011,00,00*6D
$GPRMC,104503.00,A,4611.972607,N,01258.218180,E,000.7,129.7,081011,0.2,E,A*34
$GPGGA,104504.00,4611.972330,N,01258.218232,E,1,05,4.6,114.41,M,46.25,M,,*63
$GPGLL,4611.972330,N,01258.218232,E,104504.00,A,A*65
$GPVTG,193.8,T,193.9,M,001.5,N,002.7,K,A*23
$GPGSV,2,1,07,21,36,185,41,05,16,074,31,25,50,116,42,29,76,034,44*7E
$GPGSV,2,2,07,30,81,303,43,31,53,265,44,12,17,117,,,,,*44
$GPGSA,M,3,21,25,29,30,31,,,,,,,,11.4,4.6,10.5*32
Trace #89 at position 22.000000
$GPZDA,104503.03,08,10,2011,00,00*6D
$GPRMC,104503.00,A,4611.972607,N,01258.218180,E,000.7,129.7,081011,0.2,E,A*34
$GPGGA,104504.00,4611.972330,N,01258.218232,E,1,05,4.6,114.41,M,46.25,M,,*63
$GPGLL,4611.972330,N,01258.218232,E,104504.00,A,A*65
$GPVTG,193.8,T,193.9,M,001.5,N,002.7,K,A*23
$GPGSV,2,1,07,21,36,185,41,05,16,074,31,25,50,116,42,29,76,034,44*7E
$GPGSV,2,2,07,30,81,303,43,31,53,265,44,12,17,117,,,,,*44
$GPGSA,M,3,21,25,29,30,31,,,,,,,,11.4,4.6,10.5*32
Trace #90 at position 22.250000
$GPZDA,104504.03,08,10,2011,00,00*6A
$GPRMC,104504.00,A,4611.972330,N,01258.218232,E,001.5,193.8,081011,0.2,E,A*35
$GPGGA,104505.00,4611.971962,N,01258.218274,E,1,05,4.6,114.65,M,46.25,M,,*68
$GPGLL,4611.971962,N,01258.218274,E,104505.00,A,A*68
$GPVTG,160.5,T,160.6,M,001.2,N,002.3,K,A*22
$GPGSV,2,1,07,21,36,185,40,05,16,074,33,25,50,116,43,29,76,034,44*7C
$GPGSV,2,2,07,30,81,303,43,31,53,265,44,12,17,117,,,,,*44
$GPGSA,M,3,21,25,29,30,31,,,,,,,,11.4,4.6,10.5*32
Trace #91 at position 22.500000
$GPZDA,104504.03,08,10,2011,00,00*6A
$GPRMC,104504.00,A,4611.972330,N,01258.218232,E,001.5,193.8,081011,0.2,E,A*35
$GPGGA,104505.00,4611.971962,N,01258.218274,E,1,05,4.6,114.65,M,46.25,M,,*68
$GPGLL,4611.971962,N,01258.218274,E,104505.00,A,A*68
$GPVTG,160.5,T,160.6,M,001.2,N,002.3,K,A*22
$GPGSV,2,1,07,21,36,185,40,05,16,074,33,25,50,116,43,29,76,034,44*7C
$GPGSV,2,2,07,30,81,303,43,31,53,265,44,12,17,117,,,,,*44
$GPGSA,M,3,21,25,29,30,31,,,,,,,,11.4,4.6,10.5*32
Trace #92 at position 22.750000
$GPZDA,104505.03,08,10,2011,00,00*6B
$GPRMC,104505.00,A,4611.971962,N,01258.218274,E,001.2,160.5,081011,0.2,E,A*3E
$GPGGA,104506.00,4611.971666,N,01258.218458,E,1,05,4.6,114.94,M,46.25,M,,*66
$GPGLL,4611.971666,N,01258.218458,E,104506.00,A,A*68
$GPVTG,156.4,T,156.5,M,001.1,N,002.0,K,A*20
$GPGSV,2,1,07,21,36,185,41,05,16,074,,25,50,116,43,29,76,034,45*7C
$GPGSV,2,2,07,30,82,303,44,31,53,265,45,12,17,117,,,,,*41
$GPGSA,M,3,21,25,29,30,31,,,,,,,,11.4,4.6,10.5*32
Trace #93 at position 23.000000
$GPZDA,104505.03,08,10,2011,00,00*6B
$GPRMC,104505.00,A,4611.971962,N,01258.218274,E,001.2,160.5,081011,0.2,E,A*3E
$GPGGA,104506.00,4611.971666,N,01258.218458,E,1,05,4.6,114.94,M,46.25,M,,*66
$GPGLL,4611.971666,N,01258.218458,E,104506.00,A,A*68
$GPVTG,156.4,T,156.5,M,001.1,N,002.0,K,A*20
$GPGSV,2,1,07,21,36,185,41,05,16,074,,25,50,116,43,29,76,034,45*7C
$GPGSV,2,2,07,30,82,303,44,31,53,265,45,12,17,117,,,,,*41
$GPGSA,M,3,21,25,29,30,31,,,,,,,,11.4,4.6,10.5*32
Trace #94 at position 23.250000
$GPZDA,104506.03,08,10,2011,00,00*68
$GPRMC,104506.00,A,4611.971666,N,01258.218458,E,001.1,156.4,081011,0.2,E,A*39
$GPGGA,104507.00,4611.971283,N,01258.218706,E,1,05,4.6,115.09,M,46.25,M,,*65
$GPGLL,4611.971283,N,01258.218706,E,104507.00,A,A*6E
$GPVTG,157.3,T,157.4,M,002.0,N,003.8,K,A*2D
$GPGSV,2,1,07,21,36,185,41,05,16,074,34,25,50,116,44,29,76,034,44*7D
$GPGSV,2,2,07,30,82,303,43,31,53,265,45,12,17,117,,,,,*46
$GPGSA,M,3,21,25,29,30,31,,,,,,,,11.4,4.6,10.5*32
Trace #95 at position 23.500000
$GPZDA,104506.03,08,10,2011,00,00*68
$GPRMC,104506.00,A,4611.971666,N,01258.218458,E,001.1,156.4,081011,0.2,E,A*39
$GPGGA,104507.00,4611.971283,N,01258.218706,E,1,05,4.6,115.09,M,46.25,M,,*65
$GPGLL,4611.971283,N,01258.218706,E,104507.00,A,A*6E
$GPVTG,157.3,T,157.4,M,002.0,N,003.8,K,A*2D
$GPGSV,2,1,07,21,36,185,41,05,16,074,34,25,50,116,44,29,76,034,44*7D
$GPGSV,2,2,07,30,82,303,43,31,53,265,45,12,17,117,,,,,*46
$GPGSA,M,3,21,25,29,30,31,,,,,,,,11.4,4.6,10.5*32
Trace #96 at position 23.750000
$GPZDA,104507.03,08,10,2011,00,00*69
$GPRMC,104507.00,A,4611.971283,N,01258.218706,E,002.0,157.3,081011,0.2,E,A*3B
$GPGGA,104508.00,4611.970917,N,01258.218997,E,1,05,4.6,115.47,M,46.25,M,,*61
$GPGLL,4611.970917,N,01258.218997,E,104508.00,A,A*60
$GPVTG,140.2,T,140.3,M,001.3,N,002.3,K,A*21
$GPGSV,2,1,07,21,36,185,41,05,16,074,32,25,50,116,44,29,76,034,44*7B
$GPGSV,2,2,07,30,82,303,44,31,53,265,45,12,17,117,,,,,*41
$GPGSA,M,3,21,25,29,30,31,,,,,,,,11.4,4.6,10.5*32
Trace #97 at position 24.000000
$GPZDA,104507.03,08,10,2011,00,00*69
$GPRMC,104507.00,A,4611.971283,N,01258.218706,E,002.0,157.3,081011,0.2,E,A*3B
$GPGGA,104508.00,4611.970917,N,01258.218997,E,1,05,4.6,115.47,M,46.25,M,,*61
$GPGLL,4611.970917,N,01258.218997,E,104508.00,A,A*60
$GPVTG,140.2,T,140.3,M,001.3,N,002.3,K,A*21
$GPGSV,2,1,07,21,36,185,41,05,16,074,32,25,50,116,44,29,76,034,44*7B
$GPGSV,2,2,07,30,82,303,44,31,53,265,45,12,17,117,,,,,*41
$GPGSA,M,3,21,25,29,30,31,,,,,,,,11.4,4.6,10.5*32
Trace #98 at position 24.250000
$GPZDA,104508.03,08,10,2011,00,00*66
$GPRMC,104508.00,A,4611.970917,N,01258.218997,E,001.3,140.2,081011,0.2,E,A*32
$GPGGA,104509.00,4611.970637,N,01258.219205,E,1,05,4.6,115.78,M,46.25,M,,*60
$GPGLL,4611.970637,N,01258.219205,E,104509.00,A,A*6D
$GPVTG,160.9,T,161.1,M,001.3,N,002.5,K,A*2F
$GPGSV,2,1,07,21,36,185,40,05,16,074,,25,50,116,45,29,76,034,45*7B
$GPGSV,2,2,07,30,82,303,43,31,53,265,45,12,17,117,,,,,*46
$GPGSA,M,3,21,25,29,30,31,,,,,,,,11.4,4.6,10.5*32
Trace #99 at position 24.500000
$GPZDA,104508.03,08,10,2011,00,00*66
$GPRMC,104508.00,A,4611.970917,N,01258.218997,E,001.3,140.2,081011,0.2,E,A*32
$GPGGA,104509.00,4611.970637,N,01258.219205,E,1,05,4.6,115.78,M,46.25,M,,*60
$GPGLL,4611.970637,N,01258.219205,E,104509.00,A,A*6D
$GPVTG,160.9,T,161.1,M,001.3,N,002.5,K,A*2F
$GPGSV,2,1,07,21,36,185,40,05,16,074,,25,50,116,45,29,76,034,45*7B
$GPGSV,2,2,07,30,82,303,43,31,53,265,45,12,17,117,,,,,*46
$GPGSA,M,3,21,25,29,30,31,,,,,,,,11.4,4.6,10.5*32
Trace #100 at position 24.750000
$GPZDA,104509.03,08,10,2011,00,00*67
$GPRMC,104509.00,A,4611.970637,N,01258.219205,E,001.3,160.9,081011,0.2,E,A*36
$GPGGA,104510.00,4611.970369,N,01258.219369,E,1,05,4.6,116.12,M,46.25,M,,*62
$GPGLL,4611.970369,N,01258.219369,E,104510.00,A,A*60
$GPVTG,143.8,T,144.0,M,001.0,N,001.9,K,A*25
$GPGSV,2,1,07,21,36,185,41,05,16,074,35,25,50,116,43,29,76,034,45*7A
$GPGSV,2,2,07,30,82,303,43,31,53,265,45,12,17,117,,,,,*46
$GPGSA,M,3,21,25,29,30,31,,,,,,,,11.4,4.6,10.5*32
Trace #101 at position 25.000000
$GPZDA,104512.03,08,10,2011,00,00*6D
$GPRMC,104512.00,A,4611.969979,N,01258.219423,E,000.2,218.2,081011,0.2,E,A*34
$GPGGA,104513.00,4611.970093,N,01258.219489,E,1,04,6.2,115.58,M,46.25,M,,*64
$GPGLL,4611.970093,N,01258.219489,E,104513.00,A,A*6C
$GPVTG,195.8,T,196.0,M,000.2,N,000.4,K,A*2E
$GPGSV,2,1,07,21,36,185,39,05,16,074,,25,50,116,31,29,76,034,42*71
$GPGSV,2,2,07,30,82,303,42,31,53,265,45,12,17,117,,,,,*47
$GPGSA,M,3,21,29,30,31,,,,,,,,,15.2,6.2,13.9*3E
Trace #102 at position 25.250000
$GPZDA,104513.03,08,10,2011,00,00*6C
$GPRMC,104513.00,A,4611.970093,N,01258.219489,E,000.2,195.8,081011,0.2,E,A*3C
$GPGGA,104514.00,4611.970049,N,01258.219446,E,1,05,4.6,115.76,M,46.25,M,,*6C
$GPGLL,4611.970049,N,01258.219446,E,104514.00,A,A*6F
$GPVTG,165.7,T,165.9,M,000.2,N,000.3,K,A*2C
$GPGSV,2,1,07,21,36,185,42,05,16,074,34,25,50,116,39,29,76,034,45*75
$GPGSV,2,2,07,30,82,303,44,31,53,265,45,12,17,117,,,,,*41
$GPGSA,M,3,21,25,29,30,31,,,,,,,,11.4,4.6,10.4*33
Trace #103 at position 25.500000
$GPZDA,104513.03,08,10,2011,00,00*6C
$GPRMC,104513.00,A,4611.970093,N,01258.219489,E,000.2,195.8,081011,0.2,E,A*3C
$GPGGA,104514.00,4611.970049,N,01258.219446,E,1,05,4.6,115.76,M,46.25,M,,*6C
$GPGLL,4611.970049,N,01258.219446,E,104514.00,A,A*6F
$GPVTG,165.7,T,165.9,M,000.2,N,000.3,K,A*2C
$GPGSV,2,1,07,21,36,185,42,05,16,074,34,25,50,116,39,29,76,034,45*75
$GPGSV,2,2,07,30,82,303,44,31,53,265,45,12,17,117,,,,,*41
$GPGSA,M,3,21,25,29,30,31,,,,,,,,11.4,4.6,10.4*33
Trace #104 at position 25.750000
$GPZDA,104514.03,08,10,2011,00,00*6B
$GPRMC,104514.00,A,4611.970049,N,01258.219446,E,000.2,165.7,081011,0.2,E,A*3F
$GPGGA,104515.00,4611.969934,N,01258.219429,E,1,05,4.6,115.79,M,46.25,M,,*60
$GPGLL,4611.969934,N,01258.219429,E,104515.00,A,A*6C
$GPVTG,178.8,T,178.9,M,000.7,N,001.4,K,A*20
$GPGSV,2,1,07,21,36,185,42,05,16,074,30,25,50,116,40,29,76,034,45*7F
$GPGSV,2,2,07,30,82,303,43,31,53,265,45,12,17,117,,,,,*46
$GPGSA,M,3,21,25,29,30,31,,,,,,,,11.4,4.6,10.4*33
Trace #105 at position 26.000000
$GPZDA,104514.03,08,10,2011,00,00*6B
$GPRMC,104514.00,A,4611.970049,N,01258.219446,E,000.2,165.7,081011,0.2,E,A*3F
$GPGGA,104515.00,4611.969934,N,01258.219429,E,1,05,4.6,115.79,M,46.25,M,,*60
$GPGLL,4611.969934,N,01258.219429,E,104515.00,A,A*6C
$GPVTG,178.8,T,178.9,M,000.7,N,001.4,K,A*20
$GPGSV,2,1,07,21,36,185,42,05,16,074,30,25,50,116,40,29,76,034,45*7F
$GPGSV,2,2,07,30,82,303,43,31,53,265,45,12,17,117,,,,,*46
$GPGSA,M,3,21,25,29,30,31,,,,,,,,11.4,4.6,10.4*33
Trace #106 at position 26.250000
$GPZDA,104515.03,08,10,2011,00,00*6A
$GPRMC,104515.00,A,4611.969934,N,01258.219429,E,000.7,178.8,081011,0.2,E,A*3A
$GPGGA,104516.00,4611.969659,N,01258.219503,E,1,05,4.6,115.89,M,46.25,M,,*61
$GPGLL,4611.969659,N,01258.219503,E,104516.00,A,A*62
$GPVTG,161.4,T,161.5,M,001.4,N,002.7,K,A*22
$GPGSV,2,1,07,21,36,185,40,05,16,074,32,25,50,116,41,29,76,034,45*7E
$GPGSV,2,2,07,30,82,303,43,31,53,265,45,12,17,117,,,,,*46
$GPGSA,M,3,21,25,29,30,31,,,,,,,,11.4,4.6,10.4*33
Trace #107 at position 26.500000
$GPZDA,104515.03,08,10,2011,00,00*6A
$GPRMC,104515.00,A,4611.969934,N,01258.219429,E,000.7,178.8,081011,0.2,E,A*3A
$GPGGA,104516.00,4611.969659,N,01258.219503,E,1,05,4.6,115.89,M,46.25,M,,*61
$GPGLL,4611.969659,N,01258.219503,E,104516.00,A,A*62
$GPVTG,161.4,T,161.5,M,001.4,N,002.7,K,A*22
$GPGSV,2,1,07,21,36,185,40,05,16,074,32,25,50,116,41,29,76,034,45*7E
$GPGSV,2,2,07,30,82,303,43,31,53,265,45,12,17,117,,,,,*46
$GPGSA,M,3,21,25,29,30,31,,,,,,,,11.4,4.6,10.4*33
Trace #108 at position 26.750000
$GPZDA,104516.03,08,10,2011,00,00*69
$GPRMC,104516.00,A,4611.969659,N,01258.219503,E,001.4,161.4,081011,0.2,E,A*32
$GPGGA,104517.00,4611.969435,N,01258.219636,E,1,05,4.6,115.87,M,46.25,M,,*63
$GPGLL,4611.969435,N,01258.219636,E,104517.00,A,A*6E
$GPVTG,141.1,T,141.2,M,000.5,N,000.9,K,A*2C
$GPGSV,2,1,07,21,36,185,41,05,16,074,32,25,50,116,42,29,76,034,44*7D
$GPGSV,2,2,07,30,82,303,42,31,53,265,44,12,17,117,,,,,*46
$GPGSA,M,3,21,25,29,30,31,,,,,,,,11.4,4.6,10.4*33
Trace #109 at position 27.000000
$GPZDA,104516.03,08,10,2011,00,00*69
$GPRMC,104516.00,A,4611.969659,N,01258.219503,E,001.4,161.4,081011,0.2,E,A*32
$GPGGA,104517.00,4611.969435,N,01258.219636,E,1,05,4.6,115.87,M,46.25,M,,*63
$GPGLL,4611.969435,N,01258.219636,E,104517.00,A,A*6E
$GPVTG,141.1,T,141.2,M,000.5,N,000.9,K,A*2C
$GPGSV,2,1,07,21,36,185,41,05,16,074,32,25,50,116,42,29,76,034,44*7D
$GPGSV,2,2,07,30,82,303,42,31,53,265,44,12,17,117,,,,,*46
$GPGSA,M,3,21,25,29,30,31,,,,,,,,11.4,4.6,10.4*33
Trace #110 at position 27.250000
$GPZDA,104517.03,08,10,2011,00,00*68
$GPRMC,104517.00,A,4611.969435,N,01258.219636,E,000.5,141.1,081011,0.2,E,A*39
$GPGGA,104518.00,4611.969252,N,01258.219761,E,1,05,4.6,115.73,M,46.25,M,,*63
$GPGLL,4611.969252,N,01258.219761,E,104518.00,A,A*65
$GPVTG,155.5,T,155.7,M,001.1,N,002.0,K,A*23
$GPGSV,2,1,07,21,36,185,41,05,16,074,,25,50,116,42,29,76,034,44*7C
$GPGSV,2,2,07,30,82,303,42,31,53,265,45,12,17,117,,,,,*47
$GPGSA,M,3,21,25,29,30,31,,,,,,,,11.4,4.6,10.4*33
Trace #111 at position 27.500000
$GPZDA,104517.03,08,10,2011,00,00*68
$GPRMC,104517.00,A,4611.969435,N,01258.219636,E,000.5,141.1,081011,0.2,E,A*39
$GPGGA,104518.00,4611.969252,N,01258.219761,E,1,05,4.6,115.73,M,46.25,M,,*63
$GPGLL,4611.969252,N,01258.219761,E,104518.00,A,A*65
$GPVTG,155.5,T,155.7,M,001.1,N,002.0,K,A*23
$GPGSV,2,1,07,21,36,185,41,05,16,074,,25,50,116,42,29,76,034,44*7C
$GPGSV,2,2,07,30,82,303,42,31,53,265,45,12,17,117,,,,,*47
$GPGSA,M,3,21,25,29,30,31,,,,,,,,11.4,4.6,10.4*33
Trace #112 at position 27.750000
$GPZDA,104517.03,08,10,2011,00,00*68
$GPRMC,104517.00,A,4611.969435,N,01258.219636,E,000.5,141.1,081011,0.2,E,A*39
$GPGGA,104518.00,4611.969252,N,01258.219761,E,1,05,4.6,115.73,M,46.25,M,,*63
$GPGLL,4611.969252,N,01258.219761,E,104518.00,A,A*65
$GPVTG,155.5,T,155.7,M,001.1,N,002.0,K,A*23
$GPGSV,2,1,07,21,36,185,41,05,16,074,,25,50,116,42,29,76,034,44*7C
$GPGSV,2,2,07,30,82,303,42,31,53,265,45,12,17,117,,,,,*47
$GPGSA,M,3,21,25,29,30,31,,,,,,,,11.4,4.6,10.4*33
Trace #113 at position 28.000000
$GPZDA,104518.03,08,10,2011,00,00*67
$GPRMC,104518.00,A,4611.969252,N,01258.219761,E,001.1,155.5,081011,0.2,E,A*36
$GPGGA,104519.00,4611.968973,N,01258.219907,E,1,05,4.6,115.82,M,46.25,M,,*6B
$GPGLL,4611.968973,N,01258.219907,E,104519.00,A,A*63
$GPVTG,157.1,T,157.2,M,001.1,N,002.1,K,A*23
$GPGSV,2,1,07,21,36,185,41,05,16,074,33,25,50,116,42,29,76,034,44*7C
$GPGSV,2,2,07,30,82,303,42,31,53,265,45,12,17,117,,,,,*47
$GPGSA,M,3,21,25,29,30,31,,,,,,,,11.4,4.6,10.4*33
Trace #114 at position 28.250000
$GPZDA,104518.03,08,10,2011,00,00*67
$GPRMC,104518.00,A,4611.969252,N,01258.219761,E,001.1,155.5,081011,0.2,E,A*36
$GPGGA,104519.00,4611.968973,N,01258.219907,E,1,05,4.6,115.82,M,46.25,M,,*6B
$GPGLL,4611.968973,N,01258.219907,E,104519.00,A,A*63
$GPVTG,157.1,T,157.2,M,001.1,N,002.1,K,A*23
$GPGSV,2,1,07,21,36,185,41,05,16,074,33,25,50,116,42,29,76,034,44*7C
$GPGSV,2,2,07,30,82,303,42,31,53,265,45,12,17,117,,,,,*47
$GPGSA,M,3,21,25,29,30,31,,,,,,,,11.4,4.6,10.4*33
Trace #115 at position 28.500000
$GPZDA,104519.03,08,10,2011,00,00*66
$GPRMC,104519.00,A,4611.968973,N,01258.219907,E,001.1,157.1,081011,0.2,E,A*36
$GPGGA,104520.00,4611.968676,N,01258.220024,E,1,05,4.5,115.86,M,46.25,M,,*6E
$GPGLL,4611.968676,N,01258.220024,E,104520.00,A,A*61
$GPVTG,165.9,T,166.1,M,001.1,N,002.0,K,A*2A
$GPGSV,2,1,07,21,36,185,41,05,16,074,33,25,50,116,41,29,76,034,45*7E
$GPGSV,2,2,07,30,82,303,43,31,53,265,45,12,17,117,,,,,*46
$GPGSA,M,3,21,25,29,30,31,,,,,,,,11.4,4.5,10.4*30
Trace #116 at position 28.750000
$GPZDA,104519.03,08,10,2011,00,00*66
$GPRMC,104519.00,A,4611.968973,N,01258.219907,E,001.1,157.1,081011,0.2,E,A*36
$GPGGA,104520.00,4611.968676,N,01258.220024,E,1,05,4.5,115.86,M,46.25,M,,*6E
$GPGLL,4611.968676,N,01258.220024,E,104520.00,A,A*61
$GPVTG,165.9,T,166.1,M,001.1,N,002.0,K,A*2A
$GPGSV,2,1,07,21,36,185,41,05,16,074,33,25,50,116,41,29,76,034,45*7E
$GPGSV,2,2,07,30,82,303,43,31,53,265,45,12,17,117,,,,,*46
$GPGSA,M,3,21,25,29,30,31,,,,,,,,11.4,4.5,10.4*30
Trace #117 at position 29.000000
$GPZDA,104519.03,08,10,2011,00,00*66
$GPRMC,104519.00,A,4611.968973,N,01258.219907,E,001.1,157.1,081011,0.2,E,A*36
$GPGGA,104520.00,4611.968676,N,01258.220024,E,1,05,4.5,115.86,M,46.25,M,,*6E
$GPGLL,4611.968676,N,01258.220024,E,104520.00,A,A*61
$GPVTG,165.9,T,166.1,M,001.1,N,002.0,K,A*2A
