Trace #1 at position 0.000000
$GPZDA,113925.03,08,10,2011,00,00*63
$GPRMC,113925.00,A,4611.975962,N,01258.181756,E,000.4,132.7,081011,0.2,E,A*36
$GPGGA,113926.00,4611.977337,N,01258.179213,E,1,04,48.5,141.88,M,46.25,M,,*53
$GPGLL,4611.977337,N,01258.179213,E,113926.00,A,A*6A
$GPVTG,108.6,T,108.7,M,000.4,N,000.8,K,A*2E
$GPGSV,2,1,08,16,19,307,,21,61,181,41,05,18,050,42,06,16,269,*73
$GPGSV,2,2,08,25,27,132,35,29,54,064,44,30,69,155,44,31,40,232,36*70
$GPGSA,M,3,21,05,29,30,,,,,,,,,48.9,48.5,5.8*31
Trace #2 at position 0.250000
$GPZDA,113929.03,08,10,2011,00,00*6F
$GPRMC,113929.00,A,4611.980603,N,01258.173203,E,000.8,127.1,081011,0.2,E,A*3E
$GPGGA,113930.00,4611.977390,N,01258.179399,E,1,05,5.2,143.18,M,46.25,M,,*6E
$GPGLL,4611.977390,N,01258.179399,E,113930.00,A,A*63
$GPVTG,137.9,T,138.0,M,001.8,N,003.2,K,A*2D
$GPGSV,2,1,08,16,19,307,,21,61,181,41,05,18,050,38,06,17,269,*7F
$GPGSV,2,2,08,25,27,132,41,29,54,064,42,30,69,155,44,31,40,232,44*70
$GPGSA,M,3,21,05,29,30,31,,,,,,,,6.6,5.2,4.1*30
Trace #3 at position 0.500000
$GPZDA,113929.03,08,10,2011,00,00*6F
$GPRMC,113929.00,A,4611.980603,N,01258.173203,E,000.8,127.1,081011,0.2,E,A*3E
$GPGGA,113930.00,4611.977390,N,01258.179399,E,1,05,5.2,143.18,M,46.25,M,,*6E
$GPGLL,4611.977390,N,01258.179399,E,113930.00,A,A*63
$GPVTG,137.9,T,138.0,M,001.8,N,003.2,K,A*2D
$GPGSV,2,1,08,16,19,307,,21,61,181,41,05,18,050,38,06,17,269,*7F
$GPGSV,2,2,08,25,27,132,41,29,54,064,42,30,69,155,44,31,40,232,44*70
$GPGSA,M,3,21,05,29,30,31,,,,,,,,6.6,5.2,4.1*30
Trace #4 at position 0.750000
$GPZDA,113930.04,08,10,2011,00,00*60
$GPRMC,113930.00,A,4611.977390,N,01258.179399,E,001.8,137.9,081011,0.2,E,A*31
$GPGGA,113931.00,4611.975059,N,01258.183851,E,1,05,5.2,142.60,M,46.25,M,,*6F
$GPGLL,4611.975059,N,01258.183851,E,113931.00,A,A*6C
$GPVTG,166.3,T,166.4,M,000.1,N,000.3,K,A*26
$GPGSV,2,1,08,16,19,307,,21,61,181,43,05,18,050,40,06,17,269,*72
$GPGSV,2,2,08,25,27,132,42,29,54,064,42,30,69,155,46,31,40,232,47*72
$GPGSA,M,3,21,05,29,30,31,,,,,,,,6.6,5.2,4.1*30
Trace #5 at position 1.000000
$GPZDA,113931.03,08,10,2011,00,00*66
$GPRMC,113931.00,A,4611.975059,N,01258.183851,E,000.1,166.3,081011,0.2,E,A*38
$GPGGA,113932.00,4611.973217,N,01258.187580,E,1,05,5.2,142.33,M,46.25,M,,*61
$GPGLL,4611.973217,N,01258.187580,E,113932.00,A,A*64
$GPVTG,333.4,T,333.6,M,000.8,N,001.5,K,A*2D
$GPGSV,2,1,08,16,19,307,,21,61,181,44,05,18,050,40,06,17,269,*75
$GPGSV,2,2,08,25,27,132,42,29,54,064,42,30,69,155,46,31,40,231,44*72
$GPGSA,M,3,21,05,29,30,31,,,,,,,,6.7,5.2,4.1*31
Trace #6 at position 1.250000
$GPZDA,113931.03,08,10,2011,00,00*66
$GPRMC,113931.00,A,4611.975059,N,01258.183851,E,000.1,166.3,081011,0.2,E,A*38
$GPGGA,113932.00,4611.973217,N,01258.187580,E,1,05,5.2,142.33,M,46.25,M,,*61
$GPGLL,4611.973217,N,01258.187580,E,113932.00,A,A*64
$GPVTG,333.4,T,333.6,M,000.8,N,001.5,K,A*2D
$GPGSV,2,1,08,16,19,307,,21,61,181,44,05,18,050,40,06,17,269,*75
$GPGSV,2,2,08,25,27,132,42,29,54,064,42,30,69,155,46,31,40,231,44*72
$GPGSA,M,3,21,05,29,30,31,,,,,,,,6.7,5.2,4.1*31
Trace #7 at position 1.500000
$GPZDA,113932.03,08,10,2011,00,00*65
$GPRMC,113932.00,A,4611.973217,N,01258.187580,E,000.8,333.4,081011,0.2,E,A*3C
$GPGGA,113933.00,4611.971359,N,01258.191213,E,1,06,1.6,141.57,M,46.25,M,,*61
$GPGLL,4611.971359,N,01258.191213,E,113933.00,A,A*66
$GPVTG,344.7,T,344.9,M,000.4,N,000.8,K,A*21
$GPGSV,2,1,08,16,19,307,,21,61,181,44,05,18,050,40,06,17,269,*75
$GPGSV,2,2,08,25,27,132,42,29,54,064,41,30,69,155,46,31,40,231,43*76
$GPGSA,M,3,21,05,25,29,30,31,,,,,,,2.6,1.6,2.0*34
Trace #8 at position 1.750000
$GPZDA,113932.03,08,10,2011,00,00*65
$GPRMC,113932.00,A,4611.973217,N,01258.187580,E,000.8,333.4,081011,0.2,E,A*3C
$GPGGA,113933.00,4611.971359,N,01258.191213,E,1,06,1.6,141.57,M,46.25,M,,*61
$GPGLL,4611.971359,N,01258.191213,E,113933.00,A,A*66
$GPVTG,344.7,T,344.9,M,000.4,N,000.8,K,A*21
$GPGSV,2,1,08,16,19,307,,21,61,181,44,05,18,050,40,06,17,269,*75
$GPGSV,2,2,08,25,27,132,42,29,54,064,41,30,69,155,46,31,40,231,43*76
$GPGSA,M,3,21,05,25,29,30,31,,,,,,,2.6,1.6,2.0*34
Trace #9 at position 2.000000
$GPZDA,113933.04,08,10,2011,00,00*63
$GPRMC,113933.00,A,4611.971359,N,01258.191213,E,000.4,344.7,081011,0.2,E,A*31
$GPGGA,113934.00,4611.969714,N,01258.194528,E,1,06,1.6,140.83,M,46.25,M,,*60
$GPGLL,4611.969714,N,01258.194528,E,113934.00,A,A*6F
$GPVTG,357.7,T,357.9,M,000.7,N,001.4,K,A*2F
$GPGSV,2,1,08,16,19,307,,21,61,181,45,05,18,050,39,06,17,269,*7A
$GPGSV,2,2,08,25,27,132,42,29,54,064,42,30,69,155,47,31,40,231,43*74
$GPGSA,M,3,21,05,25,29,30,31,,,,,,,2.6,1.6,2.0*34
Trace #10 at position 2.250000
$GPZDA,113933.04,08,10,2011,00,00*63
$GPRMC,113933.00,A,4611.971359,N,01258.191213,E,000.4,344.7,081011,0.2,E,A*31
$GPGGA,113934.00,4611.969714,N,01258.194528,E,1,06,1.6,140.83,M,46.25,M,,*60
$GPGLL,4611.969714,N,01258.194528,E,113934.00,A,A*6F
$GPVTG,357.7,T,357.9,M,000.7,N,001.4,K,A*2F
$GPGSV,2,1,08,16,19,307,,21,61,181,45,05,18,050,39,06,17,269,*7A
$GPGSV,2,2,08,25,27,132,42,29,54,064,42,30,69,155,47,31,40,231,43*74
$GPGSA,M,3,21,05,25,29,30,31,,,,,,,2.6,1.6,2.0*34
Trace #11 at position 2.500000
$GPZDA,113934.03,08,10,2011,00,00*63
$GPRMC,113934.00,A,4611.969714,N,01258.194528,E,000.7,357.7,081011,0.2,E,A*39
$GPGGA,113935.00,4611.968301,N,01258.197479,E,1,06,1.6,140.17,M,46.25,M,,*6B
$GPGLL,4611.968301,N,01258.197479,E,113935.00,A,A*69
$GPVTG,345.5,T,345.7,M,000.8,N,001.5,K,A*2D
$GPGSV,2,1,08,16,19,307,,21,61,181,44,05,18,050,40,06,17,269,*75
$GPGSV,2,2,08,25,27,132,44,29,54,064,42,30,69,155,47,31,40,231,45*74
$GPGSA,M,3,21,05,25,29,30,31,,,,,,,2.6,1.6,2.0*34
Trace #12 at position 2.750000
$GPZDA,113934.03,08,10,2011,00,00*63
$GPRMC,113934.00,A,4611.969714,N,01258.194528,E,000.7,357.7,081011,0.2,E,A*39
$GPGGA,113935.00,4611.968301,N,01258.197479,E,1,06,1.6,140.17,M,46.25,M,,*6B
$GPGLL,4611.968301,N,01258.197479,E,113935.00,A,A*69
$GPVTG,345.5,T,345.7,M,000.8,N,001.5,K,A*2D
$GPGSV,2,1,08,16,19,307,,21,61,181,44,05,18,050,40,06,17,269,*75
$GPGSV,2,2,08,25,27,132,44,29,54,064,42,30,69,155,47,31,40,231,45*74
$GPGSA,M,3,21,05,25,29,30,31,,,,,,,2.6,1.6,2.0*34
Trace #13 at position 3.000000
$GPZDA,113935.03,08,10,2011,00,00*62
$GPRMC,113935.00,A,4611.968301,N,01258.197479,E,000.8,345.5,081011,0.2,E,A*31
$GPGGA,113936.00,4611.967071,N,01258.200113,E,1,06,1.6,139.62,M,46.25,M,,*6B
$GPGLL,4611.967071,N,01258.200113,E,113936.00,A,A*65
$GPVTG,355.0,T,355.2,M,000.9,N,001.6,K,A*2F
$GPGSV,2,1,08,16,19,307,,21,61,181,44,05,18,050,41,06,17,269,*74
$GPGSV,2,2,08,25,27,132,42,29,54,064,43,30,69,155,47,31,40,231,45*73
$GPGSA,M,3,21,05,25,29,30,31,,,,,,,2.6,1.6,2.0*34
Trace #14 at position 3.250000
$GPZDA,113935.03,08,10,2011,00,00*62
$GPRMC,113935.00,A,4611.968301,N,01258.197479,E,000.8,345.5,081011,0.2,E,A*31
$GPGGA,113936.00,4611.967071,N,01258.200113,E,1,06,1.6,139.62,M,46.25,M,,*6B
$GPGLL,4611.967071,N,01258.200113,E,113936.00,A,A*65
$GPVTG,355.0,T,355.2,M,000.9,N,001.6,K,A*2F
$GPGSV,2,1,08,16,19,307,,21,61,181,44,05,18,050,41,06,17,269,*74
$GPGSV,2,2,08,25,27,132,42,29,54,064,43,30,69,155,47,31,40,231,45*73
$GPGSA,M,3,21,05,25,29,30,31,,,,,,,2.6,1.6,2.0*34
Trace #15 at position 3.500000
$GPZDA,113937.03,08,10,2011,00,00*60
$GPRMC,113937.00,A,4611.965989,N,01258.202399,E,001.0,321.0,081011,0.2,E,A*3C
$GPGGA,113938.00,4611.965029,N,01258.204427,E,1,06,1.6,138.78,M,46.25,M,,*66
$GPGLL,4611.965029,N,01258.204427,E,113938.00,A,A*62
$GPVTG,347.6,T,347.8,M,000.8,N,001.4,K,A*20
$GPGSV,2,1,08,16,19,307,,21,61,181,45,05,18,050,37,06,17,269,*74
$GPGSV,2,2,08,25,27,132,45,29,54,064,42,30,69,155,45,31,40,231,46*74
$GPGSA,M,3,21,05,25,29,30,31,,,,,,,2.6,1.6,2.0*34
Trace #16 at position 3.750000
$GPZDA,113938.04,08,10,2011,00,00*68
$GPRMC,113938.00,A,4611.965029,N,01258.204427,E,000.8,347.6,081011,0.2,E,A*3B
$GPGGA,113939.00,4611.964226,N,01258.206336,E,1,06,1.6,138.47,M,46.25,M,,*62
$GPGLL,4611.964226,N,01258.206336,E,113939.00,A,A*6A
$GPVTG,355.5,T,355.7,M,001.0,N,001.9,K,A*28
$GPGSV,2,1,08,16,19,307,,21,61,181,45,05,18,050,37,06,17,269,*74
$GPGSV,2,2,08,25,27,132,44,29,54,064,42,30,69,155,45,31,40,231,45*76
$GPGSA,M,3,21,05,25,29,30,31,,,,,,,2.6,1.6,2.0*34
Trace #17 at position 4.000000
$GPZDA,113938.04,08,10,2011,00,00*68
$GPRMC,113938.00,A,4611.965029,N,01258.204427,E,000.8,347.6,081011,0.2,E,A*3B
$GPGGA,113939.00,4611.964226,N,01258.206336,E,1,06,1.6,138.47,M,46.25,M,,*62
$GPGLL,4611.964226,N,01258.206336,E,113939.00,A,A*6A
$GPVTG,355.5,T,355.7,M,001.0,N,001.9,K,A*28
$GPGSV,2,1,08,16,19,307,,21,61,181,45,05,18,050,37,06,17,269,*74
$GPGSV,2,2,08,25,27,132,44,29,54,064,42,30,69,155,45,31,40,231,45*76
$GPGSA,M,3,21,05,25,29,30,31,,,,,,,2.6,1.6,2.0*34
Trace #18 at position 4.250000
$GPZDA,113938.04,08,10,2011,00,00*68
$GPRMC,113938.00,A,4611.965029,N,01258.204427,E,000.8,347.6,081011,0.2,E,A*3B
$GPGGA,113939.00,4611.964226,N,01258.206336,E,1,06,1.6,138.47,M,46.25,M,,*62
$GPGLL,4611.964226,N,01258.206336,E,113939.00,A,A*6A
$GPVTG,355.5,T,355.7,M,001.0,N,001.9,K,A*28
$GPGSV,2,1,08,16,19,307,,21,61,181,45,05,18,050,37,06,17,269,*74
$GPGSV,2,2,08,25,27,132,44,29,54,064,42,30,69,155,45,31,40,231,45*76
$GPGSA,M,3,21,05,25,29,30,31,,,,,,,2.6,1.6,2.0*34
Trace #19 at position 4.500000
$GPZDA,113939.03,08,10,2011,00,00*6E
$GPRMC,113939.00,A,4611.964226,N,01258.206336,E,001.0,355.5,081011,0.2,E,A*3A
$GPGGA,113940.00,4611.963477,N,01258.208014,E,1,06,1.6,138.14,M,46.25,M,,*62
$GPGLL,4611.963477,N,01258.208014,E,113940.00,A,A*6C
$GPVTG,318.8,T,319.0,M,000.5,N,000.9,K,A*26
$GPGSV,2,1,08,16,19,307,,21,61,181,43,05,17,050,37,06,17,269,*7D
$GPGSV,2,2,08,25,27,132,44,29,54,064,40,30,69,155,43,31,40,231,44*73
$GPGSA,M,3,21,05,25,29,30,31,,,,,,,2.6,1.6,2.0*34
Trace #20 at position 4.750000
$GPZDA,113939.03,08,10,2011,00,00*6E
$GPRMC,113939.00,A,4611.964226,N,01258.206336,E,001.0,355.5,081011,0.2,E,A*3A
$GPGGA,113940.00,4611.963477,N,01258.208014,E,1,06,1.6,138.14,M,46.25,M,,*62
$GPGLL,4611.963477,N,01258.208014,E,113940.00,A,A*6C
$GPVTG,318.8,T,319.0,M,000.5,N,000.9,K,A*26
$GPGSV,2,1,08,16,19,307,,21,61,181,43,05,17,050,37,06,17,269,*7D
$GPGSV,2,2,08,25,27,132,44,29,54,064,40,30,69,155,43,31,40,231,44*73
$GPGSA,M,3,21,05,25,29,30,31,,,,,,,2.6,1.6,2.0*34
Trace #21 at position 5.000000
$GPZDA,113940.03,08,10,2011,00,00*60
$GPRMC,113940.00,A,4611.963477,N,01258.208014,E,000.5,318.8,081011,0.2,E,A*3C
$GPGGA,113941.00,4611.962700,N,01258.209525,E,1,06,1.6,137.75,M,46.25,M,,*6F
$GPGLL,4611.962700,N,01258.209525,E,113941.00,A,A*69
$GPVTG,344.6,T,344.8,M,000.2,N,000.3,K,A*2C
$GPGSV,2,1,08,16,19,307,,21,61,181,44,05,17,050,38,06,17,269,31*77
$GPGSV,2,2,08,25,27,132,44,29,54,064,41,30,69,155,44,31,40,231,45*74
$GPGSA,M,3,21,05,25,29,30,31,,,,,,,2.6,1.6,2.0*34
Trace #22 at position 5.250000
$GPZDA,113940.03,08,10,2011,00,00*60
$GPRMC,113940.00,A,4611.963477,N,01258.208014,E,000.5,318.8,081011,0.2,E,A*3C
$GPGGA,113941.00,4611.962700,N,01258.209525,E,1,06,1.6,137.75,M,46.25,M,,*6F
$GPGLL,4611.962700,N,01258.209525,E,113941.00,A,A*69
$GPVTG,344.6,T,344.8,M,000.2,N,000.3,K,A*2C
$GPGSV,2,1,08,16,19,307,,21,61,181,44,05,17,050,38,06,17,269,31*77
$GPGSV,2,2,08,25,27,132,44,29,54,064,41,30,69,155,44,31,40,231,45*74
$GPGSA,M,3,21,05,25,29,30,31,,,,,,,2.6,1.6,2.0*34
Trace #23 at position 5.500000
$GPZDA,113940.03,08,10,2011,00,00*60
$GPRMC,113940.00,A,4611.963477,N,01258.208014,E,000.5,318.8,081011,0.2,E,A*3C
$GPGGA,113941.00,4611.962700,N,01258.209525,E,1,06,1.6,137.75,M,46.25,M,,*6F
$GPGLL,4611.962700,N,01258.209525,E,113941.00,A,A*69
$GPVTG,344.6,T,344.8,M,000.2,N,000.3,K,A*2C
$GPGSV,2,1,08,16,19,307,,21,61,181,44,05,17,050,38,06,17,269,31*77
$GPGSV,2,2,08,25,27,132,44,29,54,064,41,30,69,155,44,31,40,231,45*74
$GPGSA,M,3,21,05,25,29,30,31,,,,,,,2.6,1.6,2.0*34
Trace #24 at position 5.750000
$GPZDA,113941.04,08,10,2011,00,00*66
$GPRMC,113941.00,A,4611.962700,N,01258.209525,E,000.2,344.6,081011,0.2,E,A*39
$GPGGA,113942.00,4611.962189,N,01258.210808,E,1,06,1.6,137.15,M,46.25,M,,*67
$GPGLL,4611.962189,N,01258.210808,E,113942.00,A,A*67
$GPVTG,337.9,T,338.1,M,001.8,N,003.4,K,A*2A
$GPGSV,2,1,08,16,19,307,,21,61,181,44,05,17,050,,06,17,269,32*7F
$GPGSV,2,2,08,25,27,132,43,29,54,064,41,30,69,155,45,31,39,231,44*7D
$GPGSA,M,3,21,05,25,29,30,31,,,,,,,2.6,1.6,2.0*34
Trace #25 at position 6.000000
$GPZDA,113941.04,08,10,2011,00,00*66
$GPRMC,113941.00,A,4611.962700,N,01258.209525,E,000.2,344.6,081011,0.2,E,A*39
$GPGGA,113942.00,4611.962189,N,01258.210808,E,1,06,1.6,137.15,M,46.25,M,,*67
$GPGLL,4611.962189,N,01258.210808,E,113942.00,A,A*67
$GPVTG,337.9,T,338.1,M,001.8,N,003.4,K,A*2A
$GPGSV,2,1,08,16,19,307,,21,61,181,44,05,17,050,,06,17,269,32*7F
$GPGSV,2,2,08,25,27,132,43,29,54,064,41,30,69,155,45,31,39,231,44*7D
$GPGSA,M,3,21,05,25,29,30,31,,,,,,,2.6,1.6,2.0*34
Trace #26 at position 6.250000
$GPZDA,113941.04,08,10,2011,00,00*66
$GPRMC,113941.00,A,4611.962700,N,01258.209525,E,000.2,344.6,081011,0.2,E,A*39
$GPGGA,113942.00,4611.962189,N,01258.210808,E,1,06,1.6,137.15,M,46.25,M,,*67
$GPGLL,4611.962189,N,01258.210808,E,113942.00,A,A*67
$GPVTG,337.9,T,338.1,M,001.8,N,003.4,K,A*2A
$GPGSV,2,1,08,16,19,307,,21,61,181,44,05,17,050,,06,17,269,32*7F
$GPGSV,2,2,08,25,27,132,43,29,54,064,41,30,69,155,45,31,39,231,44*7D
$GPGSA,M,3,21,05,25,29,30,31,,,,,,,2.6,1.6,2.0*34
Trace #27 at position 6.500000
$GPZDA,113942.04,08,10,2011,00,00*65
$GPRMC,113942.00,A,4611.962189,N,01258.210808,E,001.8,337.9,081011,0.2,E,A*37
$GPGGA,113943.00,4611.961845,N,01258.211901,E,1,06,1.6,136.65,M,46.25,M,,*63
$GPGLL,4611.961845,N,01258.211901,E,113943.00,A,A*65
$GPVTG,337.7,T,337.8,M,000.9,N,001.6,K,A*22
$GPGSV,2,1,08,16,19,307,,21,61,181,46,05,17,050,38,06,17,269,*77
$GPGSV,2,2,08,25,27,132,43,29,54,064,41,30,69,155,46,31,39,231,46*7C
$GPGSA,M,3,21,05,25,29,30,31,,,,,,,2.6,1.6,2.0*34
Trace #28 at position 6.750000
$GPZDA,113942.04,08,10,2011,00,00*65
$GPRMC,113942.00,A,4611.962189,N,01258.210808,E,001.8,337.9,081011,0.2,E,A*37
$GPGGA,113943.00,4611.961845,N,01258.211901,E,1,06,1.6,136.65,M,46.25,M,,*63
$GPGLL,4611.961845,N,01258.211901,E,113943.00,A,A*65
$GPVTG,337.7,T,337.8,M,000.9,N,001.6,K,A*22
$GPGSV,2,1,08,16,19,307,,21,61,181,46,05,17,050,38,06,17,269,*77
$GPGSV,2,2,08,25,27,132,43,29,54,064,41,30,69,155,46,31,39,231,46*7C
$GPGSA,M,3,21,05,25,29,30,31,,,,,,,2.6,1.6,2.0*34
Trace #29 at position 7.000000
$GPZDA,113943.04,08,10,2011,00,00*64
$GPRMC,113943.00,A,4611.961845,N,01258.211901,E,000.9,337.7,081011,0.2,E,A*3B
$GPGGA,113944.00,4611.961494,N,01258.212865,E,1,06,1.6,136.39,M,46.25,M,,*6D
$GPGLL,4611.961494,N,01258.212865,E,113944.00,A,A*62
$GPVTG,328.1,T,328.3,M,001.3,N,002.4,K,A*25
$GPGSV,2,1,08,16,19,307,,21,61,181,44,05,17,050,38,06,17,269,*75
$GPGSV,2,2,08,25,27,132,43,29,54,064,41,30,69,155,45,31,39,231,45*7C
$GPGSA,M,3,21,05,25,29,30,31,,,,,,,2.6,1.6,2.0*34
Trace #30 at position 7.250000
$GPZDA,113943.04,08,10,2011,00,00*64
$GPRMC,113943.00,A,4611.961845,N,01258.211901,E,000.9,337.7,081011,0.2,E,A*3B
$GPGGA,113944.00,4611.961494,N,01258.212865,E,1,06,1.6,136.39,M,46.25,M,,*6D
$GPGLL,4611.961494,N,01258.212865,E,113944.00,A,A*62
$GPVTG,328.1,T,328.3,M,001.3,N,002.4,K,A*25
$GPGSV,2,1,08,16,19,307,,21,61,181,44,05,17,050,38,06,17,269,*75
$GPGSV,2,2,08,25,27,132,43,29,54,064,41,30,69,155,45,31,39,231,45*7C
$GPGSA,M,3,21,05,25,29,30,31,,,,,,,2.6,1.6,2.0*34
Trace #31 at position 7.500000
$GPZDA,113943.04,08,10,2011,00,00*64
$GPRMC,113943.00,A,4611.961845,N,01258.211901,E,000.9,337.7,081011,0.2,E,A*3B
$GPGGA,113944.00,4611.961494,N,01258.212865,E,1,06,1.6,136.39,M,46.25,M,,*6D
$GPGLL,4611.961494,N,01258.212865,E,113944.00,A,A*62
$GPVTG,328.1,T,328.3,M,001.3,N,002.4,K,A*25
$GPGSV,2,1,08,16,19,307,,21,61,181,44,05,17,050,38,06,17,269,*75
$GPGSV,2,2,08,25,27,132,43,29,54,064,41,30,69,155,45,31,39,231,45*7C
$GPGSA,M,3,21,05,25,29,30,31,,,,,,,2.6,1.6,2.0*34
Trace #32 at position 7.750000
$GPZDA,113944.03,08,10,2011,00,00*64
$GPRMC,113944.00,A,4611.961494,N,01258.212865,E,001.3,328.1,081011,0.2,E,A*3F
$GPGGA,113945.00,4611.961255,N,01258.213577,E,1,06,1.6,136.10,M,46.25,M,,*63
$GPGLL,4611.961255,N,01258.213577,E,113945.00,A,A*67
$GPVTG,315.6,T,315.7,M,001.6,N,002.9,K,A*2E
$GPGSV,2,1,08,16,19,307,,21,61,181,45,05,17,050,38,06,17,269,29*7F
$GPGSV,2,2,08,25,27,132,43,29,54,064,40,30,69,155,45,31,39,231,45*7D
$GPGSA,M,3,21,05,25,29,30,31,,,,,,,2.6,1.6,2.0*34
Trace #33 at position 8.000000
$GPZDA,113944.03,08,10,2011,00,00*64
$GPRMC,113944.00,A,4611.961494,N,01258.212865,E,001.3,328.1,081011,0.2,E,A*3F
$GPGGA,113945.00,4611.961255,N,01258.213577,E,1,06,1.6,136.10,M,46.25,M,,*63
$GPGLL,4611.961255,N,01258.213577,E,113945.00,A,A*67
$GPVTG,315.6,T,315.7,M,001.6,N,002.9,K,A*2E
$GPGSV,2,1,08,16,19,307,,21,61,181,45,05,17,050,38,06,17,269,29*7F
$GPGSV,2,2,08,25,27,132,43,29,54,064,40,30,69,155,45,31,39,231,45*7D
$GPGSA,M,3,21,05,25,29,30,31,,,,,,,2.6,1.6,2.0*34
Trace #34 at position 8.250000
$GPZDA,113945.03,08,10,2011,00,00*65
$GPRMC,113945.00,A,4611.961255,N,01258.213577,E,001.6,315.6,081011,0.2,E,A*36
$GPGGA,113946.00,4611.961117,N,01258.214279,E,1,06,1.6,135.87,M,46.25,M,,*66
$GPGLL,4611.961117,N,01258.214279,E,113946.00,A,A*6F
$GPVTG,351.0,T,351.2,M,001.4,N,002.6,K,A*20
$GPGSV,2,1,08,16,19,307,,21,61,181,45,05,17,050,39,06,17,269,28*7F
$GPGSV,2,2,08,25,27,132,43,29,54,064,42,30,69,155,45,31,39,231,47*7D
$GPGSA,M,3,21,05,25,29,30,31,,,,,,,2.6,1.6,2.0*34
Trace #35 at position 8.500000
$GPZDA,113945.03,08,10,2011,00,00*65
$GPRMC,113945.00,A,4611.961255,N,01258.213577,E,001.6,315.6,081011,0.2,E,A*36
$GPGGA,113946.00,4611.961117,N,01258.214279,E,1,06,1.6,135.87,M,46.25,M,,*66
$GPGLL,4611.961117,N,01258.214279,E,113946.00,A,A*6F
$GPVTG,351.0,T,351.2,M,001.4,N,002.6,K,A*20
$GPGSV,2,1,08,16,19,307,,21,61,181,45,05,17,050,39,06,17,269,28*7F
$GPGSV,2,2,08,25,27,132,43,29,54,064,42,30,69,155,45,31,39,231,47*7D
$GPGSA,M,3,21,05,25,29,30,31,,,,,,,2.6,1.6,2.0*34
Trace #36 at position 8.750000
$GPZDA,113945.03,08,10,2011,00,00*65
$GPRMC,113945.00,A,4611.961255,N,01258.213577,E,001.6,315.6,081011,0.2,E,A*36
$GPGGA,113946.00,4611.961117,N,01258.214279,E,1,06,1.6,135.87,M,46.25,M,,*66
$GPGLL,4611.961117,N,01258.214279,E,113946.00,A,A*6F
$GPVTG,351.0,T,351.2,M,001.4,N,002.6,K,A*20
$GPGSV,2,1,08,16,19,307,,21,61,181,45,05,17,050,39,06,17,269,28*7F
$GPGSV,2,2,08,25,27,132,43,29,54,064,42,30,69,155,45,31,39,231,47*7D
$GPGSA,M,3,21,05,25,29,30,31,,,,,,,2.6,1.6,2.0*34
Trace #37 at position 9.000000
$GPZDA,113945.03,08,10,2011,00,00*65
$GPRMC,113945.00,A,4611.961255,N,01258.213577,E,001.6,315.6,081011,0.2,E,A*36
$GPGGA,113946.00,4611.961117,N,01258.214279,E,1,06,1.6,135.87,M,46.25,M,,*66
$GPGLL,4611.961117,N,01258.214279,E,113946.00,A,A*6F
$GPVTG,351.0,T,351.2,M,001.4,N,002.6,K,A*20
$GPGSV,2,1,08,16,19,307,,21,61,181,45,05,17,050,39,06,17,269,28*7F
$GPGSV,2,2,08,25,27,132,43,29,54,064,42,30,69,155,45,31,39,231,47*7D
$GPGSA,M,3,21,05,25,29,30,31,,,,,,,2.6,1.6,2.0*34
Trace #38 at position 9.250000
$GPZDA,113946.03,08,10,2011,00,00*66
$GPRMC,113946.00,A,4611.961117,N,01258.214279,E,001.4,351.0,081011,0.2,E,A*3A
$GPGGA,113947.00,4611.960957,N,01258.215030,E,1,06,1.6,135.74,M,46.25,M,,*68
$GPGLL,4611.960957,N,01258.215030,E,113947.00,A,A*6D
$GPVTG,328.1,T,328.3,M,000.7,N,001.3,K,A*24
$GPGSV,2,1,08,16,19,307,,21,61,181,45,05,17,050,37,06,17,269,26*7F
$GPGSV,2,2,08,25,27,132,43,29,54,064,42,30,69,155,45,31,39,231,47*7D
$GPGSA,M,3,21,05,25,29,30,31,,,,,,,2.6,1.6,2.0*34
Trace #39 at position 9.500000
$GPZDA,113946.03,08,10,2011,00,00*66
$GPRMC,113946.00,A,4611.961117,N,01258.214279,E,001.4,351.0,081011,0.2,E,A*3A
$GPGGA,113947.00,4611.960957,N,01258.215030,E,1,06,1.6,135.74,M,46.25,M,,*68
$GPGLL,4611.960957,N,01258.215030,E,113947.00,A,A*6D
$GPVTG,328.1,T,328.3,M,000.7,N,001.3,K,A*24
$GPGSV,2,1,08,16,19,307,,21,61,181,45,05,17,050,37,06,17,269,26*7F
$GPGSV,2,2,08,25,27,132,43,29,54,064,42,30,69,155,45,31,39,231,47*7D
$GPGSA,M,3,21,05,25,29,30,31,,,,,,,2.6,1.6,2.0*34
Trace #40 at position 9.750000
$GPZDA,113946.03,08,10,2011,00,00*66
$GPRMC,113946.00,A,4611.961117,N,01258.214279,E,001.4,351.0,081011,0.2,E,A*3A
$GPGGA,113947.00,4611.960957,N,01258.215030,E,1,06,1.6,135.74,M,46.25,M,,*68
$GPGLL,4611.960957,N,01258.215030,E,113947.00,A,A*6D
$GPVTG,328.1,T,328.3,M,000.7,N,001.3,K,A*24
$GPGSV,2,1,08,16,19,307,,21,61,181,45,05,17,050,37,06,17,269,26*7F
$GPGSV,2,2,08,25,27,132,43,29,54,064,42,30,69,155,45,31,39,231,47*7D
$GPGSA,M,3,21,05,25,29,30,31,,,,,,,2.6,1.6,2.0*34
Trace #41 at position 10.000000
$GPZDA,113947.03,08,10,2011,00,00*67
$GPRMC,113947.00,A,4611.960957,N,01258.215030,E,000.7,328.1,081011,0.2,E,A*35
$GPGGA,113948.00,4611.960777,N,01258.215704,E,1,06,1.6,135.62,M,46.25,M,,*6C
$GPGLL,4611.960777,N,01258.215704,E,113948.00,A,A*6E
$GPVTG,348.7,T,348.9,M,000.9,N,001.7,K,A*22
$GPGSV,2,1,08,16,19,307,,21,61,181,45,05,17,050,39,06,17,269,29*7E
$GPGSV,2,2,08,25,27,132,43,29,54,064,42,30,69,155,44,31,39,231,46*7D
$GPGSA,M,3,21,05,25,29,30,31,,,,,,,2.6,1.6,2.0*34
Trace #42 at position 10.250000
$GPZDA,113947.03,08,10,2011,00,00*67
$GPRMC,113947.00,A,4611.960957,N,01258.215030,E,000.7,328.1,081011,0.2,E,A*35
$GPGGA,113948.00,4611.960777,N,01258.215704,E,1,06,1.6,135.62,M,46.25,M,,*6C
$GPGLL,4611.960777,N,01258.215704,E,113948.00,A,A*6E
$GPVTG,348.7,T,348.9,M,000.9,N,001.7,K,A*22
$GPGSV,2,1,08,16,19,307,,21,61,181,45,05,17,050,39,06,17,269,29*7E
$GPGSV,2,2,08,25,27,132,43,29,54,064,42,30,69,155,44,31,39,231,46*7D
$GPGSA,M,3,21,05,25,29,30,31,,,,,,,2.6,1.6,2.0*34
Trace #43 at position 10.500000
$GPZDA,113947.03,08,10,2011,00,00*67
$GPRMC,113947.00,A,4611.960957,N,01258.215030,E,000.7,328.1,081011,0.2,E,A*35
$GPGGA,113948.00,4611.960777,N,01258.215704,E,1,06,1.6,135.62,M,46.25,M,,*6C
$GPGLL,4611.960777,N,01258.215704,E,113948.00,A,A*6E
$GPVTG,348.7,T,348.9,M,000.9,N,001.7,K,A*22
$GPGSV,2,1,08,16,19,307,,21,61,181,45,05,17,050,39,06,17,269,29*7E
$GPGSV,2,2,08,25,27,132,43,29,54,064,42,30,69,155,44,31,39,231,46*7D
$GPGSA,M,3,21,05,25,29,30,31,,,,,,,2.6,1.6,2.0*34
Trace #44 at position 10.750000
$GPZDA,113947.03,08,10,2011,00,00*67
$GPRMC,113947.00,A,4611.960957,N,01258.215030,E,000.7,328.1,081011,0.2,E,A*35
$GPGGA,113948.00,4611.960777,N,01258.215704,E,1,06,1.6,135.62,M,46.25,M,,*6C
$GPGLL,4611.960777,N,01258.215704,E,113948.00,A,A*6E
$GPVTG,348.7,T,348.9,M,000.9,N,001.7,K,A*22
$GPGSV,2,1,08,16,19,307,,21,61,181,45,05,17,050,39,06,17,269,29*7E
$GPGSV,2,2,08,25,27,132,43,29,54,064,42,30,69,155,44,31,39,231,46*7D
$GPGSA,M,3,21,05,25,29,30,31,,,,,,,2.6,1.6,2.0*34
Trace #45 at position 11.000000
$GPZDA,113948.04,08,10,2011,00,00*6F
$GPRMC,113948.00,A,4611.960777,N,01258.215704,E,000.9,348.7,081011,0.2,E,A*38
$GPGGA,113949.00,4611.960745,N,01258.216323,E,1,06,1.6,135.51,M,46.25,M,,*6E
$GPGLL,4611.960745,N,01258.216323,E,113949.00,A,A*6C
$GPVTG,350.7,T,350.9,M,001.4,N,002.6,K,A*2C
$GPGSV,2,1,08,16,19,307,,21,61,181,45,05,17,050,39,06,17,269,31*77
$GPGSV,2,2,08,25,27,132,43,29,54,064,41,30,69,155,44,31,39,231,45*7D
$GPGSA,M,3,21,05,25,29,30,31,,,,,,,2.6,1.6,2.0*34
Trace #46 at position 11.250000
$GPZDA,113948.04,08,10,2011,00,00*6F
$GPRMC,113948.00,A,4611.960777,N,01258.215704,E,000.9,348.7,081011,0.2,E,A*38
$GPGGA,113949.00,4611.960745,N,01258.216323,E,1,06,1.6,135.51,M,46.25,M,,*6E
$GPGLL,4611.960745,N,01258.216323,E,113949.00,A,A*6C
$GPVTG,350.7,T,350.9,M,001.4,N,002.6,K,A*2C
$GPGSV,2,1,08,16,19,307,,21,61,181,45,05,17,050,39,06,17,269,31*77
$GPGSV,2,2,08,25,27,132,43,29,54,064,41,30,69,155,44,31,39,231,45*7D
$GPGSA,M,3,21,05,25,29,30,31,,,,,,,2.6,1.6,2.0*34
Trace #47 at position 11.500000
$GPZDA,113948.04,08,10,2011,00,00*6F
$GPRMC,113948.00,A,4611.960777,N,01258.215704,E,000.9,348.7,081011,0.2,E,A*38
$GPGGA,113949.00,4611.960745,N,01258.216323,E,1,06,1.6,135.51,M,46.25,M,,*6E
$GPGLL,4611.960745,N,01258.216323,E,113949.00,A,A*6C
$GPVTG,350.7,T,350.9,M,001.4,N,002.6,K,A*2C
$GPGSV,2,1,08,16,19,307,,21,61,181,45,05,17,050,39,06,17,269,31*77
$GPGSV,2,2,08,25,27,132,43,29,54,064,41,30,69,155,44,31,39,231,45*7D
$GPGSA,M,3,21,05,25,29,30,31,,,,,,,2.6,1.6,2.0*34
Trace #48 at position 11.750000
$GPZDA,113949.03,08,10,2011,00,00*69
$GPRMC,113949.00,A,4611.960745,N,01258.216323,E,001.4,350.7,081011,0.2,E,A*3F
$GPGGA,113950.00,4611.960808,N,01258.217018,E,1,06,1.6,135.43,M,46.25,M,,*69
$GPGLL,4611.960808,N,01258.217018,E,113950.00,A,A*68
$GPVTG,359.0,T,359.1,M,001.8,N,003.3,K,A*2B
$GPGSV,2,1,08,16,19,307,,21,61,181,45,05,17,050,39,06,17,269,30*76
$GPGSV,2,2,08,25,27,132,44,29,54,064,42,30,69,155,45,31,39,231,45*78
$GPGSA,M,3,21,05,25,29,30,31,,,,,,,2.6,1.6,2.0*34
Trace #49 at position 12.000000
$GPZDA,113949.03,08,10,2011,00,00*69
$GPRMC,113949.00,A,4611.960745,N,01258.216323,E,001.4,350.7,081011,0.2,E,A*3F
$GPGGA,113950.00,4611.960808,N,01258.217018,E,1,06,1.6,135.43,M,46.25,M,,*69
$GPGLL,4611.960808,N,01258.217018,E,113950.00,A,A*68
$GPVTG,359.0,T,359.1,M,001.8,N,003.3,K,A*2B
$GPGSV,2,1,08,16,19,307,,21,61,181,45,05,17,050,39,06,17,269,30*76
$GPGSV,2,2,08,25,27,132,44,29,54,064,42,30,69,155,45,31,39,231,45*78
$GPGSA,M,3,21,05,25,29,30,31,,,,,,,2.6,1.6,2.0*34
Trace #50 at position 12.250000
$GPZDA,113949.03,08,10,2011,00,00*69
$GPRMC,113949.00,A,4611.960745,N,01258.216323,E,001.4,350.7,081011,0.2,E,A*3F
$GPGGA,113950.00,4611.960808,N,01258.217018,E,1,06,1.6,135.43,M,46.25,M,,*69
$GPGLL,4611.960808,N,01258.217018,E,113950.00,A,A*68
$GPVTG,359.0,T,359.1,M,001.8,N,003.3,K,A*2B
$GPGSV,2,1,08,16,19,307,,21,61,181,45,05,17,050,39,06,17,269,30*76
$GPGSV,2,2,08,25,27,132,44,29,54,064,42,30,69,155,45,31,39,231,45*78
$GPGSA,M,3,21,05,25,29,30,31,,,,,,,2.6,1.6,2.0*34
Trace #51 at position 12.500000
$GPZDA,113950.03,08,10,2011,00,00*61
$GPRMC,113950.00,A,4611.960808,N,01258.217018,E,001.8,359.0,081011,0.2,E,A*39
$GPGGA,113951.00,4611.960951,N,01258.217651,E,1,06,1.6,135.36,M,46.25,M,,*6C
$GPGLL,4611.960951,N,01258.217651,E,113951.00,A,A*6F
$GPVTG,1.8,T,2.0,M,001.7,N,003.1,K,A*2C
$GPGSV,2,1,08,16,19,307,,21,61,181,45,05,17,050,38,06,17,269,29*7F
$GPGSV,2,2,08,25,27,132,45,29,54,064,41,30,69,155,44,31,39,231,45*7B
$GPGSA,M,3,21,05,25,29,30,31,,,,,,,2.6,1.6,2.0*34
Trace #52 at position 12.750000
$GPZDA,113950.03,08,10,2011,00,00*61
$GPRMC,113950.00,A,4611.960808,N,01258.217018,E,001.8,359.0,081011,0.2,E,A*39
$GPGGA,113951.00,4611.960951,N,01258.217651,E,1,06,1.6,135.36,M,46.25,M,,*6C
$GPGLL,4611.960951,N,01258.217651,E,113951.00,A,A*6F
$GPVTG,1.8,T,2.0,M,001.7,N,003.1,K,A*2C
$GPGSV,2,1,08,16,19,307,,21,61,181,45,05,17,050,38,06,17,269,29*7F
$GPGSV,2,2,08,25,27,132,45,29,54,064,41,30,69,155,44,31,39,231,45*7B
$GPGSA,M,3,21,05,25,29,30,31,,,,,,,2.6,1.6,2.0*34
Trace #53 at position 13.000000
$GPZDA,113950.03,08,10,2011,00,00*61
$GPRMC,113950.00,A,4611.960808,N,01258.217018,E,001.8,359.0,081011,0.2,E,A*39
$GPGGA,113951.00,4611.960951,N,01258.217651,E,1,06,1.6,135.36,M,46.25,M,,*6C
$GPGLL,4611.960951,N,01258.217651,E,113951.00,A,A*6F
$GPVTG,1.8,T,2.0,M,001.7,N,003.1,K,A*2C
$GPGSV,2,1,08,16,19,307,,21,61,181,45,05,17,050,38,06,17,269,29*7F
$GPGSV,2,2,08,25,27,132,45,29,54,064,41,30,69,155,44,31,39,231,45*7B
$GPGSA,M,3,21,05,25,29,30,31,,,,,,,2.6,1.6,2.0*34
Trace #54 at position 13.250000
$GPZDA,113951.03,08,10,2011,00,00*60
$GPRMC,113951.00,A,4611.960951,N,01258.217651,E,001.7,1.8,081011,0.2,E,A*37
$GPGGA,113952.00,4611.961099,N,01258.218074,E,1,06,1.6,135.31,M,46.25,M,,*6A
$GPGLL,4611.961099,N,01258.218074,E,113952.00,A,A*6E
$GPVTG,336.8,T,336.9,M,001.6,N,003.0,K,A*26
$GPGSV,2,1,08,16,19,307,,21,61,181,46,05,17,050,38,06,17,269,27*72
$GPGSV,2,2,08,25,27,132,43,29,54,064,42,30,69,155,44,31,39,231,46*7D
$GPGSA,M,3,21,05,25,29,30,31,,,,,,,2.6,1.6,2.0*34
Trace #55 at position 13.500000
$GPZDA,113951.03,08,10,2011,00,00*60
$GPRMC,113951.00,A,4611.960951,N,01258.217651,E,001.7,1.8,081011,0.2,E,A*37
$GPGGA,113952.00,4611.961099,N,01258.218074,E,1,06,1.6,135.31,M,46.25,M,,*6A
$GPGLL,4611.961099,N,01258.218074,E,113952.00,A,A*6E
$GPVTG,336.8,T,336.9,M,001.6,N,003.0,K,A*26
$GPGSV,2,1,08,16,19,307,,21,61,181,46,05,17,050,38,06,17,269,27*72
$GPGSV,2,2,08,25,27,132,43,29,54,064,42,30,69,155,44,31,39,231,46*7D
$GPGSA,M,3,21,05,25,29,30,31,,,,,,,2.6,1.6,2.0*34
Trace #56 at position 13.750000
$GPZDA,113951.03,08,10,2011,00,00*60
$GPRMC,113951.00,A,4611.960951,N,01258.217651,E,001.7,1.8,081011,0.2,E,A*37
$GPGGA,113952.00,4611.961099,N,01258.218074,E,1,06,1.6,135.31,M,46.25,M,,*6A
$GPGLL,4611.961099,N,01258.218074,E,113952.00,A,A*6E
$GPVTG,336.8,T,336.9,M,001.6,N,003.0,K,A*26
$GPGSV,2,1,08,16,19,307,,21,61,181,46,05,17,050,38,06,17,269,27*72
$GPGSV,2,2,08,25,27,132,43,29,54,064,42,30,69,155,44,31,39,231,46*7D
$GPGSA,M,3,21,05,25,29,30,31,,,,,,,2.6,1.6,2.0*34
Trace #57 at position 14.000000
$GPZDA,113951.03,08,10,2011,00,00*60
$GPRMC,113951.00,A,4611.960951,N,01258.217651,E,001.7,1.8,081011,0.2,E,A*37
$GPGGA,113952.00,4611.961099,N,01258.218074,E,1,06,1.6,135.31,M,46.25,M,,*6A
$GPGLL,4611.961099,N,01258.218074,E,113952.00,A,A*6E
$GPVTG,336.8,T,336.9,M,001.6,N,003.0,K,A*26
$GPGSV,2,1,08,16,19,307,,21,61,181,46,05,17,050,38,06,17,269,27*72
$GPGSV,2,2,08,25,27,132,43,29,54,064,42,30,69,155,44,31,39,231,46*7D
$GPGSA,M,3,21,05,25,29,30,31,,,,,,,2.6,1.6,2.0*34
Trace #58 at position 14.250000
$GPZDA,113952.03,08,10,2011,00,00*63
$GPRMC,113952.00,A,4611.961099,N,01258.218074,E,001.6,336.8,081011,0.2,E,A*30
$GPGGA,113953.00,4611.961302,N,01258.218367,E,1,06,1.6,135.19,M,46.25,M,,*61
$GPGLL,4611.961302,N,01258.218367,E,113953.00,A,A*6F
$GPVTG,350.4,T,350.6,M,001.9,N,003.4,K,A*2E
$GPGSV,2,1,08,16,19,307,,21,61,181,45,05,17,050,38,06,17,269,30*77
$GPGSV,2,2,08,25,27,132,44,29,54,064,42,30,69,155,44,31,39,231,45*79
$GPGSA,M,3,21,05,25,29,30,31,,,,,,,2.6,1.6,2.0*34
Trace #59 at position 14.500000
$GPZDA,113952.03,08,10,2011,00,00*63
$GPRMC,113952.00,A,4611.961099,N,01258.218074,E,001.6,336.8,081011,0.2,E,A*30
$GPGGA,113953.00,4611.961302,N,01258.218367,E,1,06,1.6,135.19,M,46.25,M,,*61
$GPGLL,4611.961302,N,01258.218367,E,113953.00,A,A*6F
$GPVTG,350.4,T,350.6,M,001.9,N,003.4,K,A*2E
$GPGSV,2,1,08,16,19,307,,21,61,181,45,05,17,050,38,06,17,269,30*77
$GPGSV,2,2,08,25,27,132,44,29,54,064,42,30,69,155,44,31,39,231,45*79
$GPGSA,M,3,21,05,25,29,30,31,,,,,,,2.6,1.6,2.0*34
Trace #60 at position 14.750000
$GPZDA,113953.04,08,10,2011,00,00*65
$GPRMC,113953.00,A,4611.961302,N,01258.218367,E,001.9,350.4,081011,0.2,E,A*32
$GPGGA,113954.00,4611.961517,N,01258.218728,E,1,06,1.6,135.08,M,46.25,M,,*6B
$GPGLL,4611.961517,N,01258.218728,E,113954.00,A,A*65
$GPVTG,3.4,T,3.6,M,001.4,N,002.6,K,A*20
$GPGSV,2,1,08,16,19,307,,21,61,181,46,05,17,050,40,06,17,269,*78
$GPGSV,2,2,08,25,27,132,43,29,54,064,41,30,69,155,45,31,39,231,45*7C
$GPGSA,M,3,21,05,25,29,30,31,,,,,,,2.6,1.6,2.0*34
Trace #61 at position 15.000000
$GPZDA,113953.04,08,10,2011,00,00*65
$GPRMC,113953.00,A,4611.961302,N,01258.218367,E,001.9,350.4,081011,0.2,E,A*32
$GPGGA,113954.00,4611.961517,N,01258.218728,E,1,06,1.6,135.08,M,46.25,M,,*6B
$GPGLL,4611.961517,N,01258.218728,E,113954.00,A,A*65
$GPVTG,3.4,T,3.6,M,001.4,N,002.6,K,A*20
$GPGSV,2,1,08,16,19,307,,21,61,181,46,05,17,050,40,06,17,269,*78
$GPGSV,2,2,08,25,27,132,43,29,54,064,41,30,69,155,45,31,39,231,45*7C
$GPGSA,M,3,21,05,25,29,30,31,,,,,,,2.6,1.6,2.0*34
Trace #62 at position 15.250000
$GPZDA,113953.04,08,10,2011,00,00*65
$GPRMC,113953.00,A,4611.961302,N,01258.218367,E,001.9,350.4,081011,0.2,E,A*32
$GPGGA,113954.00,4611.961517,N,01258.218728,E,1,06,1.6,135.08,M,46.25,M,,*6B
$GPGLL,4611.961517,N,01258.218728,E,113954.00,A,A*65
$GPVTG,3.4,T,3.6,M,001.4,N,002.6,K,A*20
$GPGSV,2,1,08,16,19,307,,21,61,181,46,05,17,050,40,06,17,269,*78
$GPGSV,2,2,08,25,27,132,43,29,54,064,41,30,69,155,45,31,39,231,45*7C
$GPGSA,M,3,21,05,25,29,30,31,,,,,,,2.6,1.6,2.0*34
Trace #63 at position 15.500000
$GPZDA,113954.04,08,10,2011,00,00*62
$GPRMC,113954.00,A,4611.961517,N,01258.218728,E,001.4,3.4,081011,0.2,E,A*30
$GPGGA,113955.00,4611.961642,N,01258.219064,E,1,06,1.6,135.10,M,46.25,M,,*6E
$GPGLL,4611.961642,N,01258.219064,E,113955.00,A,A*69
$GPVTG,355.5,T,355.7,M,000.9,N,001.7,K,A*2E
$GPGSV,2,1,08,16,19,307,,21,61,181,45,05,17,050,40,06,17,269,32*7A
$GPGSV,2,2,08,25,27,132,44,29,54,064,42,30,69,155,45,31,39,231,46*7B
$GPGSA,M,3,21,05,25,29,30,31,,,,,,,2.6,1.6,2.0*34
Trace #64 at position 15.750000
$GPZDA,113954.04,08,10,2011,00,00*62
$GPRMC,113954.00,A,4611.961517,N,01258.218728,E,001.4,3.4,081011,0.2,E,A*30
$GPGGA,113955.00,4611.961642,N,01258.219064,E,1,06,1.6,135.10,M,46.25,M,,*6E
$GPGLL,4611.961642,N,01258.219064,E,113955.00,A,A*69
$GPVTG,355.5,T,355.7,M,000.9,N,001.7,K,A*2E
$GPGSV,2,1,08,16,19,307,,21,61,181,45,05,17,050,40,06,17,269,32*7A
$GPGSV,2,2,08,25,27,132,44,29,54,064,42,30,69,155,45,31,39,231,46*7B
$GPGSA,M,3,21,05,25,29,30,31,,,,,,,2.6,1.6,2.0*34
Trace #65 at position 16.000000
$GPZDA,113954.04,08,10,2011,00,00*62
$GPRMC,113954.00,A,4611.961517,N,01258.218728,E,001.4,3.4,081011,0.2,E,A*30
$GPGGA,113955.00,4611.961642,N,01258.219064,E,1,06,1.6,135.10,M,46.25,M,,*6E
$GPGLL,4611.961642,N,01258.219064,E,113955.00,A,A*69
$GPVTG,355.5,T,355.7,M,000.9,N,001.7,K,A*2E
$GPGSV,2,1,08,16,19,307,,21,61,181,45,05,17,050,40,06,17,269,32*7A
$GPGSV,2,2,08,25,27,132,44,29,54,064,42,30,69,155,45,31,39,231,46*7B
$GPGSA,M,3,21,05,25,29,30,31,,,,,,,2.6,1.6,2.0*34
Trace #66 at position 16.250000
$GPZDA,113955.03,08,10,2011,00,00*64
$GPRMC,113955.00,A,4611.961642,N,01258.219064,E,000.9,355.5,081011,0.2,E,A*31
$GPGGA,113956.00,4611.961822,N,01258.219168,E,1,06,1.6,135.12,M,46.25,M,,*6A
$GPGLL,4611.961822,N,01258.219168,E,113956.00,A,A*6F
$GPVTG,331.9,T,332.1,M,001.8,N,003.4,K,A*26
$GPGSV,2,1,08,16,19,307,,21,61,181,44,05,17,050,37,06,17,269,30*79
$GPGSV,2,2,08,25,27,132,42,29,54,064,40,30,69,155,45,31,39,231,45*7C
$GPGSA,M,3,21,05,25,29,30,31,,,,,,,2.6,1.6,2.0*34
Trace #67 at position 16.500000
$GPZDA,113955.03,08,10,2011,00,00*64
$GPRMC,113955.00,A,4611.961642,N,01258.219064,E,000.9,355.5,081011,0.2,E,A*31
$GPGGA,113956.00,4611.961822,N,01258.219168,E,1,06,1.6,135.12,M,46.25,M,,*6A
$GPGLL,4611.961822,N,01258.219168,E,113956.00,A,A*6F
$GPVTG,331.9,T,332.1,M,001.8,N,003.4,K,A*26
$GPGSV,2,1,08,16,19,307,,21,61,181,44,05,17,050,37,06,17,269,30*79
$GPGSV,2,2,08,25,27,132,42,29,54,064,40,30,69,155,45,31,39,231,45*7C
$GPGSA,M,3,21,05,25,29,30,31,,,,,,,2.6,1.6,2.0*34
Trace #68 at position 16.750000
$GPZDA,113955.03,08,10,2011,00,00*64
$GPRMC,113955.00,A,4611.961642,N,01258.219064,E,000.9,355.5,081011,0.2,E,A*31
$GPGGA,113956.00,4611.961822,N,01258.219168,E,1,06,1.6,135.12,M,46.25,M,,*6A
$GPGLL,4611.961822,N,01258.219168,E,113956.00,A,A*6F
$GPVTG,331.9,T,332.1,M,001.8,N,003.4,K,A*26
$GPGSV,2,1,08,16,19,307,,21,61,181,44,05,17,050,37,06,17,269,30*79
$GPGSV,2,2,08,25,27,132,42,29,54,064,40,30,69,155,45,31,39,231,45*7C
$GPGSA,M,3,21,05,25,29,30,31,,,,,,,2.6,1.6,2.0*34
Trace #69 at position 17.000000
$GPZDA,113956.03,08,10,2011,00,00*67
$GPRMC,113956.00,A,4611.961822,N,01258.219168,E,001.8,331.9,081011,0.2,E,A*39
$GPGGA,113957.00,4611.962065,N,01258.219129,E,1,06,1.6,135.01,M,46.25,M,,*64
$GPGLL,4611.962065,N,01258.219129,E,113957.00,A,A*63
$GPVTG,329.4,T,329.6,M,001.4,N,002.6,K,A*20
$GPGSV,2,1,08,16,19,307,,21,61,181,44,05,17,050,37,06,17,269,31*78
$GPGSV,2,2,08,25,27,132,42,29,54,064,40,30,69,155,45,31,39,231,44*7D
$GPGSA,M,3,21,05,25,29,30,31,,,,,,,2.6,1.6,2.0*34
Trace #70 at position 17.250000
$GPZDA,113956.03,08,10,2011,00,00*67
$GPRMC,113956.00,A,4611.961822,N,01258.219168,E,001.8,331.9,081011,0.2,E,A*39
$GPGGA,113957.00,4611.962065,N,01258.219129,E,1,06,1.6,135.01,M,46.25,M,,*64
$GPGLL,4611.962065,N,01258.219129,E,113957.00,A,A*63
$GPVTG,329.4,T,329.6,M,001.4,N,002.6,K,A*20
$GPGSV,2,1,08,16,19,307,,21,61,181,44,05,17,050,37,06,17,269,31*78
$GPGSV,2,2,08,25,27,132,42,29,54,064,40,30,69,155,45,31,39,231,44*7D
$GPGSA,M,3,21,05,25,29,30,31,,,,,,,2.6,1.6,2.0*34
Trace #71 at position 17.500000
$GPZDA,113956.03,08,10,2011,00,00*67
$GPRMC,113956.00,A,4611.961822,N,01258.219168,E,001.8,331.9,081011,0.2,E,A*39
$GPGGA,113957.00,4611.962065,N,01258.219129,E,1,06,1.6,135.01,M,46.25,M,,*64
$GPGLL,4611.962065,N,01258.219129,E,113957.00,A,A*63
$GPVTG,329.4,T,329.6,M,001.4,N,002.6,K,A*20
$GPGSV,2,1,08,16,19,307,,21,61,181,44,05,17,050,37,06,17,269,31*78
$GPGSV,2,2,08,25,27,132,42,29,54,064,40,30,69,155,45,31,39,231,44*7D
$GPGSA,M,3,21,05,25,29,30,31,,,,,,,2.6,1.6,2.0*34
Trace #72 at position 17.750000
$GPZDA,113956.03,08,10,2011,00,00*67
$GPRMC,113956.00,A,4611.961822,N,01258.219168,E,001.8,331.9,081011,0.2,E,A*39
$GPGGA,113957.00,4611.962065,N,01258.219129,E,1,06,1.6,135.01,M,46.25,M,,*64
$GPGLL,4611.962065,N,01258.219129,E,113957.00,A,A*63
$GPVTG,329.4,T,329.6,M,001.4,N,002.6,K,A*20
$GPGSV,2,1,08,16,19,307,,21,61,181,44,05,17,050,37,06,17,269,31*78
$GPGSV,2,2,08,25,27,132,42,29,54,064,40,30,69,155,45,31,39,231,44*7D
$GPGSA,M,3,21,05,25,29,30,31,,,,,,,2.6,1.6,2.0*34
Trace #73 at position 18.000000
$GPZDA,113957.04,08,10,2011,00,00*61
$GPRMC,113957.00,A,4611.962065,N,01258.219129,E,001.4,329.4,081011,0.2,E,A*3D
$GPGGA,113958.00,4611.962211,N,01258.219099,E,1,06,1.6,134.91,M,46.25,M,,*68
$GPGLL,4611.962211,N,01258.219099,E,113958.00,A,A*67
$GPVTG,315.4,T,315.6,M,001.0,N,001.9,K,A*28
$GPGSV,2,1,08,16,19,307,,21,61,181,43,05,17,050,37,06,17,269,31*7F
$GPGSV,2,2,08,25,27,132,44,29,54,064,39,30,69,155,45,31,39,231,44*75
$GPGSA,M,3,21,05,25,29,30,31,,,,,,,2.6,1.6,2.0*34
Trace #74 at position 18.250000
$GPZDA,113957.04,08,10,2011,00,00*61
$GPRMC,113957.00,A,4611.962065,N,01258.219129,E,001.4,329.4,081011,0.2,E,A*3D
$GPGGA,113958.00,4611.962211,N,01258.219099,E,1,06,1.6,134.91,M,46.25,M,,*68
$GPGLL,4611.962211,N,01258.219099,E,113958.00,A,A*67
$GPVTG,315.4,T,315.6,M,001.0,N,001.9,K,A*28
$GPGSV,2,1,08,16,19,307,,21,61,181,43,05,17,050,37,06,17,269,31*7F
$GPGSV,2,2,08,25,27,132,44,29,54,064,39,30,69,155,45,31,39,231,44*75
$GPGSA,M,3,21,05,25,29,30,31,,,,,,,2.6,1.6,2.0*34
Trace #75 at position 18.500000
$GPZDA,113957.04,08,10,2011,00,00*61
$GPRMC,113957.00,A,4611.962065,N,01258.219129,E,001.4,329.4,081011,0.2,E,A*3D
$GPGGA,113958.00,4611.962211,N,01258.219099,E,1,06,1.6,134.91,M,46.25,M,,*68
$GPGLL,4611.962211,N,01258.219099,E,113958.00,A,A*67
$GPVTG,315.4,T,315.6,M,001.0,N,001.9,K,A*28
$GPGSV,2,1,08,16,19,307,,21,61,181,43,05,17,050,37,06,17,269,31*7F
$GPGSV,2,2,08,25,27,132,44,29,54,064,39,30,69,155,45,31,39,231,44*75
$GPGSA,M,3,21,05,25,29,30,31,,,,,,,2.6,1.6,2.0*34
Trace #76 at position 18.750000
$GPZDA,113958.04,08,10,2011,00,00*6E
$GPRMC,113958.00,A,4611.962211,N,01258.219099,E,001.0,315.4,081011,0.2,E,A*32
$GPGGA,113959.00,4611.962455,N,01258.219076,E,1,06,1.6,134.86,M,46.25,M,,*68
$GPGLL,4611.962455,N,01258.219076,E,113959.00,A,A*61
$GPVTG,341.8,T,342.0,M,001.8,N,003.4,K,A*26
$GPGSV,2,1,08,16,19,307,,21,61,181,44,05,17,050,38,06,17,269,31*77
$GPGSV,2,2,08,25,27,132,45,29,54,064,41,30,69,155,46,31,39,231,45*79
$GPGSA,M,3,21,05,25,29,30,31,,,,,,,2.6,1.6,2.0*34
Trace #77 at position 19.000000
$GPZDA,113958.04,08,10,2011,00,00*6E
$GPRMC,113958.00,A,4611.962211,N,01258.219099,E,001.0,315.4,081011,0.2,E,A*32
$GPGGA,113959.00,4611.962455,N,01258.219076,E,1,06,1.6,134.86,M,46.25,M,,*68
$GPGLL,4611.962455,N,01258.219076,E,113959.00,A,A*61
$GPVTG,341.8,T,342.0,M,001.8,N,003.4,K,A*26
$GPGSV,2,1,08,16,19,307,,21,61,181,44,05,17,050,38,06,17,269,31*77
$GPGSV,2,2,08,25,27,132,45,29,54,064,41,30,69,155,46,31,39,231,45*79
$GPGSA,M,3,21,05,25,29,30,31,,,,,,,2.6,1.6,2.0*34
Trace #78 at position 19.250000
$GPZDA,113958.04,08,10,2011,00,00*6E
$GPRMC,113958.00,A,4611.962211,N,01258.219099,E,001.0,315.4,081011,0.2,E,A*32
$GPGGA,113959.00,4611.962455,N,01258.219076,E,1,06,1.6,134.86,M,46.25,M,,*68
$GPGLL,4611.962455,N,01258.219076,E,113959.00,A,A*61
$GPVTG,341.8,T,342.0,M,001.8,N,003.4,K,A*26
$GPGSV,2,1,08,16,19,307,,21,61,181,44,05,17,050,38,06,17,269,31*77
$GPGSV,2,2,08,25,27,132,45,29,54,064,41,30,69,155,46,31,39,231,45*79
$GPGSA,M,3,21,05,25,29,30,31,,,,,,,2.6,1.6,2.0*34
Trace #79 at position 19.500000
$GPZDA,113959.03,08,10,2011,00,00*68
$GPRMC,113959.00,A,4611.962455,N,01258.219076,E,001.8,341.8,081011,0.2,E,A*31
$GPGGA,114000.00,4611.962800,N,01258.219090,E,1,06,1.6,134.85,M,46.25,M,,*6D
$GPGLL,4611.962800,N,01258.219090,E,114000.00,A,A*67
$GPVTG,344.0,T,344.1,M,001.4,N,002.7,K,A*22
$GPGSV,2,1,08,16,19,307,,21,61,181,45,05,17,050,38,06,17,269,29*7F
$GPGSV,2,2,08,25,27,132,44,29,54,064,41,30,69,155,45,31,39,231,45*7B
$GPGSA,M,3,21,05,25,29,30,31,,,,,,,2.6,1.6,2.0*34
Trace #80 at position 19.750000
$GPZDA,113959.03,08,10,2011,00,00*68
$GPRMC,113959.00,A,4611.962455,N,01258.219076,E,001.8,341.8,081011,0.2,E,A*31
$GPGGA,114000.00,4611.962800,N,01258.219090,E,1,06,1.6,134.85,M,46.25,M,,*6D
$GPGLL,4611.962800,N,01258.219090,E,114000.00,A,A*67
$GPVTG,344.0,T,344.1,M,001.4,N,002.7,K,A*22
$GPGSV,2,1,08,16,19,307,,21,61,181,45,05,17,050,38,06,17,269,29*7F
$GPGSV,2,2,08,25,27,132,44,29,54,064,41,30,69,155,45,31,39,231,45*7B
$GPGSA,M,3,21,05,25,29,30,31,,,,,,,2.6,1.6,2.0*34
Trace #81 at position 20.000000
$GPZDA,113959.03,08,10,2011,00,00*68
$GPRMC,113959.00,A,4611.962455,N,01258.219076,E,001.8,341.8,081011,0.2,E,A*31
$GPGGA,114000.00,4611.962800,N,01258.219090,E,1,06,1.6,134.85,M,46.25,M,,*6D
$GPGLL,4611.962800,N,01258.219090,E,114000.00,A,A*67
$GPVTG,344.0,T,344.1,M,001.4,N,002.7,K,A*22
$GPGSV,2,1,08,16,19,307,,21,61,181,45,05,17,050,38,06,17,269,29*7F
$GPGSV,2,2,08,25,27,132,44,29,54,064,41,30,69,155,45,31,39,231,45*7B
$GPGSA,M,3,21,05,25,29,30,31,,,,,,,2.6,1.6,2.0*34
Trace #82 at position 20.250000
$GPZDA,114000.03,08,10,2011,00,00*6A
$GPRMC,114000.00,A,4611.962800,N,01258.219090,E,001.4,344.0,081011,0.2,E,A*36
$GPGGA,114001.00,4611.963145,N,01258.219108,E,1,06,1.6,134.90,M,46.25,M,,*61
$GPGLL,4611.963145,N,01258.219108,E,114001.00,A,A*6F
$GPVTG,345.9,T,346.1,M,001.7,N,003.2,K,A*2F
$GPGSV,2,1,08,16,19,307,,21,61,181,44,05,17,050,37,06,17,269,*7A
$GPGSV,2,2,08,25,27,132,43,29,54,064,41,30,69,155,45,31,39,231,44*7D
$GPGSA,M,3,21,05,25,29,30,31,,,,,,,2.6,1.6,2.0*34
Trace #83 at position 20.500000
$GPZDA,114000.03,08,10,2011,00,00*6A
$GPRMC,114000.00,A,4611.962800,N,01258.219090,E,001.4,344.0,081011,0.2,E,A*36
$GPGGA,114001.00,4611.963145,N,01258.219108,E,1,06,1.6,134.90,M,46.25,M,,*61
$GPGLL,4611.963145,N,01258.219108,E,114001.00,A,A*6F
$GPVTG,345.9,T,346.1,M,001.7,N,003.2,K,A*2F
$GPGSV,2,1,08,16,19,307,,21,61,181,44,05,17,050,37,06,17,269,*7A
$GPGSV,2,2,08,25,27,132,43,29,54,064,41,30,69,155,45,31,39,231,44*7D
$GPGSA,M,3,21,05,25,29,30,31,,,,,,,2.6,1.6,2.0*34
Trace #84 at position 20.750000
$GPZDA,114000.03,08,10,2011,00,00*6A
$GPRMC,114000.00,A,4611.962800,N,01258.219090,E,001.4,344.0,081011,0.2,E,A*36
$GPGGA,114001.00,4611.963145,N,01258.219108,E,1,06,1.6,134.90,M,46.25,M,,*61
$GPGLL,4611.963145,N,01258.219108,E,114001.00,A,A*6F
$GPVTG,345.9,T,346.1,M,001.7,N,003.2,K,A*2F
$GPGSV,2,1,08,16,19,307,,21,61,181,44,05,17,050,37,06,17,269,*7A
$GPGSV,2,2,08,25,27,132,43,29,54,064,41,30,69,155,45,31,39,231,44*7D
$GPGSA,M,3,21,05,25,29,30,31,,,,,,,2.6,1.6,2.0*34
Trace #85 at position 21.000000
$GPZDA,114000.03,08,10,2011,00,00*6A
$GPRMC,114000.00,A,4611.962800,N,01258.219090,E,001.4,344.0,081011,0.2,E,A*36
$GPGGA,114001.00,4611.963145,N,01258.219108,E,1,06,1.6,134.90,M,46.25,M,,*61
$GPGLL,4611.963145,N,01258.219108,E,114001.00,A,A*6F
$GPVTG,345.9,T,346.1,M,001.7,N,003.2,K,A*2F
$GPGSV,2,1,08,16,19,307,,21,61,181,44,05,17,050,37,06,17,269,*7A
$GPGSV,2,2,08,25,27,132,43,29,54,064,41,30,69,155,45,31,39,231,44*7D
$GPGSA,M,3,21,05,25,29,30,31,,,,,,,2.6,1.6,2.0*34
Trace #86 at position 21.250000
$GPZDA,114001.03,08,10,2011,00,00*6B
$GPRMC,114001.00,A,4611.963145,N,01258.219108,E,001.7,345.9,081011,0.2,E,A*35
$GPGGA,114002.00,4611.963476,N,01258.219066,E,1,06,1.6,134.94,M,46.25,M,,*6A
$GPGLL,4611.963476,N,01258.219066,E,114002.00,A,A*60
$GPVTG,333.4,T,333.6,M,001.3,N,002.5,K,A*24
$GPGSV,2,1,08,16,19,307,,21,61,181,45,05,17,050,38,06,17,269,31*76
$GPGSV,2,2,08,25,27,132,44,29,54,064,41,30,69,155,45,31,39,231,46*78
$GPGSA,M,3,21,05,25,29,30,31,,,,,,,2.6,1.6,2.0*34
Trace #87 at position 21.500000
$GPZDA,114001.03,08,10,2011,00,00*6B
$GPRMC,114001.00,A,4611.963145,N,01258.219108,E,001.7,345.9,081011,0.2,E,A*35
$GPGGA,114002.00,4611.963476,N,01258.219066,E,1,06,1.6,134.94,M,46.25,M,,*6A
$GPGLL,4611.963476,N,01258.219066,E,114002.00,A,A*60
$GPVTG,333.4,T,333.6,M,001.3,N,002.5,K,A*24
$GPGSV,2,1,08,16,19,307,,21,61,181,45,05,17,050,38,06,17,269,31*76
$GPGSV,2,2,08,25,27,132,44,29,54,064,41,30,69,155,45,31,39,231,46*78
$GPGSA,M,3,21,05,25,29,30,31,,,,,,,2.6,1.6,2.0*34
Trace #88 at position 21.750000
$GPZDA,114001.03,08,10,2011,00,00*6B
$GPRMC,114001.00,A,4611.963145,N,01258.219108,E,001.7,345.9,081011,0.2,E,A*35
$GPGGA,114002.00,4611.963476,N,01258.219066,E,1,06,1.6,134.94,M,46.25,M,,*6A
$GPGLL,4611.963476,N,01258.219066,E,114002.00,A,A*60
$GPVTG,333.4,T,333.6,M,001.3,N,002.5,K,A*24
$GPGSV,2,1,08,16,19,307,,21,61,181,45,05,17,050,38,06,17,269,31*76
$GPGSV,2,2,08,25,27,132,44,29,54,064,41,30,69,155,45,31,39,231,46*78
$GPGSA,M,3,21,05,25,29,30,31,,,,,,,2.6,1.6,2.0*34
Trace #89 at position 22.000000
$GPZDA,114002.03,08,10,2011,00,00*68
$GPRMC,114002.00,A,4611.963476,N,01258.219066,E,001.3,333.4,081011,0.2,E,A*32
$GPGGA,114003.00,4611.963792,N,01258.218946,E,1,06,1.6,135.01,M,46.25,M,,*65
$GPGLL,4611.963792,N,01258.218946,E,114003.00,A,A*62
$GPVTG,333.4,T,333.5,M,001.7,N,003.1,K,A*26
$GPGSV,2,1,08,16,19,307,,21,61,181,44,05,17,050,38,06,17,269,30*76
$GPGSV,2,2,08,25,27,132,43,29,54,064,40,30,69,155,44,31,39,231,45*7C
$GPGSA,M,3,21,05,25,29,30,31,,,,,,,2.6,1.6,2.0*34
Trace #90 at position 22.250000
$GPZDA,114002.03,08,10,2011,00,00*68
$GPRMC,114002.00,A,4611.963476,N,01258.219066,E,001.3,333.4,081011,0.2,E,A*32
$GPGGA,114003.00,4611.963792,N,01258.218946,E,1,06,1.6,135.01,M,46.25,M,,*65
$GPGLL,4611.963792,N,01258.218946,E,114003.00,A,A*62
$GPVTG,333.4,T,333.5,M,001.7,N,003.1,K,A*26
$GPGSV,2,1,08,16,19,307,,21,61,181,44,05,17,050,38,06,17,269,30*76
$GPGSV,2,2,08,25,27,132,43,29,54,064,40,30,69,155,44,31,39,231,45*7C
$GPGSA,M,3,21,05,25,29,30,31,,,,,,,2.6,1.6,2.0*34
Trace #91 at position 22.500000
$GPZDA,114002.03,08,10,2011,00,00*68
$GPRMC,114002.00,A,4611.963476,N,01258.219066,E,001.3,333.4,081011,0.2,E,A*32
$GPGGA,114003.00,4611.963792,N,01258.218946,E,1,06,1.6,135.01,M,46.25,M,,*65
$GPGLL,4611.963792,N,01258.218946,E,114003.00,A,A*62
$GPVTG,333.4,T,333.5,M,001.7,N,003.1,K,A*26
$GPGSV,2,1,08,16,19,307,,21,61,181,44,05,17,050,38,06,17,269,30*76
$GPGSV,2,2,08,25,27,132,43,29,54,064,40,30,69,155,44,31,39,231,45*7C
$GPGSA,M,3,21,05,25,29,30,31,,,,,,,2.6,1.6,2.0*34
Trace #92 at position 22.750000
$GPZDA,114003.04,08,10,2011,00,00*6E
$GPRMC,114003.00,A,4611.963792,N,01258.218946,E,001.7,333.4,081011,0.2,E,A*34
$GPGGA,114004.00,4611.964171,N,01258.218818,E,1,06,1.6,135.11,M,46.25,M,,*65
$GPGLL,4611.964171,N,01258.218818,E,114004.00,A,A*63
$GPVTG,340.6,T,340.7,M,001.7,N,003.2,K,A*25
$GPGSV,2,1,08,16,19,307,,21,61,181,44,05,17,050,38,06,17,269,30*76
$GPGSV,2,2,08,25,27,132,43,29,54,064,41,30,69,155,45,31,39,231,45*7C
$GPGSA,M,3,21,05,25,29,30,31,,,,,,,2.6,1.6,2.0*34
Trace #93 at position 23.000000
$GPZDA,114003.04,08,10,2011,00,00*6E
$GPRMC,114003.00,A,4611.963792,N,01258.218946,E,001.7,333.4,081011,0.2,E,A*34
$GPGGA,114004.00,4611.964171,N,01258.218818,E,1,06,1.6,135.11,M,46.25,M,,*65
$GPGLL,4611.964171,N,01258.218818,E,114004.00,A,A*63
$GPVTG,340.6,T,340.7,M,001.7,N,003.2,K,A*25
$GPGSV,2,1,08,16,19,307,,21,61,181,44,05,17,050,38,06,17,269,30*76
$GPGSV,2,2,08,25,27,132,43,29,54,064,41,30,69,155,45,31,39,231,45*7C
$GPGSA,M,3,21,05,25,29,30,31,,,,,,,2.6,1.6,2.0*34
Trace #94 at position 23.250000
$GPZDA,114003.04,08,10,2011,00,00*6E
$GPRMC,114003.00,A,4611.963792,N,01258.218946,E,001.7,333.4,081011,0.2,E,A*34
$GPGGA,114004.00,4611.964171,N,01258.218818,E,1,06,1.6,135.11,M,46.25,M,,*65
$GPGLL,4611.964171,N,01258.218818,E,114004.00,A,A*63
$GPVTG,340.6,T,340.7,M,001.7,N,003.2,K,A*25
$GPGSV,2,1,08,16,19,307,,21,61,181,44,05,17,050,38,06,17,269,30*76
$GPGSV,2,2,08,25,27,132,43,29,54,064,41,30,69,155,45,31,39,231,45*7C
$GPGSA,M,3,21,05,25,29,30,31,,,,,,,2.6,1.6,2.0*34
Trace #95 at position 23.500000
$GPZDA,114003.04,08,10,2011,00,00*6E
$GPRMC,114003.00,A,4611.963792,N,01258.218946,E,001.7,333.4,081011,0.2,E,A*34
$GPGGA,114004.00,4611.964171,N,01258.218818,E,1,06,1.6,135.11,M,46.25,M,,*65
$GPGLL,4611.964171,N,01258.218818,E,114004.00,A,A*63
$GPVTG,340.6,T,340.7,M,001.7,N,003.2,K,A*25
$GPGSV,2,1,08,16,19,307,,21,61,181,44,05,17,050,38,06,17,269,30*76
$GPGSV,2,2,08,25,27,132,43,29,54,064,41,30,69,155,45,31,39,231,45*7C
$GPGSA,M,3,21,05,25,29,30,31,,,,,,,2.6,1.6,2.0*34
Trace #96 at position 23.750000
$GPZDA,114004.03,08,10,2011,00,00*6E
$GPRMC,114004.00,A,4611.964171,N,01258.218818,E,001.7,340.6,081011,0.2,E,A*33
$GPGGA,114005.00,4611.964548,N,01258.218699,E,1,06,1.6,135.22,M,46.25,M,,*6D
$GPGLL,4611.964548,N,01258.218699,E,114005.00,A,A*6B
$GPVTG,335.6,T,335.7,M,001.6,N,002.9,K,A*2E
$GPGSV,2,1,08,16,19,307,,21,61,181,45,05,17,050,37,06,17,269,30*78
$GPGSV,2,2,08,25,27,132,42,29,54,064,41,30,69,155,45,31,39,231,45*7D
$GPGSA,M,3,21,05,25,29,30,31,,,,,,,2.6,1.6,2.0*34
Trace #97 at position 24.000000
$GPZDA,114004.03,08,10,2011,00,00*6E
$GPRMC,114004.00,A,4611.964171,N,01258.218818,E,001.7,340.6,081011,0.2,E,A*33
$GPGGA,114005.00,4611.964548,N,01258.218699,E,1,06,1.6,135.22,M,46.25,M,,*6D
$GPGLL,4611.964548,N,01258.218699,E,114005.00,A,A*6B
$GPVTG,335.6,T,335.7,M,001.6,N,002.9,K,A*2E
$GPGSV,2,1,08,16,19,307,,21,61,181,45,05,17,050,37,06,17,269,30*78
$GPGSV,2,2,08,25,27,132,42,29,54,064,41,30,69,155,45,31,39,231,45*7D
$GPGSA,M,3,21,05,25,29,30,31,,,,,,,2.6,1.6,2.0*34
Trace #98 at position 24.250000
$GPZDA,114004.03,08,10,2011,00,00*6E
$GPRMC,114004.00,A,4611.964171,N,01258.218818,E,001.7,340.6,081011,0.2,E,A*33
$GPGGA,114005.00,4611.964548,N,01258.218699,E,1,06,1.6,135.22,M,46.25,M,,*6D
$GPGLL,4611.964548,N,01258.218699,E,114005.00,A,A*6B
$GPVTG,335.6,T,335.7,M,001.6,N,002.9,K,A*2E
$GPGSV,2,1,08,16,19,307,,21,61,181,45,05,17,050,37,06,17,269,30*78
$GPGSV,2,2,08,25,27,132,42,29,54,064,41,30,69,155,45,31,39,231,45*7D
$GPGSA,M,3,21,05,25,29,30,31,,,,,,,2.6,1.6,2.0*34
Trace #99 at position 24.500000
$GPZDA,114005.03,08,10,2011,00,00*6F
$GPRMC,114005.00,A,4611.964548,N,01258.218699,E,001.6,335.6,081011,0.2,E,A*38
$GPGGA,114006.00,4611.965009,N,01258.218633,E,1,05,2.2,134.86,M,46.25,M,,*64
$GPGLL,4611.965009,N,01258.218633,E,114006.00,A,A*69
$GPVTG,355.9,T,356.0,M,001.4,N,002.6,K,A*28
$GPGSV,2,1,08,16,19,307,,21,61,181,44,05,17,050,36,06,17,269,30*78
$GPGSV,2,2,08,25,27,132,43,29,54,064,41,30,69,155,45,31,39,231,45*7C
$GPGSA,M,3,21,25,29,30,31,,,,,,,,3.7,2.2,3.0*37
Trace #100 at position 24.750000
$GPZDA,114005.03,08,10,2011,00,00*6F
$GPRMC,114005.00,A,4611.964548,N,01258.218699,E,001.6,335.6,081011,0.2,E,A*38
$GPGGA,114006.00,4611.965009,N,01258.218633,E,1,05,2.2,134.86,M,46.25,M,,*64
$GPGLL,4611.965009,N,01258.218633,E,114006.00,A,A*69
$GPVTG,355.9,T,356.0,M,001.4,N,002.6,K,A*28
$GPGSV,2,1,08,16,19,307,,21,61,181,44,05,17,050,36,06,17,269,30*78
$GPGSV,2,2,08,25,27,132,43,29,54,064,41,30,69,155,45,31,39,231,45*7C
$GPGSA,M,3,21,25,29,30,31,,,,,,,,3.7,2.2,3.0*37
Trace #101 at position 25.000000
$GPZDA,114007.03,08,10,2011,00,00*6D
$GPRMC,114007.00,A,4611.965469,N,01258.218589,E,001.5,342.6,081011,0.2,E,A*38
$GPGGA,114008.00,4611.965952,N,01258.218477,E,1,05,2.2,134.15,M,46.25,M,,*65
$GPGLL,4611.965952,N,01258.218477,E,114008.00,A,A*62
$GPVTG,346.5,T,346.7,M,001.7,N,003.1,K,A*25
$GPGSV,2,1,08,16,19,307,,21,61,181,44,05,17,050,36,06,17,269,28*71
$GPGSV,2,2,08,25,27,132,43,29,54,064,41,30,69,155,44,31,39,231,45*7D
$GPGSA,M,3,21,25,29,30,31,,,,,,,,3.7,2.2,3.0*37
Trace #102 at position 25.250000
$GPZDA,114008.04,08,10,2011,00,00*65
$GPRMC,114008.00,A,4611.965952,N,01258.218477,E,001.7,346.5,081011,0.2,E,A*37
$GPGGA,114009.00,4611.966420,N,01258.218383,E,1,05,2.2,133.77,M,46.25,M,,*60
$GPGLL,4611.966420,N,01258.218383,E,114009.00,A,A*64
$GPVTG,345.9,T,346.0,M,001.5,N,002.7,K,A*28
$GPGSV,2,1,08,16,19,307,,21,61,181,45,05,17,050,37,06,17,269,30*78
$GPGSV,2,2,08,25,27,132,42,29,54,064,41,30,69,155,44,31,39,231,46*7F
$GPGSA,M,3,21,25,29,30,31,,,,,,,,3.7,2.2,3.0*37
Trace #103 at position 25.500000
$GPZDA,114008.04,08,10,2011,00,00*65
$GPRMC,114008.00,A,4611.965952,N,01258.218477,E,001.7,346.5,081011,0.2,E,A*37
$GPGGA,114009.00,4611.966420,N,01258.218383,E,1,05,2.2,133.77,M,46.25,M,,*60
$GPGLL,4611.966420,N,01258.218383,E,114009.00,A,A*64
$GPVTG,345.9,T,346.0,M,001.5,N,002.7,K,A*28
$GPGSV,2,1,08,16,19,307,,21,61,181,45,05,17,050,37,06,17,269,30*78
$GPGSV,2,2,08,25,27,132,42,29,54,064,41,30,69,155,44,31,39,231,46*7F
$GPGSA,M,3,21,25,29,30,31,,,,,,,,3.7,2.2,3.0*37
Trace #104 at position 25.750000
$GPZDA,114008.04,08,10,2011,00,00*65
$GPRMC,114008.00,A,4611.965952,N,01258.218477,E,001.7,346.5,081011,0.2,E,A*37
$GPGGA,114009.00,4611.966420,N,01258.218383,E,1,05,2.2,133.77,M,46.25,M,,*60
$GPGLL,4611.966420,N,01258.218383,E,114009.00,A,A*64
$GPVTG,345.9,T,346.0,M,001.5,N,002.7,K,A*28
$GPGSV,2,1,08,16,19,307,,21,61,181,45,05,17,050,37,06,17,269,30*78
$GPGSV,2,2,08,25,27,132,42,29,54,064,41,30,69,155,44,31,39,231,46*7F
$GPGSA,M,3,21,25,29,30,31,,,,,,,,3.7,2.2,3.0*37
Trace #105 at position 26.000000
$GPZDA,114009.03,08,10,2011,00,00*63
$GPRMC,114009.00,A,4611.966420,N,01258.218383,E,001.5,345.9,081011,0.2,E,A*3C
$GPGGA,114010.00,4611.966888,N,01258.218260,E,1,05,2.2,133.49,M,46.25,M,,*67
$GPGLL,4611.966888,N,01258.218260,E,114010.00,A,A*6E
$GPVTG,343.1,T,343.3,M,001.7,N,003.2,K,A*26
$GPGSV,2,1,08,16,19,307,,21,62,181,45,05,17,050,37,06,17,269,30*7B
$GPGSV,2,2,08,25,27,132,43,29,54,064,42,30,69,155,45,31,39,231,46*7C
$GPGSA,M,3,21,25,29,30,31,,,,,,,,3.7,2.2,3.0*37
Trace #106 at position 26.250000
$GPZDA,114009.03,08,10,2011,00,00*63
$GPRMC,114009.00,A,4611.966420,N,01258.218383,E,001.5,345.9,081011,0.2,E,A*3C
$GPGGA,114010.00,4611.966888,N,01258.218260,E,1,05,2.2,133.49,M,46.25,M,,*67
$GPGLL,4611.966888,N,01258.218260,E,114010.00,A,A*6E
$GPVTG,343.1,T,343.3,M,001.7,N,003.2,K,A*26
$GPGSV,2,1,08,16,19,307,,21,62,181,45,05,17,050,37,06,17,269,30*7B
$GPGSV,2,2,08,25,27,132,43,29,54,064,42,30,69,155,45,31,39,231,46*7C
$GPGSA,M,3,21,25,29,30,31,,,,,,,,3.7,2.2,3.0*37
Trace #107 at position 26.500000
$GPZDA,114009.03,08,10,2011,00,00*63
$GPRMC,114009.00,A,4611.966420,N,01258.218383,E,001.5,345.9,081011,0.2,E,A*3C
$GPGGA,114010.00,4611.966888,N,01258.218260,E,1,05,2.2,133.49,M,46.25,M,,*67
$GPGLL,4611.966888,N,01258.218260,E,114010.00,A,A*6E
$GPVTG,343.1,T,343.3,M,001.7,N,003.2,K,A*26
$GPGSV,2,1,08,16,19,307,,21,62,181,45,05,17,050,37,06,17,269,30*7B
$GPGSV,2,2,08,25,27,132,43,29,54,064,42,30,69,155,45,31,39,231,46*7C
$GPGSA,M,3,21,25,29,30,31,,,,,,,,3.7,2.2,3.0*37
Trace #108 at position 26.750000
$GPZDA,114010.03,08,10,2011,00,00*6B
$GPRMC,114010.00,A,4611.966888,N,01258.218260,E,001.7,343.1,081011,0.2,E,A*3A
$GPGGA,114011.00,4611.967119,N,01258.218206,E,1,05,2.2,133.34,M,46.25,M,,*6C
$GPGLL,4611.967119,N,01258.218206,E,114011.00,A,A*6F
$GPVTG,195.6,T,195.8,M,000.1,N,000.2,K,A*2E
$GPGSV,2,1,08,16,19,307,,21,62,181,46,05,17,050,38,06,17,269,32*75
$GPGSV,2,2,08,25,27,132,44,29,54,064,41,30,69,155,45,31,39,231,45*7B
$GPGSA,M,3,21,25,29,30,31,,,,,,,,3.7,2.2,3.0*37
Trace #109 at position 27.000000
$GPZDA,114010.03,08,10,2011,00,00*6B
$GPRMC,114010.00,A,4611.966888,N,01258.218260,E,001.7,343.1,081011,0.2,E,A*3A
$GPGGA,114011.00,4611.967119,N,01258.218206,E,1,05,2.2,133.34,M,46.25,M,,*6C
$GPGLL,4611.967119,N,01258.218206,E,114011.00,A,A*6F
$GPVTG,195.6,T,195.8,M,000.1,N,000.2,K,A*2E
$GPGSV,2,1,08,16,19,307,,21,62,181,46,05,17,050,38,06,17,269,32*75
$GPGSV,2,2,08,25,27,132,44,29,54,064,41,30,69,155,45,31,39,231,45*7B
$GPGSA,M,3,21,25,29,30,31,,,,,,,,3.7,2.2,3.0*37
Trace #110 at position 27.250000
$GPZDA,114010.03,08,10,2011,00,00*6B
$GPRMC,114010.00,A,4611.966888,N,01258.218260,E,001.7,343.1,081011,0.2,E,A*3A
$GPGGA,114011.00,4611.967119,N,01258.218206,E,1,05,2.2,133.34,M,46.25,M,,*6C
$GPGLL,4611.967119,N,01258.218206,E,114011.00,A,A*6F
$GPVTG,195.6,T,195.8,M,000.1,N,000.2,K,A*2E
$GPGSV,2,1,08,16,19,307,,21,62,181,46,05,17,050,38,06,17,269,32*75
$GPGSV,2,2,08,25,27,132,44,29,54,064,41,30,69,155,45,31,39,231,45*7B
$GPGSA,M,3,21,25,29,30,31,,,,,,,,3.7,2.2,3.0*37
Trace #111 at position 27.500000
$GPZDA,114010.03,08,10,2011,00,00*6B
$GPRMC,114010.00,A,4611.966888,N,01258.218260,E,001.7,343.1,081011,0.2,E,A*3A
$GPGGA,114011.00,4611.967119,N,01258.218206,E,1,05,2.2,133.34,M,46.25,M,,*6C
$GPGLL,4611.967119,N,01258.218206,E,114011.00,A,A*6F
$GPVTG,195.6,T,195.8,M,000.1,N,000.2,K,A*2E
$GPGSV,2,1,08,16,19,307,,21,62,181,46,05,17,050,38,06,17,269,32*75
$GPGSV,2,2,08,25,27,132,44,29,54,064,41,30,69,155,45,31,39,231,45*7B
$GPGSA,M,3,21,25,29,30,31,,,,,,,,3.7,2.2,3.0*37
Trace #112 at position 27.750000
$GPZDA,114011.03,08,10,2011,00,00*6A
$GPRMC,114011.00,A,4611.967119,N,01258.218206,E,000.1,195.6,081011,0.2,E,A*32
$GPGGA,114012.00,4611.967122,N,01258.218250,E,1,05,2.2,133.15,M,46.25,M,,*67
$GPGLL,4611.967122,N,01258.218250,E,114012.00,A,A*67
$GPVTG,56.1,T,56.3,M,000.0,N,000.0,K,A*21
$GPGSV,2,1,08,16,19,307,,21,62,181,44,05,17,050,38,06,17,269,32*77
$GPGSV,2,2,08,25,27,132,43,29,54,064,42,30,69,155,45,31,39,231,44*7E
$GPGSA,M,3,21,25,29,30,31,,,,,,,,3.7,2.2,3.0*37
Trace #113 at position 28.000000
$GPZDA,114011.03,08,10,2011,00,00*6A
$GPRMC,114011.00,A,4611.967119,N,01258.218206,E,000.1,195.6,081011,0.2,E,A*32
$GPGGA,114012.00,4611.967122,N,01258.218250,E,1,05,2.2,133.15,M,46.25,M,,*67
$GPGLL,4611.967122,N,01258.218250,E,114012.00,A,A*67
$GPVTG,56.1,T,56.3,M,000.0,N,000.0,K,A*21
$GPGSV,2,1,08,16,19,307,,21,62,181,44,05,17,050,38,06,17,269,32*77
$GPGSV,2,2,08,25,27,132,43,29,54,064,42,30,69,155,45,31,39,231,44*7E
$GPGSA,M,3,21,25,29,30,31,,,,,,,,3.7,2.2,3.0*37
Trace #114 at position 28.250000
$GPZDA,114012.03,08,10,2011,00,00*69
$GPRMC,114012.00,A,4611.967122,N,01258.218250,E,000.0,56.1,081011,0.2,E,A*02
$GPGGA,114013.00,4611.967344,N,01258.218346,E,1,05,2.2,132.94,M,46.25,M,,*6A
$GPGLL,4611.967344,N,01258.218346,E,114013.00,A,A*62
$GPVTG,13.0,T,13.2,M,001.6,N,002.9,K,A*2D
$GPGSV,2,1,08,16,19,307,,21,62,181,45,05,17,050,36,06,17,269,33*79
$GPGSV,2,2,08,25,27,132,44,29,54,064,41,30,69,155,44,31,39,231,43*7C
$GPGSA,M,3,21,25,29,30,31,,,,,,,,3.7,2.2,3.0*37
Trace #115 at position 28.500000
$GPZDA,114012.03,08,10,2011,00,00*69
$GPRMC,114012.00,A,4611.967122,N,01258.218250,E,000.0,56.1,081011,0.2,E,A*02
$GPGGA,114013.00,4611.967344,N,01258.218346,E,1,05,2.2,132.94,M,46.25,M,,*6A
$GPGLL,4611.967344,N,01258.218346,E,114013.00,A,A*62
$GPVTG,13.0,T,13.2,M,001.6,N,002.9,K,A*2D
$GPGSV,2,1,08,16,19,307,,21,62,181,45,05,17,050,36,06,17,269,33*79
