Trace #1 at position 0.000000
$GPZDA,094812.03,08,10,2011,00,00*68
$GPRMC,094812.00,A,4611.973440,N,01258.208274,E,000.2,349.0,081011,0.2,E,A*3E
$GPGGA,094813.00,4611.973491,N,01258.208285,E,1,05,6.2,131.31,M,46.25,M,,*66
$GPGLL,4611.973491,N,01258.208285,E,094813.00,A,A*66
$GPVTG,17.6,T,17.7,M,000.1,N,000.2,K,A*21
$GPGSV,2,1,06,02,31,055,45,12,39,099,34,25,73,079,44,29,75,245,45*75
$GPGSV,2,2,06,30,55,302,45,31,43,302,46,,,,,,,,*7A
$GPGSA,M,3,02,25,29,30,31,,,,,,,,10.5,6.2,8.5*0C
Trace #2 at position 0.250000
$GPZDA,094817.03,08,10,2011,00,00*6D
$GPRMC,094817.00,A,4611.973683,N,01258.208333,E,000.2,12.2,081011,0.2,E,A*0B
$GPGGA,094818.00,4611.973693,N,01258.208346,E,1,05,6.3,132.06,M,46.25,M,,*65
$GPGLL,4611.973693,N,01258.208346,E,094818.00,A,A*63
$GPVTG,85.7,T,85.9,M,000.0,N,000.0,K,A*2D
$GPGSV,2,1,06,02,31,054,39,12,39,099,39,25,73,079,45,29,75,245,44*72
$GPGSV,2,2,06,30,55,302,43,31,43,302,44,,,,,,,,*7E
$GPGSA,M,3,02,25,29,30,31,,,,,,,,10.5,6.3,8.5*0D
Trace #3 at position 0.500000
$GPZDA,094817.03,08,10,2011,00,00*6D
$GPRMC,094817.00,A,4611.973683,N,01258.208333,E,000.2,12.2,081011,0.2,E,A*0B
$GPGGA,094818.00,4611.973693,N,01258.208346,E,1,05,6.3,132.06,M,46.25,M,,*65
$GPGLL,4611.973693,N,01258.208346,E,094818.00,A,A*63
$GPVTG,85.7,T,85.9,M,000.0,N,000.0,K,A*2D
$GPGSV,2,1,06,02,31,054,39,12,39,099,39,25,73,079,45,29,75,245,44*72
$GPGSV,2,2,06,30,55,302,43,31,43,302,44,,,,,,,,*7E
$GPGSA,M,3,02,25,29,30,31,,,,,,,,10.5,6.3,8.5*0D
Trace #4 at position 0.750000
$GPZDA,094818.03,08,10,2011,00,00*62
$GPRMC,094818.00,A,4611.973693,N,01258.208346,E,000.0,85.7,081011,0.2,E,A*0E
$GPGGA,094819.00,4611.973658,N,01258.208393,E,1,05,6.3,132.15,M,46.25,M,,*69
$GPGLL,4611.973658,N,01258.208393,E,094819.00,A,A*6D
$GPVTG,108.2,T,108.3,M,000.2,N,000.4,K,A*24
$GPGSV,2,1,06,02,31,054,43,12,39,099,35,25,73,079,46,29,75,245,46*72
$GPGSV,2,2,06,30,55,302,45,31,43,302,44,,,,,,,,*78
$GPGSA,M,3,02,25,29,30,31,,,,,,,,10.6,6.3,8.5*0E
Trace #5 at position 1.000000
$GPZDA,094819.03,08,10,2011,00,00*63
$GPRMC,094819.00,A,4611.973658,N,01258.208393,E,000.2,108.2,081011,0.2,E,A*33
$GPGGA,094820.00,4611.973519,N,01258.208567,E,1,05,6.3,132.22,M,46.25,M,,*6C
$GPGLL,4611.973519,N,01258.208567,E,094820.00,A,A*6C
$GPVTG,133.9,T,134.0,M,001.0,N,001.9,K,A*24
$GPGSV,2,1,06,02,31,054,43,12,39,099,38,25,73,079,45,29,75,245,44*7E
$GPGSV,2,2,06,30,55,302,45,31,43,302,43,,,,,,,,*7F
$GPGSA,M,3,02,25,29,30,31,,,,,,,,10.6,6.3,8.5*0E
Trace #6 at position 1.250000
$GPZDA,094819.03,08,10,2011,00,00*63
$GPRMC,094819.00,A,4611.973658,N,01258.208393,E,000.2,108.2,081011,0.2,E,A*33
$GPGGA,094820.00,4611.973519,N,01258.208567,E,1,05,6.3,132.22,M,46.25,M,,*6C
$GPGLL,4611.973519,N,01258.208567,E,094820.00,A,A*6C
$GPVTG,133.9,T,134.0,M,001.0,N,001.9,K,A*24
$GPGSV,2,1,06,02,31,054,43,12,39,099,38,25,73,079,45,29,75,245,44*7E
$GPGSV,2,2,06,30,55,302,45,31,43,302,43,,,,,,,,*7F
$GPGSA,M,3,02,25,29,30,31,,,,,,,,10.6,6.3,8.5*0E
Trace #7 at position 1.500000
$GPZDA,094819.03,08,10,2011,00,00*63
$GPRMC,094819.00,A,4611.973658,N,01258.208393,E,000.2,108.2,081011,0.2,E,A*33
$GPGGA,094820.00,4611.973519,N,01258.208567,E,1,05,6.3,132.22,M,46.25,M,,*6C
$GPGLL,4611.973519,N,01258.208567,E,094820.00,A,A*6C
$GPVTG,133.9,T,134.0,M,001.0,N,001.9,K,A*24
$GPGSV,2,1,06,02,31,054,43,12,39,099,38,25,73,079,45,29,75,245,44*7E
$GPGSV,2,2,06,30,55,302,45,31,43,302,43,,,,,,,,*7F
$GPGSA,M,3,02,25,29,30,31,,,,,,,,10.6,6.3,8.5*0E
Trace #8 at position 1.750000
$GPZDA,094820.03,08,10,2011,00,00*69
$GPRMC,094820.00,A,4611.973519,N,01258.208567,E,001.0,133.9,081011,0.2,E,A*32
$GPGGA,094821.00,4611.973558,N,01258.208792,E,1,06,2.7,133.06,M,46.25,M,,*64
$GPGLL,4611.973558,N,01258.208792,E,094821.00,A,A*60
$GPVTG,152.2,T,152.4,M,001.2,N,002.1,K,A*25
$GPGSV,2,1,06,02,31,054,43,12,39,099,39,25,73,079,44,29,75,245,42*78
$GPGSV,2,2,06,30,55,302,43,31,43,302,45,,,,,,,,*7F
$GPGSA,M,3,02,12,25,29,30,31,,,,,,,4.9,2.7,4.0*3E
Trace #9 at position 2.000000
$GPZDA,094820.03,08,10,2011,00,00*69
$GPRMC,094820.00,A,4611.973519,N,01258.208567,E,001.0,133.9,081011,0.2,E,A*32
$GPGGA,094821.00,4611.973558,N,01258.208792,E,1,06,2.7,133.06,M,46.25,M,,*64
$GPGLL,4611.973558,N,01258.208792,E,094821.00,A,A*60
$GPVTG,152.2,T,152.4,M,001.2,N,002.1,K,A*25
$GPGSV,2,1,06,02,31,054,43,12,39,099,39,25,73,079,44,29,75,245,42*78
$GPGSV,2,2,06,30,55,302,43,31,43,302,45,,,,,,,,*7F
$GPGSA,M,3,02,12,25,29,30,31,,,,,,,4.9,2.7,4.0*3E
Trace #10 at position 2.250000
$GPZDA,094820.03,08,10,2011,00,00*69
$GPRMC,094820.00,A,4611.973519,N,01258.208567,E,001.0,133.9,081011,0.2,E,A*32
$GPGGA,094821.00,4611.973558,N,01258.208792,E,1,06,2.7,133.06,M,46.25,M,,*64
$GPGLL,4611.973558,N,01258.208792,E,094821.00,A,A*60
$GPVTG,152.2,T,152.4,M,001.2,N,002.1,K,A*25
$GPGSV,2,1,06,02,31,054,43,12,39,099,39,25,73,079,44,29,75,245,42*78
$GPGSV,2,2,06,30,55,302,43,31,43,302,45,,,,,,,,*7F
$GPGSA,M,3,02,12,25,29,30,31,,,,,,,4.9,2.7,4.0*3E
Trace #11 at position 2.500000
$GPZDA,094820.03,08,10,2011,00,00*69
$GPRMC,094820.00,A,4611.973519,N,01258.208567,E,001.0,133.9,081011,0.2,E,A*32
$GPGGA,094821.00,4611.973558,N,01258.208792,E,1,06,2.7,133.06,M,46.25,M,,*64
$GPGLL,4611.973558,N,01258.208792,E,094821.00,A,A*60
$GPVTG,152.2,T,152.4,M,001.2,N,002.1,K,A*25
$GPGSV,2,1,06,02,31,054,43,12,39,099,39,25,73,079,44,29,75,245,42*78
$GPGSV,2,2,06,30,55,302,43,31,43,302,45,,,,,,,,*7F
$GPGSA,M,3,02,12,25,29,30,31,,,,,,,4.9,2.7,4.0*3E
Trace #12 at position 2.750000
$GPZDA,094820.03,08,10,2011,00,00*69
$GPRMC,094820.00,A,4611.973519,N,01258.208567,E,001.0,133.9,081011,0.2,E,A*32
$GPGGA,094821.00,4611.973558,N,01258.208792,E,1,06,2.7,133.06,M,46.25,M,,*64
$GPGLL,4611.973558,N,01258.208792,E,094821.00,A,A*60
$GPVTG,152.2,T,152.4,M,001.2,N,002.1,K,A*25
$GPGSV,2,1,06,02,31,054,43,12,39,099,39,25,73,079,44,29,75,245,42*78
$GPGSV,2,2,06,30,55,302,43,31,43,302,45,,,,,,,,*7F
$GPGSA,M,3,02,12,25,29,30,31,,,,,,,4.9,2.7,4.0*3E
Trace #13 at position 3.000000
$GPZDA,094821.04,08,10,2011,00,00*6F
$GPRMC,094821.00,A,4611.973558,N,01258.208792,E,001.2,152.2,081011,0.2,E,A*30
$GPGGA,094822.00,4611.973458,N,01258.208863,E,1,06,2.7,133.67,M,46.25,M,,*60
$GPGLL,4611.973458,N,01258.208863,E,094822.00,A,A*63
$GPVTG,182.9,T,183.0,M,001.5,N,002.9,K,A*24
$GPGSV,2,1,06,02,31,054,46,12,39,099,40,25,73,079,44,29,75,246,44*76
$GPGSV,2,2,06,30,55,302,44,31,43,302,44,,12,25,29,30,31,,,,,,,4.9,2.7,4.0*3E
$GPZDA,094822.03,08,10,2011,00,00*6B
$GPRMC,094822.00,A,4611.973458,N,01258.208863,E,001.5,182.9,081011,0.2,E,A*32
$GPGGA,094823.00,4611.973365,N,01258.208977,E,1,06,2.7,134.17,M,46.25,M,,*6C
$GPGLL,4611.973365,N,01258.208977,E,094823.00,A,A*6F
$GPVTG,135.3,T,135.4,M,001.0,N,001.9,K,A*2D
$GPGSV,2,1,06,02,31,054,46,12,39,099,40,25,73,079,44,29,75,246,45*77
$GPGSV,2,2,06,30,55,302,43,31,43,302,44,,,,,,,,*7E
$GPGSA,M,3,02,12,25,29,30,31,,,,,,,4.9,2.7,4.0*3E
Trace #14 at position 3.250000
$GPZDA,094821.04,08,10,2011,00,00*6F
$GPRMC,094821.00,A,4611.973558,N,01258.208792,E,001.2,152.2,081011,0.2,E,A*30
$GPGGA,094822.00,4611.973458,N,01258.208863,E,1,06,2.7,133.67,M,46.25,M,,*60
$GPGLL,4611.973458,N,01258.208863,E,094822.00,A,A*63
$GPVTG,182.9,T,183.0,M,001.5,N,002.9,K,A*24
$GPGSV,2,1,06,02,31,054,46,12,39,099,40,25,73,079,44,29,75,246,44*76
$GPGSV,2,2,06,30,55,302,44,31,43,302,44,,12,25,29,30,31,,,,,,,4.9,2.7,4.0*3E
$GPZDA,094822.03,08,10,2011,00,00*6B
$GPRMC,094822.00,A,4611.973458,N,01258.208863,E,001.5,182.9,081011,0.2,E,A*32
$GPGGA,094823.00,4611.973365,N,01258.208977,E,1,06,2.7,134.17,M,46.25,M,,*6C
$GPGLL,4611.973365,N,01258.208977,E,094823.00,A,A*6F
$GPVTG,135.3,T,135.4,M,001.0,N,001.9,K,A*2D
$GPGSV,2,1,06,02,31,054,46,12,39,099,40,25,73,079,44,29,75,246,45*77
$GPGSV,2,2,06,30,55,302,43,31,43,302,44,,,,,,,,*7E
$GPGSA,M,3,02,12,25,29,30,31,,,,,,,4.9,2.7,4.0*3E
Trace #15 at position 3.500000
$GPZDA,094821.04,08,10,2011,00,00*6F
$GPRMC,094821.00,A,4611.973558,N,01258.208792,E,001.2,152.2,081011,0.2,E,A*30
$GPGGA,094822.00,4611.973458,N,01258.208863,E,1,06,2.7,133.67,M,46.25,M,,*60
$GPGLL,4611.973458,N,01258.208863,E,094822.00,A,A*63
$GPVTG,182.9,T,183.0,M,001.5,N,002.9,K,A*24
$GPGSV,2,1,06,02,31,054,46,12,39,099,40,25,73,079,44,29,75,246,44*76
$GPGSV,2,2,06,30,55,302,44,31,43,302,44,,12,25,29,30,31,,,,,,,4.9,2.7,4.0*3E
$GPZDA,094822.03,08,10,2011,00,00*6B
$GPRMC,094822.00,A,4611.973458,N,01258.208863,E,001.5,182.9,081011,0.2,E,A*32
$GPGGA,094823.00,4611.973365,N,01258.208977,E,1,06,2.7,134.17,M,46.25,M,,*6C
$GPGLL,4611.973365,N,01258.208977,E,094823.00,A,A*6F
$GPVTG,135.3,T,135.4,M,001.0,N,001.9,K,A*2D
$GPGSV,2,1,06,02,31,054,46,12,39,099,40,25,73,079,44,29,75,246,45*77
$GPGSV,2,2,06,30,55,302,43,31,43,302,44,,,,,,,,*7E
$GPGSA,M,3,02,12,25,29,30,31,,,,,,,4.9,2.7,4.0*3E
Trace #16 at position 3.750000
$GPZDA,094823.04,08,10,2011,00,00*6D
$GPRMC,094823.00,A,4611.973365,N,01258.208977,E,001.0,135.3,081011,0.2,E,A*3D
$GPGGA,094824.00,4611.973291,N,01258.209236,E,1,06,2.7,134.67,M,46.25,M,,*69
$GPGLL,4611.973291,N,01258.209236,E,094824.00,A,A*6D
$GPVTG,147.7,T,147.9,M,001.4,N,002.6,K,A*2C
$GPGSV,2,1,06,02,31,054,45,12,39,099,39,25,73,079,43,29,75,246,43*7B
$GPGSV,2,2,06,30,55,302,43,31,43,302,45,,,,,,,,*7F
$GPGSA,M,3,02,12,25,29,30,31,,,,,,,4.9,2.7,4.0*3E
Trace #17 at position 4.000000
$GPZDA,094823.04,08,10,2011,00,00*6D
$GPRMC,094823.00,A,4611.973365,N,01258.208977,E,001.0,135.3,081011,0.2,E,A*3D
$GPGGA,094824.00,4611.973291,N,01258.209236,E,1,06,2.7,134.67,M,46.25,M,,*69
$GPGLL,4611.973291,N,01258.209236,E,094824.00,A,A*6D
$GPVTG,147.7,T,147.9,M,001.4,N,002.6,K,A*2C
$GPGSV,2,1,06,02,31,054,45,12,39,099,39,25,73,079,43,29,75,246,43*7B
$GPGSV,2,2,06,30,55,302,43,31,43,302,45,,,,,,,,*7F
$GPGSA,M,3,02,12,25,29,30,31,,,,,,,4.9,2.7,4.0*3E
Trace #18 at position 4.250000
$GPZDA,094823.04,08,10,2011,00,00*6D
$GPRMC,094823.00,A,4611.973365,N,01258.208977,E,001.0,135.3,081011,0.2,E,A*3D
$GPGGA,094824.00,4611.973291,N,01258.209236,E,1,06,2.7,134.67,M,46.25,M,,*69
$GPGLL,4611.973291,N,01258.209236,E,094824.00,A,A*6D
$GPVTG,147.7,T,147.9,M,001.4,N,002.6,K,A*2C
$GPGSV,2,1,06,02,31,054,45,12,39,099,39,25,73,079,43,29,75,246,43*7B
$GPGSV,2,2,06,30,55,302,43,31,43,302,45,,,,,,,,*7F
$GPGSA,M,3,02,12,25,29,30,31,,,,,,,4.9,2.7,4.0*3E
Trace #19 at position 4.500000
$GPZDA,094824.03,08,10,2011,00,00*6D
$GPRMC,094824.00,A,4611.973291,N,01258.209236,E,001.4,147.7,081011,0.2,E,A*3A
$GPGGA,094825.00,4611.973110,N,01258.209405,E,1,06,2.7,135.10,M,46.25,M,,*65
$GPGLL,4611.973110,N,01258.209405,E,094825.00,A,A*60
$GPVTG,167.2,T,167.4,M,001.4,N,002.5,K,A*27
$GPGSV,2,1,06,02,31,054,45,12,39,099,42,25,73,079,43,29,75,246,43*77
$GPGSV,2,2,06,30,55,302,43,31,43,302,45,,,,,,,,*7F
$GPGSA,M,3,02,12,25,29,30,31,,,,,,,4.9,2.7,4.0*3E
Trace #20 at position 4.750000
$GPZDA,094824.03,08,10,2011,00,00*6D
$GPRMC,094824.00,A,4611.973291,N,01258.209236,E,001.4,147.7,081011,0.2,E,A*3A
$GPGGA,094825.00,4611.973110,N,01258.209405,E,1,06,2.7,135.10,M,46.25,M,,*65
$GPGLL,4611.973110,N,01258.209405,E,094825.00,A,A*60
$GPVTG,167.2,T,167.4,M,001.4,N,002.5,K,A*27
$GPGSV,2,1,06,02,31,054,45,12,39,099,42,25,73,079,43,29,75,246,43*77
$GPGSV,2,2,06,30,55,302,43,31,43,302,45,,,,,,,,*7F
$GPGSA,M,3,02,12,25,29,30,31,,,,,,,4.9,2.7,4.0*3E
Trace #21 at position 5.000000
$GPZDA,094824.03,08,10,2011,00,00*6D
$GPRMC,094824.00,A,4611.973291,N,01258.209236,E,001.4,147.7,081011,0.2,E,A*3A
$GPGGA,094825.00,4611.973110,N,01258.209405,E,1,06,2.7,135.10,M,46.25,M,,*65
$GPGLL,4611.973110,N,01258.209405,E,094825.00,A,A*60
$GPVTG,167.2,T,167.4,M,001.4,N,002.5,K,A*27
$GPGSV,2,1,06,02,31,054,45,12,39,099,42,25,73,079,43,29,75,246,43*77
$GPGSV,2,2,06,30,55,302,43,31,43,302,45,,,,,,,,*7F
$GPGSA,M,3,02,12,25,29,30,31,,,,,,,4.9,2.7,4.0*3E
Trace #22 at position 5.250000
$GPZDA,094825.03,08,10,2011,00,00*6C
$GPRMC,094825.00,A,4611.973110,N,01258.209405,E,001.4,167.2,081011,0.2,E,A*30
$GPGGA,094826.00,4611.972891,N,01258.209526,E,1,06,2.7,135.54,M,46.25,M,,*67
$GPGLL,4611.972891,N,01258.209526,E,094826.00,A,A*62
$GPVTG,159.2,T,159.4,M,001.4,N,002.5,K,A*27
$GPGSV,2,1,06,02,31,054,45,12,39,099,41,25,73,079,43,29,75,246,45*72
$GPGSV,2,2,06,30,55,302,43,31,43,302,45,,,,,,,,*7F
$GPGSA,M,3,02,12,25,29,30,31,,,,,,,4.9,2.7,4.0*3E
Trace #23 at position 5.500000
$GPZDA,094825.03,08,10,2011,00,00*6C
$GPRMC,094825.00,A,4611.973110,N,01258.209405,E,001.4,167.2,081011,0.2,E,A*30
$GPGGA,094826.00,4611.972891,N,01258.209526,E,1,06,2.7,135.54,M,46.25,M,,*67
$GPGLL,4611.972891,N,01258.209526,E,094826.00,A,A*62
$GPVTG,159.2,T,159.4,M,001.4,N,002.5,K,A*27
$GPGSV,2,1,06,02,31,054,45,12,39,099,41,25,73,079,43,29,75,246,45*72
$GPGSV,2,2,06,30,55,302,43,31,43,302,45,,,,,,,,*7F
$GPGSA,M,3,02,12,25,29,30,31,,,,,,,4.9,2.7,4.0*3E
Trace #24 at position 5.750000
$GPZDA,094826.03,08,10,2011,00,00*6F
$GPRMC,094826.00,A,4611.972891,N,01258.209526,E,001.4,159.2,081011,0.2,E,A*3F
$GPGGA,094827.00,4611.972623,N,01258.209740,E,1,06,2.7,135.93,M,46.25,M,,*68
$GPGLL,4611.972623,N,01258.209740,E,094827.00,A,A*66
$GPVTG,153.1,T,153.3,M,001.7,N,003.2,K,A*26
$GPGSV,2,1,06,02,31,054,45,12,39,099,41,25,73,079,43,29,75,246,44*73
$GPGSV,2,2,06,30,55,302,43,31,43,302,45,,,,,,,,*7F
$GPGSA,M,3,02,12,25,29,30,31,,,,,,,4.9,2.7,4.0*3E
Trace #25 at position 6.000000
$GPZDA,094826.03,08,10,2011,00,00*6F
$GPRMC,094826.00,A,4611.972891,N,01258.209526,E,001.4,159.2,081011,0.2,E,A*3F
$GPGGA,094827.00,4611.972623,N,01258.209740,E,1,06,2.7,135.93,M,46.25,M,,*68
$GPGLL,4611.972623,N,01258.209740,E,094827.00,A,A*66
$GPVTG,153.1,T,153.3,M,001.7,N,003.2,K,A*26
$GPGSV,2,1,06,02,31,054,45,12,39,099,41,25,73,079,43,29,75,246,44*73
$GPGSV,2,2,06,30,55,302,43,31,43,302,45,,,,,,,,*7F
$GPGSA,M,3,02,12,25,29,30,31,,,,,,,4.9,2.7,4.0*3E
Trace #26 at position 6.250000
$GPZDA,094826.03,08,10,2011,00,00*6F
$GPRMC,094826.00,A,4611.972891,N,01258.209526,E,001.4,159.2,081011,0.2,E,A*3F
$GPGGA,094827.00,4611.972623,N,01258.209740,E,1,06,2.7,135.93,M,46.25,M,,*68
$GPGLL,4611.972623,N,01258.209740,E,094827.00,A,A*66
$GPVTG,153.1,T,153.3,M,001.7,N,003.2,K,A*26
$GPGSV,2,1,06,02,31,054,45,12,39,099,41,25,73,079,43,29,75,246,44*73
$GPGSV,2,2,06,30,55,302,43,31,43,302,45,,,,,,,,*7F
$GPGSA,M,3,02,12,25,29,30,31,,,,,,,4.9,2.7,4.0*3E
Trace #27 at position 6.500000
$GPZDA,094827.03,08,10,2011,00,00*6E
$GPRMC,094827.00,A,4611.972623,N,01258.209740,E,001.7,153.1,081011,0.2,E,A*31
$GPGGA,094828.00,4611.972333,N,01258.209817,E,1,06,2.7,136.21,M,46.25,M,,*64
$GPGLL,4611.972333,N,01258.209817,E,094828.00,A,A*60
$GPVTG,191.0,T,191.2,M,001.4,N,002.6,K,A*20
$GPGSV,2,1,06,02,31,054,46,12,39,099,42,25,73,079,43,29,75,246,45*72
$GPGSV,2,2,06,30,55,302,43,31,44,302,45,,,,,,,,*78
$GPGSA,M,3,02,12,25,29,30,31,,,,,,,4.9,2.7,4.0*3E
Trace #28 at position 6.750000
$GPZDA,094827.03,08,10,2011,00,00*6E
$GPRMC,094827.00,A,4611.972623,N,01258.209740,E,001.7,153.1,081011,0.2,E,A*31
$GPGGA,094828.00,4611.972333,N,01258.209817,E,1,06,2.7,136.21,M,46.25,M,,*64
$GPGLL,4611.972333,N,01258.209817,E,094828.00,A,A*60
$GPVTG,191.0,T,191.2,M,001.4,N,002.6,K,A*20
$GPGSV,2,1,06,02,31,054,46,12,39,099,42,25,73,079,43,29,75,246,45*72
$GPGSV,2,2,06,30,55,302,43,31,44,302,45,,,,,,,,*78
$GPGSA,M,3,02,12,25,29,30,31,,,,,,,4.9,2.7,4.0*3E
Trace #29 at position 7.000000
$GPZDA,094827.03,08,10,2011,00,00*6E
$GPRMC,094827.00,A,4611.972623,N,01258.209740,E,001.7,153.1,081011,0.2,E,A*31
$GPGGA,094828.00,4611.972333,N,01258.209817,E,1,06,2.7,136.21,M,46.25,M,,*64
$GPGLL,4611.972333,N,01258.209817,E,094828.00,A,A*60
$GPVTG,191.0,T,191.2,M,001.4,N,002.6,K,A*20
$GPGSV,2,1,06,02,31,054,46,12,39,099,42,25,73,079,43,29,75,246,45*72
$GPGSV,2,2,06,30,55,302,43,31,44,302,45,,,,,,,,*78
$GPGSA,M,3,02,12,25,29,30,31,,,,,,,4.9,2.7,4.0*3E
Trace #30 at position 7.250000
$GPZDA,094828.03,08,10,2011,00,00*61
$GPRMC,094828.00,A,4611.972333,N,01258.209817,E,001.4,191.0,081011,0.2,E,A*3B
$GPGGA,094829.00,4611.972066,N,01258.209894,E,1,06,2.7,136.48,M,46.25,M,,*62
$GPGLL,4611.972066,N,01258.209894,E,094829.00,A,A*69
$GPVTG,150.8,T,151.0,M,001.5,N,002.7,K,A*2B
$GPGSV,2,1,06,02,31,054,45,12,39,099,41,25,73,079,43,29,75,246,45*72
$GPGSV,2,2,06,30,55,302,42,31,44,302,45,,,,,,,,*79
$GPGSA,M,3,02,12,25,29,30,31,,,,,,,4.9,2.7,4.0*3E
Trace #31 at position 7.500000
$GPZDA,094828.03,08,10,2011,00,00*61
$GPRMC,094828.00,A,4611.972333,N,01258.209817,E,001.4,191.0,081011,0.2,E,A*3B
$GPGGA,094829.00,4611.972066,N,01258.209894,E,1,06,2.7,136.48,M,46.25,M,,*62
$GPGLL,4611.972066,N,01258.209894,E,094829.00,A,A*69
$GPVTG,150.8,T,151.0,M,001.5,N,002.7,K,A*2B
$GPGSV,2,1,06,02,31,054,45,12,39,099,41,25,73,079,43,29,75,246,45*72
$GPGSV,2,2,06,30,55,302,42,31,44,302,45,,,,,,,,*79
$GPGSA,M,3,02,12,25,29,30,31,,,,,,,4.9,2.7,4.0*3E
Trace #32 at position 7.750000
$GPZDA,094828.03,08,10,2011,00,00*61
$GPRMC,094828.00,A,4611.972333,N,01258.209817,E,001.4,191.0,081011,0.2,E,A*3B
$GPGGA,094829.00,4611.972066,N,01258.209894,E,1,06,2.7,136.48,M,46.25,M,,*62
$GPGLL,4611.972066,N,01258.209894,E,094829.00,A,A*69
$GPVTG,150.8,T,151.0,M,001.5,N,002.7,K,A*2B
$GPGSV,2,1,06,02,31,054,45,12,39,099,41,25,73,079,43,29,75,246,45*72
$GPGSV,2,2,06,30,55,302,42,31,44,302,45,,,,,,,,*79
$GPGSA,M,3,02,12,25,29,30,31,,,,,,,4.9,2.7,4.0*3E
Trace #33 at position 8.000000
$GPZDA,094829.03,08,10,2011,00,00*60
$GPRMC,094829.00,A,4611.972066,N,01258.209894,E,001.5,150.8,081011,0.2,E,A*36
$GPGGA,094830.00,4611.971744,N,01258.210017,E,1,06,2.7,136.63,M,46.25,M,,*6C
$GPGLL,4611.971744,N,01258.210017,E,094830.00,A,A*6E
$GPVTG,181.5,T,181.6,M,001.7,N,003.2,K,A*27
$GPGSV,2,1,06,02,31,054,45,12,39,099,41,25,73,079,43,29,75,246,45*72
$GPGSV,2,2,06,30,55,302,43,31,44,302,45,,,,,,,,*78
$GPGSA,M,3,02,12,25,29,30,31,,,,,,,4.9,2.7,4.0*3E
Trace #34 at position 8.250000
$GPZDA,094829.03,08,10,2011,00,00*60
$GPRMC,094829.00,A,4611.972066,N,01258.209894,E,001.5,150.8,081011,0.2,E,A*36
$GPGGA,094830.00,4611.971744,N,01258.210017,E,1,06,2.7,136.63,M,46.25,M,,*6C
$GPGLL,4611.971744,N,01258.210017,E,094830.00,A,A*6E
$GPVTG,181.5,T,181.6,M,001.7,N,003.2,K,A*27
$GPGSV,2,1,06,02,31,054,45,12,39,099,41,25,73,079,43,29,75,246,45*72
$GPGSV,2,2,06,30,55,302,43,31,44,302,45,,,,,,,,*78
$GPGSA,M,3,02,12,25,29,30,31,,,,,,,4.9,2.7,4.0*3E
Trace #35 at position 8.500000
$GPZDA,094829.03,08,10,2011,00,00*60
$GPRMC,094829.00,A,4611.972066,N,01258.209894,E,001.5,150.8,081011,0.2,E,A*36
$GPGGA,094830.00,4611.971744,N,01258.210017,E,1,06,2.7,136.63,M,46.25,M,,*6C
$GPGLL,4611.971744,N,01258.210017,E,094830.00,A,A*6E
$GPVTG,181.5,T,181.6,M,001.7,N,003.2,K,A*27
$GPGSV,2,1,06,02,31,054,45,12,39,099,41,25,73,079,43,29,75,246,45*72
$GPGSV,2,2,06,30,55,302,43,31,44,302,45,,,,,,,,*78
$GPGSA,M,3,02,12,25,29,30,31,,,,,,,4.9,2.7,4.0*3E
Trace #36 at position 8.750000
$GPZDA,094830.03,08,10,2011,00,00*68
$GPRMC,094830.00,A,4611.971744,N,01258.210017,E,001.7,181.5,081011,0.2,E,A*32
$GPGGA,094831.00,4611.971368,N,01258.210054,E,1,06,2.7,136.64,M,46.25,M,,*67
$GPGLL,4611.971368,N,01258.210054,E,094831.00,A,A*62
$GPVTG,173.5,T,173.6,M,001.7,N,003.2,K,A*27
$GPGSV,2,1,06,02,31,054,44,12,39,099,42,25,73,079,43,29,75,246,44*71
$GPGSV,2,2,06,30,55,302,44,31,44,302,45,,,,,,,,*7F
$GPGSA,M,3,02,12,25,29,30,31,,,,,,,4.9,2.7,4.0*3E
Trace #37 at position 9.000000
$GPZDA,094830.03,08,10,2011,00,00*68
$GPRMC,094830.00,A,4611.971744,N,01258.210017,E,001.7,181.5,081011,0.2,E,A*32
$GPGGA,094831.00,4611.971368,N,01258.210054,E,1,06,2.7,136.64,M,46.25,M,,*67
$GPGLL,4611.971368,N,01258.210054,E,094831.00,A,A*62
$GPVTG,173.5,T,173.6,M,001.7,N,003.2,K,A*27
$GPGSV,2,1,06,02,31,054,44,12,39,099,42,25,73,079,43,29,75,246,44*71
$GPGSV,2,2,06,30,55,302,44,31,44,302,45,,,,,,,,*7F
$GPGSA,M,3,02,12,25,29,30,31,,,,,,,4.9,2.7,4.0*3E
Trace #38 at position 9.250000
$GPZDA,094830.03,08,10,2011,00,00*68
$GPRMC,094830.00,A,4611.971744,N,01258.210017,E,001.7,181.5,081011,0.2,E,A*32
$GPGGA,094831.00,4611.971368,N,01258.210054,E,1,06,2.7,136.64,M,46.25,M,,*67
$GPGLL,4611.971368,N,01258.210054,E,094831.00,A,A*62
$GPVTG,173.5,T,173.6,M,001.7,N,003.2,K,A*27
$GPGSV,2,1,06,02,31,054,44,12,39,099,42,25,73,079,43,29,75,246,44*71
$GPGSV,2,2,06,30,55,302,44,31,44,302,45,,,,,,,,*7F
$GPGSA,M,3,02,12,25,29,30,31,,,,,,,4.9,2.7,4.0*3E
Trace #39 at position 9.500000
$GPZDA,094831.03,08,10,2011,00,00*69
$GPRMC,094831.00,A,4611.971368,N,01258.210054,E,001.7,173.5,081011,0.2,E,A*33
$GPGGA,094832.00,4611.971002,N,01258.210289,E,1,06,2.7,136.70,M,46.25,M,,*6C
$GPGLL,4611.971002,N,01258.210289,E,094832.00,A,A*6C
$GPVTG,149.6,T,149.8,M,001.9,N,003.5,K,A*23
$GPGSV,2,1,06,02,31,054,44,12,39,099,39,25,73,079,43,29,75,246,45*7C
$GPGSV,2,2,06,30,55,302,42,31,44,302,45,,,,,,,,*79
$GPGSA,M,3,02,12,25,29,30,31,,,,,,,4.9,2.7,4.0*3E
Trace #40 at position 9.750000
$GPZDA,094831.03,08,10,2011,00,00*69
$GPRMC,094831.00,A,4611.971368,N,01258.210054,E,001.7,173.5,081011,0.2,E,A*33
$GPGGA,094832.00,4611.971002,N,01258.210289,E,1,06,2.7,136.70,M,46.25,M,,*6C
$GPGLL,4611.971002,N,01258.210289,E,094832.00,A,A*6C
$GPVTG,149.6,T,149.8,M,001.9,N,003.5,K,A*23
$GPGSV,2,1,06,02,31,054,44,12,39,099,39,25,73,079,43,29,75,246,45*7C
$GPGSV,2,2,06,30,55,302,42,31,44,302,45,,,,,,,,*79
$GPGSA,M,3,02,12,25,29,30,31,,,,,,,4.9,2.7,4.0*3E
Trace #41 at position 10.000000
$GPZDA,094831.03,08,10,2011,00,00*69
$GPRMC,094831.00,A,4611.971368,N,01258.210054,E,001.7,173.5,081011,0.2,E,A*33
$GPGGA,094832.00,4611.971002,N,01258.210289,E,1,06,2.7,136.70,M,46.25,M,,*6C
$GPGLL,4611.971002,N,01258.210289,E,094832.00,A,A*6C
$GPVTG,149.6,T,149.8,M,001.9,N,003.5,K,A*23
$GPGSV,2,1,06,02,31,054,44,12,39,099,39,25,73,079,43,29,75,246,45*7C
$GPGSV,2,2,06,30,55,302,42,31,44,302,45,,,,,,,,*79
$GPGSA,M,3,02,12,25,29,30,31,,,,,,,4.9,2.7,4.0*3E
Trace #42 at position 10.250000
$GPZDA,094832.03,08,10,2011,00,00*6A
$GPRMC,094832.00,A,4611.971002,N,01258.210289,E,001.9,149.6,081011,0.2,E,A*39
$GPGGA,094833.00,4611.970666,N,01258.210457,E,1,06,2.7,136.87,M,46.25,M,,*65
$GPGLL,4611.970666,N,01258.210457,E,094833.00,A,A*6D
$GPVTG,184.6,T,184.8,M,001.5,N,002.7,K,A*2C
$GPGSV,2,1,06,02,31,054,45,12,39,099,41,25,73,079,43,29,75,246,46*71
$GPGSV,2,2,06,30,55,302,43,31,44,302,46,,,,,,,,*7B
$GPGSA,M,3,02,12,25,29,30,31,,,,,,,4.9,2.7,4.0*3E
Trace #43 at position 10.500000
$GPZDA,094832.03,08,10,2011,00,00*6A
$GPRMC,094832.00,A,4611.971002,N,01258.210289,E,001.9,149.6,081011,0.2,E,A*39
$GPGGA,094833.00,4611.970666,N,01258.210457,E,1,06,2.7,136.87,M,46.25,M,,*65
$GPGLL,4611.970666,N,01258.210457,E,094833.00,A,A*6D
$GPVTG,184.6,T,184.8,M,001.5,N,002.7,K,A*2C
$GPGSV,2,1,06,02,31,054,45,12,39,099,41,25,73,079,43,29,75,246,46*71
$GPGSV,2,2,06,30,55,302,43,31,44,302,46,,,,,,,,*7B
$GPGSA,M,3,02,12,25,29,30,31,,,,,,,4.9,2.7,4.0*3E
Trace #44 at position 10.750000
$GPZDA,094832.03,08,10,2011,00,00*6A
$GPRMC,094832.00,A,4611.971002,N,01258.210289,E,001.9,149.6,081011,0.2,E,A*39
$GPGGA,094833.00,4611.970666,N,01258.210457,E,1,06,2.7,136.87,M,46.25,M,,*65
$GPGLL,4611.970666,N,01258.210457,E,094833.00,A,A*6D
$GPVTG,184.6,T,184.8,M,001.5,N,002.7,K,A*2C
$GPGSV,2,1,06,02,31,054,45,12,39,099,41,25,73,079,43,29,75,246,46*71
$GPGSV,2,2,06,30,55,302,43,31,44,302,46,,,,,,,,*7B
$GPGSA,M,3,02,12,25,29,30,31,,,,,,,4.9,2.7,4.0*3E
Trace #45 at position 11.000000
$GPZDA,094832.03,08,10,2011,00,00*6A
$GPRMC,094832.00,A,4611.971002,N,01258.210289,E,001.9,149.6,081011,0.2,E,A*39
$GPGGA,094833.00,4611.970666,N,01258.210457,E,1,06,2.7,136.87,M,46.25,M,,*65
$GPGLL,4611.970666,N,01258.210457,E,094833.00,A,A*6D
$GPVTG,184.6,T,184.8,M,001.5,N,002.7,K,A*2C
$GPGSV,2,1,06,02,31,054,45,12,39,099,41,25,73,079,43,29,75,246,46*71
$GPGSV,2,2,06,30,55,302,43,31,44,302,46,,,,,,,,*7B
$GPGSA,M,3,02,12,25,29,30,31,,,,,,,4.9,2.7,4.0*3E
Trace #46 at position 11.250000
$GPZDA,094833.03,08,10,2011,00,00*6B
$GPRMC,094833.00,A,4611.970666,N,01258.210457,E,001.5,184.6,081011,0.2,E,A*35
$GPGGA,094834.00,4611.970301,N,01258.210570,E,1,06,2.7,136.91,M,46.25,M,,*65
$GPGLL,4611.970301,N,01258.210570,E,094834.00,A,A*6A
$GPVTG,160.8,T,161.0,M,001.9,N,003.5,K,A*24
$GPGSV,2,1,06,02,31,054,44,12,39,099,40,25,73,079,43,29,75,246,44*73
$GPGSV,2,2,06,30,55,302,44,31,44,302,45,,,,,,,,*7F
$GPGSA,M,3,02,12,25,29,30,31,,,,,,,4.9,2.7,4.0*3E
Trace #47 at position 11.500000
$GPZDA,094833.03,08,10,2011,00,00*6B
$GPRMC,094833.00,A,4611.970666,N,01258.210457,E,001.5,184.6,081011,0.2,E,A*35
$GPGGA,094834.00,4611.970301,N,01258.210570,E,1,06,2.7,136.91,M,46.25,M,,*65
$GPGLL,4611.970301,N,01258.210570,E,094834.00,A,A*6A
$GPVTG,160.8,T,161.0,M,001.9,N,003.5,K,A*24
$GPGSV,2,1,06,02,31,054,44,12,39,099,40,25,73,079,43,29,75,246,44*73
$GPGSV,2,2,06,30,55,302,44,31,44,302,45,,,,,,,,*7F
$GPGSA,M,3,02,12,25,29,30,31,,,,,,,4.9,2.7,4.0*3E
Trace #48 at position 11.750000
$GPZDA,094833.03,08,10,2011,00,00*6B
$GPRMC,094833.00,A,4611.970666,N,01258.210457,E,001.5,184.6,081011,0.2,E,A*35
$GPGGA,094834.00,4611.970301,N,01258.210570,E,1,06,2.7,136.91,M,46.25,M,,*65
$GPGLL,4611.970301,N,01258.210570,E,094834.00,A,A*6A
$GPVTG,160.8,T,161.0,M,001.9,N,003.5,K,A*24
$GPGSV,2,1,06,02,31,054,44,12,39,099,40,25,73,079,43,29,75,246,44*73
$GPGSV,2,2,06,30,55,302,44,31,44,302,45,,,,,,,,*7F
$GPGSA,M,3,02,12,25,29,30,31,,,,,,,4.9,2.7,4.0*3E
Trace #49 at position 12.000000
$GPZDA,094834.03,08,10,2011,00,00*6C
$GPRMC,094834.00,A,4611.970301,N,01258.210570,E,001.9,160.8,081011,0.2,E,A*3A
$GPGGA,094835.00,4611.969915,N,01258.210807,E,1,06,2.7,136.90,M,46.25,M,,*6F
$GPGLL,4611.969915,N,01258.210807,E,094835.00,A,A*61
$GPVTG,161.0,T,161.1,M,001.6,N,003.0,K,A*26
$GPGSV,2,1,06,02,31,054,45,12,39,099,40,25,73,079,42,29,75,246,45*72
$GPGSV,2,2,06,30,55,302,43,31,44,302,44,,,,,,,,*79
$GPGSA,M,3,02,12,25,29,30,31,,,,,,,4.9,2.7,4.0*3E
Trace #50 at position 12.250000
$GPZDA,094834.03,08,10,2011,00,00*6C
$GPRMC,094834.00,A,4611.970301,N,01258.210570,E,001.9,160.8,081011,0.2,E,A*3A
$GPGGA,094835.00,4611.969915,N,01258.210807,E,1,06,2.7,136.90,M,46.25,M,,*6F
$GPGLL,4611.969915,N,01258.210807,E,094835.00,A,A*61
$GPVTG,161.0,T,161.1,M,001.6,N,003.0,K,A*26
$GPGSV,2,1,06,02,31,054,45,12,39,099,40,25,73,079,42,29,75,246,45*72
$GPGSV,2,2,06,30,55,302,43,31,44,302,44,,,,,,,,*79
$GPGSA,M,3,02,12,25,29,30,31,,,,,,,4.9,2.7,4.0*3E
Trace #51 at position 12.500000
$GPZDA,094834.03,08,10,2011,00,00*6C
$GPRMC,094834.00,A,4611.970301,N,01258.210570,E,001.9,160.8,081011,0.2,E,A*3A
$GPGGA,094835.00,4611.969915,N,01258.210807,E,1,06,2.7,136.90,M,46.25,M,,*6F
$GPGLL,4611.969915,N,01258.210807,E,094835.00,A,A*61
$GPVTG,161.0,T,161.1,M,001.6,N,003.0,K,A*26
$GPGSV,2,1,06,02,31,054,45,12,39,099,40,25,73,079,42,29,75,246,45*72
$GPGSV,2,2,06,30,55,302,43,31,44,302,44,,,,,,,,*79
$GPGSA,M,3,02,12,25,29,30,31,,,,,,,4.9,2.7,4.0*3E
Trace #52 at position 12.750000
$GPZDA,094834.03,08,10,2011,00,00*6C
$GPRMC,094834.00,A,4611.970301,N,01258.210570,E,001.9,160.8,081011,0.2,E,A*3A
$GPGGA,094835.00,4611.969915,N,01258.210807,E,1,06,2.7,136.90,M,46.25,M,,*6F
$GPGLL,4611.969915,N,01258.210807,E,094835.00,A,A*61
$GPVTG,161.0,T,161.1,M,001.6,N,003.0,K,A*26
$GPGSV,2,1,06,02,31,054,45,12,39,099,40,25,73,079,42,29,75,246,45*72
$GPGSV,2,2,06,30,55,302,43,31,44,302,44,,,,,,,,*79
$GPGSA,M,3,02,12,25,29,30,31,,,,,,,4.9,2.7,4.0*3E
Trace #53 at position 13.000000
$GPZDA,094835.03,08,10,2011,00,00*6D
$GPRMC,094835.00,A,4611.969915,N,01258.210807,E,001.6,161.0,081011,0.2,E,A*37
$GPGGA,094836.00,4611.969465,N,01258.210947,E,1,06,2.7,136.93,M,46.25,M,,*60
$GPGLL,4611.969465,N,01258.210947,E,094836.00,A,A*6D
$GPVTG,178.1,T,178.2,M,002.2,N,004.1,K,A*25
$GPGSV,2,1,06,02,31,054,45,12,38,099,38,25,73,079,43,29,75,246,44*7C
$GPGSV,2,2,06,30,55,302,43,31,44,302,44,,,,,,,,*79
$GPGSA,M,3,02,12,25,29,30,31,,,,,,,4.9,2.7,4.0*3E
Trace #54 at position 13.250000
$GPZDA,094835.03,08,10,2011,00,00*6D
$GPRMC,094835.00,A,4611.969915,N,01258.210807,E,001.6,161.0,081011,0.2,E,A*37
$GPGGA,094836.00,4611.969465,N,01258.210947,E,1,06,2.7,136.93,M,46.25,M,,*60
$GPGLL,4611.969465,N,01258.210947,E,094836.00,A,A*6D
$GPVTG,178.1,T,178.2,M,002.2,N,004.1,K,A*25
$GPGSV,2,1,06,02,31,054,45,12,38,099,38,25,73,079,43,29,75,246,44*7C
$GPGSV,2,2,06,30,55,302,43,31,44,302,44,,,,,,,,*79
$GPGSA,M,3,02,12,25,29,30,31,,,,,,,4.9,2.7,4.0*3E
Trace #55 at position 13.500000
$GPZDA,094835.03,08,10,2011,00,00*6D
$GPRMC,094835.00,A,4611.969915,N,01258.210807,E,001.6,161.0,081011,0.2,E,A*37
$GPGGA,094836.00,4611.969465,N,01258.210947,E,1,06,2.7,136.93,M,46.25,M,,*60
$GPGLL,4611.969465,N,01258.210947,E,094836.00,A,A*6D
$GPVTG,178.1,T,178.2,M,002.2,N,004.1,K,A*25
$GPGSV,2,1,06,02,31,054,45,12,38,099,38,25,73,079,43,29,75,246,44*7C
$GPGSV,2,2,06,30,55,302,43,31,44,302,44,,,,,,,,*79
$GPGSA,M,3,02,12,25,29,30,31,,,,,,,4.9,2.7,4.0*3E
Trace #56 at position 13.750000
$GPZDA,094836.03,08,10,2011,00,00*6E
$GPRMC,094836.00,A,4611.969465,N,01258.210947,E,002.2,178.1,081011,0.2,E,A*35
$GPGGA,094837.00,4611.969004,N,01258.211058,E,1,06,2.7,137.05,M,46.25,M,,*6A
$GPGLL,4611.969004,N,01258.211058,E,094837.00,A,A*69
$GPVTG,168.8,T,169.0,M,001.7,N,003.1,K,A*2E
$GPGSV,2,1,06,02,31,054,45,12,38,099,38,25,73,079,43,29,75,246,45*7D
$GPGSV,2,2,06,30,55,302,42,31,44,302,44,,,,,,,,*78
$GPGSA,M,3,02,12,25,29,30,31,,,,,,,4.9,2.7,4.0*3E
Trace #57 at position 14.000000
$GPZDA,094836.03,08,10,2011,00,00*6E
$GPRMC,094836.00,A,4611.969465,N,01258.210947,E,002.2,178.1,081011,0.2,E,A*35
$GPGGA,094837.00,4611.969004,N,01258.211058,E,1,06,2.7,137.05,M,46.25,M,,*6A
$GPGLL,4611.969004,N,01258.211058,E,094837.00,A,A*69
$GPVTG,168.8,T,169.0,M,001.7,N,003.1,K,A*2E
$GPGSV,2,1,06,02,31,054,45,12,38,099,38,25,73,079,43,29,75,246,45*7D
$GPGSV,2,2,06,30,55,302,42,31,44,302,44,,,,,,,,*78
$GPGSA,M,3,02,12,25,29,30,31,,,,,,,4.9,2.7,4.0*3E
Trace #58 at position 14.250000
$GPZDA,094836.03,08,10,2011,00,00*6E
$GPRMC,094836.00,A,4611.969465,N,01258.210947,E,002.2,178.1,081011,0.2,E,A*35
$GPGGA,094837.00,4611.969004,N,01258.211058,E,1,06,2.7,137.05,M,46.25,M,,*6A
$GPGLL,4611.969004,N,01258.211058,E,094837.00,A,A*69
$GPVTG,168.8,T,169.0,M,001.7,N,003.1,K,A*2E
$GPGSV,2,1,06,02,31,054,45,12,38,099,38,25,73,079,43,29,75,246,45*7D
$GPGSV,2,2,06,30,55,302,42,31,44,302,44,,,,,,,,*78
$GPGSA,M,3,02,12,25,29,30,31,,,,,,,4.9,2.7,4.0*3E
Trace #59 at position 14.500000
$GPZDA,094836.03,08,10,2011,00,00*6E
$GPRMC,094836.00,A,4611.969465,N,01258.210947,E,002.2,178.1,081011,0.2,E,A*35
$GPGGA,094837.00,4611.969004,N,01258.211058,E,1,06,2.7,137.05,M,46.25,M,,*6A
$GPGLL,4611.969004,N,01258.211058,E,094837.00,A,A*69
$GPVTG,168.8,T,169.0,M,001.7,N,003.1,K,A*2E
$GPGSV,2,1,06,02,31,054,45,12,38,099,38,25,73,079,43,29,75,246,45*7D
$GPGSV,2,2,06,30,55,302,42,31,44,302,44,,,,,,,,*78
$GPGSA,M,3,02,12,25,29,30,31,,,,,,,4.9,2.7,4.0*3E
Trace #60 at position 14.750000
$GPZDA,094837.03,08,10,2011,00,00*6F
$GPRMC,094837.00,A,4611.969004,N,01258.211058,E,001.7,168.8,081011,0.2,E,A*3F
$GPGGA,094838.00,4611.968605,N,01258.211221,E,1,06,2.7,137.18,M,46.25,M,,*63
$GPGLL,4611.968605,N,01258.211221,E,094838.00,A,A*6C
$GPVTG,169.4,T,169.6,M,001.8,N,003.3,K,A*28
$GPGSV,2,1,06,02,31,054,45,12,38,099,41,25,73,079,43,29,75,246,44*72
$GPGSV,2,2,06,30,55,302,43,31,44,302,45,,,,,,,,*78
$GPGSA,M,3,02,12,25,29,30,31,,,,,,,4.9,2.7,4.0*3E
Trace #61 at position 15.000000
$GPZDA,094837.03,08,10,2011,00,00*6F
$GPRMC,094837.00,A,4611.969004,N,01258.211058,E,001.7,168.8,081011,0.2,E,A*3F
$GPGGA,094838.00,4611.968605,N,01258.211221,E,1,06,2.7,137.18,M,46.25,M,,*63
$GPGLL,4611.968605,N,01258.211221,E,094838.00,A,A*6C
$GPVTG,169.4,T,169.6,M,001.8,N,003.3,K,A*28
$GPGSV,2,1,06,02,31,054,45,12,38,099,41,25,73,079,43,29,75,246,44*72
$GPGSV,2,2,06,30,55,302,43,31,44,302,45,,,,,,,,*78
$GPGSA,M,3,02,12,25,29,30,31,,,,,,,4.9,2.7,4.0*3E
Trace #62 at position 15.250000
$GPZDA,094837.03,08,10,2011,00,00*6F
$GPRMC,094837.00,A,4611.969004,N,01258.211058,E,001.7,168.8,081011,0.2,E,A*3F
$GPGGA,094838.00,4611.968605,N,01258.211221,E,1,06,2.7,137.18,M,46.25,M,,*63
$GPGLL,4611.968605,N,01258.211221,E,094838.00,A,A*6C
$GPVTG,169.4,T,169.6,M,001.8,N,003.3,K,A*28
$GPGSV,2,1,06,02,31,054,45,12,38,099,41,25,73,079,43,29,75,246,44*72
$GPGSV,2,2,06,30,55,302,43,31,44,302,45,,,,,,,,*78
$GPGSA,M,3,02,12,25,29,30,31,,,,,,,4.9,2.7,4.0*3E
Trace #63 at position 15.500000
$GPZDA,094838.04,08,10,2011,00,00*67
$GPRMC,094838.00,A,4611.968605,N,01258.211221,E,001.8,169.4,081011,0.2,E,A*38
$GPGGA,094839.00,4611.968229,N,01258.211352,E,1,06,2.7,137.32,M,46.25,M,,*65
$GPGLL,4611.968229,N,01258.211352,E,094839.00,A,A*62
$GPVTG,176.2,T,176.3,M,001.4,N,002.6,K,A*23
$GPGSV,2,1,06,02,31,054,45,12,38,099,39,25,73,079,43,29,75,246,44*7D
$GPGSV,2,2,06,30,55,302,43,31,44,302,44,,,,,,,,*79
$GPGSA,M,3,02,12,25,29,30,31,,,,,,,4.9,2.7,4.0*3E
Trace #64 at position 15.750000
$GPZDA,094838.04,08,10,2011,00,00*67
$GPRMC,094838.00,A,4611.968605,N,01258.211221,E,001.8,169.4,081011,0.2,E,A*38
$GPGGA,094839.00,4611.968229,N,01258.211352,E,1,06,2.7,137.32,M,46.25,M,,*65
$GPGLL,4611.968229,N,01258.211352,E,094839.00,A,A*62
$GPVTG,176.2,T,176.3,M,001.4,N,002.6,K,A*23
$GPGSV,2,1,06,02,31,054,45,12,38,099,39,25,73,079,43,29,75,246,44*7D
$GPGSV,2,2,06,30,55,302,43,31,44,302,44,,,,,,,,*79
$GPGSA,M,3,02,12,25,29,30,31,,,,,,,4.9,2.7,4.0*3E
Trace #65 at position 16.000000
$GPZDA,094838.04,08,10,2011,00,00*67
$GPRMC,094838.00,A,4611.968605,N,01258.211221,E,001.8,169.4,081011,0.2,E,A*38
$GPGGA,094839.00,4611.968229,N,01258.211352,E,1,06,2.7,137.32,M,46.25,M,,*65
$GPGLL,4611.968229,N,01258.211352,E,094839.00,A,A*62
$GPVTG,176.2,T,176.3,M,001.4,N,002.6,K,A*23
$GPGSV,2,1,06,02,31,054,45,12,38,099,39,25,73,079,43,29,75,246,44*7D
$GPGSV,2,2,06,30,55,302,43,31,44,302,44,,,,,,,,*79
$GPGSA,M,3,02,12,25,29,30,31,,,,,,,4.9,2.7,4.0*3E
Trace #66 at position 16.250000
$GPZDA,094839.03,08,10,2011,00,00*61
$GPRMC,094839.00,A,4611.968229,N,01258.211352,E,001.4,176.2,081011,0.2,E,A*32
$GPGGA,094840.00,4611.967848,N,01258.211473,E,1,06,2.7,137.49,M,46.25,M,,*61
$GPGLL,4611.967848,N,01258.211473,E,094840.00,A,A*6A
$GPVTG,171.9,T,172.1,M,001.7,N,003.2,K,A*2F
$GPGSV,2,1,06,02,31,054,44,12,38,099,39,25,73,079,42,29,75,246,44*7D
$GPGSV,2,2,06,30,55,302,42,31,44,302,44,,,,,,,,*78
$GPGSA,M,3,02,12,25,29,30,31,,,,,,,4.9,2.7,4.0*3E
Trace #67 at position 16.500000
$GPZDA,094839.03,08,10,2011,00,00*61
$GPRMC,094839.00,A,4611.968229,N,01258.211352,E,001.4,176.2,081011,0.2,E,A*32
$GPGGA,094840.00,4611.967848,N,01258.211473,E,1,06,2.7,137.49,M,46.25,M,,*61
$GPGLL,4611.967848,N,01258.211473,E,094840.00,A,A*6A
$GPVTG,171.9,T,172.1,M,001.7,N,003.2,K,A*2F
$GPGSV,2,1,06,02,31,054,44,12,38,099,39,25,73,079,42,29,75,246,44*7D
$GPGSV,2,2,06,30,55,302,42,31,44,302,44,,,,,,,,*78
$GPGSA,M,3,02,12,25,29,30,31,,,,,,,4.9,2.7,4.0*3E
Trace #68 at position 16.750000
$GPZDA,094839.03,08,10,2011,00,00*61
$GPRMC,094839.00,A,4611.968229,N,01258.211352,E,001.4,176.2,081011,0.2,E,A*32
$GPGGA,094840.00,4611.967848,N,01258.211473,E,1,06,2.7,137.49,M,46.25,M,,*61
$GPGLL,4611.967848,N,01258.211473,E,094840.00,A,A*6A
$GPVTG,171.9,T,172.1,M,001.7,N,003.2,K,A*2F
$GPGSV,2,1,06,02,31,054,44,12,38,099,39,25,73,079,42,29,75,246,44*7D
$GPGSV,2,2,06,30,55,302,42,31,44,302,44,,,,,,,,*78
$GPGSA,M,3,02,12,25,29,30,31,,,,,,,4.9,2.7,4.0*3E
Trace #69 at position 17.000000
$GPZDA,094840.03,08,10,2011,00,00*6F
$GPRMC,094840.00,A,4611.967848,N,01258.211473,E,001.7,171.9,081011,0.2,E,A*35
$GPGGA,094841.00,4611.967464,N,01258.211655,E,1,06,2.7,137.62,M,46.25,M,,*6D
$GPGLL,4611.967464,N,01258.211655,E,094841.00,A,A*6F
$GPVTG,163.9,T,164.0,M,001.4,N,002.6,K,A*2C
$GPGSV,2,1,06,02,31,054,45,12,38,099,40,25,73,079,43,29,75,246,43*74
$GPGSV,2,2,06,30,55,302,43,31,44,302,45,,,,,,,,*78
$GPGSA,M,3,02,12,25,29,30,31,,,,,,,4.9,2.7,4.0*3E
Trace #70 at position 17.250000
$GPZDA,094840.03,08,10,2011,00,00*6F
$GPRMC,094840.00,A,4611.967848,N,01258.211473,E,001.7,171.9,081011,0.2,E,A*35
$GPGGA,094841.00,4611.967464,N,01258.211655,E,1,06,2.7,137.62,M,46.25,M,,*6D
$GPGLL,4611.967464,N,01258.211655,E,094841.00,A,A*6F
$GPVTG,163.9,T,164.0,M,001.4,N,002.6,K,A*2C
$GPGSV,2,1,06,02,31,054,45,12,38,099,40,25,73,079,43,29,75,246,43*74
$GPGSV,2,2,06,30,55,302,43,31,44,302,45,,,,,,,,*78
$GPGSA,M,3,02,12,25,29,30,31,,,,,,,4.9,2.7,4.0*3E
Trace #71 at position 17.500000
$GPZDA,094840.03,08,10,2011,00,00*6F
$GPRMC,094840.00,A,4611.967848,N,01258.211473,E,001.7,171.9,081011,0.2,E,A*35
$GPGGA,094841.00,4611.967464,N,01258.211655,E,1,06,2.7,137.62,M,46.25,M,,*6D
$GPGLL,4611.967464,N,01258.211655,E,094841.00,A,A*6F
$GPVTG,163.9,T,164.0,M,001.4,N,002.6,K,A*2C
$GPGSV,2,1,06,02,31,054,45,12,38,099,40,25,73,079,43,29,75,246,43*74
$GPGSV,2,2,06,30,55,302,43,31,44,302,45,,,,,,,,*78
$GPGSA,M,3,02,12,25,29,30,31,,,,,,,4.9,2.7,4.0*3E
Trace #72 at position 17.750000
$GPZDA,094841.03,08,10,2011,00,00*6E
$GPRMC,094841.00,A,4611.967464,N,01258.211655,E,001.4,163.9,081011,0.2,E,A*30
$GPGGA,094842.00,4611.967217,N,01258.211806,E,1,06,2.7,137.73,M,46.25,M,,*64
$GPGLL,4611.967217,N,01258.211806,E,094842.00,A,A*66
$GPVTG,170.5,T,170.7,M,000.6,N,001.1,K,A*27
$GPGSV,2,1,06,02,31,054,45,12,38,099,40,25,73,079,42,29,75,246,44*72
$GPGSV,2,2,06,30,55,302,44,31,44,302,44,,,,,,,,*7E
$GPGSA,M,3,02,12,25,29,30,31,,,,,,,4.9,2.7,4.0*3E
Trace #73 at position 18.000000
$GPZDA,094841.03,08,10,2011,00,00*6E
$GPRMC,094841.00,A,4611.967464,N,01258.211655,E,001.4,163.9,081011,0.2,E,A*30
$GPGGA,094842.00,4611.967217,N,01258.211806,E,1,06,2.7,137.73,M,46.25,M,,*64
$GPGLL,4611.967217,N,01258.211806,E,094842.00,A,A*66
$GPVTG,170.5,T,170.7,M,000.6,N,001.1,K,A*27
$GPGSV,2,1,06,02,31,054,45,12,38,099,40,25,73,079,42,29,75,246,44*72
$GPGSV,2,2,06,30,55,302,44,31,44,302,44,,,,,,,,*7E
$GPGSA,M,3,02,12,25,29,30,31,,,,,,,4.9,2.7,4.0*3E
Trace #74 at position 18.250000
$GPZDA,094841.03,08,10,2011,00,00*6E
$GPRMC,094841.00,A,4611.967464,N,01258.211655,E,001.4,163.9,081011,0.2,E,A*30
$GPGGA,094842.00,4611.967217,N,01258.211806,E,1,06,2.7,137.73,M,46.25,M,,*64
$GPGLL,4611.967217,N,01258.211806,E,094842.00,A,A*66
$GPVTG,170.5,T,170.7,M,000.6,N,001.1,K,A*27
$GPGSV,2,1,06,02,31,054,45,12,38,099,40,25,73,079,42,29,75,246,44*72
$GPGSV,2,2,06,30,55,302,44,31,44,302,44,,,,,,,,*7E
$GPGSA,M,3,02,12,25,29,30,31,,,,,,,4.9,2.7,4.0*3E
Trace #75 at position 18.500000
$GPZDA,094842.03,08,10,2011,00,00*6D
$GPRMC,094842.00,A,4611.967217,N,01258.211806,E,000.6,170.5,081011,0.2,E,A*34
$GPGGA,094843.00,4611.966950,N,01258.211996,E,1,06,2.7,137.82,M,46.25,M,,*6A
$GPGLL,4611.966950,N,01258.211996,E,094843.00,A,A*66
$GPVTG,157.6,T,157.8,M,001.5,N,002.8,K,A*23
$GPGSV,2,1,06,02,31,054,45,12,38,099,41,25,73,079,43,29,75,246,44*72
$GPGSV,2,2,06,30,55,302,43,31,44,302,45,,,,,,,,*78
$GPGSA,M,3,02,12,25,29,30,31,,,,,,,4.9,2.7,4.0*3E
Trace #76 at position 18.750000
$GPZDA,094842.03,08,10,2011,00,00*6D
$GPRMC,094842.00,A,4611.967217,N,01258.211806,E,000.6,170.5,081011,0.2,E,A*34
$GPGGA,094843.00,4611.966950,N,01258.211996,E,1,06,2.7,137.82,M,46.25,M,,*6A
$GPGLL,4611.966950,N,01258.211996,E,094843.00,A,A*66
$GPVTG,157.6,T,157.8,M,001.5,N,002.8,K,A*23
$GPGSV,2,1,06,02,31,054,45,12,38,099,41,25,73,079,43,29,75,246,44*72
$GPGSV,2,2,06,30,55,302,43,31,44,302,45,,,,,,,,*78
$GPGSA,M,3,02,12,25,29,30,31,,,,,,,4.9,2.7,4.0*3E
Trace #77 at position 19.000000
$GPZDA,094843.03,08,10,2011,00,00*6C
$GPRMC,094843.00,A,4611.966950,N,01258.211996,E,001.5,157.6,081011,0.2,E,A*30
$GPGGA,094844.00,4611.966545,N,01258.212191,E,1,06,2.7,137.83,M,46.25,M,,*68
$GPGLL,4611.966545,N,01258.212191,E,094844.00,A,A*65
$GPVTG,175.3,T,175.5,M,001.6,N,002.9,K,A*29
$GPGSV,2,1,06,02,31,054,45,12,38,099,40,25,73,079,43,29,75,246,44*73
$GPGSV,2,2,06,30,55,302,44,31,44,302,45,,,,,,,,*7F
$GPGSA,M,3,02,12,25,29,30,31,,,,,,,4.8,2.7,4.0*3F
Trace #78 at position 19.250000
$GPZDA,094843.03,08,10,2011,00,00*6C
$GPRMC,094843.00,A,4611.966950,N,01258.211996,E,001.5,157.6,081011,0.2,E,A*30
$GPGGA,094844.00,4611.966545,N,01258.212191,E,1,06,2.7,137.83,M,46.25,M,,*68
$GPGLL,4611.966545,N,01258.212191,E,094844.00,A,A*65
$GPVTG,175.3,T,175.5,M,001.6,N,002.9,K,A*29
$GPGSV,2,1,06,02,31,054,45,12,38,099,40,25,73,079,43,29,75,246,44*73
$GPGSV,2,2,06,30,55,302,44,31,44,302,45,,,,,,,,*7F
$GPGSA,M,3,02,12,25,29,30,31,,,,,,,4.8,2.7,4.0*3F
Trace #79 at position 19.500000
$GPZDA,094843.03,08,10,2011,00,00*6C
$GPRMC,094843.00,A,4611.966950,N,01258.211996,E,001.5,157.6,081011,0.2,E,A*30
$GPGGA,094844.00,4611.966545,N,01258.212191,E,1,06,2.7,137.83,M,46.25,M,,*68
$GPGLL,4611.966545,N,01258.212191,E,094844.00,A,A*65
$GPVTG,175.3,T,175.5,M,001.6,N,002.9,K,A*29
$GPGSV,2,1,06,02,31,054,45,12,38,099,40,25,73,079,43,29,75,246,44*73
$GPGSV,2,2,06,30,55,302,44,31,44,302,45,,,,,,,,*7F
$GPGSA,M,3,02,12,25,29,30,31,,,,,,,4.8,2.7,4.0*3F
Trace #80 at position 19.750000
$GPZDA,094844.03,08,10,2011,00,00*6B
$GPRMC,094844.00,A,4611.966545,N,01258.212191,E,001.6,175.3,081011,0.2,E,A*35
$GPGGA,094845.00,4611.966144,N,01258.212438,E,1,06,2.7,137.84,M,46.25,M,,*6D
$GPGLL,4611.966144,N,01258.212438,E,094845.00,A,A*67
$GPVTG,147.8,T,148.0,M,001.7,N,003.1,K,A*20
$GPGSV,2,1,06,02,31,054,44,12,38,099,39,25,73,079,44,29,75,246,43*7C
$GPGSV,2,2,06,30,55,302,44,31,44,302,44,,,,,,,,*7E
$GPGSA,M,3,02,12,25,29,30,31,,,,,,,4.8,2.7,4.0*3F
Trace #81 at position 20.000000
$GPZDA,094844.03,08,10,2011,00,00*6B
$GPRMC,094844.00,A,4611.966545,N,01258.212191,E,001.6,175.3,081011,0.2,E,A*35
$GPGGA,094845.00,4611.966144,N,01258.212438,E,1,06,2.7,137.84,M,46.25,M,,*6D
$GPGLL,4611.966144,N,01258.212438,E,094845.00,A,A*67
$GPVTG,147.8,T,148.0,M,001.7,N,003.1,K,A*20
$GPGSV,2,1,06,02,31,054,44,12,38,099,39,25,73,079,44,29,75,246,43*7C
$GPGSV,2,2,06,30,55,302,44,31,44,302,44,,,,,,,,*7E
$GPGSA,M,3,02,12,25,29,30,31,,,,,,,4.8,2.7,4.0*3F
Trace #82 at position 20.250000
$GPZDA,094844.03,08,10,2011,00,00*6B
$GPRMC,094844.00,A,4611.966545,N,01258.212191,E,001.6,175.3,081011,0.2,E,A*35
$GPGGA,094845.00,4611.966144,N,01258.212438,E,1,06,2.7,137.84,M,46.25,M,,*6D
$GPGLL,4611.966144,N,01258.212438,E,094845.00,A,A*67
$GPVTG,147.8,T,148.0,M,001.7,N,003.1,K,A*20
$GPGSV,2,1,06,02,31,054,44,12,38,099,39,25,73,079,44,29,75,246,43*7C
$GPGSV,2,2,06,30,55,302,44,31,44,302,44,,,,,,,,*7E
$GPGSA,M,3,02,12,25,29,30,31,,,,,,,4.8,2.7,4.0*3F
Trace #83 at position 20.500000
$GPZDA,094845.03,08,10,2011,00,00*6A
$GPRMC,094845.00,A,4611.966144,N,01258.212438,E,001.7,147.8,081011,0.2,E,A*3C
$GPGGA,094846.00,4611.965729,N,01258.212695,E,1,06,2.7,137.89,M,46.25,M,,*68
$GPGLL,4611.965729,N,01258.212695,E,094846.00,A,A*6F
$GPVTG,172.0,T,172.2,M,001.7,N,003.2,K,A*26
$GPGSV,2,1,06,02,31,054,45,12,38,099,38,25,73,079,43,29,75,246,44*7C
$GPGSV,2,2,06,30,55,302,43,31,44,302,44,,,,,,,,*79
$GPGSA,M,3,02,12,25,29,30,31,,,,,,,4.8,2.7,4.0*3F
Trace #84 at position 20.750000
$GPZDA,094845.03,08,10,2011,00,00*6A
$GPRMC,094845.00,A,4611.966144,N,01258.212438,E,001.7,147.8,081011,0.2,E,A*3C
$GPGGA,094846.00,4611.965729,N,01258.212695,E,1,06,2.7,137.89,M,46.25,M,,*68
$GPGLL,4611.965729,N,01258.212695,E,094846.00,A,A*6F
$GPVTG,172.0,T,172.2,M,001.7,N,003.2,K,A*26
$GPGSV,2,1,06,02,31,054,45,12,38,099,38,25,73,079,43,29,75,246,44*7C
$GPGSV,2,2,06,30,55,302,43,31,44,302,44,,,,,,,,*79
$GPGSA,M,3,02,12,25,29,30,31,,,,,,,4.8,2.7,4.0*3F
Trace #85 at position 21.000000
$GPZDA,094845.03,08,10,2011,00,00*6A
$GPRMC,094845.00,A,4611.966144,N,01258.212438,E,001.7,147.8,081011,0.2,E,A*3C
$GPGGA,094846.00,4611.965729,N,01258.212695,E,1,06,2.7,137.89,M,46.25,M,,*68
$GPGLL,4611.965729,N,01258.212695,E,094846.00,A,A*6F
$GPVTG,172.0,T,172.2,M,001.7,N,003.2,K,A*26
$GPGSV,2,1,06,02,31,054,45,12,38,099,38,25,73,079,43,29,75,246,44*7C
$GPGSV,2,2,06,30,55,302,43,31,44,302,44,,,,,,,,*79
$GPGSA,M,3,02,12,25,29,30,31,,,,,,,4.8,2.7,4.0*3F
Trace #86 at position 21.250000
$GPZDA,094845.03,08,10,2011,00,00*6A
$GPRMC,094845.00,A,4611.966144,N,01258.212438,E,001.7,147.8,081011,0.2,E,A*3C
$GPGGA,094846.00,4611.965729,N,01258.212695,E,1,06,2.7,137.89,M,46.25,M,,*68
$GPGLL,4611.965729,N,01258.212695,E,094846.00,A,A*6F
$GPVTG,172.0,T,172.2,M,001.7,N,003.2,K,A*26
$GPGSV,2,1,06,02,31,054,45,12,38,099,38,25,73,079,43,29,75,246,44*7C
$GPGSV,2,2,06,30,55,302,43,31,44,302,44,,,,,,,,*79
$GPGSA,M,3,02,12,25,29,30,31,,,,,,,4.8,2.7,4.0*3F
Trace #87 at position 21.500000
$GPZDA,094846.03,08,10,2011,00,00*69
$GPRMC,094846.00,A,4611.965729,N,01258.212695,E,001.7,172.0,081011,0.2,E,A*3A
$GPGGA,094847.00,4611.965234,N,01258.212822,E,1,06,2.7,137.80,M,46.25,M,,*6B
$GPGLL,4611.965234,N,01258.212822,E,094847.00,A,A*65
$GPVTG,174.1,T,174.2,M,002.1,N,003.9,K,A*29
$GPGSV,2,1,06,02,31,054,45,12,38,099,39,25,73,079,44,29,75,246,44*7A
$GPGSV,2,2,06,30,55,302,43,31,44,302,44,,,,,,,,*79
$GPGSA,M,3,02,12,25,29,30,31,,,,,,,4.8,2.7,4.0*3F
Trace #88 at position 21.750000
$GPZDA,094846.03,08,10,2011,00,00*69
$GPRMC,094846.00,A,4611.965729,N,01258.212695,E,001.7,172.0,081011,0.2,E,A*3A
$GPGGA,094847.00,4611.965234,N,01258.212822,E,1,06,2.7,137.80,M,46.25,M,,*6B
$GPGLL,4611.965234,N,01258.212822,E,094847.00,A,A*65
$GPVTG,174.1,T,174.2,M,002.1,N,003.9,K,A*29
$GPGSV,2,1,06,02,31,054,45,12,38,099,39,25,73,079,44,29,75,246,44*7A
$GPGSV,2,2,06,30,55,302,43,31,44,302,44,,,,,,,,*79
$GPGSA,M,3,02,12,25,29,30,31,,,,,,,4.8,2.7,4.0*3F
Trace #89 at position 22.000000
$GPZDA,094846.03,08,10,2011,00,00*69
$GPRMC,094846.00,A,4611.965729,N,01258.212695,E,001.7,172.0,081011,0.2,E,A*3A
$GPGGA,094847.00,4611.965234,N,01258.212822,E,1,06,2.7,137.80,M,46.25,M,,*6B
$GPGLL,4611.965234,N,01258.212822,E,094847.00,A,A*65
$GPVTG,174.1,T,174.2,M,002.1,N,003.9,K,A*29
$GPGSV,2,1,06,02,31,054,45,12,38,099,39,25,73,079,44,29,75,246,44*7A
$GPGSV,2,2,06,30,55,302,43,31,44,302,44,,,,,,,,*79
$GPGSA,M,3,02,12,25,29,30,31,,,,,,,4.8,2.7,4.0*3F
Trace #90 at position 22.250000
$GPZDA,094847.03,08,10,2011,00,00*68
$GPRMC,094847.00,A,4611.965234,N,01258.212822,E,002.1,174.1,081011,0.2,E,A*32
$GPGGA,094848.00,4611.964829,N,01258.213003,E,1,06,2.7,137.81,M,46.25,M,,*68
$GPGLL,4611.964829,N,01258.213003,E,094848.00,A,A*67
$GPVTG,156.1,T,156.2,M,001.2,N,002.2,K,A*23
$GPGSV,2,1,06,02,31,054,45,12,38,099,38,25,73,079,44,29,75,246,44*7B
$GPGSV,2,2,06,30,55,302,43,31,44,302,45,,,,,,,,*78
$GPGSA,M,3,02,12,25,29,30,31,,,,,,,4.8,2.7,4.0*3F
Trace #91 at position 22.500000
$GPZDA,094847.03,08,10,2011,00,00*68
$GPRMC,094847.00,A,4611.965234,N,01258.212822,E,002.1,174.1,081011,0.2,E,A*32
$GPGGA,094848.00,4611.964829,N,01258.213003,E,1,06,2.7,137.81,M,46.25,M,,*68
$GPGLL,4611.964829,N,01258.213003,E,094848.00,A,A*67
$GPVTG,156.1,T,156.2,M,001.2,N,002.2,K,A*23
$GPGSV,2,1,06,02,31,054,45,12,38,099,38,25,73,079,44,29,75,246,44*7B
$GPGSV,2,2,06,30,55,302,43,31,44,302,45,,,,,,,,*78
$GPGSA,M,3,02,12,25,29,30,31,,,,,,,4.8,2.7,4.0*3F
Trace #92 at position 22.750000
$GPZDA,094847.03,08,10,2011,00,00*68
$GPRMC,094847.00,A,4611.965234,N,01258.212822,E,002.1,174.1,081011,0.2,E,A*32
$GPGGA,094848.00,4611.964829,N,01258.213003,E,1,06,2.7,137.81,M,46.25,M,,*68
$GPGLL,4611.964829,N,01258.213003,E,094848.00,A,A*67
$GPVTG,156.1,T,156.2,M,001.2,N,002.2,K,A*23
$GPGSV,2,1,06,02,31,054,45,12,38,099,38,25,73,079,44,29,75,246,44*7B
$GPGSV,2,2,06,30,55,302,43,31,44,302,45,,,,,,,,*78
$GPGSA,M,3,02,12,25,29,30,31,,,,,,,4.8,2.7,4.0*3F
Trace #93 at position 23.000000
$GPZDA,094848.03,08,10,2011,00,00*67
$GPRMC,094848.00,A,4611.964829,N,01258.213003,E,001.2,156.1,081011,0.2,E,A*30
$GPGGA,094849.00,4611.964595,N,01258.213272,E,1,06,2.7,138.01,M,46.25,M,,*60
$GPGLL,4611.964595,N,01258.213272,E,094849.00,A,A*68
$GPVTG,138.6,T,138.8,M,001.0,N,001.9,K,A*24
$GPGSV,2,1,06,02,31,054,45,12,38,099,37,25,73,079,46,29,75,246,43*71
$GPGSV,2,2,06,30,55,302,44,31,44,302,44,,,,,,,,*7E
$GPGSA,M,3,02,12,25,29,30,31,,,,,,,4.8,2.7,4.0*3F
Trace #94 at position 23.250000
$GPZDA,094848.03,08,10,2011,00,00*67
$GPRMC,094848.00,A,4611.964829,N,01258.213003,E,001.2,156.1,081011,0.2,E,A*30
$GPGGA,094849.00,4611.964595,N,01258.213272,E,1,06,2.7,138.01,M,46.25,M,,*60
$GPGLL,4611.964595,N,01258.213272,E,094849.00,A,A*68
$GPVTG,138.6,T,138.8,M,001.0,N,001.9,K,A*24
$GPGSV,2,1,06,02,31,054,45,12,38,099,37,25,73,079,46,29,75,246,43*71
$GPGSV,2,2,06,30,55,302,44,31,44,302,44,,,,,,,,*7E
$GPGSA,M,3,02,12,25,29,30,31,,,,,,,4.8,2.7,4.0*3F
Trace #95 at position 23.500000
$GPZDA,094849.03,08,10,2011,00,00*66
$GPRMC,094849.00,A,4611.964595,N,01258.213272,E,001.0,138.6,081011,0.2,E,A*32
$GPGGA,094850.00,4611.964297,N,01258.213508,E,1,06,2.7,138.09,M,46.25,M,,*6F
$GPGLL,4611.964297,N,01258.213508,E,094850.00,A,A*6F
$GPVTG,165.3,T,165.5,M,001.5,N,002.7,K,A*24
$GPGSV,2,1,06,02,31,054,47,12,38,099,37,25,73,079,43,29,75,246,41*74
$GPGSV,2,2,06,30,55,302,44,31,44,302,44,,,,,,,,*7E
$GPGSA,M,3,02,12,25,29,30,31,,,,,,,4.8,2.7,4.0*3F
Trace #96 at position 23.750000
$GPZDA,094849.03,08,10,2011,00,00*66
$GPRMC,094849.00,A,4611.964595,N,01258.213272,E,001.0,138.6,081011,0.2,E,A*32
$GPGGA,094850.00,4611.964297,N,01258.213508,E,1,06,2.7,138.09,M,46.25,M,,*6F
$GPGLL,4611.964297,N,01258.213508,E,094850.00,A,A*6F
$GPVTG,165.3,T,165.5,M,001.5,N,002.7,K,A*24
$GPGSV,2,1,06,02,31,054,47,12,38,099,37,25,73,079,43,29,75,246,41*74
$GPGSV,2,2,06,30,55,302,44,31,44,302,44,,,,,,,,*7E
$GPGSA,M,3,02,12,25,29,30,31,,,,,,,4.8,2.7,4.0*3F
Trace #97 at position 24.000000
$GPZDA,094850.03,08,10,2011,00,00*6E
$GPRMC,094850.00,A,4611.964297,N,01258.213508,E,001.5,165.3,081011,0.2,E,A*3D
$GPGGA,094851.00,4611.963971,N,01258.213650,E,1,06,2.7,138.16,M,46.25,M,,*6A
$GPGLL,4611.963971,N,01258.213650,E,094851.00,A,A*64
$GPVTG,166.8,T,167.0,M,001.0,N,001.8,K,A*22
$GPGSV,2,1,06,02,31,054,45,12,38,099,40,25,73,079,43,29,75,246,43*74
$GPGSV,2,2,06,30,55,302,44,31,44,302,45,,,,,,,,*7F
$GPGSA,M,3,02,12,25,29,30,31,,,,,,,4.8,2.7,4.0*3F
Trace #98 at position 24.250000
$GPZDA,094850.03,08,10,2011,00,00*6E
$GPRMC,094850.00,A,4611.964297,N,01258.213508,E,001.5,165.3,081011,0.2,E,A*3D
$GPGGA,094851.00,4611.963971,N,01258.213650,E,1,06,2.7,138.16,M,46.25,M,,*6A
$GPGLL,4611.963971,N,01258.213650,E,094851.00,A,A*64
$GPVTG,166.8,T,167.0,M,001.0,N,001.8,K,A*22
$GPGSV,2,1,06,02,31,054,45,12,38,099,40,25,73,079,43,29,75,246,43*74
$GPGSV,2,2,06,30,55,302,44,31,44,302,45,,,,,,,,*7F
$GPGSA,M,3,02,12,25,29,30,31,,,,,,,4.8,2.7,4.0*3F
Trace #99 at position 24.500000
$GPZDA,094851.03,08,10,2011,00,00*6F
$GPRMC,094851.00,A,4611.963971,N,01258.213650,E,001.0,166.8,081011,0.2,E,A*3B
$GPGGA,094852.00,4611.963686,N,01258.213712,E,1,06,2.7,138.20,M,46.25,M,,*6C
$GPGLL,4611.963686,N,01258.213712,E,094852.00,A,A*67
$GPVTG,182.2,T,182.3,M,001.1,N,002.0,K,A*20
$GPGSV,2,1,06,02,31,054,45,12,38,099,37,25,73,079,45,29,75,246,41*70
$GPGSV,2,2,06,30,55,302,44,31,44,302,45,,,,,,,,*7F
$GPGSA,M,3,02,12,25,29,30,31,,,,,,,4.8,2.7,4.0*3F
Trace #100 at position 24.750000
$GPZDA,094854.03,08,10,2011,00,00*6A
$GPRMC,094854.00,A,4611.963100,N,01258.213856,E,000.6,350.7,081011,0.2,E,A*37
$GPGGA,094855.00,4611.962899,N,01258.213855,E,1,05,6.4,136.89,M,46.25,M,,*6F
$GPGLL,4611.962899,N,01258.213855,E,094855.00,A,A*6D
$GPVTG,2.0,T,2.1,M,000.3,N,000.6,K,A*27
$GPGSV,2,1,06,02,31,054,43,12,38,099,35,25,73,079,43,29,75,246,44*77
$GPGSV,2,2,06,30,55,302,42,31,44,302,43,,,,,,,,*7F
$GPGSA,M,3,02,25,29,30,31,,,,,,,,10.8,6.4,8.7*05
Trace #101 at position 25.000000
$GPZDA,094854.03,08,10,2011,00,00*6A
$GPRMC,094854.00,A,4611.963100,N,01258.213856,E,000.6,350.7,081011,0.2,E,A*37
$GPGGA,094855.00,4611.962899,N,01258.213855,E,1,05,6.4,136.89,M,46.25,M,,*6F
$GPGLL,4611.962899,N,01258.213855,E,094855.00,A,A*6D
$GPVTG,2.0,T,2.1,M,000.3,N,000.6,K,A*27
$GPGSV,2,1,06,02,31,054,43,12,38,099,35,25,73,079,43,29,75,246,44*77
$GPGSV,2,2,06,30,55,302,42,31,44,302,43,,,,,,,,*7F
$GPGSA,M,3,02,25,29,30,31,,,,,,,,10.8,6.4,8.7*05
Trace #102 at position 25.250000
$GPZDA,094855.03,08,10,2011,00,00*6B
$GPRMC,094855.00,A,4611.962899,N,01258.213855,E,000.3,2.0,081011,0.2,E,A*3B
$GPGGA,094856.00,4611.962708,N,01258.213886,E,1,05,6.4,136.41,M,46.25,M,,*61
$GPGLL,4611.962708,N,01258.213886,E,094856.00,A,A*67
$GPVTG,7.9,T,8.1,M,000.5,N,001.0,K,A*20
$GPGSV,2,1,06,02,31,054,44,12,38,099,35,25,73,079,43,29,75,246,44*70
$GPGSV,2,2,06,30,55,302,42,31,44,302,43,,,,,,,,*7F
$GPGSA,M,3,02,25,29,30,31,,,,,,,,10.8,6.4,8.7*05
Trace #103 at position 25.500000
$GPZDA,094855.03,08,10,2011,00,00*6B
$GPRMC,094855.00,A,4611.962899,N,01258.213855,E,000.3,2.0,081011,0.2,E,A*3B
$GPGGA,094856.00,4611.962708,N,01258.213886,E,1,05,6.4,136.41,M,46.25,M,,*61
$GPGLL,4611.962708,N,01258.213886,E,094856.00,A,A*67
$GPVTG,7.9,T,8.1,M,000.5,N,001.0,K,A*20
$GPGSV,2,1,06,02,31,054,44,12,38,099,35,25,73,079,43,29,75,246,44*70
$GPGSV,2,2,06,30,55,302,42,31,44,302,43,,,,,,,,*7F
$GPGSA,M,3,02,25,29,30,31,,,,,,,,10.8,6.4,8.7*05
Trace #104 at position 25.750000
$GPZDA,094855.03,08,10,2011,00,00*6B
$GPRMC,094855.00,A,4611.962899,N,01258.213855,E,000.3,2.0,081011,0.2,E,A*3B
$GPGGA,094856.00,4611.962708,N,01258.213886,E,1,05,6.4,136.41,M,46.25,M,,*61
$GPGLL,4611.962708,N,01258.213886,E,094856.00,A,A*67
$GPVTG,7.9,T,8.1,M,000.5,N,001.0,K,A*20
$GPGSV,2,1,06,02,31,054,44,12,38,099,35,25,73,079,43,29,75,246,44*70
$GPGSV,2,2,06,30,55,302,42,31,44,302,43,,,,,,,,*7F
$GPGSA,M,3,02,25,29,30,31,,,,,,,,10.8,6.4,8.7*05
Trace #105 at position 26.000000
$GPZDA,094856.03,08,10,2011,00,00*68
$GPRMC,094856.00,A,4611.962708,N,01258.213886,E,000.5,7.9,081011,0.2,E,A*3B
$GPGGA,094857.00,4611.962336,N,01258.213943,E,1,05,6.4,135.84,M,46.25,M,,*6B
$GPGLL,4611.962336,N,01258.213943,E,094857.00,A,A*67
$GPVTG,175.8,T,175.9,M,001.2,N,002.2,K,A*21
$GPGSV,2,1,06,02,31,054,46,12,38,099,37,25,73,079,44,29,75,246,44*77
$GPGSV,2,2,06,30,55,302,43,31,44,302,44,,,,,,,,*79
$GPGSA,M,3,02,25,29,30,31,,,,,,,,10.8,6.4,8.7*05
Trace #106 at position 26.250000
$GPZDA,094856.03,08,10,2011,00,00*68
$GPRMC,094856.00,A,4611.962708,N,01258.213886,E,000.5,7.9,081011,0.2,E,A*3B
$GPGGA,094857.00,4611.962336,N,01258.213943,E,1,05,6.4,135.84,M,46.25,M,,*6B
$GPGLL,4611.962336,N,01258.213943,E,094857.00,A,A*67
$GPVTG,175.8,T,175.9,M,001.2,N,002.2,K,A*21
$GPGSV,2,1,06,02,31,054,46,12,38,099,37,25,73,079,44,29,75,246,44*77
$GPGSV,2,2,06,30,55,302,43,31,44,302,44,,,,,,,,*79
$GPGSA,M,3,02,25,29,30,31,,,,,,,,10.8,6.4,8.7*05
Trace #107 at position 26.500000
$GPZDA,094856.03,08,10,2011,00,00*68
$GPRMC,094856.00,A,4611.962708,N,01258.213886,E,000.5,7.9,081011,0.2,E,A*3B
$GPGGA,094857.00,4611.962336,N,01258.213943,E,1,05,6.4,135.84,M,46.25,M,,*6B
$GPGLL,4611.962336,N,01258.213943,E,094857.00,A,A*67
$GPVTG,175.8,T,175.9,M,001.2,N,002.2,K,A*21
$GPGSV,2,1,06,02,31,054,46,12,38,099,37,25,73,079,44,29,75,246,44*77
$GPGSV,2,2,06,30,55,302,43,31,44,302,44,,,,,,,,*79
$GPGSA,M,3,02,25,29,30,31,,,,,,,,10.8,6.4,8.7*05
Trace #108 at position 26.750000
$GPZDA,094856.03,08,10,2011,00,00*68
$GPRMC,094856.00,A,4611.962708,N,01258.213886,E,000.5,7.9,081011,0.2,E,A*3B
$GPGGA,094857.00,4611.962336,N,01258.213943,E,1,05,6.4,135.84,M,46.25,M,,*6B
$GPGLL,4611.962336,N,01258.213943,E,094857.00,A,A*67
$GPVTG,175.8,T,175.9,M,001.2,N,002.2,K,A*21
$GPGSV,2,1,06,02,31,054,46,12,38,099,37,25,73,079,44,29,75,246,44*77
$GPGSV,2,2,06,30,55,302,43,31,44,302,44,,,,,,,,*79
$GPGSA,M,3,02,25,29,30,31,,,,,,,,10.8,6.4,8.7*05
Trace #109 at position 27.000000
$GPZDA,094856.03,08,10,2011,00,00*68
$GPRMC,094856.00,A,4611.962708,N,01258.213886,E,000.5,7.9,081011,0.2,E,A*3B
$GPGGA,094857.00,4611.962336,N,01258.213943,E,1,05,6.4,135.84,M,46.25,M,,*6B
$GPGLL,4611.962336,N,01258.213943,E,094857.00,A,A*67
$GPVTG,175.8,T,175.9,M,001.2,N,002.2,K,A*21
$GPGSV,2,1,06,02,31,054,46,12,38,099,37,25,73,079,44,29,75,246,44*77
$GPGSV,2,2,06,30,55,302,43,31,44,302,44,,,,,,,,*79
$GPGSA,M,3,02,25,29,30,31,,,,,,,,10.8,6.4,8.7*05
Trace #110 at position 27.250000
$GPZDA,094856.03,08,10,2011,00,00*68
$GPRMC,094856.00,A,4611.962708,N,01258.213886,E,000.5,7.9,081011,0.2,E,A*3B
$GPGGA,094857.00,4611.962336,N,01258.213943,E,1,05,6.4,135.84,M,46.25,M,,*6B
$GPGLL,4611.962336,N,01258.213943,E,094857.00,A,A*67
$GPVTG,175.8,T,175.9,M,001.2,N,002.2,K,A*21
$GPGSV,2,1,06,02,31,054,46,12,38,099,37,25,73,079,44,29,75,246,44*77
$GPGSV,2,2,06,30,55,302,43,31,44,302,44,,,,,,,,*79
$GPGSA,M,3,02,25,29,30,31,,,,,,,,10.8,6.4,8.7*05
Trace #111 at position 27.500000
$GPZDA,094857.03,08,10,2011,00,00*69
$GPRMC,094857.00,A,4611.962336,N,01258.213943,E,001.2,175.8,081011,0.2,E,A*38
$GPGGA,094858.00,4611.961965,N,01258.214144,E,1,06,2.7,136.01,M,46.25,M,,*69
$GPGLL,4611.961965,N,01258.214144,E,094858.00,A,A*6F
$GPVTG,161.3,T,161.5,M,002.3,N,004.3,K,A*23
$GPGSV,2,1,06,02,31,054,46,12,38,099,40,25,73,080,44,29,75,246,44*71
$GPGSV,2,2,06,30,55,302,44,31,44,302,44,,,,,,,,*7E
$GPGSA,M,3,02,12,25,29,30,31,,,,,,,4.8,2.7,4.0*3F
Trace #112 at position 27.750000
$GPZDA,094857.03,08,10,2011,00,00*69
$GPRMC,094857.00,A,4611.962336,N,01258.213943,E,001.2,175.8,081011,0.2,E,A*38
$GPGGA,094858.00,4611.961965,N,01258.214144,E,1,06,2.7,136.01,M,46.25,M,,*69
$GPGLL,4611.961965,N,01258.214144,E,094858.00,A,A*6F
$GPVTG,161.3,T,161.5,M,002.3,N,004.3,K,A*23
$GPGSV,2,1,06,02,31,054,46,12,38,099,40,25,73,080,44,29,75,246,44*71
$GPGSV,2,2,06,30,55,302,44,31,44,302,44,,,,,,,,*7E
$GPGSA,M,3,02,12,25,29,30,31,,,,,,,4.8,2.7,4.0*3F
Trace #113 at position 28.000000
$GPZDA,094857.03,08,10,2011,00,00*69
$GPRMC,094857.00,A,4611.962336,N,01258.213943,E,001.2,175.8,081011,0.2,E,A*38
$GPGGA,094858.00,4611.961965,N,01258.214144,E,1,06,2.7,136.01,M,46.25,M,,*69
$GPGLL,4611.961965,N,01258.214144,E,094858.00,A,A*6F
$GPVTG,161.3,T,161.5,M,002.3,N,004.3,K,A*23
$GPGSV,2,1,06,02,31,054,46,12,38,099,40,25,73,080,44,29,75,246,44*71
$GPGSV,2,2,06,30,55,302,44,31,44,302,44,,,,,,,,*7E
$GPGSA,M,3,02,12,25,29,30,31,,,,,,,4.8,2.7,4.0*3F
Trace #114 at position 28.250000
$GPZDA,094857.03,08,10,2011,00,00*69
$GPRMC,094857.00,A,4611.962336,N,01258.213943,E,001.2,175.8,081011,0.2,E,A*38
$GPGGA,094858.00,4611.961965,N,01258.214144,E,1,06,2.7,136.01,M,46.25,M,,*69
$GPGLL,4611.961965,N,01258.214144,E,094858.00,A,A*6F
$GPVTG,161.3,T,161.5,M,002.3,N,004.3,K,A*23
$GPGSV,2,1,06,02,31,054,46,12,38,099,40,25,73,080,44,29,75,246,44*71
$GPGSV,2,2,06,30,55,302,44,31,44,302,44,,,,,,,,*7E
$GPGSA,M,3,02,12,25,29,30,31,,,,,,,4.8,2.7,4.0*3F
Trace #115 at position 28.500000
$GPZDA,094858.04,08,10,2011,00,00*61
$GPRMC,094858.00,A,4611.961965,N,01258.214144,E,002.3,161.3,081011,0.2,E,A*3C
$GPGGA,094859.00,4611.961485,N,01258.214397,E,1,06,2.7,136.18,M,46.25,M,,*6F
$GPGLL,4611.961485,N,01258.214397,E,094859.00,A,A*61
$GPVTG,168.9,T,169.1,M,001.9,N,003.6,K,A*27
$GPGSV,2,1,06,02,31,054,46,12,38,099,39,25,73,080,43,29,75,246,44*78
$GPGSV,2,2,06,30,55,302,43,31,44,302,45,,,,,,,,*78
$GPGSA,M,3,02,12,25,29,30,31,,,,,,,4.8,2.7,4.0*3F
Trace #116 at position 28.750000
$GPZDA,094858.04,08,10,2011,00,00*61
$GPRMC,094858.00,A,4611.961965,N,01258.214144,E,002.3,161.3,081011,0.2,E,A*3C
$GPGGA,094859.00,4611.961485,N,01258.214397,E,1,06,2.7,136.18,M,46.25,M,,*6F
$GPGLL,4611.961485,N,01258.214397,E,094859.00,A,A*61
