Trace #1 at position 0.000000
$GPZDA,121704.03,06,10,2011,00,00*61
$GPRMC,121704.00,A,4611.974607,N,01258.200075,E,001.0,248.0,$GPGGA,121705.00,4611.974245,N,01258.198560,E,1,04,13.8,191.94,M,46.25,M,,*55
$GPGLL,4611.974245,N,01258.198560,E,121705.00,A,A*6F
$GPVTG,240.1,T,240.3,M,000.1,N,000.3,K,A*23
$GPGSV,3,1,10,05,13,039,,16,31,309,39,31,28,221,39,18,17,148,*73
$GPGSV,3,2,10,29,43,074,40,30,53,156,31,21,74,166,31,25,15,138,*7D
$GPGSV,3,3,10,03,12,277,26,06,27,277,36,,,,,,,,*7A
$GPGSA,M,3,16,31,29,06,,,,,,,,,99.0,13.8,98.0*0D
Trace #2 at position 0.250000
$GPZDA,121715.04,06,10,2011,00,00*66
$GPRMC,121715.00,A,4611.974913,N,01258.201121,E,000.1,104.0,$GPGGA,121716.00,4611.974961,N,01258.201457,E,1,05,1.5,164.00,M,46.25,M,,*64
$GPGLL,4611.974961,N,01258.201457,E,121716.00,A,A*66
$GPVTG,209.1,T,209.2,M,000.1,N,000.2,K,A*23
$GPGSV,3,1,10,05,13,039,,16,31,309,34,31,28,221,41,18,17,148,*71
$GPGSV,3,2,10,29,43,074,41,30,52,156,29,21,74,166,31,25,15,138,*74
$GPGSV,3,3,10,03,12,277,29,06,27,277,34,,,,,,,,*77
$GPGSA,M,3,16,31,29,21,06,,,,,,,,3.5,1.5,3.2*36
Trace #3 at position 0.500000
$GPZDA,121716.03,06,10,2011,00,00*62
$GPRMC,121716.00,A,4611.974961,N,01258.201457,E,000.1,209.1,06$GPGGA,121717.00,4611.974975,N,01258.201766,E,1,05,1.5,161.17,M,46.25,M,,*62
$GPGLL,4611.974975,N,01258.201766,E,121717.00,A,A*63
$GPVTG,145.3,T,145.5,M,000.3,N,000.6,K,A*20
$GPGSV,3,1,10,05,13,039,,16,31,309,33,31,28,221,40,18,17,148,*77
$GPGSV,3,2,10,29,43,074,42,30,52,156,29,21,74,166,31,25,15,138,*77
$GPGSV,3,3,10,03,12,277,29,06,27,277,35,,,,,,,,*76
$GPGSA,M,3,16,31,29,21,06,,,,,,,,3.5,1.5,3.2*36
Trace #4 at position 0.750000
$GPZDA,121717.03,06,10,2011,00,00*63
$GPRMC,121717.00,A,4611.974975,N,01258.201766,E,000.3,145.3,06,,,M,,M,,*62
$GPGLL,,,,,,V,N*64
$GPVTG,,T,,,,N,,K,N*61
$GPGSV,3,1,10,05,13,039,,16,31,309,36,31,28,221,39,18,17,148,*7C
$GPGSV,3,2,10,29,43,074,40,30,52,156,31,21,74,166,28,25,15,138,*74
$GPGSV,3,3,10,03,12,277,,06,27,277,36,,,,,,,,*7E
$GPGSA,M,1,,,,,,,,,,,,,3.5,1.5,3.2*3F
Trace #5 at position 1.000000
$GPZDA,121719.02,06,10,2011,00,00*6C
$GPRMC,121717.00,V,,,,,,,,,,N*7E
$GPGGA,,,,,,0,04,,,M,,M,,*62
$GPGLL,,,,,,V,N*64
$GPVTG,,T,,,,N,,K,N*61
$GPGSV,3,1,10,05,13,039,,16,31,309,40,31,28,221,39,18,17,148,*7D
$GPGSV,3,2,10,29,43,074,41,30,52,156,27,21,74,166,31,25,15,138,*7A
$GPGSV,3,3,10,03,12,277,31,06,27,277,37,,,,,,,,*7D
$GPGSA,M,1,,,,,,,,,,,,,3.5,1.5,3.2*3F
Trace #6 at position 1.250000
$GPZDA,121720.02,06,10,2011,00,00*66
$GPRMC,121717.00,V,,,,,,,,,,N*7E
$GPGGA,,,,,,0,04,,,M,,M,,*62
$GPGLL,,,,,,V,N*64
$GPVTG,,T,,,,N,,K,N*61
$GPGSV,3,1,10,05,13,039,,16,31,309,38,31,28,221,40,18,17,148,*7C
$GPGSV,3,2,10,29,43,074,40,30,52,156,27,21,74,166,31,25,15,138,*7B
$GPGSV,3,3,10,03,12,277,31,06,27,277,37,,,,,,,,*7D
$GPGSA,M,1,,,,,,,,,,,,,3.5,1.5,3.2*3F
Trace #7 at position 1.500000
$GPZDA,121722.02,06,10,2011,00,00*64
$GPRMC,121717.00,V,,,,,,,,,,N*7E
$GPGGA,,,,,,0,04,,,M,,M,,*62
$GPGLL,,,,,,V,N*64
$GPVTG,,T,,,,N,,K,N*61
$GPGSV,3,1,10,05,13,039,31,16,31,309,40,31,28,221,40,18,17,148,*71
$GPGSV,3,2,10,29,42,074,42,30,52,156,27,21,74,166,33,25,15,138,*7A
$GPGSV,3,3,10,03,12,277,28,06,27,277,36,,,,,,,,*74
$GPGSA,M,1,,,,,,,,,,,,,3.5,1.5,3.2*3F
Trace #8 at position 1.750000
$GPZDA,121723.02,06,10,2011,00,00*65
$GPRMC,121717.00,V,,,,,,,,,,N*7E
$GPGGA,,,,,,0,04,,,M,,M,,*62
$GPGLL,,,,,,V,N*64
$GPVTG,,T,,,,N,,K,N*61
$GPGSV,3,1,10,05,13,039,30,16,31,309,38,31,28,221,40,18,17,148,*7F
$GPGSV,3,2,10,29,42,074,42,30,52,156,28,21,74,166,32,25,15,138,*74
$GPGSV,3,3,10,03,12,277,30,06,27,277,38,,,,,,,,*73
$GPGSA,M,1,,,,,,,,,,,,,3.5,1.5,3.2*3F
Trace #9 at position 2.000000
$GPZDA,121724.02,06,10,2011,00,00*62
$GPRMC,121717.00,V,,,,,,,,,,N*7E
$GPGGA,,,,,,0,04,,,M,,M,,*62
$GPGLL,,,,,,V,N*64
$GPVTG,,T,,,,N,,K,N*61
$GPGSV,3,1,10,05,13,039,28,16,31,309,38,31,28,221,41,18,17,148,*77
$GPGSV,3,2,10,29,42,074,41,30,52,156,27,21,74,166,33,25,15,138,*79
$GPGSV,3,3,10,03,12,277,31,06,27,277,37,,,,,,,,*7D
$GPGSA,M,1,,,,,,,,,,,,,3.5,1.5,3.2*3F
Trace #10 at position 2.250000
$GPZDA,121724.02,06,10,2011,00,00*62
$GPRMC,121717.00,V,,,,,,,,,,N*7E
$GPGGA,,,,,,0,04,,,M,,M,,*62
$GPGLL,,,,,,V,N*64
$GPVTG,,T,,,,N,,K,N*61
$GPGSV,3,1,10,05,13,039,28,16,31,309,38,31,28,221,41,18,17,148,*77
$GPGSV,3,2,10,29,42,074,41,30,52,156,27,21,74,166,33,25,15,138,*79
$GPGSV,3,3,10,03,12,277,31,06,27,277,37,,,,,,,,*7D
$GPGSA,M,1,,,,,,,,,,,,,3.5,1.5,3.2*3F
Trace #11 at position 2.500000
$GPZDA,121725.02,06,10,2011,00,00*63
$GPRMC,121717.00,V,,,,,,,,,,N*7E
$GPGGA,,,,,,0,04,,,M,,M,,*62
$GPGLL,,,,,,V,N*64
$GPVTG,,T,,,,N,,K,N*61
$GPGSV,3,1,10,05,13,039,32,16,31,309,39,31,28,221,39,18,17,148,*72
$GPGSV,3,2,10,29,42,074,41,30,52,156,27,21,74,166,32,25,15,138,*78
$GPGSV,3,3,10,03,12,277,29,06,27,277,37,,,,,,,,*74
$GPGSA,M,1,,,,,,,,,,,,,3.5,1.5,3.2*3F
Trace #12 at position 2.750000
$GPZDA,121726.02,06,10,2011,00,00*60
$GPRMC,121717.00,V,,,,,,,,,,N*7E
$GPGGA,121727.00,4611.974575,N,01258.203718,E,1,05,1.3,144.64,M,46.25,M,,*63
$GPGLL,4611.974575,N,01258.203718,E,121727.00,A,A*67
$GPVTG,179.2,T,179.4,M,001.1,N,002.1,K,A*26
$GPGSV,3,1,10,05,13,039,34,16,31,309,39,31,28,221,39,18,17,148,*74
$GPGSV,3,2,10,29,42,074,41,30,52,156,29,21,74,166,32,25,15,138,*76
$GPGSV,3,3,10,03,12,277,31,06,27,277,37,,,,,,,,*7D
$GPGSA,M,3,05,16,31,29,06,,,,,,,,3.6,1.3,3.3*34
Trace #13 at position 3.000000
$GPZDA,121726.02,06,10,2011,00,00*60
$GPRMC,121717.00,V,,,,,,,,,,N*7E
$GPGGA,121727.00,4611.974575,N,01258.203718,E,1,05,1.3,144.64,M,46.25,M,,*63
$GPGLL,4611.974575,N,01258.203718,E,121727.00,A,A*67
$GPVTG,179.2,T,179.4,M,001.1,N,002.1,K,A*26
$GPGSV,3,1,10,05,13,039,34,16,31,309,39,31,28,221,39,18,17,148,*74
$GPGSV,3,2,10,29,42,074,41,30,52,156,29,21,74,166,32,25,15,138,*76
$GPGSV,3,3,10,03,12,277,31,06,27,277,37,,,,,,,,*7D
$GPGSA,M,3,05,16,31,29,06,,,,,,,,3.6,1.3,3.3*34
Trace #14 at position 3.250000
$GPZDA,121727.03,06,10,2011,00,00*60
$GPRMC,121727.00,A,4611.974575,N,01258.203718,E,001.1,179.2,061011,0.2,E,A*33
$GPGGA,121728.00,4611.974401,N,01258.203860,E,1,05,1.3,144.42,M,46.25,M,,*6A
$GPGLL,4611.974401,N,01258.203860,E,121728.00,A,A*6A
$GPVTG,137.0,T,137.1,M,000.9,N,001.6,K,A*2C
$GPGSV,3,1,10,05,13,039,34,16,31,309,40,31,28,221,39,18,17,148,*7A
$GPGSV,3,2,10,29,42,074,42,30,52,156,31,21,74,166,33,25,15,138,*7D
$GPGSV,3,3,10,03,12,277,30,06,27,277,38,,,,,,,,*73
$GPGSA,M,3,05,16,31,29,06,,,,,,,,3.6,1.3,3.3*34
Trace #15 at position 3.500000
$GPZDA,121728.04,06,10,2011,00,00*68
$GPRMC,121728.00,A,4611.974401,N,01258.203860,E,000.9,137.0,061011,0.2,E,A*3F
$GPGGA,,,,,,0,04,,,M,,M,,*62
$GPGLL,,,,,,V,N*64
$GPVTG,,T,,,,N,,K,N*61
$GPGSV,3,1,10,05,13,039,34,16,31,309,37,31,28,221,40,18,17,148,*74
$GPGSV,3,2,10,29,42,074,42,30,52,156,,21,74,166,32,25,15,138,*7E
$GPGSV,3,3,10,03,12,277,30,06,27,277,38,,,,,,,,*73
$GPGSA,M,1,,,,,,,,,,,,,3.6,1.3,3.3*3B
Trace #16 at position 3.750000
$GPZDA,121728.04,06,10,2011,00,00*68
$GPRMC,121728.00,A,4611.974401,N,01258.203860,E,000.9,137.0,061011,0.2,E,A*3F
$GPGGA,,,,,,0,04,,,M,,M,,*62
$GPGLL,,,,,,V,N*64
$GPVTG,,T,,,,N,,K,N*61
$GPGSV,3,1,10,05,13,039,34,16,31,309,37,31,28,221,40,18,17,148,*74
$GPGSV,3,2,10,29,42,074,42,30,52,156,,21,74,166,32,25,15,138,*7E
$GPGSV,3,3,10,03,12,277,30,06,27,277,38,,,,,,,,*73
$GPGSA,M,1,,,,,,,,,,,,,3.6,1.3,3.3*3B
Trace #17 at position 4.000000
$GPZDA,121729.02,06,10,2011,00,00*6F
$GPRMC,121728.00,V,,,,,,,,,,N*72
$GPGGA,121730.00,4611.973990,N,01258.204109,E,1,06,1.3,143.13,M,46.25,M,,*60
$GPGLL,4611.973990,N,01258.204109,E,121730.00,A,A*60
$GPVTG,183.0,T,183.2,M,001.0,N,001.9,K,A*28
$GPGSV,3,1,10,05,13,039,32,16,31,309,40,31,28,221,40,18,17,148,*72
$GPGSV,3,2,10,29,42,074,41,30,52,156,29,21,74,166,34,25,15,138,*70
$GPGSV,3,3,10,03,12,277,31,06,27,277,39,,,,,,,,*73
$GPGSA,M,3,05,16,31,29,21,06,,,,,,,2.5,1.3,2.2*35
Trace #18 at position 4.250000
$GPZDA,121729.02,06,10,2011,00,00*6F
$GPRMC,121728.00,V,,,,,,,,,,N*72
$GPGGA,121730.00,4611.973990,N,01258.204109,E,1,06,1.3,143.13,M,46.25,M,,*60
$GPGLL,4611.973990,N,01258.204109,E,121730.00,A,A*60
$GPVTG,183.0,T,183.2,M,001.0,N,001.9,K,A*28
$GPGSV,3,1,10,05,13,039,32,16,31,309,40,31,28,221,40,18,17,148,*72
$GPGSV,3,2,10,29,42,074,41,30,52,156,29,21,74,166,34,25,15,138,*70
$GPGSV,3,3,10,03,12,277,31,06,27,277,39,,,,,,,,*73
$GPGSA,M,3,05,16,31,29,21,06,,,,,,,2.5,1.3,2.2*35
Trace #19 at position 4.500000
$GPZDA,121730.04,06,10,2011,00,00*61
$GPRMC,121730.00,A,4611.973990,N,01258.204109,E,001.0,183.0,061011,0.2,E,A*32
$GPGGA,121731.00,4611.973793,N,01258.204170,E,1,06,1.3,142.65,M,46.25,M,,*62
$GPGLL,4611.973793,N,01258.204170,E,121731.00,A,A*62
$GPVTG,155.8,T,156.0,M,000.6,N,001.1,K,A*2E
$GPGSV,3,1,10,05,13,039,31,16,31,309,39,31,28,221,40,18,17,148,*7F
$GPGSV,3,2,10,29,42,074,39,30,52,156,29,21,74,166,35,25,15,138,*7E
$GPGSV,3,3,10,03,12,277,32,06,27,277,38,,,,,,,,*71
$GPGSA,M,3,05,16,31,29,21,06,,,,,,,2.5,1.3,2.2*35
Trace #20 at position 4.750000
$GPZDA,121730.04,06,10,2011,00,00*61
$GPRMC,121730.00,A,4611.973990,N,01258.204109,E,001.0,183.0,061011,0.2,E,A*32
$GPGGA,121731.00,4611.973793,N,01258.204170,E,1,06,1.3,142.65,M,46.25,M,,*62
$GPGLL,4611.973793,N,01258.204170,E,121731.00,A,A*62
$GPVTG,155.8,T,156.0,M,000.6,N,001.1,K,A*2E
$GPGSV,3,1,10,05,13,039,31,16,31,309,39,31,28,221,40,18,17,148,*7F
$GPGSV,3,2,10,29,42,074,39,30,52,156,29,21,74,166,35,25,15,138,*7E
$GPGSV,3,3,10,03,12,277,32,06,27,277,38,,,,,,,,*71
$GPGSA,M,3,05,16,31,29,21,06,,,,,,,2.5,1.3,2.2*35
Trace #21 at position 5.000000
$GPZDA,121731.03,06,10,2011,00,00*67
$GPRMC,121731.00,A,4611.973793,N,01258.204170,E,000.6,155.8,061011,0.2,E,A*34
$GPGGA,121732.00,4611.973630,N,01258.204386,E,1,05,1.5,141.57,M,46.25,M,,*65
$GPGLL,4611.973630,N,01258.204386,E,121732.00,A,A*62
$GPVTG,149.2,T,149.3,M,000.9,N,001.7,K,A*2D
$GPGSV,3,1,10,05,13,039,28,16,31,309,39,31,28,221,40,18,17,148,*77
$GPGSV,3,2,10,29,42,074,39,30,52,156,29,21,74,166,31,25,15,138,*7A
$GPGSV,3,3,10,03,12,277,30,06,27,277,38,,,,,,,,*73
$GPGSA,M,3,16,31,29,21,06,,,,,,,,3.5,1.5,3.2*36
Trace #22 at position 5.250000
$GPZDA,121732.04,06,10,2011,00,00*63
$GPRMC,121732.00,A,4611.973630,N,01258.204386,E,000.9,149.2,061011,0.2,E,A*3C
$GPGGA,121733.00,4611.973452,N,01258.204548,E,1,05,1.5,140.67,M,46.25,M,,*64
$GPGLL,4611.973452,N,01258.204548,E,121733.00,A,A*61
$GPVTG,178.4,T,178.6,M,000.7,N,001.2,K,A*25
$GPGSV,3,1,10,05,13,039,27,16,31,309,39,31,28,221,39,18,17,148,*76
$GPGSV,3,2,10,29,42,074,39,30,52,156,30,21,74,166,31,25,15,138,*72
$GPGSV,3,3,10,03,12,277,32,06,27,277,37,,,,,,,,*7E
$GPGSA,M,3,16,31,29,21,06,,,,,,,,3.5,1.5,3.2*36
Trace #23 at position 5.500000
$GPZDA,121732.04,06,10,2011,00,00*63
$GPRMC,121732.00,A,4611.973630,N,01258.204386,E,000.9,149.2,061011,0.2,E,A*3C
$GPGGA,121733.00,4611.973452,N,01258.204548,E,1,05,1.5,140.67,M,46.25,M,,*64
$GPGLL,4611.973452,N,01258.204548,E,121733.00,A,A*61
$GPVTG,178.4,T,178.6,M,000.7,N,001.2,K,A*25
$GPGSV,3,1,10,05,13,039,27,16,31,309,39,31,28,221,39,18,17,148,*76
$GPGSV,3,2,10,29,42,074,39,30,52,156,30,21,74,166,31,25,15,138,*72
$GPGSV,3,3,10,03,12,277,32,06,27,277,37,,,,,,,,*7E
$GPGSA,M,3,16,31,29,21,06,,,,,,,,3.5,1.5,3.2*36
Trace #24 at position 5.750000
$GPZDA,121733.04,06,10,2011,00,00*62
$GPRMC,121733.00,A,4611.973452,N,01258.204548,E,000.7,178.4,061011,0.2,E,A*35
$GPGGA,121734.00,4611.973291,N,01258.204686,E,1,05,1.5,140.30,M,46.25,M,,*69
$GPGLL,4611.973291,N,01258.204686,E,121734.00,A,A*6E
$GPVTG,156.1,T,156.2,M,000.8,N,001.4,K,A*2D
$GPGSV,3,1,10,05,13,039,30,16,31,309,39,31,28,221,40,18,17,148,*7E
$GPGSV,3,2,10,29,42,074,40,30,52,156,31,21,74,166,31,25,15,138,*7D
$GPGSV,3,3,10,03,12,277,30,06,27,277,38,,,,,,,,*73
$GPGSA,M,3,16,31,29,21,06,,,,,,,,3.5,1.5,3.2*36
Trace #25 at position 6.000000
$GPZDA,121733.04,06,10,2011,00,00*62
$GPRMC,121733.00,A,4611.973452,N,01258.204548,E,000.7,178.4,061011,0.2,E,A*35
$GPGGA,121734.00,4611.973291,N,01258.204686,E,1,05,1.5,140.30,M,46.25,M,,*69
$GPGLL,4611.973291,N,01258.204686,E,121734.00,A,A*6E
$GPVTG,156.1,T,156.2,M,000.8,N,001.4,K,A*2D
$GPGSV,3,1,10,05,13,039,30,16,31,309,39,31,28,221,40,18,17,148,*7E
$GPGSV,3,2,10,29,42,074,40,30,52,156,31,21,74,166,31,25,15,138,*7D
$GPGSV,3,3,10,03,12,277,30,06,27,277,38,,,,,,,,*73
$GPGSA,M,3,16,31,29,21,06,,,,,,,,3.5,1.5,3.2*36
Trace #26 at position 6.250000
$GPZDA,121734.03,06,10,2011,00,00*62
$GPRMC,121734.00,A,4611.973291,N,01258.204686,E,000.8,156.1,061011,0.2,E,A*3C
$GPGGA,121735.00,4611.973105,N,01258.204834,E,1,05,1.5,139.79,M,46.25,M,,*62
$GPGLL,4611.973105,N,01258.204834,E,121735.00,A,A*66
$GPVTG,172.1,T,172.3,M,000.8,N,001.5,K,A*2D
$GPGSV,3,1,10,05,13,039,31,16,31,309,39,31,28,221,40,18,17,148,*7F
$GPGSV,3,2,10,29,42,074,41,30,52,156,32,21,74,166,32,25,15,138,*7C
$GPGSV,3,3,10,03,12,277,33,06,27,277,39,,,,,,,,*71
$GPGSA,M,3,16,31,29,21,06,,,,,,,,3.5,1.5,3.2*36
Trace #27 at position 6.500000
$GPZDA,121734.03,06,10,2011,00,00*62
$GPRMC,121734.00,A,4611.973291,N,01258.204686,E,000.8,156.1,061011,0.2,E,A*3C
$GPGGA,121735.00,4611.973105,N,01258.204834,E,1,05,1.5,139.79,M,46.25,M,,*62
$GPGLL,4611.973105,N,01258.204834,E,121735.00,A,A*66
$GPVTG,172.1,T,172.3,M,000.8,N,001.5,K,A*2D
$GPGSV,3,1,10,05,13,039,31,16,31,309,39,31,28,221,40,18,17,148,*7F
$GPGSV,3,2,10,29,42,074,41,30,52,156,32,21,74,166,32,25,15,138,*7C
$GPGSV,3,3,10,03,12,277,33,06,27,277,39,,,,,,,,*71
$GPGSA,M,3,16,31,29,21,06,,,,,,,,3.5,1.5,3.2*36
Trace #28 at position 6.750000
$GPZDA,121735.03,06,10,2011,00,00*63
$GPRMC,121735.00,A,4611.973105,N,01258.204834,E,000.8,172.1,061011,0.2,E,A*32
$GPGGA,121736.00,4611.972933,N,01258.205013,E,1,06,1.5,139.34,M,46.25,M,,*6B
$GPGLL,4611.972933,N,01258.205013,E,121736.00,A,A*65
$GPVTG,138.8,T,138.9,M,000.8,N,001.5,K,A*2E
$GPGSV,3,1,10,05,13,039,28,16,31,309,39,31,28,221,39,18,17,148,*79
$GPGSV,3,2,10,29,42,074,39,30,52,156,,21,74,166,33,25,15,138,*73
$GPGSV,3,3,10,03,12,277,31,06,27,277,39,,,,,,,,*73
$GPGSA,M,3,16,31,29,21,03,06,,,,,,,3.1,1.5,2.7*35
Trace #29 at position 7.000000
$GPZDA,121735.03,06,10,2011,00,00*63
$GPRMC,121735.00,A,4611.973105,N,01258.204834,E,000.8,172.1,061011,0.2,E,A*32
$GPGGA,121736.00,4611.972933,N,01258.205013,E,1,06,1.5,139.34,M,46.25,M,,*6B
$GPGLL,4611.972933,N,01258.205013,E,121736.00,A,A*65
$GPVTG,138.8,T,138.9,M,000.8,N,001.5,K,A*2E
$GPGSV,3,1,10,05,13,039,28,16,31,309,39,31,28,221,39,18,17,148,*79
$GPGSV,3,2,10,29,42,074,39,30,52,156,,21,74,166,33,25,15,138,*73
$GPGSV,3,3,10,03,12,277,31,06,27,277,39,,,,,,,,*73
$GPGSA,M,3,16,31,29,21,03,06,,,,,,,3.1,1.5,2.7*35
Trace #30 at position 7.250000
$GPZDA,121736.04,06,10,2011,00,00*67
$GPRMC,121736.00,A,4611.972933,N,01258.205013,E,000.8,138.8,061011,0.2,E,A*36
$GPGGA,121737.00,4611.972734,N,01258.205236,E,1,06,1.5,138.92,M,46.25,M,,*6B
$GPGLL,4611.972734,N,01258.205236,E,121737.00,A,A*68
$GPVTG,156.8,T,156.9,M,001.1,N,002.0,K,A*20
$GPGSV,3,1,10,05,13,039,30,16,31,309,40,31,28,221,39,18,17,148,*7E
$GPGSV,3,2,10,29,42,074,40,30,52,156,,21,74,166,33,25,15,138,*7D
$GPGSV,3,3,10,03,12,277,32,06,27,277,38,,,,,,,,*71
$GPGSA,M,3,16,31,29,21,03,06,,,,,,,3.1,1.5,2.7*35
Trace #31 at position 7.500000
$GPZDA,121736.04,06,10,2011,00,00*67
$GPRMC,121736.00,A,4611.972933,N,01258.205013,E,000.8,138.8,061011,0.2,E,A*36
$GPGGA,121737.00,4611.972734,N,01258.205236,E,1,06,1.5,138.92,M,46.25,M,,*6B
$GPGLL,4611.972734,N,01258.205236,E,121737.00,A,A*68
$GPVTG,156.8,T,156.9,M,001.1,N,002.0,K,A*20
$GPGSV,3,1,10,05,13,039,30,16,31,309,40,31,28,221,39,18,17,148,*7E
$GPGSV,3,2,10,29,42,074,40,30,52,156,,21,74,166,33,25,15,138,*7D
$GPGSV,3,3,10,03,12,277,32,06,27,277,38,,,,,,,,*71
$GPGSA,M,3,16,31,29,21,03,06,,,,,,,3.1,1.5,2.7*35
Trace #32 at position 7.750000
$GPZDA,121737.04,06,10,2011,00,00*66
$GPRMC,121737.00,A,4611.972734,N,01258.205236,E,001.1,156.8,061011,0.2,E,A*3B
$GPGGA,121738.00,4611.972475,N,01258.205408,E,1,05,1.5,138.47,M,46.25,M,,*62
$GPGLL,4611.972475,N,01258.205408,E,121738.00,A,A*6A
$GPVTG,161.4,T,161.6,M,001.1,N,002.1,K,A*22
$GPGSV,3,1,10,05,13,039,31,16,31,309,39,31,28,221,41,18,17,148,*7E
$GPGSV,3,2,10,29,42,074,40,30,52,156,30,21,74,166,33,25,15,138,*7E
$GPGSV,3,3,10,03,12,277,29,06,27,277,37,,,,,,,,*74
$GPGSA,M,3,16,31,29,21,06,,,,,,,,3.5,1.5,3.2*36
Trace #33 at position 8.000000
$GPZDA,121738.04,06,10,2011,00,00*69
$GPRMC,121738.00,A,4611.972475,N,01258.205408,E,001.1,161.4,061011,0.2,E,A*31
$GPGGA,121739.00,4611.972234,N,01258.205541,E,1,05,1.5,138.14,M,46.25,M,,*6A
$GPGLL,4611.972234,N,01258.205541,E,121739.00,A,A*64
$GPVTG,165.1,T,165.3,M,000.9,N,001.7,K,A*2E
$GPGSV,3,1,10,05,13,039,30,16,31,309,40,31,28,221,39,18,17,148,*7E
$GPGSV,3,2,10,29,42,074,40,30,52,156,32,21,74,166,33,25,15,138,*7C
$GPGSV,3,3,10,03,12,277,32,06,27,277,38,,,,,,,,*71
$GPGSA,M,3,16,31,29,21,06,,,,,,,,3.5,1.5,3.2*36
Trace #34 at position 8.250000
$GPZDA,121738.04,06,10,2011,00,00*69
$GPRMC,121738.00,A,4611.972475,N,01258.205408,E,001.1,161.4,061011,0.2,E,A*31
$GPGGA,121739.00,4611.972234,N,01258.205541,E,1,05,1.5,138.14,M,46.25,M,,*6A
$GPGLL,4611.972234,N,01258.205541,E,121739.00,A,A*64
$GPVTG,165.1,T,165.3,M,000.9,N,001.7,K,A*2E
$GPGSV,3,1,10,05,13,039,30,16,31,309,40,31,28,221,39,18,17,148,*7E
$GPGSV,3,2,10,29,42,074,40,30,52,156,32,21,74,166,33,25,15,138,*7C
$GPGSV,3,3,10,03,12,277,32,06,27,277,38,,,,,,,,*71
$GPGSA,M,3,16,31,29,21,06,,,,,,,,3.5,1.5,3.2*36
Trace #35 at position 8.500000
$GPZDA,121739.04,06,10,2011,00,00*68
$GPRMC,121739.00,A,4611.972234,N,01258.205541,E,000.9,165.1,061011,0.2,E,A*37
$GPGGA,121740.00,4611.971977,N,01258.205631,E,1,05,1.5,137.86,M,46.25,M,,*6B
$GPGLL,4611.971977,N,01258.205631,E,121740.00,A,A*61
$GPVTG,172.4,T,172.5,M,001.2,N,002.2,K,A*21
$GPGSV,3,1,10,05,13,039,32,16,31,309,39,31,28,221,40,18,17,148,*7C
$GPGSV,3,2,10,29,42,074,40,30,52,156,31,21,74,166,34,25,15,138,*78
$GPGSV,3,3,10,03,12,277,31,06,27,277,39,,,,,,,,*73
$GPGSA,M,3,16,31,29,21,06,,,,,,,,3.5,1.5,3.2*36
Trace #36 at position 8.750000
$GPZDA,121739.04,06,10,2011,00,00*68
$GPRMC,121739.00,A,4611.972234,N,01258.205541,E,000.9,165.1,061011,0.2,E,A*37
$GPGGA,121740.00,4611.971977,N,01258.205631,E,1,05,1.5,137.86,M,46.25,M,,*6B
$GPGLL,4611.971977,N,01258.205631,E,121740.00,A,A*61
$GPVTG,172.4,T,172.5,M,001.2,N,002.2,K,A*21
$GPGSV,3,1,10,05,13,039,32,16,31,309,39,31,28,221,40,18,17,148,*7C
$GPGSV,3,2,10,29,42,074,40,30,52,156,31,21,74,166,34,25,15,138,*78
$GPGSV,3,3,10,03,12,277,31,06,27,277,39,,,,,,,,*73
$GPGSA,M,3,16,31,29,21,06,,,,,,,,3.5,1.5,3.2*36
Trace #37 at position 9.000000
$GPZDA,121739.04,06,10,2011,00,00*68
$GPRMC,121739.00,A,4611.972234,N,01258.205541,E,000.9,165.1,061011,0.2,E,A*37
$GPGGA,121740.00,4611.971977,N,01258.205631,E,1,05,1.5,137.86,M,46.25,M,,*6B
$GPGLL,4611.971977,N,01258.205631,E,121740.00,A,A*61
$GPVTG,172.4,T,172.5,M,001.2,N,002.2,K,A*21
$GPGSV,3,1,10,05,13,039,32,16,31,309,39,31,28,221,40,18,17,148,*7C
$GPGSV,3,2,10,29,42,074,40,30,52,156,31,21,74,166,34,25,15,138,*78
$GPGSV,3,3,10,03,12,277,31,06,27,277,39,,,,,,,,*73
$GPGSA,M,3,16,31,29,21,06,,,,,,,,3.5,1.5,3.2*36
Trace #38 at position 9.250000
$GPZDA,121740.03,06,10,2011,00,00*61
$GPRMC,121740.00,A,4611.971977,N,01258.205631,E,001.2,172.4,061011,0.2,E,A*3B
$GPGGA,121741.00,4611.971760,N,01258.205716,E,1,05,1.5,137.68,M,46.25,M,,*66
$GPGLL,4611.971760,N,01258.205716,E,121741.00,A,A*6C
$GPVTG,161.7,T,161.8,M,000.6,N,001.2,K,A*29
$GPGSV,3,1,10,05,13,039,31,16,31,309,40,31,28,221,40,18,17,148,*71
$GPGSV,3,2,10,29,42,074,40,30,52,156,31,21,74,166,34,25,15,138,*78
$GPGSV,3,3,10,03,12,277,31,06,27,277,38,,,,,,,,*72
$GPGSA,M,3,16,31,29,21,06,,,,,,,,3.5,1.5,3.2*36
Trace #39 at position 9.500000
$GPZDA,121740.03,06,10,2011,00,00*61
$GPRMC,121740.00,A,4611.971977,N,01258.205631,E,001.2,172.4,061011,0.2,E,A*3B
$GPGGA,121741.00,4611.971760,N,01258.205716,E,1,05,1.5,137.68,M,46.25,M,,*66
$GPGLL,4611.971760,N,01258.205716,E,121741.00,A,A*6C
$GPVTG,161.7,T,161.8,M,000.6,N,001.2,K,A*29
$GPGSV,3,1,10,05,13,039,31,16,31,309,40,31,28,221,40,18,17,148,*71
$GPGSV,3,2,10,29,42,074,40,30,52,156,31,21,74,166,34,25,15,138,*78
$GPGSV,3,3,10,03,12,277,31,06,27,277,38,,,,,,,,*72
$GPGSA,M,3,16,31,29,21,06,,,,,,,,3.5,1.5,3.2*36
Trace #40 at position 9.750000
$GPZDA,121740.03,06,10,2011,00,00*61
$GPRMC,121740.00,A,4611.971977,N,01258.205631,E,001.2,172.4,061011,0.2,E,A*3B
$GPGGA,121741.00,4611.971760,N,01258.205716,E,1,05,1.5,137.68,M,46.25,M,,*66
$GPGLL,4611.971760,N,01258.205716,E,121741.00,A,A*6C
$GPVTG,161.7,T,161.8,M,000.6,N,001.2,K,A*29
$GPGSV,3,1,10,05,13,039,31,16,31,309,40,31,28,221,40,18,17,148,*71
$GPGSV,3,2,10,29,42,074,40,30,52,156,31,21,74,166,34,25,15,138,*78
$GPGSV,3,3,10,03,12,277,31,06,27,277,38,,,,,,,,*72
$GPGSA,M,3,16,31,29,21,06,,,,,,,,3.5,1.5,3.2*36
Trace #41 at position 10.000000
$GPZDA,121741.03,06,10,2011,00,00*60
$GPRMC,121741.00,A,4611.971760,N,01258.205716,E,000.6,161.7,061011,0.2,E,A*32
$GPGGA,121742.00,4611.971590,N,01258.205748,E,1,05,1.5,137.50,M,46.25,M,,*68
$GPGLL,4611.971590,N,01258.205748,E,121742.00,A,A*69
$GPVTG,189.7,T,189.8,M,000.8,N,001.5,K,A*20
$GPGSV,3,1,10,05,13,039,28,16,31,309,39,31,28,221,39,18,17,148,*79
$GPGSV,3,2,10,29,42,074,39,30,52,156,29,21,74,166,33,25,15,138,*78
$GPGSV,3,3,10,03,12,277,29,06,27,277,37,,,,,,,,*74
$GPGSA,M,3,16,31,29,21,06,,,,,,,,3.5,1.5,3.2*36
Trace #42 at position 10.250000
$GPZDA,121741.03,06,10,2011,00,00*60
$GPRMC,121741.00,A,4611.971760,N,01258.205716,E,000.6,161.7,061011,0.2,E,A*32
$GPGGA,121742.00,4611.971590,N,01258.205748,E,1,05,1.5,137.50,M,46.25,M,,*68
$GPGLL,4611.971590,N,01258.205748,E,121742.00,A,A*69
$GPVTG,189.7,T,189.8,M,000.8,N,001.5,K,A*20
$GPGSV,3,1,10,05,13,039,28,16,31,309,39,31,28,221,39,18,17,148,*79
$GPGSV,3,2,10,29,42,074,39,30,52,156,29,21,74,166,33,25,15,138,*78
$GPGSV,3,3,10,03,12,277,29,06,27,277,37,,,,,,,,*74
$GPGSA,M,3,16,31,29,21,06,,,,,,,,3.5,1.5,3.2*36
Trace #43 at position 10.500000
$GPZDA,121742.03,06,10,2011,00,00*63
$GPRMC,121742.00,A,4611.971590,N,01258.205748,E,000.8,189.7,061011,0.2,E,A*3F
$GPGGA,121743.00,4611.971400,N,01258.205830,E,1,05,1.5,137.28,M,46.25,M,,*6E
$GPGLL,4611.971400,N,01258.205830,E,121743.00,A,A*60
$GPVTG,152.5,T,152.6,M,000.8,N,001.5,K,A*2C
$GPGSV,3,1,10,05,13,038,31,16,31,309,39,31,28,221,39,18,17,148,*70
$GPGSV,3,2,10,29,42,074,40,30,52,156,31,21,74,166,34,25,15,138,*78
$GPGSV,3,3,10,03,12,278,33,06,27,277,36,,,,,,,,*71
$GPGSA,M,3,16,31,29,21,06,,,,,,,,3.5,1.5,3.2*36
Trace #44 at position 10.750000
$GPZDA,121742.03,06,10,2011,00,00*63
$GPRMC,121742.00,A,4611.971590,N,01258.205748,E,000.8,189.7,061011,0.2,E,A*3F
$GPGGA,121743.00,4611.971400,N,01258.205830,E,1,05,1.5,137.28,M,46.25,M,,*6E
$GPGLL,4611.971400,N,01258.205830,E,121743.00,A,A*60
$GPVTG,152.5,T,152.6,M,000.8,N,001.5,K,A*2C
$GPGSV,3,1,10,05,13,038,31,16,31,309,39,31,28,221,39,18,17,148,*70
$GPGSV,3,2,10,29,42,074,40,30,52,156,31,21,74,166,34,25,15,138,*78
$GPGSV,3,3,10,03,12,278,33,06,27,277,36,,,,,,,,*71
$GPGSA,M,3,16,31,29,21,06,,,,,,,,3.5,1.5,3.2*36
Trace #45 at position 11.000000
$GPZDA,121743.04,06,10,2011,00,00*65
$GPRMC,121743.00,A,4611.971400,N,01258.205830,E,000.8,152.5,061011,0.2,E,A*32
$GPGGA,,,,,,0,04,,,M,,M,,*62
$GPGLL,,,,,,V,N*64
$GPVTG,,T,,,,N,,K,N*61
$GPGSV,3,1,10,05,13,038,29,16,31,309,39,31,28,221,40,18,17,148,*77
$GPGSV,3,2,10,29,42,074,39,30,52,156,17,21,74,166,35,25,15,138,*73
$GPGSV,3,3,10,03,12,278,28,06,27,277,34,,,,,,,,*79
$GPGSA,M,1,,,,,,,,,,,,,3.5,1.5,3.2*3F
Trace #46 at position 11.250000
$GPZDA,121743.04,06,10,2011,00,00*65
$GPRMC,121743.00,A,4611.971400,N,01258.205830,E,000.8,152.5,061011,0.2,E,A*32
$GPGGA,,,,,,0,04,,,M,,M,,*62
$GPGLL,,,,,,V,N*64
$GPVTG,,T,,,,N,,K,N*61
$GPGSV,3,1,10,05,13,038,29,16,31,309,39,31,28,221,40,18,17,148,*77
$GPGSV,3,2,10,29,42,074,39,30,52,156,17,21,74,166,35,25,15,138,*73
$GPGSV,3,3,10,03,12,278,28,06,27,277,34,,,,,,,,*79
$GPGSA,M,1,,,,,,,,,,,,,3.5,1.5,3.2*3F
Trace #47 at position 11.500000
$GPZDA,121744.02,06,10,2011,00,00*64
$GPRMC,121743.00,V,,,,,,,,,,N*7F
$GPGGA,,,,,,0,04,,,M,,M,,*62
$GPGLL,,,,,,V,N*64
$GPVTG,,T,,,,N,,K,N*61
$GPGSV,3,1,10,05,13,038,30,16,31,309,38,31,28,221,39,18,17,148,*70
$GPGSV,3,2,10,29,42,074,40,30,52,156,,21,74,166,33,25,15,138,*7D
$GPGSV,3,3,10,03,12,278,30,06,27,277,35,,,,,,,,*71
$GPGSA,M,1,,,,,,,,,,,,,3.5,1.5,3.2*3F
Trace #48 at position 11.750000
$GPZDA,121744.02,06,10,2011,00,00*64
$GPRMC,121743.00,V,,,,,,,,,,N*7F
$GPGGA,,,,,,0,04,,,M,,M,,*62
$GPGLL,,,,,,V,N*64
$GPVTG,,T,,,,N,,K,N*61
$GPGSV,3,1,10,05,13,038,30,16,31,309,38,31,28,221,39,18,17,148,*70
$GPGSV,3,2,10,29,42,074,40,30,52,156,,21,74,166,33,25,15,138,*7D
$GPGSV,3,3,10,03,12,278,30,06,27,277,35,,,,,,,,*71
$GPGSA,M,1,,,,,,,,,,,,,3.5,1.5,3.2*3F
Trace #49 at position 12.000000
$GPZDA,121744.02,06,10,2011,00,00*64
$GPRMC,121743.00,V,,,,,,,,,,N*7F
$GPGGA,,,,,,0,04,,,M,,M,,*62
$GPGLL,,,,,,V,N*64
$GPVTG,,T,,,,N,,K,N*61
$GPGSV,3,1,10,05,13,038,30,16,31,309,38,31,28,221,39,18,17,148,*70
$GPGSV,3,2,10,29,42,074,40,30,52,156,,21,74,166,33,25,15,138,*7D
$GPGSV,3,3,10,03,12,278,30,06,27,277,35,,,,,,,,*71
$GPGSA,M,1,,,,,,,,,,,,,3.5,1.5,3.2*3F
Trace #50 at position 12.250000
$GPZDA,121745.02,06,10,2011,00,00*65
$GPRMC,121743.00,V,,,,,,,,,,N*7F
$GPGGA,121746.00,4611.970836,N,01258.206246,E,1,05,1.5,137.19,M,46.25,M,,*69
$GPGLL,4611.970836,N,01258.206246,E,121746.00,A,A*65
$GPVTG,157.0,T,157.1,M,000.7,N,001.4,K,A*20
$GPGSV,3,1,10,05,13,038,28,16,31,309,38,31,28,221,38,18,17,148,*78
$GPGSV,3,2,10,29,42,074,40,30,52,156,,21,74,166,32,25,15,138,*7C
$GPGSV,3,3,10,03,12,278,,06,27,277,36,,,,,,,,*71
$GPGSA,,A,4611.970836,N,01258.206246,E,000.7,157.0,061011,0.2,E,A*38
Trace #51 at position 12.500000
$GPGGA,,,,,,0,04,,,M,,M,,*62
$GPGLL,,,,,,V,N*64
$GPVTG,,T,,,,N,,K,N*61
$GPGSV,3,1,10,05,13,038,34,16,31,309,39,31,28,221,39,18,17,148,*75
$GPGSV,3,2,10,29,42,074,39,30,52,156,,21,74,166,31,25,15,138,*71
$GPGSV,3,3,10,03,12,278,31,06,27,277,35,,,,,,,,*70
$GPGSA,M,1,,,,,,,,,,,,,3.5,1.5,3.2*3F
Trace #52 at position 12.750000
$GPGGA,,,,,,0,04,,,M,,M,,*62
$GPGLL,,,,,,V,N*64
$GPVTG,,T,,,,N,,K,N*61
$GPGSV,3,1,10,05,13,038,34,16,31,309,39,31,28,221,39,18,17,148,*75
$GPGSV,3,2,10,29,42,074,39,30,52,156,,21,74,166,31,25,15,138,*71
$GPGSV,3,3,10,03,12,278,31,06,27,277,35,,,,,,,,*70
$GPGSA,M,1,,,,,,,,,,,,,3.5,1.5,3.2*3F
Trace #53 at position 13.000000
$GPZDA,121747.02,06,10,2011,00,00*67
$GPRMC,121746.00,V,,,,,,,,,,N*7A
$GPGGA,121748.00,4611.970339,N,01258.206553,E,1,05,1.5,137.48,M,46.25,M,,*64
$GPGLL,4611.970339,N,01258.206553,E,121748.00,A,A*6C
$GPVTG,158.2,T,158.4,M,001.2,N,002.3,K,A*27
$GPGSV,3,1,10,05,13,038,,16,31,309,38,31,28,221,38,18,17,148,*72
$GPGSV,3,2,10,29,42,074,39,30,52,156,,21,74,166,33,25,15,138,*73
$GPGSV,3,3,10,03,12,278,29,06,27,277,36,,,,,,,,*7A
$GPGSA,M,3,16,31,29,21,06,,,,,,,,3.5,1.5,3.2*36
Trace #54 at position 13.250000
$GPZDA,121747.02,06,10,2011,00,00*67
$GPRMC,121746.00,V,,,,,,,,,,N*7A
$GPGGA,121748.00,4611.970339,N,01258.206553,E,1,05,1.5,137.48,M,46.25,M,,*64
$GPGLL,4611.970339,N,01258.206553,E,121748.00,A,A*6C
$GPVTG,158.2,T,158.4,M,001.2,N,002.3,K,A*27
$GPGSV,3,1,10,05,13,038,,16,31,309,38,31,28,221,38,18,17,148,*72
$GPGSV,3,2,10,29,42,074,39,30,52,156,,21,74,166,33,25,15,138,*73
$GPGSV,3,3,10,03,12,278,29,06,27,277,36,,,,,,,,*7A
$GPGSA,M,3,16,31,29,21,06,,,,,,,,3.5,1.5,3.2*36
Trace #55 at position 13.500000
$GPZDA,121748.04,06,10,2011,00,00*6E
$GPRMC,121748.00,A,4611.970339,N,01258.206553,E,001.2,158.2,061011,0.2,E,A*38
$GPGGA,121749.00,4611.969985,N,01258.206735,E,1,05,1.5,137.53,M,46.25,M,,*68
$GPGLL,4611.969985,N,01258.206735,E,121749.00,A,A*6A
$GPVTG,163.6,T,163.8,M,001.5,N,002.9,K,A*22
$GPGSV,3,1,10,05,13,038,30,16,31,309,39,31,28,221,38,18,17,148,*70
$GPGSV,3,2,10,29,42,074,39,30,52,156,,21,74,166,34,25,15,138,*74
$GPGSV,3,3,10,03,12,278,31,06,27,277,37,,,,,,,,*72
$GPGSA,M,3,16,31,29,21,06,,,,,,,,3.5,1.5,3.2*36
Trace #56 at position 13.750000
$GPZDA,121748.04,06,10,2011,00,00*6E
$GPRMC,121748.00,A,4611.970339,N,01258.206553,E,001.2,158.2,061011,0.2,E,A*38
$GPGGA,121749.00,4611.969985,N,01258.206735,E,1,05,1.5,137.53,M,46.25,M,,*68
$GPGLL,4611.969985,N,01258.206735,E,121749.00,A,A*6A
$GPVTG,163.6,T,163.8,M,001.5,N,002.9,K,A*22
$GPGSV,3,1,10,05,13,038,30,16,31,309,39,31,28,221,38,18,17,148,*70
$GPGSV,3,2,10,29,42,074,39,30,52,156,,21,74,166,34,25,15,138,*74
$GPGSV,3,3,10,03,12,278,31,06,27,277,37,,,,,,,,*72
$GPGSA,M,3,16,31,29,21,06,,,,,,,,3.5,1.5,3.2*36
Trace #57 at position 14.000000
$GPZDA,121748.04,06,10,2011,00,00*6E
$GPRMC,121748.00,A,4611.970339,N,01258.206553,E,001.2,158.2,061011,0.2,E,A*38
$GPGGA,121749.00,4611.969985,N,01258.206735,E,1,05,1.5,137.53,M,46.25,M,,*68
$GPGLL,4611.969985,N,01258.206735,E,121749.00,A,A*6A
$GPVTG,163.6,T,163.8,M,001.5,N,002.9,K,A*22
$GPGSV,3,1,10,05,13,038,30,16,31,309,39,31,28,221,38,18,17,148,*70
$GPGSV,3,2,10,29,42,074,39,30,52,156,,21,74,166,34,25,15,138,*74
$GPGSV,3,3,10,03,12,278,31,06,27,277,37,,,,,,,,*72
$GPGSA,M,3,16,31,29,21,06,,,,,,,,3.5,1.5,3.2*36
Trace #58 at position 14.250000
$GPZDA,121749.03,06,10,2011,00,00*68
$GPRMC,121749.00,A,4611.969985,N,01258.206735,E,001.5,163.6,061011,0.2,E,A*35
$GPGGA,,,,,,0,04,,,M,,M,,*62
$GPGLL,,,,,,V,N*64
$GPVTG,,T,,,,N,,K,N*61
$GPGSV,3,1,10,05,13,038,29,16,31,309,39,31,28,221,37,18,17,148,*77
$GPGSV,3,2,10,29,42,074,40,30,52,156,,21,74,166,33,25,15,138,*7D
$GPGSV,3,3,10,03,12,278,30,06,27,277,37,,,,,,,,*73
$GPGSA,M,1,,,,,,,,,,,,,3.5,1.5,3.2*3F
Trace #59 at position 14.500000
$GPZDA,121749.03,06,10,2011,00,00*68
$GPRMC,121749.00,A,4611.969985,N,01258.206735,E,001.5,163.6,061011,0.2,E,A*35
$GPGGA,,,,,,0,04,,,M,,M,,*62
$GPGLL,,,,,,V,N*64
$GPVTG,,T,,,,N,,K,N*61
$GPGSV,3,1,10,05,13,038,29,16,31,309,39,31,28,221,37,18,17,148,*77
$GPGSV,3,2,10,29,42,074,40,30,52,156,,21,74,166,33,25,15,138,*7D
$GPGSV,3,3,10,03,12,278,30,06,27,277,37,,,,,,,,*73
$GPGSA,M,1,,,,,,,,,,,,,3.5,1.5,3.2*3F
Trace #60 at position 14.750000
$GPZDA,121750.02,06,10,2011,00,00*61
$GPRMC,121749.00,V,,,,,,,,,,N*75
$GPGGA,121751.00,4611.969269,N,01258.206984,E,1,05,1.5,137.43,M,46.25,M,,*6D
$GPGLL,4611.969269,N,01258.206984,E,121751.00,A,A*6E
$GPVTG,172.4,T,172.5,M,001.2,N,002.2,K,A*21
$GPGSV,3,1,10,05,13,038,29,16,31,309,39,31,28,221,38,18,17,148,*78
$GPGSV,3,2,10,29,42,074,39,30,52,156,36,21,74,166,33,25,15,138,*76
$GPGSV,3,3,10,03,12,278,31,06,27,277,36,,,,,,,,*73
$GPGSA,M,3,16,31,29,21,06,,,,,,,,3.5,1.5,3.2*36
Trace #61 at position 15.000000
$GPZDA,121750.02,06,10,2011,00,00*61
$GPRMC,121749.00,V,,,,,,,,,,N*75
$GPGGA,121751.00,4611.969269,N,01258.206984,E,1,05,1.5,137.43,M,46.25,M,,*6D
$GPGLL,4611.969269,N,01258.206984,E,121751.00,A,A*6E
$GPVTG,172.4,T,172.5,M,001.2,N,002.2,K,A*21
$GPGSV,3,1,10,05,13,038,29,16,31,309,39,31,28,221,38,18,17,148,*78
$GPGSV,3,2,10,29,42,074,39,30,52,156,36,21,74,166,33,25,15,138,*76
$GPGSV,3,3,10,03,12,278,31,06,27,277,36,,,,,,,,*73
$GPGSA,M,3,16,31,29,21,06,,,,,,,,3.5,1.5,3.2*36
Trace #62 at position 15.250000
$GPZDA,121750.02,06,10,2011,00,00*61
$GPRMC,121749.00,V,,,,,,,,,,N*75
$GPGGA,121751.00,4611.969269,N,01258.206984,E,1,05,1.5,137.43,M,46.25,M,,*6D
$GPGLL,4611.969269,N,01258.206984,E,121751.00,A,A*6E
$GPVTG,172.4,T,172.5,M,001.2,N,002.2,K,A*21
$GPGSV,3,1,10,05,13,038,29,16,31,309,39,31,28,221,38,18,17,148,*78
$GPGSV,3,2,10,29,42,074,39,30,52,156,36,21,74,166,33,25,15,138,*76
$GPGSV,3,3,10,03,12,278,31,06,27,277,36,,,,,,,,*73
$GPGSA,M,3,16,31,29,21,06,,,,,,,,3.5,1.5,3.2*36
Trace #63 at position 15.500000
$GPZDA,121751.03,06,10,2011,00,00*61
$GPRMC,121751.00,A,4611.969269,N,01258.206984,E,001.2,172.4,061011,0.2,E,A*34
$GPGGA,121752.00,4611.968954,N,01258.207129,E,1,05,1.5,137.29,M,46.25,M,,*68
$GPGLL,4611.968954,N,01258.207129,E,121752.00,A,A*67
$GPVTG,156.3,T,156.5,M,001.3,N,002.5,K,A*20
$GPGSV,3,1,10,05,13,038,29,16,31,309,39,31,28,221,38,18,17,148,*78
$GPGSV,3,2,10,29,42,074,39,30,52,156,35,21,74,166,34,25,15,138,*72
$GPGSV,3,3,10,03,12,278,29,06,27,277,37,,,,,,,,*7B
$GPGSA,M,3,16,31,29,21,06,,,,,,,,3.5,1.5,3.2*36
Trace #64 at position 15.750000
$GPZDA,121751.03,06,10,2011,00,00*61
$GPRMC,121751.00,A,4611.969269,N,01258.206984,E,001.2,172.4,061011,0.2,E,A*34
$GPGGA,121752.00,4611.968954,N,01258.207129,E,1,05,1.5,137.29,M,46.25,M,,*68
$GPGLL,4611.968954,N,01258.207129,E,121752.00,A,A*67
$GPVTG,156.3,T,156.5,M,001.3,N,002.5,K,A*20
$GPGSV,3,1,10,05,13,038,29,16,31,309,39,31,28,221,38,18,17,148,*78
$GPGSV,3,2,10,29,42,074,39,30,52,156,35,21,74,166,34,25,15,138,*72
$GPGSV,3,3,10,03,12,278,29,06,27,277,37,,,,,,,,*7B
$GPGSA,M,3,16,31,29,21,06,,,,,,,,3.5,1.5,3.2*36
Trace #65 at position 16.000000
$GPZDA,121752.03,06,10,2011,00,00*62
$GPRMC,121752.00,A,4611.968954,N,01258.207129,E,001.3,156.3,061011,0.2,E,A*3D
$GPGGA,121753.00,4611.968676,N,01258.207255,E,1,05,1.5,137.20,M,46.25,M,,*67
$GPGLL,4611.968676,N,01258.207255,E,121753.00,A,A*61
$GPVTG,173.4,T,173.6,M,000.9,N,001.7,K,A*2E
$GPGSV,3,1,10,05,13,038,30,16,31,309,40,31,28,221,38,18,17,148,*7E
$GPGSV,3,2,10,29,42,074,38,30,52,156,34,21,74,166,34,25,15,138,*72
$GPGSV,3,3,10,03,12,278,31,06,27,277,36,,,,,,,,*73
$GPGSA,M,3,16,31,29,21,06,,,,,,,,3.5,1.5,3.1*35
Trace #66 at position 16.250000
$GPZDA,121752.03,06,10,2011,00,00*62
$GPRMC,121752.00,A,4611.968954,N,01258.207129,E,001.3,156.3,061011,0.2,E,A*3D
$GPGGA,121753.00,4611.968676,N,01258.207255,E,1,05,1.5,137.20,M,46.25,M,,*67
$GPGLL,4611.968676,N,01258.207255,E,121753.00,A,A*61
$GPVTG,173.4,T,173.6,M,000.9,N,001.7,K,A*2E
$GPGSV,3,1,10,05,13,038,30,16,31,309,40,31,28,221,38,18,17,148,*7E
$GPGSV,3,2,10,29,42,074,38,30,52,156,34,21,74,166,34,25,15,138,*72
$GPGSV,3,3,10,03,12,278,31,06,27,277,36,,,,,,,,*73
$GPGSA,M,3,16,31,29,21,06,,,,,,,,3.5,1.5,3.1*35
Trace #67 at position 16.500000
$GPZDA,121752.03,06,10,2011,00,00*62
$GPRMC,121752.00,A,4611.968954,N,01258.207129,E,001.3,156.3,061011,0.2,E,A*3D
$GPGGA,121753.00,4611.968676,N,01258.207255,E,1,05,1.5,137.20,M,46.25,M,,*67
$GPGLL,4611.968676,N,01258.207255,E,121753.00,A,A*61
$GPVTG,173.4,T,173.6,M,000.9,N,001.7,K,A*2E
$GPGSV,3,1,10,05,13,038,30,16,31,309,40,31,28,221,38,18,17,148,*7E
$GPGSV,3,2,10,29,42,074,38,30,52,156,34,21,74,166,34,25,15,138,*72
$GPGSV,3,3,10,03,12,278,31,06,27,277,36,,,,,,,,*73
$GPGSA,M,3,16,31,29,21,06,,,,,,,,3.5,1.5,3.1*35
Trace #68 at position 16.750000
$GPZDA,121753.04,06,10,2011,00,00*64
$GPRMC,121753.00,A,4611.968676,N,01258.207255,E,000.9,173.4,061011,0.2,E,A*30
$GPGGA,121754.00,4611.968447,N,01258.207522,E,1,05,1.5,136.07,M,46.25,M,,*63
$GPGLL,4611.968447,N,01258.207522,E,121754.00,A,A*61
$GPVTG,120.5,T,120.7,M,001.6,N,002.9,K,A*2D
$GPGSV,3,1,10,05,13,038,29,16,31,309,39,31,28,221,39,18,17,148,*79
$GPGSV,3,2,10,29,42,074,38,30,52,156,35,21,74,166,33,25,15,138,*74
$GPGSV,3,3,10,03,12,278,29,06,27,277,37,,,,,,,,*7B
$GPGSA,M,3,16,31,29,21,06,,,,,,,,3.5,1.5,3.1*35
Trace #69 at position 17.000000
$GPZDA,121753.04,06,10,2011,00,00*64
$GPRMC,121753.00,A,4611.968676,N,01258.207255,E,000.9,173.4,061011,0.2,E,A*30
$GPGGA,121754.00,4611.968447,N,01258.207522,E,1,05,1.5,136.07,M,46.25,M,,*63
$GPGLL,4611.968447,N,01258.207522,E,121754.00,A,A*61
$GPVTG,120.5,T,120.7,M,001.6,N,002.9,K,A*2D
$GPGSV,3,1,10,05,13,038,29,16,31,309,39,31,28,221,39,18,17,148,*79
$GPGSV,3,2,10,29,42,074,38,30,52,156,35,21,74,166,33,25,15,138,*74
$GPGSV,3,3,10,03,12,278,29,06,27,277,37,,,,,,,,*7B
$GPGSA,M,3,16,31,29,21,06,,,,,,,,3.5,1.5,3.1*35
Trace #70 at position 17.250000
$GPZDA,121754.03,06,10,2011,00,00*64
$GPRMC,121754.00,A,4611.968447,N,01258.207522,E,001.6,120.5,061011,0.2,E,A*39
$GPGGA,121755.00,4611.968157,N,01258.207833,E,1,06,1.4,134.70,M,46.25,M,,*6B
$GPGLL,4611.968157,N,01258.20783331,309,39,31,28,221,39,18,17,148,*73
$GPGSV,3,2,10,29,42,074,39,30,52,156,36,21,74,165,32,25,15,138,*74
$GPGSV,3,3,10,03,12,278,29,06,27,277,38,,,,,,,,*74
$GPGSA,M,3,16,31,29,30,21,06,,,,,,,3.4,1.4,3.1*36
Trace #71 at position 17.500000
$GPZDA,121754.03,06,10,2011,00,00*64
$GPRMC,121754.00,A,4611.968447,N,01258.207522,E,001.6,120.5,061011,0.2,E,A*39
$GPGGA,121755.00,4611.968157,N,01258.207833,E,1,06,1.4,134.70,M,46.25,M,,*6B
$GPGLL,4611.968157,N,01258.20783331,309,39,31,28,221,39,18,17,148,*73
$GPGSV,3,2,10,29,42,074,39,30,52,156,36,21,74,165,32,25,15,138,*74
$GPGSV,3,3,10,03,12,278,29,06,27,277,38,,,,,,,,*74
$GPGSA,M,3,16,31,29,30,21,06,,,,,,,3.4,1.4,3.1*36
Trace #72 at position 17.750000
$GPZDA,121754.03,06,10,2011,00,00*64
$GPRMC,121754.00,A,4611.968447,N,01258.207522,E,001.6,120.5,061011,0.2,E,A*39
$GPGGA,121755.00,4611.968157,N,01258.207833,E,1,06,1.4,134.70,M,46.25,M,,*6B
$GPGLL,4611.968157,N,01258.20783331,309,39,31,28,221,39,18,17,148,*73
$GPGSV,3,2,10,29,42,074,39,30,52,156,36,21,74,165,32,25,15,138,*74
$GPGSV,3,3,10,03,12,278,29,06,27,277,38,,,,,,,,*74
$GPGSA,M,3,16,31,29,30,21,06,,,,,,,3.4,1.4,3.1*36
Trace #73 at position 18.000000
$GPZDA,121754.03,06,10,2011,00,00*64
$GPRMC,121754.00,A,4611.968447,N,01258.207522,E,001.6,120.5,061011,0.2,E,A*39
$GPGGA,121755.00,4611.968157,N,01258.207833,E,1,06,1.4,134.70,M,46.25,M,,*6B
$GPGLL,4611.968157,N,01258.20783331,309,39,31,28,221,39,18,17,148,*73
$GPGSV,3,2,10,29,42,074,39,30,52,156,36,21,74,165,32,25,15,138,*74
$GPGSV,3,3,10,03,12,278,29,06,27,277,38,,,,,,,,*74
$GPGSA,M,3,16,31,29,30,21,06,,,,,,,3.4,1.4,3.1*36
Trace #74 at position 18.250000
$GPZDA,121754.03,06,10,2011,00,00*64
$GPRMC,121754.00,A,4611.968447,N,01258.207522,E,001.6,120.5,061011,0.2,E,A*39
$GPGGA,121755.00,4611.968157,N,01258.207833,E,1,06,1.4,134.70,M,46.25,M,,*6B
$GPGLL,4611.968157,N,01258.20783331,309,39,31,28,221,39,18,17,148,*73
$GPGSV,3,2,10,29,42,074,39,30,52,156,36,21,74,165,32,25,15,138,*74
$GPGSV,3,3,10,03,12,278,29,06,27,277,38,,,,,,,,*74
$GPGSA,M,3,16,31,29,30,21,06,,,,,,,3.4,1.4,3.1*36
Trace #75 at position 18.500000
$GPZDA,121754.03,06,10,2011,00,00*64
$GPRMC,121754.00,A,4611.968447,N,01258.207522,E,001.6,120.5,061011,0.2,E,A*39
$GPGGA,121755.00,4611.968157,N,01258.207833,E,1,06,1.4,134.70,M,46.25,M,,*6B
$GPGLL,4611.968157,N,01258.20783331,309,39,31,28,221,39,18,17,148,*73
$GPGSV,3,2,10,29,42,074,39,30,52,156,36,21,74,165,32,25,15,138,*74
$GPGSV,3,3,10,03,12,278,29,06,27,277,38,,,,,,,,*74
$GPGSA,M,3,16,31,29,30,21,06,,,,,,,3.4,1.4,3.1*36
Trace #76 at position 18.750000
$GPZDA,121754.03,06,10,2011,00,00*64
$GPRMC,121754.00,A,4611.968447,N,01258.207522,E,001.6,120.5,061011,0.2,E,A*39
$GPGGA,121755.00,4611.968157,N,01258.207833,E,1,06,1.4,134.70,M,46.25,M,,*6B
$GPGLL,4611.968157,N,01258.20783331,309,39,31,28,221,39,18,17,148,*73
$GPGSV,3,2,10,29,42,074,39,30,52,156,36,21,74,165,32,25,15,138,*74
$GPGSV,3,3,10,03,12,278,29,06,27,277,38,,,,,,,,*74
$GPGSA,M,3,16,31,29,30,21,06,,,,,,,3.4,1.4,3.1*36
Trace #77 at position 19.000000
$GPZDA,121755.04,06,10,2011,00,00*62
$GPRMC,121755.00,A,4611.968157,N,01258.207833,E,001.5,160.8,061011,0.2,E,A*3B
$GPGGA,121756.00,4611.967778,N,01258.207917,E,1,06,1.4,134.34,M,46.25,M,,*6B
$GPGLL,4611.967778,N,01258.207917,E,121756.00,A,A*69
$GPVTG,173.3,T,173.5,M,001.4,N,002.7,K,A*25
$GPGSV,3,1,29,30,21,06,,,,,,,3.4,1.4,3.1*36
$GPZDA,121756.03,06,10,2011,00,00*66
$GPRMC,121756.00,A,4611.967778,N,01258.207917,E,001.4,173.3,061011,0.2,E,A*33
$GPGGA,121757.00,4611.967504,N,01258.207787,E,1,06,1.4,135.55,M,46.25,M,,*62
$GPGLL,4611.967504,N,01258.207787,E,121757.00,A,A*66
$GPVTG,217.3,T,217.5,M,000.9,N,001.7,K,A*2A
$GPGSV,3,1,10,05,13,038,30,16,31,309,39,31,28,221,38,18,17,148,*70
$GPGSV,3,2,10,29,42,074,40,30,52,156,36,21,74,165,,25,15,138,*7B
$GPGSV,3,3,10,03,12,278,31,06,27,277,37,,,,,,,,*1757.03,06,10,2011,00,00*67
$GPRMC,121757.00,A,4611.967504,N,01258.207787,E,000.9,217.3,061011,0.2,E,A*31
$GPGGA,121758.00,4611.967253,N,01258.207687,E,1,05,1.7,136.37,M,46.25,M,,*6E
$GPGLL,4611.967253,N,01258.207687,E,121758.00,A,A*6D
$GPVTG,181.8,T,182.0,M,001.2,N,002.2,K,A*2B
$GPGSV,3,1,10,05,13,038,30,16,31,309,39,31,28,221,39,18,17,148,*71
$GPGSV,3,2,10,29,42,074,39,30,52,156,36,21,74,165,34,25,15,138,*72
$GPGSV,3,3,10,03,12,278,30,06,27,277,38,,,,,,,,*7C
$GPGSA,M,3,16,31,29,30,06,,,,,,,,7.0,1.$GPGGA,121759.00,4611.967039,N,01258.207691,E,1,06,1.4,136.37,M,46.25,M,,*66
Trace #78 at position 19.250000
$GPZDA,121755.04,06,10,2011,00,00*62
$GPRMC,121755.00,A,4611.968157,N,01258.207833,E,001.5,160.8,061011,0.2,E,A*3B
$GPGGA,121756.00,4611.967778,N,01258.207917,E,1,06,1.4,134.34,M,46.25,M,,*6B
$GPGLL,4611.967778,N,01258.207917,E,121756.00,A,A*69
$GPVTG,173.3,T,173.5,M,001.4,N,002.7,K,A*25
$GPGSV,3,1,29,30,21,06,,,,,,,3.4,1.4,3.1*36
$GPZDA,121756.03,06,10,2011,00,00*66
$GPRMC,121756.00,A,4611.967778,N,01258.207917,E,001.4,173.3,061011,0.2,E,A*33
$GPGGA,121757.00,4611.967504,N,01258.207787,E,1,06,1.4,135.55,M,46.25,M,,*62
$GPGLL,4611.967504,N,01258.207787,E,121757.00,A,A*66
$GPVTG,217.3,T,217.5,M,000.9,N,001.7,K,A*2A
$GPGSV,3,1,10,05,13,038,30,16,31,309,39,31,28,221,38,18,17,148,*70
$GPGSV,3,2,10,29,42,074,40,30,52,156,36,21,74,165,,25,15,138,*7B
$GPGSV,3,3,10,03,12,278,31,06,27,277,37,,,,,,,,*1757.03,06,10,2011,00,00*67
$GPRMC,121757.00,A,4611.967504,N,01258.207787,E,000.9,217.3,061011,0.2,E,A*31
$GPGGA,121758.00,4611.967253,N,01258.207687,E,1,05,1.7,136.37,M,46.25,M,,*6E
$GPGLL,4611.967253,N,01258.207687,E,121758.00,A,A*6D
$GPVTG,181.8,T,182.0,M,001.2,N,002.2,K,A*2B
$GPGSV,3,1,10,05,13,038,30,16,31,309,39,31,28,221,39,18,17,148,*71
$GPGSV,3,2,10,29,42,074,39,30,52,156,36,21,74,165,34,25,15,138,*72
$GPGSV,3,3,10,03,12,278,30,06,27,277,38,,,,,,,,*7C
$GPGSA,M,3,16,31,29,30,06,,,,,,,,7.0,1.$GPGGA,121759.00,4611.967039,N,01258.207691,E,1,06,1.4,136.37,M,46.25,M,,*66
Trace #79 at position 19.500000
$GPGLL,4611.967039,N,01258.207691,E,121759.00,A,A*65
$GPVTG,176.1,T,176.3,M,000.5,N,000.9,K,A*2D
$GPGSV,3,1,10,05,13,038,29,16,31,309,39,31,28,221,39,18,17,148,*79
$GPGSV,3,2,10,29,42,074,39,30,52,156,35,21,74,165,33,25,15,138,*76
$GPGSV,3,3,10,03,12,278,31,06,27,277,37,,,,,,,,*72
$GPGSA,M,3,16,31,29,30,21,06,,,,,,,3.4,1.4,3.1*36
Trace #80 at position 19.750000
$GPGLL,4611.967039,N,01258.207691,E,121759.00,A,A*65
$GPVTG,176.1,T,176.3,M,000.5,N,000.9,K,A*2D
$GPGSV,3,1,10,05,13,038,29,16,31,309,39,31,28,221,39,18,17,148,*79
$GPGSV,3,2,10,29,42,074,39,30,52,156,35,21,74,165,33,25,15,138,*76
$GPGSV,3,3,10,03,12,278,31,06,27,277,37,,,,,,,,*72
$GPGSA,M,3,16,31,29,30,21,06,,,,,,,3.4,1.4,3.1*36
Trace #81 at position 20.000000
$GPZDA,121759.04,06,10,2011,00,00*6E
$GPRMC,121759.00,A,4611.967039,N,01258.207691,E,000.5,176.$GPGGA,121800.00,4611.966762,N,01258.207778,E,1,06,1.4,136.50,M,46.25,M,,*6A
$GPGLL,4611.966762,N,01258.207778,E,121800.00,A,A*68
$GPVTG,167.7,T,167.9,M,001.7,N,003.1,K,A*29
$GPGSV,3,1,10,05,13,038,28,16,31,309,39,31,28,221,38,18,17,148,*79
$GPGSV,3,2,10,29,42,074,39,30,52,156,36,21,74,165,34,25,15,138,*72
$GPGSV,3,3,10,03,12,278,30,06,27,277,38,,,,,,,,*7C
$GPGSA,M,3,16,31,29,30,21,06,,,,,,,3.4,1.4,3.1*36
Trace #82 at position 20.250000
$GPZDA,121759.04,06,10,2011,00,00*6E
$GPRMC,121759.00,A,4611.967039,N,01258.207691,E,000.5,176.$GPGGA,121800.00,4611.966762,N,01258.207778,E,1,06,1.4,136.50,M,46.25,M,,*6A
$GPGLL,4611.966762,N,01258.207778,E,121800.00,A,A*68
$GPVTG,167.7,T,167.9,M,001.7,N,003.1,K,A*29
$GPGSV,3,1,10,05,13,038,28,16,31,309,39,31,28,221,38,18,17,148,*79
$GPGSV,3,2,10,29,42,074,39,30,52,156,36,21,74,165,34,25,15,138,*72
$GPGSV,3,3,10,03,12,278,30,06,27,277,38,,,,,,,,*7C
$GPGSA,M,3,16,31,29,30,21,06,,,,,,,3.4,1.4,3.1*36
Trace #83 at position 20.500000
$GPZDA,121759.04,06,10,2011,00,00*6E
$GPRMC,121759.00,A,4611.967039,N,01258.207691,E,000.5,176.$GPGGA,121800.00,4611.966762,N,01258.207778,E,1,06,1.4,136.50,M,46.25,M,,*6A
$GPGLL,4611.966762,N,01258.207778,E,121800.00,A,A*68
$GPVTG,167.7,T,167.9,M,001.7,N,003.1,K,A*29
$GPGSV,3,1,10,05,13,038,28,16,31,309,39,31,28,221,38,18,17,148,*79
$GPGSV,3,2,10,29,42,074,39,30,52,156,36,21,74,165,34,25,15,138,*72
$GPGSV,3,3,10,03,12,278,30,06,27,277,38,,,,,,,,*7C
$GPGSA,M,3,16,31,29,30,21,06,,,,,,,3.4,1.4,3.1*36
Trace #84 at position 20.750000
$GPZDA,121800.03,06,10,2011,00,00*6A
$GPRMC,121800.00,A,4611.966762,N,01258.207778,E,001.7,167.$GPGGA,121801.00,4611.966336,N,01258.207941,E,1,06,1.4,136.32,M,46.25,M,,*6E
$GPGLL,4611.966336,N,01258.207941,E,121801.00,A,A*68
$GPVTG,168.1,T,168.3,M,001.6,N,003.0,K,A*25
$GPGSV,3,1,10,05,13,038,32,16,31,309,39,31,28,221,38,18,17,148,*72
$GPGSV,3,2,10,29,42,074,39,30,52,156,36,21,74,165,33,25,15,138,*75
$GPGSV,3,3,10,03,12,278,30,06,27,277,37,,,,,,,,*73
$GPGSA,M,3,16,31,29,30,21,06,,,,,,,3.4,1.4,3.1*36
Trace #85 at position 21.000000
$GPZDA,121800.03,06,10,2011,00,00*6A
$GPRMC,121800.00,A,4611.966762,N,01258.207778,E,001.7,167.$GPGGA,121801.00,4611.966336,N,01258.207941,E,1,06,1.4,136.32,M,46.25,M,,*6E
$GPGLL,4611.966336,N,01258.207941,E,121801.00,A,A*68
$GPVTG,168.1,T,168.3,M,001.6,N,003.0,K,A*25
$GPGSV,3,1,10,05,13,038,32,16,31,309,39,31,28,221,38,18,17,148,*72
$GPGSV,3,2,10,29,42,074,39,30,52,156,36,21,74,165,33,25,15,138,*75
$GPGSV,3,3,10,03,12,278,30,06,27,277,37,,,,,,,,*73
$GPGSA,M,3,16,31,29,30,21,06,,,,,,,3.4,1.4,3.1*36
Trace #86 at position 21.250000
$GPZDA,121801.03,06,10,2011,00,00*6B
$GPRMC,121801.00,A,4611.966336,N,01258.207941,E,001.6,168.$GPGGA,121802.00,4611.966014,N,01258.208212,E,1,06,1.4,135.94,M,46.25,M,,*63
$GPGLL,4611.966014,N,01258.208212,E,121802.00,A,A*6A
$GPVTG,132.2,T,132.3,M,001.2,N,002.3,K,A*20
$GPGSV,3,1,10,05,13,038,,16,31,309,39,31,28,221,39,18,17,148,*72
$GPGSV,3,2,10,29,42,074,39,30,52,156,33,21,74,165,33,25,15,138,*70
$GPGSV,3,3,10,03,12,278,31,06,27,277,38,,,,,,,,*7D
$GPGSA,M,3,16,31,29,30,21,06,,,,,,,3.4,1.4,3.1*36
Trace #87 at position 21.500000
$GPZDA,121801.03,06,10,2011,00,00*6B
$GPRMC,121801.00,A,4611.966336,N,01258.207941,E,001.6,168.$GPGGA,121802.00,4611.966014,N,01258.208212,E,1,06,1.4,135.94,M,46.25,M,,*63
$GPGLL,4611.966014,N,01258.208212,E,121802.00,A,A*6A
$GPVTG,132.2,T,132.3,M,001.2,N,002.3,K,A*20
$GPGSV,3,1,10,05,13,038,,16,31,309,39,31,28,221,39,18,17,148,*72
$GPGSV,3,2,10,29,42,074,39,30,52,156,33,21,74,165,33,25,15,138,*70
$GPGSV,3,3,10,03,12,278,31,06,27,277,38,,,,,,,,*7D
$GPGSA,M,3,16,31,29,30,21,06,,,,,,,3.4,1.4,3.1*36
Trace #88 at position 21.750000
$GPZDA,121802.03,06,10,2011,00,00*68
$GPRMC,121802.00,A,4611.966014,N,01258.208212,E,001.2,132.2,$GPGGA,121803.00,4611.965734,N,01258.208490,E,1,06,1.4,135.86,M,46.25,M,,*6B
$GPGLL,4611.965734,N,01258.208490,E,121803.00,A,A*61
$GPVTG,159.0,T,159.2,M,001.3,N,002.4,K,A*25
$GPGSV,3,1,10,05,13,038,28,16,31,309,38,31,28,221,39,18,17,148,*79
$GPGSV,3,2,10,29,42,074,39,30,52,156,33,21,75,165,34,25,15,138,*76
$GPGSV,3,3,10,03,12,278,30,06,27,277,37,,,,,,,,*73
$GPGSA,M,3,16,31,29,30,21,06,,,,,,,3.4,1.4,3.1*36
Trace #89 at position 22.000000
$GPZDA,121802.03,06,10,2011,00,00*68
$GPRMC,121802.00,A,4611.966014,N,01258.208212,E,001.2,132.2,$GPGGA,121803.00,4611.965734,N,01258.208490,E,1,06,1.4,135.86,M,46.25,M,,*6B
$GPGLL,4611.965734,N,01258.208490,E,121803.00,A,A*61
$GPVTG,159.0,T,159.2,M,001.3,N,002.4,K,A*25
$GPGSV,3,1,10,05,13,038,28,16,31,309,38,31,28,221,39,18,17,148,*79
$GPGSV,3,2,10,29,42,074,39,30,52,156,33,21,75,165,34,25,15,138,*76
$GPGSV,3,3,10,03,12,278,30,06,27,277,37,,,,,,,,*73
$GPGSA,M,3,16,31,29,30,21,06,,,,,,,3.4,1.4,3.1*36
Trace #90 at position 22.250000
$GPZDA,121803.04,06,10,2011,00,00*6E
$GPRMC,121803.00,A,4611.965734,N,01258.208490,E,001.3,159.$GPGGA,121804.00,4611.965459,N,01258.208650,E,1,06,1.4,135.99,M,46.25,M,,*64
$GPGLL,4611.965459,N,01258.208650,E,121804.00,A,A*60
$GPVTG,159.0,T,159.1,M,000.9,N,001.6,K,A*2C
$GPGSV,3,1,10,05,13,038,28,16,31,309,38,31,28,221,40,18,17,148,*77
$GPGSV,3,2,10,29,42,074,39,30,52,156,34,21,75,165,33,25,15,138,*76
$GPGSV,3,3,10,03,12,278,30,06,27,277,37,,,,,,,,*73
$GPGSA,M,3,16,31,29,30,21,06,,,,,,,3.4,1.4,3.1*36
Trace #91 at position 22.500000
$GPZDA,121803.04,06,10,2011,00,00*6E
$GPRMC,121803.00,A,4611.965734,N,01258.208490,E,001.3,159.$GPGGA,121804.00,4611.965459,N,01258.208650,E,1,06,1.4,135.99,M,46.25,M,,*64
$GPGLL,4611.965459,N,01258.208650,E,121804.00,A,A*60
$GPVTG,159.0,T,159.1,M,000.9,N,001.6,K,A*2C
$GPGSV,3,1,10,05,13,038,28,16,31,309,38,31,28,221,40,18,17,148,*77
$GPGSV,3,2,10,29,42,074,39,30,52,156,34,21,75,165,33,25,15,138,*76
$GPGSV,3,3,10,03,12,278,30,06,27,277,37,,,,,,,,*73
$GPGSA,M,3,16,31,29,30,21,06,,,,,,,3.4,1.4,3.1*36
Trace #92 at position 22.750000
$GPZDA,121804.03,06,10,2011,00,00*6E
$GPRMC,121804.00,A,4611.965459,N,01258.208650,E,000.9,159.06,1.4,135.97,M,46.25,M,,*67
$GPGLL,4611.965212,N,01258.208886,E,121805.00,A,A*6D
$GPVTG,136.4,T,136.5,M,001.3,N,002.4,K,A*26
$GPGSV,3,1,10,05,13,038,30,16,31,309,39,31,28,221,39,18,17,148,*71
$GPGSV,3,2,10,29,42,074,40,30,52,156,34,21,75,165,33,25,15,138,*78
$GPGSV,3,3,10,03,12,278,29,06,27,277,37,,,,,,,,*7B
$GPGSA,M,3,16,31,29,30,21,06,,,,,,,3.4,1.4,3.1*36
Trace #93 at position 23.000000
$GPZDA,121804.03,06,10,2011,00,00*6E
$GPRMC,121804.00,A,4611.965459,N,01258.208650,E,000.9,159.06,1.4,135.97,M,46.25,M,,*67
$GPGLL,4611.965212,N,01258.208886,E,121805.00,A,A*6D
$GPVTG,136.4,T,136.5,M,001.3,N,002.4,K,A*26
$GPGSV,3,1,10,05,13,038,30,16,31,309,39,31,28,221,39,18,17,148,*71
$GPGSV,3,2,10,29,42,074,40,30,52,156,34,21,75,165,33,25,15,138,*78
$GPGSV,3,3,10,03,12,278,29,06,27,277,37,,,,,,,,*7B
$GPGSA,M,3,16,31,29,30,21,06,,,,,,,3.4,1.4,3.1*36
Trace #94 at position 23.250000
$GPZDA,121805.03,06,10,2011,00,00*6F
$GPRMC,121805.00,A,4611.965212,N,01258.208886,E,001.3,136.4,061011,0.2,E,A*36
$GPGGA,121806.00,4611.96491,A,A*62
$GPVTG,175.6,T,175.8,M,001.2,N,002.2,K,A*2E
$GPGSV,3,1,10,05,13,038,30,16,31,309,39,31,28,221,38,18,17,148,*70
$GPGSV,3,2,10,29,42,074,39,30,52,156,36,21,75,165,32,25,15,138,*75
$GPGSV,3,3,10,03,12,278,29,06,27,277,37,,,,,,,,*7B
$GPGSA,M,3,16,31,29,30,21,06,,,,,,,3.4,1.4,3.1*36
Trace #95 at position 23.500000
$GPZDA,121805.03,06,10,2011,00,00*6F
$GPRMC,121805.00,A,4611.965212,N,01258.208886,E,001.3,136.4,061011,0.2,E,A*36
$GPGGA,121806.00,4611.96491,A,A*62
$GPVTG,175.6,T,175.8,M,001.2,N,002.2,K,A*2E
$GPGSV,3,1,10,05,13,038,30,16,31,309,39,31,28,221,38,18,17,148,*70
$GPGSV,3,2,10,29,42,074,39,30,52,156,36,21,75,165,32,25,15,138,*75
$GPGSV,3,3,10,03,12,278,29,06,27,277,37,,,,,,,,*7B
$GPGSA,M,3,16,31,29,30,21,06,,,,,,,3.4,1.4,3.1*36
Trace #96 at position 23.750000
$GPZDA,121806.03,06,10,2011,00,00*6C
$GPRMC,121806.00,A,4611.964916,N,01258.209063,E,001.2,175.6,061011,0.2,E,A*3D
$GPGGA,121807.00,4611.964607,N,01258.209187,E,1,06,1.4,136.08,M,46.25,M,,*68
$GPGLL,4611.964607,N,012V,3,1,10,05,13,038,31,16,31,309,37,31,28,221,38,18,17,148,*7F
$GPGSV,3,2,10,29,42,074,40,30,52,156,36,21,75,165,33,25,15,138,*7A
$GPGSV,3,3,10,03,12,278,30,06,27,277,37,,,,,,,,*73
$GPGSA,M,3,16,31,29,30,21,06,,,,,,,3.4,1.4,3.1*36
Trace #97 at position 24.000000
$GPZDA,121807.03,06,10,2011,00,00*6D
$GPRMC,121807.00,A,4611.964607,N,01258.209187,E,001.2,149.6,061011,0.2,E,A*37
$GPGGA,121808.00,4611.964376,N,01258.209355,E,1,06,1.4,136.04,M,46.25,M,,*65
$GPGLL,4611.964376,N,01258.209355,E,121808.00,A,A*66
$GPVTG,145.1,T,145.2,M,000.7,,06,27,277,37,,,,,,,,*72
$GPGSA,M,3,16,31,29,30,21,06,,,,,,,3.4,1.4,3.1*36
Trace #98 at position 24.250000
$GPZDA,121807.03,06,10,2011,00,00*6D
$GPRMC,121807.00,A,4611.964607,N,01258.209187,E,001.2,149.6,061011,0.2,E,A*37
$GPGGA,121808.00,4611.964376,N,01258.209355,E,1,06,1.4,136.04,M,46.25,M,,*65
$GPGLL,4611.964376,N,01258.209355,E,121808.00,A,A*66
$GPVTG,145.1,T,145.2,M,000.7,,06,27,277,37,,,,,,,,*72
$GPGSA,M,3,16,31,29,30,21,06,,,,,,,3.4,1.4,3.1*36
Trace #99 at position 24.500000
$GPZDA,121811.04,06,10,2011,00,00*6D$GPGGA,121812.00,4611.963453,N,01258.209962,E,1,06,1.4,135.71,M,46.25,M,,*66
$GPGLL,4611.963453,N,01258.209962,E,121812.00,A,A*64
$GPVTG,148.3,T,148.4,M,000.5,N,001.0,K,A*20
$GPGSV,3,1,10,05,13,038,28,16,32,309,39,31,28,221,36,18,18,148,*7B
$GPGSV,3,2,10,29,42,074,40,30,52,156,32,21,75,165,32,25,15,138,*7F
$GPGSV,3,3,10,03,12,278,28,06,27,277,36,,,,,,,,*7B
$GPGSA,M,3,16,31,29,30,21,06,,,,,,,3.4,1.4,3.1*36
Trace #100 at position 24.750000
$GPZDA,121812.03,06,10,2011,00,00*69
$GPRMC,121812.00,A,4611.963453,N,01258.209962,E,000.5,148.$GPGGA,121813.00,4611.963224,N,01258.209996,E,1,05,1.5,135.82,M,46.25,M,,*64
$GPGLL,4611.963224,N,01258.209996,E,121813.00,A,A*68
$GPVTG,174.2,T,174.4,M,001.1,N,002.0,K,A*27
$GPGSV,3,1,10,05,13,038,32,16,32,309,40,31,28,221,35,18,18,148,*7D
$GPGSV,3,2,10,29,42,074,39,30,52,156,30,21,75,165,32,25,15,138,*73
$GPGSV,3,3,10,03,12,278,29,06,27,277,36,,,,,,,,*7A
$GPGSA,M,3,16,31,29,21,06,,,,,,,,3.5,1.5,3.1*35
Trace #101 at position 25.000000
$GPZDA,121812.03,06,10,2011,00,00*69
$GPRMC,121812.00,A,4611.963453,N,01258.209962,E,000.5,148.$GPGGA,121813.00,4611.963224,N,01258.209996,E,1,05,1.5,135.82,M,46.25,M,,*64
$GPGLL,4611.963224,N,01258.209996,E,121813.00,A,A*68
$GPVTG,174.2,T,174.4,M,001.1,N,002.0,K,A*27
$GPGSV,3,1,10,05,13,038,32,16,32,309,40,31,28,221,35,18,18,148,*7D
$GPGSV,3,2,10,29,42,074,39,30,52,156,30,21,75,165,32,25,15,138,*73
$GPGSV,3,3,10,03,12,278,29,06,27,277,36,,,,,,,,*7A
$GPGSA,M,3,16,31,29,21,06,,,,,,,,3.5,1.5,3.1*35
Trace #102 at position 25.250000
$GPZDA,121813.04,06,10,2011,00,00*6F
$GPRMC,121813.00,A,4611.963224,N,01258.209996,E,001.1,174.2,$GPGGA,121814.00,4611.962958,N,01258.209987,E,1,04,1.6,135.78,M,46.25,M,,*65
$GPGLL,4611.962958,N,01258.209987,E,121814.00,A,A*6E
$GPVTG,163.4,T,163.6,M,000.8,N,001.5,K,A*2D
$GPGSV,3,1,10,05,13,038,,16,32,309,38,31,28,221,40,18,18,148,*71
$GPGSV,3,2,10,29,42,074,38,30,52,156,27,21,75,165,32,25,15,138,*74
$GPGSV,3,3,10,03,12,278,,06,27,277,27,,,,,,,,*71
$GPGSA,M,3,16,31,29,21,,,,,,,,,3.5,1.6,3.1*30
Trace #103 at position 25.500000
$GPZDA,121813.04,06,10,2011,00,00*6F
$GPRMC,121813.00,A,4611.963224,N,01258.209996,E,001.1,174.2,$GPGGA,121814.00,4611.962958,N,01258.209987,E,1,04,1.6,135.78,M,46.25,M,,*65
$GPGLL,4611.962958,N,01258.209987,E,121814.00,A,A*6E
$GPVTG,163.4,T,163.6,M,000.8,N,001.5,K,A*2D
$GPGSV,3,1,10,05,13,038,,16,32,309,38,31,28,221,40,18,18,148,*71
$GPGSV,3,2,10,29,42,074,38,30,52,156,27,21,75,165,32,25,15,138,*74
$GPGSV,3,3,10,03,12,278,,06,27,277,27,,,,,,,,*71
$GPGSA,M,3,16,31,29,21,,,,,,,,,3.5,1.6,3.1*30
Trace #104 at position 25.750000
$GPZDA,121813.04,06,10,2011,00,00*6F
$GPRMC,121813.00,A,4611.963224,N,01258.209996,E,001.1,174.2,$GPGGA,121814.00,4611.962958,N,01258.209987,E,1,04,1.6,135.78,M,46.25,M,,*65
$GPGLL,4611.962958,N,01258.209987,E,121814.00,A,A*6E
$GPVTG,163.4,T,163.6,M,000.8,N,001.5,K,A*2D
$GPGSV,3,1,10,05,13,038,,16,32,309,38,31,28,221,40,18,18,148,*71
$GPGSV,3,2,10,29,42,074,38,30,52,156,27,21,75,165,32,25,15,138,*74
$GPGSV,3,3,10,03,12,278,,06,27,277,27,,,,,,,,*71
$GPGSA,M,3,16,31,29,21,,,,,,,,,3.5,1.6,3.1*30
Trace #105 at position 26.000000
$GPZDA,121814.03,06,10,2011,00,00*6F
$GPRMC,121814.00,A,4611.962958,N,01258.209987,E,000.8,163.4,061011$GPGGA,121815.00,4611.962811,N,01258.210059,E,1,04,1.6,135.68,M,46.25,M,,*6B
$GPGLL,4611.962811,N,01258.210059,E,121815.00,A,A*61
$GPVTG,112.2,T,112.4,M,000.6,N,001.0,K,A*22
$GPGSV,3,1,10,05,13,038,31,16,32,309,39,31,28,221,40,18,18,148,*72
$GPGSV,3,2,10,29,42,074,38,30,52,156,,21,75,165,31,25,14,138,*73
$GPGSV,3,3,10,03,12,278,,06,27,277,29,,,,,,,,*7F
$GPGSA,M,3,16,31,29,21,,,,,,,,,3.5,1.6,3.1*30
Trace #106 at position 26.250000
$GPZDA,121814.03,06,10,2011,00,00*6F
$GPRMC,121814.00,A,4611.962958,N,01258.209987,E,000.8,163.4,061011$GPGGA,121815.00,4611.962811,N,01258.210059,E,1,04,1.6,135.68,M,46.25,M,,*6B
$GPGLL,4611.962811,N,01258.210059,E,121815.00,A,A*61
$GPVTG,112.2,T,112.4,M,000.6,N,001.0,K,A*22
$GPGSV,3,1,10,05,13,038,31,16,32,309,39,31,28,221,40,18,18,148,*72
$GPGSV,3,2,10,29,42,074,38,30,52,156,,21,75,165,31,25,14,138,*73
$GPGSV,3,3,10,03,12,278,,06,27,277,29,,,,,,,,*7F
$GPGSA,M,3,16,31,29,21,,,,,,,,,3.5,1.6,3.1*30
Trace #107 at position 26.500000
$GPZDA,121815.03,06,10,2011,00,00*6E
$GPRMC,121815.00,A,4611.962811,N,01258.210059,E,000.6,112.2,061011$GPGGA,,,,,,0,03,,,M,,M,,*65
$GPGLL,,,,,,V,N*64
$GPVTG,,T,,,,N,,K,N*61
$GPGSV,3,1,10,05,13,038,30,16,32,309,36,31,28,221,38,18,18,148,*73
$GPGSV,3,2,10,29,42,074,39,30,52,156,,21,75,165,29,25,14,138,*7B
$GPGSV,3,3,10,03,12,278,,06,27,277,28,,,,,,,,*7E
$GPGSA,M,1,,,,,,,,,,,,,3.5,1.6,3.1*3F
Trace #108 at position 26.750000
$GPZDA,121816.02,06,10,2011,00,00*6C
$GPRMC,121815.00,V,,,,,,,,,,N*73
$GPGGA,121817.00,4611.962744,N,01258.210120,E,1,04,1.4,136.05,M,46.25,M,,*63
$GPGLL,4611.962744,N,01258.210120,E,121817.00,A,A*63
$GPVTG,329.4,T,329.6,M,000.0,N,000.1,K,A*20
$GPGSV,3,1,10,05,13,038,33,16,32,309,37,31,28,221,38,18,18,148,*71
$GPGSV,3,2,10,29,42,074,39,30,52,156,,21,75,165,32,25,14,138,*71
$GPGSV,3,3,10,03,12,278,,06,28,277,29,,,,,,,,*70
$GPGSA,M,3,05,16,31,29,,,,,,,,,3.6,1.4,3.3*35
Trace #109 at position 27.000000
$GPZDA,121816.02,06,10,2011,00,00*6C
$GPRMC,121815.00,V,,,,,,,,,,N*73
$GPGGA,121817.00,4611.962744,N,01258.210120,E,1,04,1.4,136.05,M,46.25,M,,*63
$GPGLL,4611.962744,N,01258.210120,E,121817.00,A,A*63
$GPVTG,329.4,T,329.6,M,000.0,N,000.1,K,A*20
$GPGSV,3,1,10,05,13,038,33,16,32,309,37,31,28,221,38,18,18,148,*71
$GPGSV,3,2,10,29,42,074,39,30,52,156,,21,75,165,32,25,14,138,*71
$GPGSV,3,3,10,03,12,278,,06,28,277,29,,,,,,,,*70
$GPGSA,M,3,05,16,31,29,,,,,,,,,3.6,1.4,3.3*35
Trace #110 at position 27.250000
$GPZDA,121817.03,06,10,2011,00,00*6C
$GPRMC,121817.00,A,4611.962744,N,01258.210120,E,000.0,329.4,061011,0.2,E,A*36
$GPGGA,121818.00,4611.962662,N,01258.209988,E,1,05,1.4,136.23,M,46.25,M,,*6E
$GPGLL,4611.962662,N,01258.209988,E,121818.00,A,A*6B
$GPVTG,184.1,T,184.3,M,000.6,N,001.0,K,A*26
$GPGSV,3,1,10,05,13,038,31,16,32,309,37,31,28,221,38,18,18,148,*73
$GPGSV,3,2,10,29,42,074,38,30,52,156,,21,75,165,34,25,14,138,*76
$GPGSV,3,3,10,03,12,278,,06,28,277,29,,,,,,,,*70
$GPGSA,M,3,05,16,31,29,21,,,,,,,,2.6,1.4,2.1*34
Trace #111 at position 27.500000
$GPZDA,121817.03,06,10,2011,00,00*6C
$GPRMC,121817.00,A,4611.962744,N,01258.210120,E,000.0,329.4,061011,0.2,E,A*36
$GPGGA,121818.00,4611.962662,N,01258.209988,E,1,05,1.4,136.23,M,46.25,M,,*6E
$GPGLL,4611.962662,N,01258.209988,E,121818.00,A,A*6B
$GPVTG,184.1,T,184.3,M,000.6,N,001.0,K,A*26
$GPGSV,3,1,10,05,13,038,31,16,32,309,37,31,28,221,38,18,18,148,*73
$GPGSV,3,2,10,29,42,074,38,30,52,156,,21,75,165,34,25,14,138,*76
$GPGSV,3,3,10,03,12,278,,06,28,277,29,,,,,,,,*70
$GPGSA,M,3,05,16,31,29,21,,,,,,,,2.6,1.4,2.1*34
Trace #112 at position 27.750000
$GPZDA,121818.04,06,10,2011,00,00*64
$GPRMC,121818.00,A,4611.962662,N,01258.209988,E,000.6,184.1,061011,0.2,E,A*38
$GPGGA,121819.00,4611.962452,N,01258.209886,E,1,04,1.6,136.20,M,46.25,M,,*61
$GPGLL,4611.962452,N,01258.209886,E,121819.00,A,A*64
$GPVTG,194.1,T,194.3,M,001.0,N,001.8,K,A*29
$GPGSV,3,1,10,05,13,038,28,16,32,309,35,31,28,221,39,18,18,148,*78
$GPGSV,3,2,10,29,42,074,39,30,52,156,,21,75,165,33,25,14,138,*70
$GPGSV,3,3,10,03,12,278,,06,28,277,,,,,,,,,*7B
$GPGSA,M,3,16,31,29,21,,,,,,,,,3.5,1.6,3.1*30
