Trace #1 at position 0.000000
$GPZDA,083923.04,09,10,2011,00,00*6B
$GPRMC,083923.00,A,4611.978494,N,01258.216895,E,000.1,289.7,091$GPGGA,083924.00,4611.978488,N,01258.216869,E,1,07,1.5,140.39,M,46.25,M,,*6D
$GPGLL,4611.978488,N,01258.216869,E,083924.00,A,A*61
$GPVTG,128.7,T,128.9,M,000.0,N,000.0,K,A*2D
$GPGSV,3,1,09,02,38,087,39,04,17,043,37,09,26,149,,12,63,067,40*7D
$GPGSV,3,2,09,14,32,260,43,25,72,315,50,29,45,219,44,30,27,286,43*7B
$GPGSV,3,3,09,31,19,314,42,,,,,,,,,,,,*4A
$GPGSA,M,3,04,12,14,25,29,30,31,,,,,,2.5,1.5,2.0*30
Trace #2 at position 0.250000
$GPZDA,083926.03,09,10,2011,00,00*69
$GPRMC,083926.00,A,4611.978476,N,01258.216682,E,000.0,51.0,091011,0.2$GPGGA,083927.00,4611.978478,N,01258.216625,E,1,07,1.4,140.56,M,46.25,M,,*6F
$GPGLL,4611.978478,N,01258.216625,E,083927.00,A,A*6B
$GPVTG,237.3,T,237.5,M,000.1,N,000.3,K,A*27
$GPGSV,3,1,09,02,38,087,41,04,17,043,38,09,26,149,,12,63,067,40*7D
$GPGSV,3,2,09,14,32,260,42,25,72,315,49,29,45,219,45,30,27,286,42*72
$GPGSV,3,3,09,31,19,314,41,,,,,,,,,,,,*49
$GPGSA,M,3,02,12,14,25,29,30,31,,,,,,2.7,1.4,2.3*36
Trace #3 at position 0.500000
$GPZDA,083926.03,09,10,2011,00,00*69
$GPRMC,083926.00,A,4611.978476,N,01258.216682,E,000.0,51.0,091011,0.2$GPGGA,083927.00,4611.978478,N,01258.216625,E,1,07,1.4,140.56,M,46.25,M,,*6F
$GPGLL,4611.978478,N,01258.216625,E,083927.00,A,A*6B
$GPVTG,237.3,T,237.5,M,000.1,N,000.3,K,A*27
$GPGSV,3,1,09,02,38,087,41,04,17,043,38,09,26,149,,12,63,067,40*7D
$GPGSV,3,2,09,14,32,260,42,25,72,315,49,29,45,219,45,30,27,286,42*72
$GPGSV,3,3,09,31,19,314,41,,,,,,,,,,,,*49
$GPGSA,M,3,02,12,14,25,29,30,31,,,,,,2.7,1.4,2.3*36
Trace #4 at position 0.750000
$GPZDA,083927.04,09,10,2011,00,00*6F
$GPRMC,083927.00,A,4611.978478,N,01258.216625,E,000.1,237.3,0911258.216571,E,1,07,1.4,140.67,M,46.25,M,,*66
$GPGLL,4611.978481,N,01258.216571,E,083928.00,A,A*60
$GPVTG,346.4,T,346.5,M,000.0,N,000.1,K,A*23
$GPGSV,3,1,09,02,38,087,43,04,17,043,38,09,26,149,30,12,63,067,40*7C
$GPGSV,3,2,09,14,32,260,42,25,72,315,50,29,45,219,45,30,27,286,43*7B
$GPGSV,3,3,09,31,19,314,41,,,,,,,,,,,,*49
$GPGSA,M,3,02,12,14,25,29,30,31,,,,,,2.7,1.4,2.3*36
Trace #5 at position 1.000000
$GPZDA,083927.04,09,10,2011,00,00*6F
$GPRMC,083927.00,A,4611.978478,N,01258.216625,E,000.1,237.3,0911258.216571,E,1,07,1.4,140.67,M,46.25,M,,*66
$GPGLL,4611.978481,N,01258.216571,E,083928.00,A,A*60
$GPVTG,346.4,T,346.5,M,000.0,N,000.1,K,A*23
$GPGSV,3,1,09,02,38,087,43,04,17,043,38,09,26,149,30,12,63,067,40*7C
$GPGSV,3,2,09,14,32,260,42,25,72,315,50,29,45,219,45,30,27,286,43*7B
$GPGSV,3,3,09,31,19,314,41,,,,,,,,,,,,*49
$GPGSA,M,3,02,12,14,25,29,30,31,,,,,,2.7,1.4,2.3*36
Trace #6 at position 1.250000
$GPZDA,083928.04,09,10,2011,00,00*60
$GPRMC,083928.00,A,4611.978481,N,01258.216571,E,000.0,346.4,091011,0.2,E,A*33
$GPGGA,083929.02,N,01258.216550,E,083929.00,A,A*68
$GPVTG,7.0,T,7.1,M,000.1,N,000.1,K,A*22
$GPGSV,3,1,09,02,38,087,41,04,17,043,38,09,26,149,31,12,63,067,40*7F
$GPGSV,3,2,09,14,32,260,42,25,72,315,49,29,45,219,46,30,27,286,42*71
$GPGSV,3,3,09,31,19,314,41,,,,,,,,,,,,*49
$GPGSA,M,3,02,12,14,25,29,30,31,,,,,,2.7,1.4,2.3*36
Trace #7 at position 1.500000
$GPZDA,083928.04,09,10,2011,00,00*60
$GPRMC,083928.00,A,4611.978481,N,01258.216571,E,000.0,346.4,091011,0.2,E,A*33
$GPGGA,083929.02,N,01258.216550,E,083929.00,A,A*68
$GPVTG,7.0,T,7.1,M,000.1,N,000.1,K,A*22
$GPGSV,3,1,09,02,38,087,41,04,17,043,38,09,26,149,31,12,63,067,40*7F
$GPGSV,3,2,09,14,32,260,42,25,72,315,49,29,45,219,46,30,27,286,42*71
$GPGSV,3,3,09,31,19,314,41,,,,,,,,,,,,*49
$GPGSA,M,3,02,12,14,25,29,30,31,,,,,,2.7,1.4,2.3*36
Trace #8 at position 1.750000
$GPZDA,083928.04,09,10,2011,00,00*60
$GPRMC,083928.00,A,4611.978481,N,01258.216571,E,000.0,346.4,091011,0.2,E,A*33
$GPGGA,083929.02,N,01258.216550,E,083929.00,A,A*68
$GPVTG,7.0,T,7.1,M,000.1,N,000.1,K,A*22
$GPGSV,3,1,09,02,38,087,41,04,17,043,38,09,26,149,31,12,63,067,40*7F
$GPGSV,3,2,09,14,32,260,42,25,72,315,49,29,45,219,46,30,27,286,42*71
$GPGSV,3,3,09,31,19,314,41,,,,,,,,,,,,*49
$GPGSA,M,3,02,12,14,25,29,30,31,,,,,,2.7,1.4,2.3*36
Trace #9 at position 2.000000
$GPZDA,083929.04,09,10,2011,00,00*61
$GPRMC,083929.00,A,4611.978502,N,01258.216550,E,000.1,7.0,091011,0.2,E,A*38
$GPGGA,083930.00,4611.978515,N,01258.216539,E,1,08,1.3,140.77,M,46.25,M,,*66
$GPG09,14,32,260,43,25,72,316,50,29,45,219,45,30,27,286,41*7B
$GPGSV,3,3,09,31,19,314,42,,,,,,,,,,,,*4A
$GPGSA,M,3,02,04,12,14,25,29,30,31,,,,,2.3,1.3,1.9*38
Trace #10 at position 2.250000
$GPZDA,083929.04,09,10,2011,00,00*61
$GPRMC,083929.00,A,4611.978502,N,01258.216550,E,000.1,7.0,091011,0.2,E,A*38
$GPGGA,083930.00,4611.978515,N,01258.216539,E,1,08,1.3,140.77,M,46.25,M,,*66
$GPG09,14,32,260,43,25,72,316,50,29,45,219,45,30,27,286,41*7B
$GPGSV,3,3,09,31,19,314,42,,,,,,,,,,,,*4A
$GPGSA,M,3,02,04,12,14,25,29,30,31,,,,,2.3,1.3,1.9*38
Trace #11 at position 2.500000
$GPZDA,083929.04,09,10,2011,00,00*61
$GPRMC,083929.00,A,4611.978502,N,01258.216550,E,000.1,7.0,091011,0.2,E,A*38
$GPGGA,083930.00,4611.978515,N,01258.216539,E,1,08,1.3,140.77,M,46.25,M,,*66
$GPG09,14,32,260,43,25,72,316,50,29,45,219,45,30,27,286,41*7B
$GPGSV,3,3,09,31,19,314,42,,,,,,,,,,,,*4A
$GPGSA,M,3,02,04,12,14,25,29,30,31,,,,,2.3,1.3,1.9*38
Trace #12 at position 2.750000
$GPZDA,083929.04,09,10,2011,00,00*61
$GPRMC,083929.00,A,4611.978502,N,01258.216550,E,000.1,7.0,091011,0.2,E,A*38
$GPGGA,083930.00,4611.978515,N,01258.216539,E,1,08,1.3,140.77,M,46.25,M,,*66
$GPG09,14,32,260,43,25,72,316,50,29,45,219,45,30,27,286,41*7B
$GPGSV,3,3,09,31,19,314,42,,,,,,,,,,,,*4A
$GPGSA,M,3,02,04,12,14,25,29,30,31,,,,,2.3,1.3,1.9*38
Trace #13 at position 3.000000
$GPZDA,083929.04,09,10,2011,00,00*61
$GPRMC,083929.00,A,4611.978502,N,01258.216550,E,000.1,7.0,091011,0.2,E,A*38
$GPGGA,083930.00,4611.978515,N,01258.216539,E,1,08,1.3,140.77,M,46.25,M,,*66
$GPG09,14,32,260,43,25,72,316,50,29,45,219,45,30,27,286,41*7B
$GPGSV,3,3,09,31,19,314,42,,,,,,,,,,,,*4A
$GPGSA,M,3,02,04,12,14,25,29,30,31,,,,,2.3,1.3,1.9*38
Trace #14 at position 3.250000
$GPZDA,083929.04,09,10,2011,00,00*61
$GPRMC,083929.00,A,4611.978502,N,01258.216550,E,000.1,7.0,091011,0.2,E,A*38
$GPGGA,083930.00,4611.978515,N,01258.216539,E,1,08,1.3,140.77,M,46.25,M,,*66
$GPG09,14,32,260,43,25,72,316,50,29,45,219,45,30,27,286,41*7B
$GPGSV,3,3,09,31,19,314,42,,,,,,,,,,,,*4A
$GPGSA,M,3,02,04,12,14,25,29,30,31,,,,,2.3,1.3,1.9*38
Trace #15 at position 3.500000
$GPZDA,083930.04,09,10,2011,00,00*69
$GPRMC,083930.00,A,4611.978515,N,01258.216539,E,000.1,244.3,091011,0.2,E,A*3F
$GPGGA,083931.00,4611.978523,N,01258.216526,E,1,08,1.3,140.79,M,46.25,M,,*62
$GPGLL,4611.978523,N,01258.216526,E,083931.00,A,A*63
$GPVTG,340.6,T,340.7,M,000.0,N,000.1,K,A*23
$GPGSV,3,1,09,02,38,087,41,04,17,043,38,09,26,149,32,12,63,06,2.3,1.3,1.9*38
$GPZDA,083931.04,09,10,2011,00,00*68
$GPRMC,083931.00,A,4611.978523,N,01258.216526,E,000.0,340.6,091011,0.2,E,A*34
$GPGGA,083932.00,4611.978531,N,01258.216536,E,1,08,1.3,140.78,M,46.25,M,,*62
$GPGLL,4611.978531,N,01258.216536,E,083932.00,A,A*62
$GPVTG,132.8,T,133.0,M,000.0,N,000.1,K,A*2B
$GPGSV,3,1,09,02,38,087,41,04,17,043,39,09,26,149,32,12,62,067,41*7D
$GPGSV,3,2,09,14,32,260,41,25,72,316,48,29,45,219,44,30,27,286,42*72
$GPGSV,3,3,09,31,19,314,40,,,,,,,,,,,,*48
$GPGSA,M,3,02,04,1C,083932.00,A,4611.978531,N,01258.216536,E,000.0,132.8,091011,0.2,E,A*3C
Trace #16 at position 3.750000
$GPZDA,083930.04,09,10,2011,00,00*69
$GPRMC,083930.00,A,4611.978515,N,01258.216539,E,000.1,244.3,091011,0.2,E,A*3F
$GPGGA,083931.00,4611.978523,N,01258.216526,E,1,08,1.3,140.79,M,46.25,M,,*62
$GPGLL,4611.978523,N,01258.216526,E,083931.00,A,A*63
$GPVTG,340.6,T,340.7,M,000.0,N,000.1,K,A*23
$GPGSV,3,1,09,02,38,087,41,04,17,043,38,09,26,149,32,12,63,06,2.3,1.3,1.9*38
$GPZDA,083931.04,09,10,2011,00,00*68
$GPRMC,083931.00,A,4611.978523,N,01258.216526,E,000.0,340.6,091011,0.2,E,A*34
$GPGGA,083932.00,4611.978531,N,01258.216536,E,1,08,1.3,140.78,M,46.25,M,,*62
$GPGLL,4611.978531,N,01258.216536,E,083932.00,A,A*62
$GPVTG,132.8,T,133.0,M,000.0,N,000.1,K,A*2B
$GPGSV,3,1,09,02,38,087,41,04,17,043,39,09,26,149,32,12,62,067,41*7D
$GPGSV,3,2,09,14,32,260,41,25,72,316,48,29,45,219,44,30,27,286,42*72
$GPGSV,3,3,09,31,19,314,40,,,,,,,,,,,,*48
$GPGSA,M,3,02,04,1C,083932.00,A,4611.978531,N,01258.216536,E,000.0,132.8,091011,0.2,E,A*3C
Trace #17 at position 4.000000
$GPZDA,083930.04,09,10,2011,00,00*69
$GPRMC,083930.00,A,4611.978515,N,01258.216539,E,000.1,244.3,091011,0.2,E,A*3F
$GPGGA,083931.00,4611.978523,N,01258.216526,E,1,08,1.3,140.79,M,46.25,M,,*62
$GPGLL,4611.978523,N,01258.216526,E,083931.00,A,A*63
$GPVTG,340.6,T,340.7,M,000.0,N,000.1,K,A*23
$GPGSV,3,1,09,02,38,087,41,04,17,043,38,09,26,149,32,12,63,06,2.3,1.3,1.9*38
$GPZDA,083931.04,09,10,2011,00,00*68
$GPRMC,083931.00,A,4611.978523,N,01258.216526,E,000.0,340.6,091011,0.2,E,A*34
$GPGGA,083932.00,4611.978531,N,01258.216536,E,1,08,1.3,140.78,M,46.25,M,,*62
$GPGLL,4611.978531,N,01258.216536,E,083932.00,A,A*62
$GPVTG,132.8,T,133.0,M,000.0,N,000.1,K,A*2B
$GPGSV,3,1,09,02,38,087,41,04,17,043,39,09,26,149,32,12,62,067,41*7D
$GPGSV,3,2,09,14,32,260,41,25,72,316,48,29,45,219,44,30,27,286,42*72
$GPGSV,3,3,09,31,19,314,40,,,,,,,,,,,,*48
$GPGSA,M,3,02,04,1C,083932.00,A,4611.978531,N,01258.216536,E,000.0,132.8,091011,0.2,E,A*3C
Trace #18 at position 4.250000
$GPGGA,083933.00,4611.978468,N,01258.216578,E,1,08,1.3,140.72,M,46.25,M,,*6E
$GPGLL,4611.978468,N,01258.216578,E,083933.00,A,A*64
$GPVTG,163.0,T,163.2,M,000.5,N,000.9,K,A*2D
$GPGSV,3,1,09,02,38,087,39,04,17,043,39,09,26,149,37,12,62,067,44*72
$GPGSV,3,2,09,14,32,260,42,25,72,316,48,29,45,219,42,30,27,286,41*74
$GPGSV,3,3,09,31,19,314,40,,,,,,,,,,,,*48
$GPGSA,M,3,02,04,12,14,25,29,30,31,,,,,2.3,1.3,1.9*38
Trace #19 at position 4.500000
$GPGGA,083933.00,4611.978468,N,01258.216578,E,1,08,1.3,140.72,M,46.25,M,,*6E
$GPGLL,4611.978468,N,01258.216578,E,083933.00,A,A*64
$GPVTG,163.0,T,163.2,M,000.5,N,000.9,K,A*2D
$GPGSV,3,1,09,02,38,087,39,04,17,043,39,09,26,149,37,12,62,067,44*72
$GPGSV,3,2,09,14,32,260,42,25,72,316,48,29,45,219,42,30,27,286,41*74
$GPGSV,3,3,09,31,19,314,40,,,,,,,,,,,,*48
$GPGSA,M,3,02,04,12,14,25,29,30,31,,,,,2.3,1.3,1.9*38
Trace #20 at position 4.750000
$GPGGA,083933.00,4611.978468,N,01258.216578,E,1,08,1.3,140.72,M,46.25,M,,*6E
$GPGLL,4611.978468,N,01258.216578,E,083933.00,A,A*64
$GPVTG,163.0,T,163.2,M,000.5,N,000.9,K,A*2D
$GPGSV,3,1,09,02,38,087,39,04,17,043,39,09,26,149,37,12,62,067,44*72
$GPGSV,3,2,09,14,32,260,42,25,72,316,48,29,45,219,42,30,27,286,41*74
$GPGSV,3,3,09,31,19,314,40,,,,,,,,,,,,*48
$GPGSA,M,3,02,04,12,14,25,29,30,31,,,,,2.3,1.3,1.9*38
Trace #21 at position 5.000000
$GPZDA,083933.04,09,10,00.5,163.0,091011,0.2,E,A*33
$GPGGA,083934.00,4611.978298,N,01258.216682,E,1,08,1.3,140.71,M,46.25,M,,*65
$GPGLL,4611.978298,N,01258.216682,E,083934.00,A,A*6C
$GPVTG,156.7,T,156.9,M,000.8,N,001.5,K,A*21
$GPGSV,3,1,09,02,38,087,37,04,17,043,41,09,26,149,34,12,62,067,45*71
$GPGSV,3,2,09,14,32,260,43,25,72,316,49,29,45,219,44,30,27,286,42*71
$GPGSV,3,3,09,31,19,314,40,,,,,,,,,,,,*48
$GPGSA,M,3,02,04,12,14,25,29,30,31,,,,,2.3,1.3,1.9*38
Trace #22 at position 5.250000
$GPZDA,083933.04,09,10,00.5,163.0,091011,0.2,E,A*33
$GPGGA,083934.00,4611.978298,N,01258.216682,E,1,08,1.3,140.71,M,46.25,M,,*65
$GPGLL,4611.978298,N,01258.216682,E,083934.00,A,A*6C
$GPVTG,156.7,T,156.9,M,000.8,N,001.5,K,A*21
$GPGSV,3,1,09,02,38,087,37,04,17,043,41,09,26,149,34,12,62,067,45*71
$GPGSV,3,2,09,14,32,260,43,25,72,316,49,29,45,219,44,30,27,286,42*71
$GPGSV,3,3,09,31,19,314,40,,,,,,,,,,,,*48
$GPGSA,M,3,02,04,12,14,25,29,30,31,,,,,2.3,1.3,1.9*38
Trace #23 at position 5.500000
$GPZDA,083933.04,09,10,00.5,163.0,091011,0.2,E,A*33
$GPGGA,083934.00,4611.978298,N,01258.216682,E,1,08,1.3,140.71,M,46.25,M,,*65
$GPGLL,4611.978298,N,01258.216682,E,083934.00,A,A*6C
$GPVTG,156.7,T,156.9,M,000.8,N,001.5,K,A*21
$GPGSV,3,1,09,02,38,087,37,04,17,043,41,09,26,149,34,12,62,067,45*71
$GPGSV,3,2,09,14,32,260,43,25,72,316,49,29,45,219,44,30,27,286,42*71
$GPGSV,3,3,09,31,19,314,40,,,,,,,,,,,,*48
$GPGSA,M,3,02,04,12,14,25,29,30,31,,,,,2.3,1.3,1.9*38
Trace #24 at position 5.750000
$GPZDA,083933.04,09,10,00.5,163.0,091011,0.2,E,A*33
$GPGGA,083934.00,4611.978298,N,01258.216682,E,1,08,1.3,140.71,M,46.25,M,,*65
$GPGLL,4611.978298,N,01258.216682,E,083934.00,A,A*6C
$GPVTG,156.7,T,156.9,M,000.8,N,001.5,K,A*21
$GPGSV,3,1,09,02,38,087,37,04,17,043,41,09,26,149,34,12,62,067,45*71
$GPGSV,3,2,09,14,32,260,43,25,72,316,49,29,45,219,44,30,27,286,42*71
$GPGSV,3,3,09,31,19,314,40,,,,,,,,,,,,*48
$GPGSA,M,3,02,04,12,14,25,29,30,31,,,,,2.3,1.3,1.9*38
Trace #25 at position 6.000000
$GPZDA,083934.04,09,10,2011,00,00*6D
$GPRMC,083934.00,A,4611.97829$GPGGA,083935.00,4611.978061,N,01258.216980,E,1,08,1.3,140.72,M,46.25,M,,*6E
$GPGLL,4611.978061,N,01258.216980,E,083935.00,A,A*64
$GPVTG,127.4,T,127.5,M,001.5,N,002.8,K,A*2C
$GPGSV,3,1,09,02,38,087,37,04,17,043,40,09,26,149,37,12,62,067,42*74
$GPGSV,3,2,09,14,32,260,42,25,72,316,47,29,45,219,43,30,27,286,42*79
$GPGSV,3,3,09,31,19,314,40,,,,,,,,,,,,*48
$GPGSA,M,3,02,04,12,14,25,29,30,31,,,,,2.3,1.3,1.9*38
Trace #26 at position 6.250000
$GPZDA,083934.04,09,10,2011,00,00*6D
$GPRMC,083934.00,A,4611.97829$GPGGA,083935.00,4611.978061,N,01258.216980,E,1,08,1.3,140.72,M,46.25,M,,*6E
$GPGLL,4611.978061,N,01258.216980,E,083935.00,A,A*64
$GPVTG,127.4,T,127.5,M,001.5,N,002.8,K,A*2C
$GPGSV,3,1,09,02,38,087,37,04,17,043,40,09,26,149,37,12,62,067,42*74
$GPGSV,3,2,09,14,32,260,42,25,72,316,47,29,45,219,43,30,27,286,42*79
$GPGSV,3,3,09,31,19,314,40,,,,,,,,,,,,*48
$GPGSA,M,3,02,04,12,14,25,29,30,31,,,,,2.3,1.3,1.9*38
Trace #27 at position 6.500000
$GPZDA,083934.04,09,10,2011,00,00*6D
$GPRMC,083934.00,A,4611.97829$GPGGA,083935.00,4611.978061,N,01258.216980,E,1,08,1.3,140.72,M,46.25,M,,*6E
$GPGLL,4611.978061,N,01258.216980,E,083935.00,A,A*64
$GPVTG,127.4,T,127.5,M,001.5,N,002.8,K,A*2C
$GPGSV,3,1,09,02,38,087,37,04,17,043,40,09,26,149,37,12,62,067,42*74
$GPGSV,3,2,09,14,32,260,42,25,72,316,47,29,45,219,43,30,27,286,42*79
$GPGSV,3,3,09,31,19,314,40,,,,,,,,,,,,*48
$GPGSA,M,3,02,04,12,14,25,29,30,31,,,,,2.3,1.3,1.9*38
Trace #28 at position 6.750000
$GPZDA,083934.04,09,10,2011,00,00*6D
$GPRMC,083934.00,A,4611.97829$GPGGA,083935.00,4611.978061,N,01258.216980,E,1,08,1.3,140.72,M,46.25,M,,*6E
$GPGLL,4611.978061,N,01258.216980,E,083935.00,A,A*64
$GPVTG,127.4,T,127.5,M,001.5,N,002.8,K,A*2C
$GPGSV,3,1,09,02,38,087,37,04,17,043,40,09,26,149,37,12,62,067,42*74
$GPGSV,3,2,09,14,32,260,42,25,72,316,47,29,45,219,43,30,27,286,42*79
$GPGSV,3,3,09,31,19,314,40,,,,,,,,,,,,*48
$GPGSA,M,3,02,04,12,14,25,29,30,31,,,,,2.3,1.3,1.9*38
Trace #29 at position 7.000000
$GPZDA,083935.04,09,10,2011,00,00*6C
$GPRMC,083935.00,A,4611.978061,N,01258.216980,E,001.5,127.4$GPGGA,083936.00,4611.977733,N,01258.217321,E,1,08,1.3,140.78,M,46.25,M,,*68
$GPGLL,4611.977733,N,01258.217321,E,083936.00,A,A*68
$GPVTG,153.8,T,154.0,M,001.5,N,002.7,K,A*2D
$GPGSV,3,1,09,02,38,087,38,04,17,043,40,09,26,149,37,12,62,067,43*7A
$GPGSV,3,2,09,14,32,260,42,25,72,316,48,29,45,219,44,30,27,286,41*72
$GPGSV,3,3,09,31,19,314,40,,,,,,,,,,,,*48
$GPGSA,M,3,02,04,12,14,25,29,30,31,,,,,2.3,1.3,1.9*38
Trace #30 at position 7.250000
$GPZDA,083935.04,09,10,2011,00,00*6C
$GPRMC,083935.00,A,4611.978061,N,01258.216980,E,001.5,127.4$GPGGA,083936.00,4611.977733,N,01258.217321,E,1,08,1.3,140.78,M,46.25,M,,*68
$GPGLL,4611.977733,N,01258.217321,E,083936.00,A,A*68
$GPVTG,153.8,T,154.0,M,001.5,N,002.7,K,A*2D
$GPGSV,3,1,09,02,38,087,38,04,17,043,40,09,26,149,37,12,62,067,43*7A
$GPGSV,3,2,09,14,32,260,42,25,72,316,48,29,45,219,44,30,27,286,41*72
$GPGSV,3,3,09,31,19,314,40,,,,,,,,,,,,*48
$GPGSA,M,3,02,04,12,14,25,29,30,31,,,,,2.3,1.3,1.9*38
Trace #31 at position 7.500000
$GPZDA,083935.04,09,10,2011,00,00*6C
$GPRMC,083935.00,A,4611.978061,N,01258.216980,E,001.5,127.4$GPGGA,083936.00,4611.977733,N,01258.217321,E,1,08,1.3,140.78,M,46.25,M,,*68
$GPGLL,4611.977733,N,01258.217321,E,083936.00,A,A*68
$GPVTG,153.8,T,154.0,M,001.5,N,002.7,K,A*2D
$GPGSV,3,1,09,02,38,087,38,04,17,043,40,09,26,149,37,12,62,067,43*7A
$GPGSV,3,2,09,14,32,260,42,25,72,316,48,29,45,219,44,30,27,286,41*72
$GPGSV,3,3,09,31,19,314,40,,,,,,,,,,,,*48
$GPGSA,M,3,02,04,12,14,25,29,30,31,,,,,2.3,1.3,1.9*38
Trace #32 at position 7.750000
$GPZDA,083935.04,09,10,2011,00,00*6C
$GPRMC,083935.00,A,4611.978061,N,01258.216980,E,001.5,127.4$GPGGA,083936.00,4611.977733,N,01258.217321,E,1,08,1.3,140.78,M,46.25,M,,*68
$GPGLL,4611.977733,N,01258.217321,E,083936.00,A,A*68
$GPVTG,153.8,T,154.0,M,001.5,N,002.7,K,A*2D
$GPGSV,3,1,09,02,38,087,38,04,17,043,40,09,26,149,37,12,62,067,43*7A
$GPGSV,3,2,09,14,32,260,42,25,72,316,48,29,45,219,44,30,27,286,41*72
$GPGSV,3,3,09,31,19,314,40,,,,,,,,,,,,*48
$GPGSA,M,3,02,04,12,14,25,29,30,31,,,,,2.3,1.3,1.9*38
Trace #33 at position 8.000000
$GPZDA,083936.04,09,10,2011,00,00*6F
$GPRMC,083936.00,A,4611.977733,N,01258.217321,E,001.5,153.8$GPGGA,083937.00,4611.977286,N,01258.217396,E,1,09,0.9,140.90,M,46.25,M,,*62
$GPGLL,4611.977286,N,01258.217396,E,083937.00,A,A*6E
$GPVTG,182.8,T,183.0,M,002.1,N,003.9,K,A*23
$GPGSV,3,1,09,02,38,087,37,04,17,043,40,09,26,149,40,12,62,067,44*72
$GPGSV,3,2,09,14,32,260,42,25,72,316,47,29,45,219,42,30,27,286,43*79
$GPGSV,3,3,09,31,19,314,41,,,,,,,,,,,,*49
$GPGSA,M,3,02,04,09,12,14,25,29,30,31,,,,1.8,0.9,1.6*3D
Trace #34 at position 8.250000
$GPZDA,083936.04,09,10,2011,00,00*6F
$GPRMC,083936.00,A,4611.977733,N,01258.217321,E,001.5,153.8$GPGGA,083937.00,4611.977286,N,01258.217396,E,1,09,0.9,140.90,M,46.25,M,,*62
$GPGLL,4611.977286,N,01258.217396,E,083937.00,A,A*6E
$GPVTG,182.8,T,183.0,M,002.1,N,003.9,K,A*23
$GPGSV,3,1,09,02,38,087,37,04,17,043,40,09,26,149,40,12,62,067,44*72
$GPGSV,3,2,09,14,32,260,42,25,72,316,47,29,45,219,42,30,27,286,43*79
$GPGSV,3,3,09,31,19,314,41,,,,,,,,,,,,*49
$GPGSA,M,3,02,04,09,12,14,25,29,30,31,,,,1.8,0.9,1.6*3D
Trace #35 at position 8.500000
$GPZDA,083936.04,09,10,2011,00,00*6F
$GPRMC,083936.00,A,4611.977733,N,01258.217321,E,001.5,153.8$GPGGA,083937.00,4611.977286,N,01258.217396,E,1,09,0.9,140.90,M,46.25,M,,*62
$GPGLL,4611.977286,N,01258.217396,E,083937.00,A,A*6E
$GPVTG,182.8,T,183.0,M,002.1,N,003.9,K,A*23
$GPGSV,3,1,09,02,38,087,37,04,17,043,40,09,26,149,40,12,62,067,44*72
$GPGSV,3,2,09,14,32,260,42,25,72,316,47,29,45,219,42,30,27,286,43*79
$GPGSV,3,3,09,31,19,314,41,,,,,,,,,,,,*49
$GPGSA,M,3,02,04,09,12,14,25,29,30,31,,,,1.8,0.9,1.6*3D
Trace #36 at position 8.750000
$GPZDA,083936.04,09,10,2011,00,00*6F
$GPRMC,083936.00,A,4611.977733,N,01258.217321,E,001.5,153.8$GPGGA,083937.00,4611.977286,N,01258.217396,E,1,09,0.9,140.90,M,46.25,M,,*62
$GPGLL,4611.977286,N,01258.217396,E,083937.00,A,A*6E
$GPVTG,182.8,T,183.0,M,002.1,N,003.9,K,A*23
$GPGSV,3,1,09,02,38,087,37,04,17,043,40,09,26,149,40,12,62,067,44*72
$GPGSV,3,2,09,14,32,260,42,25,72,316,47,29,45,219,42,30,27,286,43*79
$GPGSV,3,3,09,31,19,314,41,,,,,,,,,,,,*49
$GPGSA,M,3,02,04,09,12,14,25,29,30,31,,,,1.8,0.9,1.6*3D
Trace #37 at position 9.000000
$GPZDA,083937.04,09,10,2011,00,00*6E
$GPRMC,083937.00,A,4611.977286,N,01258.217396,E,002.1,182$GPGGA,083938.00,4611.976831,N,01258.217397,E,1,09,0.9,140.93,M,46.25,M,,*68
$GPGLL,4611.976831,N,01258.217397,E,083938.00,A,A*67
$GPVTG,173.0,T,173.2,M,001.4,N,002.5,K,A*23
$GPGSV,3,1,09,02,38,087,38,04,16,043,38,09,26,149,40,12,62,068,43*7B
$GPGSV,3,2,09,14,32,260,42,25,72,316,47,29,45,219,42,30,27,286,41*7B
$GPGSV,3,3,09,31,19,314,41,,,,,,,,,,,,*49
$GPGSA,M,3,02,04,09,12,14,25,29,30,31,,,,1.8,0.9,1.6*3D
Trace #38 at position 9.250000
$GPZDA,083937.04,09,10,2011,00,00*6E
$GPRMC,083937.00,A,4611.977286,N,01258.217396,E,002.1,182$GPGGA,083938.00,4611.976831,N,01258.217397,E,1,09,0.9,140.93,M,46.25,M,,*68
$GPGLL,4611.976831,N,01258.217397,E,083938.00,A,A*67
$GPVTG,173.0,T,173.2,M,001.4,N,002.5,K,A*23
$GPGSV,3,1,09,02,38,087,38,04,16,043,38,09,26,149,40,12,62,068,43*7B
$GPGSV,3,2,09,14,32,260,42,25,72,316,47,29,45,219,42,30,27,286,41*7B
$GPGSV,3,3,09,31,19,314,41,,,,,,,,,,,,*49
$GPGSA,M,3,02,04,09,12,14,25,29,30,31,,,,1.8,0.9,1.6*3D
Trace #39 at position 9.500000
$GPZDA,083937.04,09,10,2011,00,00*6E
$GPRMC,083937.00,A,4611.977286,N,01258.217396,E,002.1,182$GPGGA,083938.00,4611.976831,N,01258.217397,E,1,09,0.9,140.93,M,46.25,M,,*68
$GPGLL,4611.976831,N,01258.217397,E,083938.00,A,A*67
$GPVTG,173.0,T,173.2,M,001.4,N,002.5,K,A*23
$GPGSV,3,1,09,02,38,087,38,04,16,043,38,09,26,149,40,12,62,068,43*7B
$GPGSV,3,2,09,14,32,260,42,25,72,316,47,29,45,219,42,30,27,286,41*7B
$GPGSV,3,3,09,31,19,314,41,,,,,,,,,,,,*49
$GPGSA,M,3,02,04,09,12,14,25,29,30,31,,,,1.8,0.9,1.6*3D
Trace #40 at position 9.750000
$GPZDA,083937.04,09,10,2011,00,00*6E
$GPRMC,083937.00,A,4611.977286,N,01258.217396,E,002.1,182$GPGGA,083938.00,4611.976831,N,01258.217397,E,1,09,0.9,140.93,M,46.25,M,,*68
$GPGLL,4611.976831,N,01258.217397,E,083938.00,A,A*67
$GPVTG,173.0,T,173.2,M,001.4,N,002.5,K,A*23
$GPGSV,3,1,09,02,38,087,38,04,16,043,38,09,26,149,40,12,62,068,43*7B
$GPGSV,3,2,09,14,32,260,42,25,72,316,47,29,45,219,42,30,27,286,41*7B
$GPGSV,3,3,09,31,19,314,41,,,,,,,,,,,,*49
$GPGSA,M,3,02,04,09,12,14,25,29,30,31,,,,1.8,0.9,1.6*3D
Trace #41 at position 10.000000
$GPZDA,083937.04,09,10,2011,00,00*6E
$GPRMC,083937.00,A,4611.977286,N,01258.217396,E,002.1,182$GPGGA,083938.00,4611.976831,N,01258.217397,E,1,09,0.9,140.93,M,46.25,M,,*68
$GPGLL,4611.976831,N,01258.217397,E,083938.00,A,A*67
$GPVTG,173.0,T,173.2,M,001.4,N,002.5,K,A*23
$GPGSV,3,1,09,02,38,087,38,04,16,043,38,09,26,149,40,12,62,068,43*7B
$GPGSV,3,2,09,14,32,260,42,25,72,316,47,29,45,219,42,30,27,286,41*7B
$GPGSV,3,3,09,31,19,314,41,,,,,,,,,,,,*49
$GPGSA,M,3,02,04,09,12,14,25,29,30,31,,,,1.8,0.9,1.6*3D
Trace #42 at position 10.250000
$GPZDA,083938.04,09,10,2011,00,00*61
$GPRMC,083938.00,A,4611.976831,N,01258.217397,E,001.4,173$GPGGA,083939.00,4611.976442,N,01258.217584,E,1,09,0.9,140.97,M,46.25,M,,*61
$GPGLL,4611.976442,N,01258.217584,E,083939.00,A,A*6A
$GPVTG,152.0,T,152.1,M,001.8,N,003.3,K,A*2B
$GPGSV,3,1,09,02,38,087,37,04,16,043,38,09,26,149,38,12,62,068,42*7A
$GPGSV,3,2,09,14,32,260,42,25,72,316,48,29,45,219,42,30,27,286,41*74
$GPGSV,3,3,09,31,19,314,39,,,,,,,,,,,,*46
$GPGSA,M,3,02,04,09,12,14,25,29,30,31,,,,1.8,0.9,1.6*3D
Trace #43 at position 10.500000
$GPZDA,083938.04,09,10,2011,00,00*61
$GPRMC,083938.00,A,4611.976831,N,01258.217397,E,001.4,173$GPGGA,083939.00,4611.976442,N,01258.217584,E,1,09,0.9,140.97,M,46.25,M,,*61
$GPGLL,4611.976442,N,01258.217584,E,083939.00,A,A*6A
$GPVTG,152.0,T,152.1,M,001.8,N,003.3,K,A*2B
$GPGSV,3,1,09,02,38,087,37,04,16,043,38,09,26,149,38,12,62,068,42*7A
$GPGSV,3,2,09,14,32,260,42,25,72,316,48,29,45,219,42,30,27,286,41*74
$GPGSV,3,3,09,31,19,314,39,,,,,,,,,,,,*46
$GPGSA,M,3,02,04,09,12,14,25,29,30,31,,,,1.8,0.9,1.6*3D
Trace #44 at position 10.750000
$GPZDA,083938.04,09,10,2011,00,00*61
$GPRMC,083938.00,A,4611.976831,N,01258.217397,E,001.4,173$GPGGA,083939.00,4611.976442,N,01258.217584,E,1,09,0.9,140.97,M,46.25,M,,*61
$GPGLL,4611.976442,N,01258.217584,E,083939.00,A,A*6A
$GPVTG,152.0,T,152.1,M,001.8,N,003.3,K,A*2B
$GPGSV,3,1,09,02,38,087,37,04,16,043,38,09,26,149,38,12,62,068,42*7A
$GPGSV,3,2,09,14,32,260,42,25,72,316,48,29,45,219,42,30,27,286,41*74
$GPGSV,3,3,09,31,19,314,39,,,,,,,,,,,,*46
$GPGSA,M,3,02,04,09,12,14,25,29,30,31,,,,1.8,0.9,1.6*3D
Trace #45 at position 11.000000
$GPZDA,083938.04,09,10,2011,00,00*61
$GPRMC,083938.00,A,4611.976831,N,01258.217397,E,001.4,173$GPGGA,083939.00,4611.976442,N,01258.217584,E,1,09,0.9,140.97,M,46.25,M,,*61
$GPGLL,4611.976442,N,01258.217584,E,083939.00,A,A*6A
$GPVTG,152.0,T,152.1,M,001.8,N,003.3,K,A*2B
$GPGSV,3,1,09,02,38,087,37,04,16,043,38,09,26,149,38,12,62,068,42*7A
$GPGSV,3,2,09,14,32,260,42,25,72,316,48,29,45,219,42,30,27,286,41*74
$GPGSV,3,3,09,31,19,314,39,,,,,,,,,,,,*46
$GPGSA,M,3,02,04,09,12,14,25,29,30,31,,,,1.8,0.9,1.6*3D
Trace #46 at position 11.250000
$GPZDA,083939.04,09,10,2011,00,00*60
$GPRMC,083939.00,A,4611.976442,N,01258.217584,E,001.8,152$GPGGA,083940.00,4611.975946,N,01258.217797,E,1,08,1.3,140.82,M,46.25,M,,*6B
$GPGLL,4611.975946,N,01258.217797,E,083940.00,A,A*6E
$GPVTG,174.5,T,174.7,M,001.9,N,003.5,K,A*2F
$GPGSV,3,1,09,02,38,087,40,04,16,043,40,09,26,149,35,12,62,068,42*78
$GPGSV,3,2,09,14,32,260,43,25,72,316,48,29,45,219,41,30,27,286,42*75
$GPGSV,3,3,09,31,19,314,40,,,,,,,,,,,,*48
$GPGSA,M,3,02,04,12,14,25,29,30,31,,,,,2.3,1.3,1.9*38
Trace #47 at position 11.500000
$GPZDA,083939.04,09,10,2011,00,00*60
$GPRMC,083939.00,A,4611.976442,N,01258.217584,E,001.8,152$GPGGA,083940.00,4611.975946,N,01258.217797,E,1,08,1.3,140.82,M,46.25,M,,*6B
$GPGLL,4611.975946,N,01258.217797,E,083940.00,A,A*6E
$GPVTG,174.5,T,174.7,M,001.9,N,003.5,K,A*2F
$GPGSV,3,1,09,02,38,087,40,04,16,043,40,09,26,149,35,12,62,068,42*78
$GPGSV,3,2,09,14,32,260,43,25,72,316,48,29,45,219,41,30,27,286,42*75
$GPGSV,3,3,09,31,19,314,40,,,,,,,,,,,,*48
$GPGSA,M,3,02,04,12,14,25,29,30,31,,,,,2.3,1.3,1.9*38
Trace #48 at position 11.750000
$GPZDA,083939.04,09,10,2011,00,00*60
$GPRMC,083939.00,A,4611.976442,N,01258.217584,E,001.8,152$GPGGA,083940.00,4611.975946,N,01258.217797,E,1,08,1.3,140.82,M,46.25,M,,*6B
$GPGLL,4611.975946,N,01258.217797,E,083940.00,A,A*6E
$GPVTG,174.5,T,174.7,M,001.9,N,003.5,K,A*2F
$GPGSV,3,1,09,02,38,087,40,04,16,043,40,09,26,149,35,12,62,068,42*78
$GPGSV,3,2,09,14,32,260,43,25,72,316,48,29,45,219,41,30,27,286,42*75
$GPGSV,3,3,09,31,19,314,40,,,,,,,,,,,,*48
$GPGSA,M,3,02,04,12,14,25,29,30,31,,,,,2.3,1.3,1.9*38
Trace #49 at position 12.000000
$GPZDA,083940.04,09,10,2011,00,00*6E
$GPRMC,083940.00,A,4611.975946,N,01258.217797,E,001.9,174.508,1.3,140.72,M,46.25,M,,*6D
$GPGLL,4611.975513,N,01258.217926,E,083941.00,A,A*67
$GPVTG,162.1,T,162.3,M,001.1,N,002.1,K,A*22
$GPGSV,3,1,09,02,38,087,40,04,16,043,40,09,26,149,37,12,62,068,43*7B
$GPGSV,3,2,09,14,32,260,41,25,72,316,48,29,45,219,43,30,27,286,43*74
$GPGSV,3,3,09,31,19,314,42,,,,,,,,,,,,*4A
$GPGSA,M,3,02,04,12,14,25,29,30,31,,,,,2.3,1.3,1.9*38
Trace #50 at position 12.250000
$GPZDA,083940.04,09,10,2011,00,00*6E
$GPRMC,083940.00,A,4611.975946,N,01258.217797,E,001.9,174.508,1.3,140.72,M,46.25,M,,*6D
$GPGLL,4611.975513,N,01258.217926,E,083941.00,A,A*67
$GPVTG,162.1,T,162.3,M,001.1,N,002.1,K,A*22
$GPGSV,3,1,09,02,38,087,40,04,16,043,40,09,26,149,37,12,62,068,43*7B
$GPGSV,3,2,09,14,32,260,41,25,72,316,48,29,45,219,43,30,27,286,43*74
$GPGSV,3,3,09,31,19,314,42,,,,,,,,,,,,*4A
$GPGSA,M,3,02,04,12,14,25,29,30,31,,,,,2.3,1.3,1.9*38
Trace #51 at position 12.500000
$GPZDA,083940.04,09,10,2011,00,00*6E
$GPRMC,083940.00,A,4611.975946,N,01258.217797,E,001.9,174.508,1.3,140.72,M,46.25,M,,*6D
$GPGLL,4611.975513,N,01258.217926,E,083941.00,A,A*67
$GPVTG,162.1,T,162.3,M,001.1,N,002.1,K,A*22
$GPGSV,3,1,09,02,38,087,40,04,16,043,40,09,26,149,37,12,62,068,43*7B
$GPGSV,3,2,09,14,32,260,41,25,72,316,48,29,45,219,43,30,27,286,43*74
$GPGSV,3,3,09,31,19,314,42,,,,,,,,,,,,*4A
$GPGSA,M,3,02,04,12,14,25,29,30,31,,,,,2.3,1.3,1.9*38
Trace #52 at position 12.750000
$GPZDA,083940.04,09,10,2011,00,00*6E
$GPRMC,083940.00,A,4611.975946,N,01258.217797,E,001.9,174.508,1.3,140.72,M,46.25,M,,*6D
$GPGLL,4611.975513,N,01258.217926,E,083941.00,A,A*67
$GPVTG,162.1,T,162.3,M,001.1,N,002.1,K,A*22
$GPGSV,3,1,09,02,38,087,40,04,16,043,40,09,26,149,37,12,62,068,43*7B
$GPGSV,3,2,09,14,32,260,41,25,72,316,48,29,45,219,43,30,27,286,43*74
$GPGSV,3,3,09,31,19,314,42,,,,,,,,,,,,*4A
$GPGSA,M,3,02,04,12,14,25,29,30,31,,,,,2.3,1.3,1.9*38
Trace #53 at position 13.000000
$GPZDA,083941.04,09,10,2011,00,00*6F
$GPRMC,083941.00,A,4611.975513,N,01258.217926,E,001.1,162.1,091011,0.2,E,A*35
$GPGGA,083942.00,4611.975033150,E,083942.00,A,A*65
$GPVTG,163.5,T,163.6,M,002.3,N,004.3,K,A*26
$GPGSV,3,1,09,02,38,087,37,04,16,043,40,09,26,149,35,12,62,068,43*79
$GPGSV,3,2,09,14,32,260,41,25,72,316,47,29,45,219,44,30,27,286,42*7D
$GPGSV,3,3,09,31,19,314,42,,,,,,,,,,,,*4A
$GPGSA,M,3,02,04,12,14,25,29,30,31,,,,,2.3,1.3,1.9*38
Trace #54 at position 13.250000
$GPZDA,083941.04,09,10,2011,00,00*6F
$GPRMC,083941.00,A,4611.975513,N,01258.217926,E,001.1,162.1,091011,0.2,E,A*35
$GPGGA,083942.00,4611.975033150,E,083942.00,A,A*65
$GPVTG,163.5,T,163.6,M,002.3,N,004.3,K,A*26
$GPGSV,3,1,09,02,38,087,37,04,16,043,40,09,26,149,35,12,62,068,43*79
$GPGSV,3,2,09,14,32,260,41,25,72,316,47,29,45,219,44,30,27,286,42*7D
$GPGSV,3,3,09,31,19,314,42,,,,,,,,,,,,*4A
$GPGSA,M,3,02,04,12,14,25,29,30,31,,,,,2.3,1.3,1.9*38
Trace #55 at position 13.500000
$GPZDA,083941.04,09,10,2011,00,00*6F
$GPRMC,083941.00,A,4611.975513,N,01258.217926,E,001.1,162.1,091011,0.2,E,A*35
$GPGGA,083942.00,4611.975033150,E,083942.00,A,A*65
$GPVTG,163.5,T,163.6,M,002.3,N,004.3,K,A*26
$GPGSV,3,1,09,02,38,087,37,04,16,043,40,09,26,149,35,12,62,068,43*79
$GPGSV,3,2,09,14,32,260,41,25,72,316,47,29,45,219,44,30,27,286,42*7D
$GPGSV,3,3,09,31,19,314,42,,,,,,,,,,,,*4A
$GPGSA,M,3,02,04,12,14,25,29,30,31,,,,,2.3,1.3,1.9*38
Trace #56 at position 13.750000
$GPZDA,083942.04,09,10,2011,00,00*6C
$GPRMC,083942.00,A,4611.975033,N,01258.218150,E,002.3,163.5,091011,0.2,E,A*33
$GPGGA,083943.00,4611.974514,N,01258.218429,E,1,08,1.3,140.85,M,46.25,M,,*6C
$GPGLL,461,40,04,16,043,39,09,26,149,37,12,62,068,43*75
$GPGSV,3,2,09,14,32,260,42,25,72,316,47,29,45,219,42,30,27,286,42*78
$GPGSV,3,3,09,31,19,314,42,,,,,,,,,,,,*4A
$GPGSA,M,3,02,04,12,14,25,29,30,31,,,,,2.3,1.3,1.9*38
Trace #57 at position 14.000000
$GPZDA,083942.04,09,10,2011,00,00*6C
$GPRMC,083942.00,A,4611.975033,N,01258.218150,E,002.3,163.5,091011,0.2,E,A*33
$GPGGA,083943.00,4611.974514,N,01258.218429,E,1,08,1.3,140.85,M,46.25,M,,*6C
$GPGLL,461,40,04,16,043,39,09,26,149,37,12,62,068,43*75
$GPGSV,3,2,09,14,32,260,42,25,72,316,47,29,45,219,42,30,27,286,42*78
$GPGSV,3,3,09,31,19,314,42,,,,,,,,,,,,*4A
$GPGSA,M,3,02,04,12,14,25,29,30,31,,,,,2.3,1.3,1.9*38
Trace #58 at position 14.250000
$GPZDA,083942.04,09,10,2011,00,00*6C
$GPRMC,083942.00,A,4611.975033,N,01258.218150,E,002.3,163.5,091011,0.2,E,A*33
$GPGGA,083943.00,4611.974514,N,01258.218429,E,1,08,1.3,140.85,M,46.25,M,,*6C
$GPGLL,461,40,04,16,043,39,09,26,149,37,12,62,068,43*75
$GPGSV,3,2,09,14,32,260,42,25,72,316,47,29,45,219,42,30,27,286,42*78
$GPGSV,3,3,09,31,19,314,42,,,,,,,,,,,,*4A
$GPGSA,M,3,02,04,12,14,25,29,30,31,,,,,2.3,1.3,1.9*38
Trace #59 at position 14.500000
$GPZDA,083942.04,09,10,2011,00,00*6C
$GPRMC,083942.00,A,4611.975033,N,01258.218150,E,002.3,163.5,091011,0.2,E,A*33
$GPGGA,083943.00,4611.974514,N,01258.218429,E,1,08,1.3,140.85,M,46.25,M,,*6C
$GPGLL,461,40,04,16,043,39,09,26,149,37,12,62,068,43*75
$GPGSV,3,2,09,14,32,260,42,25,72,316,47,29,45,219,42,30,27,286,42*78
$GPGSV,3,3,09,31,19,314,42,,,,,,,,,,,,*4A
$GPGSA,M,3,02,04,12,14,25,29,30,31,,,,,2.3,1.3,1.9*38
Trace #60 at position 14.750000
$GPZDA,083942.04,09,10,2011,00,00*6C
$GPRMC,083942.00,A,4611.975033,N,01258.218150,E,002.3,163.5,091011,0.2,E,A*33
$GPGGA,083943.00,4611.974514,N,01258.218429,E,1,08,1.3,140.85,M,46.25,M,,*6C
$GPGLL,461,40,04,16,043,39,09,26,149,37,12,62,068,43*75
$GPGSV,3,2,09,14,32,260,42,25,72,316,47,29,45,219,42,30,27,286,42*78
$GPGSV,3,3,09,31,19,314,42,,,,,,,,,,,,*4A
$GPGSA,M,3,02,04,12,14,25,29,30,31,,,,,2.3,1.3,1.9*38
Trace #61 at position 15.000000
$GPZDA,083942.04,09,10,2011,00,00*6C
$GPRMC,083942.00,A,4611.975033,N,01258.218150,E,002.3,163.5,091011,0.2,E,A*33
$GPGGA,083943.00,4611.974514,N,01258.218429,E,1,08,1.3,140.85,M,46.25,M,,*6C
$GPGLL,461,40,04,16,043,39,09,26,149,37,12,62,068,43*75
$GPGSV,3,2,09,14,32,260,42,25,72,316,47,29,45,219,42,30,27,286,42*78
$GPGSV,3,3,09,31,19,314,42,,,,,,,,,,,,*4A
$GPGSA,M,3,02,04,12,14,25,29,30,31,,,,,2.3,1.3,1.9*38
Trace #62 at position 15.250000
$GPZDA,083942.04,09,10,2011,00,00*6C
$GPRMC,083942.00,A,4611.975033,N,01258.218150,E,002.3,163.5,091011,0.2,E,A*33
$GPGGA,083943.00,4611.974514,N,01258.218429,E,1,08,1.3,140.85,M,46.25,M,,*6C
$GPGLL,461,40,04,16,043,39,09,26,149,37,12,62,068,43*75
$GPGSV,3,2,09,14,32,260,42,25,72,316,47,29,45,219,42,30,27,286,42*78
$GPGSV,3,3,09,31,19,314,42,,,,,,,,,,,,*4A
$GPGSA,M,3,02,04,12,14,25,29,30,31,,,,,2.3,1.3,1.9*38
Trace #63 at position 15.500000
$GPZDA,083943.04,09,10,2011,00,00*6D
$GPRMC,083943.00,A,4611.974514,N,01258.218429,E,001.6,155.0,091011,0.2,E,A*3E
$GPGGA,083944.00,4611.974047,N,01258.218679,E,1,08,1.3,140.78,M,46.25,M,,*6D
$GPGLL,4611.974047,N,01258.218679,E,083944.00,A,A*6D
$GPVTG,163.5,T,163.7,M,001.9,N,003.5,K,A*2F
$GP.3,1.9*38
$GPZDA,083944.04,09,10,2011,00,00*6A
$GPRMC,083944.00,A,4611.974047,N,01258.218679,E,001.9,163.5,091011,0.2,E,A*32
$GPGGA,083945.00,4611.973547,N,01258.218833,E,1,08,1.3,140.72,M,46.25,M,,*64
$GPGLL,4611.973547,N,01258.218833,E,083945.00,A,A*6E
$GPVTG,175.5,T,175.6,M,001.7,N,003.1,K,A*24
$GPGSV,3,1,09,02,38,087,39,04,16,043,39,09,26,149,35,12,62,068,41*7B
$GPGSV,3,2,09,14,32,260,42,25,72,316,47,29,45,219,41,30,27,286,41*78
$GPGSV,3,3,09,31,19,314,41,,,,,,,,,,,,*49
$GPGSA,M,3,02,04,12,14,233,E,001.7,175.5,091011,0.2,E,A*38
Trace #64 at position 15.750000
$GPZDA,083943.04,09,10,2011,00,00*6D
$GPRMC,083943.00,A,4611.974514,N,01258.218429,E,001.6,155.0,091011,0.2,E,A*3E
$GPGGA,083944.00,4611.974047,N,01258.218679,E,1,08,1.3,140.78,M,46.25,M,,*6D
$GPGLL,4611.974047,N,01258.218679,E,083944.00,A,A*6D
$GPVTG,163.5,T,163.7,M,001.9,N,003.5,K,A*2F
$GP.3,1.9*38
$GPZDA,083944.04,09,10,2011,00,00*6A
$GPRMC,083944.00,A,4611.974047,N,01258.218679,E,001.9,163.5,091011,0.2,E,A*32
$GPGGA,083945.00,4611.973547,N,01258.218833,E,1,08,1.3,140.72,M,46.25,M,,*64
$GPGLL,4611.973547,N,01258.218833,E,083945.00,A,A*6E
$GPVTG,175.5,T,175.6,M,001.7,N,003.1,K,A*24
$GPGSV,3,1,09,02,38,087,39,04,16,043,39,09,26,149,35,12,62,068,41*7B
$GPGSV,3,2,09,14,32,260,42,25,72,316,47,29,45,219,41,30,27,286,41*78
$GPGSV,3,3,09,31,19,314,41,,,,,,,,,,,,*49
$GPGSA,M,3,02,04,12,14,233,E,001.7,175.5,091011,0.2,E,A*38
Trace #65 at position 16.000000
$GPZDA,083943.04,09,10,2011,00,00*6D
$GPRMC,083943.00,A,4611.974514,N,01258.218429,E,001.6,155.0,091011,0.2,E,A*3E
$GPGGA,083944.00,4611.974047,N,01258.218679,E,1,08,1.3,140.78,M,46.25,M,,*6D
$GPGLL,4611.974047,N,01258.218679,E,083944.00,A,A*6D
$GPVTG,163.5,T,163.7,M,001.9,N,003.5,K,A*2F
$GP.3,1.9*38
$GPZDA,083944.04,09,10,2011,00,00*6A
$GPRMC,083944.00,A,4611.974047,N,01258.218679,E,001.9,163.5,091011,0.2,E,A*32
$GPGGA,083945.00,4611.973547,N,01258.218833,E,1,08,1.3,140.72,M,46.25,M,,*64
$GPGLL,4611.973547,N,01258.218833,E,083945.00,A,A*6E
$GPVTG,175.5,T,175.6,M,001.7,N,003.1,K,A*24
$GPGSV,3,1,09,02,38,087,39,04,16,043,39,09,26,149,35,12,62,068,41*7B
$GPGSV,3,2,09,14,32,260,42,25,72,316,47,29,45,219,41,30,27,286,41*78
$GPGSV,3,3,09,31,19,314,41,,,,,,,,,,,,*49
$GPGSA,M,3,02,04,12,14,233,E,001.7,175.5,091011,0.2,E,A*38
Trace #66 at position 16.250000
$GPGGA,083946.00,4611.972989,N,01258.218926,E,1,08,1.3,140.71,M,46.25,M,,*6E
$GPGLL,4611.972989,N,01258.218926,E,083946.00,A,A*67
$GPVTG,175.6,T,175.8,M,002.3,N,004.3,K,A*2B
$GPGSV,3,1,09,02,38,087,39,04,16,043,38,09,26,149,36,12,62,068,41*79
$GPGSV,3,2,09,14,32,260,42,25,72,316,47,29,45,219,41,30,27,286,42*7B
$GPGSV,3,3,09,31,19,314,42,,,,,,,,,,,,*4A
$GPGSA,M,3,02,04,12,14,25,29,30,31,,,,,2.3,1.3,1.9*38
Trace #67 at position 16.500000
$GPGGA,083946.00,4611.972989,N,01258.218926,E,1,08,1.3,140.71,M,46.25,M,,*6E
$GPGLL,4611.972989,N,01258.218926,E,083946.00,A,A*67
$GPVTG,175.6,T,175.8,M,002.3,N,004.3,K,A*2B
$GPGSV,3,1,09,02,38,087,39,04,16,043,38,09,26,149,36,12,62,068,41*79
$GPGSV,3,2,09,14,32,260,42,25,72,316,47,29,45,219,41,30,27,286,42*7B
$GPGSV,3,3,09,31,19,314,42,,,,,,,,,,,,*4A
$GPGSA,M,3,02,04,12,14,25,29,30,31,,,,,2.3,1.3,1.9*38
Trace #68 at position 16.750000
$GPGGA,083946.00,4611.972989,N,01258.218926,E,1,08,1.3,140.71,M,46.25,M,,*6E
$GPGLL,4611.972989,N,01258.218926,E,083946.00,A,A*67
$GPVTG,175.6,T,175.8,M,002.3,N,004.3,K,A*2B
$GPGSV,3,1,09,02,38,087,39,04,16,043,38,09,26,149,36,12,62,068,41*79
$GPGSV,3,2,09,14,32,260,42,25,72,316,47,29,45,219,41,30,27,286,42*7B
$GPGSV,3,3,09,31,19,314,42,,,,,,,,,,,,*4A
$GPGSA,M,3,02,04,12,14,25,29,30,31,,,,,2.3,1.3,1.9*38
Trace #69 at position 17.000000
$GPGGA,083946.00,4611.972989,N,01258.218926,E,1,08,1.3,140.71,M,46.25,M,,*6E
$GPGLL,4611.972989,N,01258.218926,E,083946.00,A,A*67
$GPVTG,175.6,T,175.8,M,002.3,N,004.3,K,A*2B
$GPGSV,3,1,09,02,38,087,39,04,16,043,38,09,26,149,36,12,62,068,41*79
$GPGSV,3,2,09,14,32,260,42,25,72,316,47,29,45,219,41,30,27,286,42*7B
$GPGSV,3,3,09,31,19,314,42,,,,,,,,,,,,*4A
$GPGSA,M,3,02,04,12,14,25,29,30,31,,,,,2.3,1.3,1.9*38
Trace #70 at position 17.250000
$GPGGA,083946.00,4611.972989,N,01258.218926,E,1,08,1.3,140.71,M,46.25,M,,*6E
$GPGLL,4611.972989,N,01258.218926,E,083946.00,A,A*67
$GPVTG,175.6,T,175.8,M,002.3,N,004.3,K,A*2B
$GPGSV,3,1,09,02,38,087,39,04,16,043,38,09,26,149,36,12,62,068,41*79
$GPGSV,3,2,09,14,32,260,42,25,72,316,47,29,45,219,41,30,27,286,42*7B
$GPGSV,3,3,09,31,19,314,42,,,,,,,,,,,,*4A
$GPGSA,M,3,02,04,12,14,25,29,30,31,,,,,2.3,1.3,1.9*38
Trace #71 at position 17.500000
$GPZDA,083946.04,09,10,2011,00,00*68
$GPRMC,083946.00,A,4611$GPGGA,083947.00,4611.972454,N,01258.219099,E,1,08,1.3,140.72,M,46.25,M,,*6D
$GPGLL,4611.972454,N,01258.219099,E,083947.00,A,A*67
$GPVTG,162.5,T,162.7,M,001.7,N,003.1,K,A*25
$GPGSV,3,1,09,02,38,087,39,04,16,043,39,09,26,149,39,12,62,068,42*74
$GPGSV,3,2,09,14,32,260,40,25,72,316,46,29,45,219,43,30,27,286,42*7A
$GPGSV,3,3,09,31,19,314,42,,,,,,,,,,,,*4A
$GPGSA,M,3,02,04,12,14,25,29,30,31,,,,,2.3,1.3,1.9*38
Trace #72 at position 17.750000
$GPZDA,083946.04,09,10,2011,00,00*68
$GPRMC,083946.00,A,4611$GPGGA,083947.00,4611.972454,N,01258.219099,E,1,08,1.3,140.72,M,46.25,M,,*6D
$GPGLL,4611.972454,N,01258.219099,E,083947.00,A,A*67
$GPVTG,162.5,T,162.7,M,001.7,N,003.1,K,A*25
$GPGSV,3,1,09,02,38,087,39,04,16,043,39,09,26,149,39,12,62,068,42*74
$GPGSV,3,2,09,14,32,260,40,25,72,316,46,29,45,219,43,30,27,286,42*7A
$GPGSV,3,3,09,31,19,314,42,,,,,,,,,,,,*4A
$GPGSA,M,3,02,04,12,14,25,29,30,31,,,,,2.3,1.3,1.9*38
Trace #73 at position 18.000000
$GPZDA,083946.04,09,10,2011,00,00*68
$GPRMC,083946.00,A,4611$GPGGA,083947.00,4611.972454,N,01258.219099,E,1,08,1.3,140.72,M,46.25,M,,*6D
$GPGLL,4611.972454,N,01258.219099,E,083947.00,A,A*67
$GPVTG,162.5,T,162.7,M,001.7,N,003.1,K,A*25
$GPGSV,3,1,09,02,38,087,39,04,16,043,39,09,26,149,39,12,62,068,42*74
$GPGSV,3,2,09,14,32,260,40,25,72,316,46,29,45,219,43,30,27,286,42*7A
$GPGSV,3,3,09,31,19,314,42,,,,,,,,,,,,*4A
$GPGSA,M,3,02,04,12,14,25,29,30,31,,,,,2.3,1.3,1.9*38
Trace #74 at position 18.250000
$GPZDA,083947.04,09,10,2011,00,00*69
$GPRMC,083947.00,A,4611.972454,N,01258.219099,E,001.7,162.5$GPGGA,083948.00,4611.971977,N,01258.219288,E,1,08,1.3,140.79,M,46.25,M,,*64
$GPGLL,4611.971977,N,01258.219288,E,083948.00,A,A*65
$GPVTG,173.0,T,173.2,M,001.8,N,003.4,K,A*2F
$GPGSV,3,1,09,02,38,087,38,04,16,043,39,09,26,149,39,12,62,068,42*75
$GPGSV,3,2,09,14,32,260,42,25,72,316,47,29,45,219,42,30,27,286,42*78
$GPGSV,3,3,09,31,19,314,41,,,,,,,,,,,,*49
$GPGSA,M,3,02,04,12,14,25,29,30,31,,,,,2.3,1.3,1.9*38
Trace #75 at position 18.500000
$GPZDA,083947.04,09,10,2011,00,00*69
$GPRMC,083947.00,A,4611.972454,N,01258.219099,E,001.7,162.5$GPGGA,083948.00,4611.971977,N,01258.219288,E,1,08,1.3,140.79,M,46.25,M,,*64
$GPGLL,4611.971977,N,01258.219288,E,083948.00,A,A*65
$GPVTG,173.0,T,173.2,M,001.8,N,003.4,K,A*2F
$GPGSV,3,1,09,02,38,087,38,04,16,043,39,09,26,149,39,12,62,068,42*75
$GPGSV,3,2,09,14,32,260,42,25,72,316,47,29,45,219,42,30,27,286,42*78
$GPGSV,3,3,09,31,19,314,41,,,,,,,,,,,,*49
$GPGSA,M,3,02,04,12,14,25,29,30,31,,,,,2.3,1.3,1.9*38
Trace #76 at position 18.750000
$GPZDA,083947.04,09,10,2011,00,00*69
$GPRMC,083947.00,A,4611.972454,N,01258.219099,E,001.7,162.5$GPGGA,083948.00,4611.971977,N,01258.219288,E,1,08,1.3,140.79,M,46.25,M,,*64
$GPGLL,4611.971977,N,01258.219288,E,083948.00,A,A*65
$GPVTG,173.0,T,173.2,M,001.8,N,003.4,K,A*2F
$GPGSV,3,1,09,02,38,087,38,04,16,043,39,09,26,149,39,12,62,068,42*75
$GPGSV,3,2,09,14,32,260,42,25,72,316,47,29,45,219,42,30,27,286,42*78
$GPGSV,3,3,09,31,19,314,41,,,,,,,,,,,,*49
$GPGSA,M,3,02,04,12,14,25,29,30,31,,,,,2.3,1.3,1.9*38
Trace #77 at position 19.000000
$GPZDA,083947.04,09,10,2011,00,00*69
$GPRMC,083947.00,A,4611.972454,N,01258.219099,E,001.7,162.5$GPGGA,083948.00,4611.971977,N,01258.219288,E,1,08,1.3,140.79,M,46.25,M,,*64
$GPGLL,4611.971977,N,01258.219288,E,083948.00,A,A*65
$GPVTG,173.0,T,173.2,M,001.8,N,003.4,K,A*2F
$GPGSV,3,1,09,02,38,087,38,04,16,043,39,09,26,149,39,12,62,068,42*75
$GPGSV,3,2,09,14,32,260,42,25,72,316,47,29,45,219,42,30,27,286,42*78
$GPGSV,3,3,09,31,19,314,41,,,,,,,,,,,,*49
$GPGSA,M,3,02,04,12,14,25,29,30,31,,,,,2.3,1.3,1.9*38
Trace #78 at position 19.250000
$GPZDA,083948.04,09,10,2011,00,00*66
$GPRMC,083948.00,A,4611.971977,N,01258.219288,E,001.8,173.0$GPGGA,083949.00,4611.971547,N,01258.219485,E,1,08,1.3,140.86,M,46.25,M,,*61
$GPGLL,4611.971547,N,01258.219485,E,083949.00,A,A*60
$GPVTG,156.2,T,156.3,M,001.3,N,002.3,K,A*21
$GPGSV,3,1,09,02,38,087,40,04,16,043,40,09,26,149,39,12,62,068,44*72
$GPGSV,3,2,09,14,32,260,42,25,72,316,46,29,45,219,41,30,27,286,42*7A
$GPGSV,3,3,09,31,19,314,41,,,,,,,,,,,,*49
$GPGSA,M,3,02,04,12,14,25,29,30,31,,,,,2.3,1.3,1.9*38
Trace #79 at position 19.500000
$GPZDA,083948.04,09,10,2011,00,00*66
$GPRMC,083948.00,A,4611.971977,N,01258.219288,E,001.8,173.0$GPGGA,083949.00,4611.971547,N,01258.219485,E,1,08,1.3,140.86,M,46.25,M,,*61
$GPGLL,4611.971547,N,01258.219485,E,083949.00,A,A*60
$GPVTG,156.2,T,156.3,M,001.3,N,002.3,K,A*21
$GPGSV,3,1,09,02,38,087,40,04,16,043,40,09,26,149,39,12,62,068,44*72
$GPGSV,3,2,09,14,32,260,42,25,72,316,46,29,45,219,41,30,27,286,42*7A
$GPGSV,3,3,09,31,19,314,41,,,,,,,,,,,,*49
$GPGSA,M,3,02,04,12,14,25,29,30,31,,,,,2.3,1.3,1.9*38
Trace #80 at position 19.750000
$GPZDA,083948.04,09,10,2011,00,00*66
$GPRMC,083948.00,A,4611.971977,N,01258.219288,E,001.8,173.0$GPGGA,083949.00,4611.971547,N,01258.219485,E,1,08,1.3,140.86,M,46.25,M,,*61
$GPGLL,4611.971547,N,01258.219485,E,083949.00,A,A*60
$GPVTG,156.2,T,156.3,M,001.3,N,002.3,K,A*21
$GPGSV,3,1,09,02,38,087,40,04,16,043,40,09,26,149,39,12,62,068,44*72
$GPGSV,3,2,09,14,32,260,42,25,72,316,46,29,45,219,41,30,27,286,42*7A
$GPGSV,3,3,09,31,19,314,41,,,,,,,,,,,,*49
$GPGSA,M,3,02,04,12,14,25,29,30,31,,,,,2.3,1.3,1.9*38
Trace #81 at position 20.000000
$GPZDA,083948.04,09,10,2011,00,00*66
$GPRMC,083948.00,A,4611.971977,N,01258.219288,E,001.8,173.0$GPGGA,083949.00,4611.971547,N,01258.219485,E,1,08,1.3,140.86,M,46.25,M,,*61
$GPGLL,4611.971547,N,01258.219485,E,083949.00,A,A*60
$GPVTG,156.2,T,156.3,M,001.3,N,002.3,K,A*21
$GPGSV,3,1,09,02,38,087,40,04,16,043,40,09,26,149,39,12,62,068,44*72
$GPGSV,3,2,09,14,32,260,42,25,72,316,46,29,45,219,41,30,27,286,42*7A
$GPGSV,3,3,09,31,19,314,41,,,,,,,,,,,,*49
$GPGSA,M,3,02,04,12,14,25,29,30,31,,,,,2.3,1.3,1.9*38
Trace #82 at position 20.250000
$GPZDA,083949.04,09,10,2011,00,00*67
$GPRMC,083949.00,A,4611.971547,N,01258.219485,E,001.3,156.2$GPGGA,083950.00,4611.971059,N,01258.219808,E,1,08,1.3,140.87,M,46.25,M,,*6B
$GPGLL,4611.971059,N,01258.219808,E,083950.00,A,A*6B
$GPVTG,157.7,T,157.9,M,002.4,N,004.4,K,A*2B
$GPGSV,3,1,09,02,38,087,39,04,16,043,39,09,26,149,37,12,62,068,43*7B
$GPGSV,3,2,09,14,32,260,41,25,72,316,47,29,45,219,43,30,27,286,42*7A
$GPGSV,3,3,09,31,19,314,42,,,,,,,,,,,,*4A
$GPGSA,M,3,02,04,12,14,25,29,30,31,,,,,2.3,1.3,1.9*38
Trace #83 at position 20.500000
$GPZDA,083949.04,09,10,2011,00,00*67
$GPRMC,083949.00,A,4611.971547,N,01258.219485,E,001.3,156.2$GPGGA,083950.00,4611.971059,N,01258.219808,E,1,08,1.3,140.87,M,46.25,M,,*6B
$GPGLL,4611.971059,N,01258.219808,E,083950.00,A,A*6B
$GPVTG,157.7,T,157.9,M,002.4,N,004.4,K,A*2B
$GPGSV,3,1,09,02,38,087,39,04,16,043,39,09,26,149,37,12,62,068,43*7B
$GPGSV,3,2,09,14,32,260,41,25,72,316,47,29,45,219,43,30,27,286,42*7A
$GPGSV,3,3,09,31,19,314,42,,,,,,,,,,,,*4A
$GPGSA,M,3,02,04,12,14,25,29,30,31,,,,,2.3,1.3,1.9*38
Trace #84 at position 20.750000
$GPZDA,083949.04,09,10,2011,00,00*67
$GPRMC,083949.00,A,4611.971547,N,01258.219485,E,001.3,156.2$GPGGA,083950.00,4611.971059,N,01258.219808,E,1,08,1.3,140.87,M,46.25,M,,*6B
$GPGLL,4611.971059,N,01258.219808,E,083950.00,A,A*6B
$GPVTG,157.7,T,157.9,M,002.4,N,004.4,K,A*2B
$GPGSV,3,1,09,02,38,087,39,04,16,043,39,09,26,149,37,12,62,068,43*7B
$GPGSV,3,2,09,14,32,260,41,25,72,316,47,29,45,219,43,30,27,286,42*7A
$GPGSV,3,3,09,31,19,314,42,,,,,,,,,,,,*4A
$GPGSA,M,3,02,04,12,14,25,29,30,31,,,,,2.3,1.3,1.9*38
Trace #85 at position 21.000000
$GPZDA,083950.04,09,10,2011,00,00*6F
$GPRMC,083950.00,A,4611.971059,N,01258.219808,E,002.4,157.7$GPGGA,083951.00,4611.970431,N,01258.220082,E,1,08,1.3,140.69,M,46.25,M,,*61
$GPGLL,4611.970431,N,01258.220082,E,083951.00,A,A*61
$GPVTG,172.6,T,172.8,M,002.3,N,004.3,K,A*2B
$GPGSV,3,1,09,02,38,087,39,04,16,043,40,09,26,149,39,12,62,068,43*7B
$GPGSV,3,2,09,14,32,260,43,25,72,316,46,29,45,219,43,30,27,286,42*79
$GPGSV,3,3,09,31,19,314,42,,,,,,,,,,,,*4A
$GPGSA,M,3,02,04,12,14,25,29,30,31,,,,,2.3,1.3,1.9*38
Trace #86 at position 21.250000
$GPZDA,083950.04,09,10,2011,00,00*6F
$GPRMC,083950.00,A,4611.971059,N,01258.219808,E,002.4,157.7$GPGGA,083951.00,4611.970431,N,01258.220082,E,1,08,1.3,140.69,M,46.25,M,,*61
$GPGLL,4611.970431,N,01258.220082,E,083951.00,A,A*61
$GPVTG,172.6,T,172.8,M,002.3,N,004.3,K,A*2B
$GPGSV,3,1,09,02,38,087,39,04,16,043,40,09,26,149,39,12,62,068,43*7B
$GPGSV,3,2,09,14,32,260,43,25,72,316,46,29,45,219,43,30,27,286,42*79
$GPGSV,3,3,09,31,19,314,42,,,,,,,,,,,,*4A
$GPGSA,M,3,02,04,12,14,25,29,30,31,,,,,2.3,1.3,1.9*38
Trace #87 at position 21.500000
$GPZDA,083950.04,09,10,2011,00,00*6F
$GPRMC,083950.00,A,4611.971059,N,01258.219808,E,002.4,157.7$GPGGA,083951.00,4611.970431,N,01258.220082,E,1,08,1.3,140.69,M,46.25,M,,*61
$GPGLL,4611.970431,N,01258.220082,E,083951.00,A,A*61
$GPVTG,172.6,T,172.8,M,002.3,N,004.3,K,A*2B
$GPGSV,3,1,09,02,38,087,39,04,16,043,40,09,26,149,39,12,62,068,43*7B
$GPGSV,3,2,09,14,32,260,43,25,72,316,46,29,45,219,43,30,27,286,42*79
$GPGSV,3,3,09,31,19,314,42,,,,,,,,,,,,*4A
$GPGSA,M,3,02,04,12,14,25,29,30,31,,,,,2.3,1.3,1.9*38
Trace #88 at position 21.750000
$GPZDA,083950.04,09,10,2011,00,00*6F
$GPRMC,083950.00,A,4611.971059,N,01258.219808,E,002.4,157.7$GPGGA,083951.00,4611.970431,N,01258.220082,E,1,08,1.3,140.69,M,46.25,M,,*61
$GPGLL,4611.970431,N,01258.220082,E,083951.00,A,A*61
$GPVTG,172.6,T,172.8,M,002.3,N,004.3,K,A*2B
$GPGSV,3,1,09,02,38,087,39,04,16,043,40,09,26,149,39,12,62,068,43*7B
$GPGSV,3,2,09,14,32,260,43,25,72,316,46,29,45,219,43,30,27,286,42*79
$GPGSV,3,3,09,31,19,314,42,,,,,,,,,,,,*4A
$GPGSA,M,3,02,04,12,14,25,29,30,31,,,,,2.3,1.3,1.9*38
Trace #89 at position 22.000000
$GPZDA,083950.04,09,10,2011,00,00*6F
$GPRMC,083950.00,A,4611.971059,N,01258.219808,E,002.4,157.7$GPGGA,083951.00,4611.970431,N,01258.220082,E,1,08,1.3,140.69,M,46.25,M,,*61
$GPGLL,4611.970431,N,01258.220082,E,083951.00,A,A*61
$GPVTG,172.6,T,172.8,M,002.3,N,004.3,K,A*2B
$GPGSV,3,1,09,02,38,087,39,04,16,043,40,09,26,149,39,12,62,068,43*7B
$GPGSV,3,2,09,14,32,260,43,25,72,316,46,29,45,219,43,30,27,286,42*79
$GPGSV,3,3,09,31,19,314,42,,,,,,,,,,,,*4A
$GPGSA,M,3,02,04,12,14,25,29,30,31,,,,,2.3,1.3,1.9*38
Trace #90 at position 22.250000
$GPZDA,083951.04,09,10,2011,00,00*6E
$GPRMC,083951.00,A,4611.970431,N,01258.220082,E,002.3,172.6$GPGGA,083952.00,4611.969795,N,01258.220192,E,1,08,1.3,140.49,M,46.25,M,,*65
$GPGLL,4611.969795,N,01258.220192,E,083952.00,A,A*67
$GPVTG,180.2,T,180.4,M,002.4,N,004.4,K,A*23
$GPGSV,3,1,09,02,38,087,38,04,16,043,41,09,25,149,38,12,62,068,43*79
$GPGSV,3,2,09,14,32,260,42,25,72,316,47,29,45,219,42,30,27,286,42*78
$GPGSV,3,3,09,31,19,314,40,,,,,,,,,,,,*48
$GPGSA,M,3,02,04,12,14,25,29,30,31,,,,,2.3,1.3,1.9*38
Trace #91 at position 22.500000
$GPZDA,083951.04,09,10,2011,00,00*6E
$GPRMC,083951.00,A,4611.970431,N,01258.220082,E,002.3,172.6$GPGGA,083952.00,4611.969795,N,01258.220192,E,1,08,1.3,140.49,M,46.25,M,,*65
$GPGLL,4611.969795,N,01258.220192,E,083952.00,A,A*67
$GPVTG,180.2,T,180.4,M,002.4,N,004.4,K,A*23
$GPGSV,3,1,09,02,38,087,38,04,16,043,41,09,25,149,38,12,62,068,43*79
$GPGSV,3,2,09,14,32,260,42,25,72,316,47,29,45,219,42,30,27,286,42*78
$GPGSV,3,3,09,31,19,314,40,,,,,,,,,,,,*48
$GPGSA,M,3,02,04,12,14,25,29,30,31,,,,,2.3,1.3,1.9*38
Trace #92 at position 22.750000
$GPZDA,083951.04,09,10,2011,00,00*6E
$GPRMC,083951.00,A,4611.970431,N,01258.220082,E,002.3,172.6$GPGGA,083952.00,4611.969795,N,01258.220192,E,1,08,1.3,140.49,M,46.25,M,,*65
$GPGLL,4611.969795,N,01258.220192,E,083952.00,A,A*67
$GPVTG,180.2,T,180.4,M,002.4,N,004.4,K,A*23
$GPGSV,3,1,09,02,38,087,38,04,16,043,41,09,25,149,38,12,62,068,43*79
$GPGSV,3,2,09,14,32,260,42,25,72,316,47,29,45,219,42,30,27,286,42*78
$GPGSV,3,3,09,31,19,314,40,,,,,,,,,,,,*48
$GPGSA,M,3,02,04,12,14,25,29,30,31,,,,,2.3,1.3,1.9*38
Trace #93 at position 23.000000
$GPZDA,083952.04,09,10,2011,00,00*6D
$GPRMC,083952.00,A,4611.969795,N,01258.220192,E,002.4,180.2PGLL,4611.969303,N,01258.220310,E,083953.00,A,A*65
$GPVTG,166.9,T,167.1,M,001.5,N,002.7,K,A*2B
$GPGSV,3,1,09,02,38,087,40,04,16,043,40,09,25,149,39,12,62,068,43*76
$GPGSV,3,2,09,14,32,260,42,25,72,316,47,29,45,219,42,30,27,286,42*78
$GPGSV,3,3,09,31,19,314,40,,,,,,,,,,,,*48
$GPGSA,M,3,02,04,09,12,14,25,29,30,31,,,,1.8,0.9,1.6*3D
Trace #94 at position 23.250000
$GPZDA,083953.05,09,10,2011,00,00*6D
$GPRMC,083953.00,A,4611.969303,N,01258.220310,E,001.5,166.9,091011,0.2,E,A*3F
$GPGGA,083954.00,4611.968905,N,01258.220666,E,1,08,1.3,140GSV,3,2,09,14,32,260,43,25,72,316,47,29,45,219,42,30,27,287,42*78
$GPGSV,3,3,09,31,19,314,40,,,,,,,,,,,,*48
$GPGSA,M,3,02,04,12,14,25,29,30,31,,,,,2.3,1.3,1.9*38
Trace #95 at position 23.500000
$GPZDA,083953.05,09,10,2011,00,00*6D
$GPRMC,083953.00,A,4611.969303,N,01258.220310,E,001.5,166.9,091011,0.2,E,A*3F
$GPGGA,083954.00,4611.968905,N,01258.220666,E,1,08,1.3,140GSV,3,2,09,14,32,260,43,25,72,316,47,29,45,219,42,30,27,287,42*78
$GPGSV,3,3,09,31,19,314,40,,,,,,,,,,,,*48
$GPGSA,M,3,02,04,12,14,25,29,30,31,,,,,2.3,1.3,1.9*38
Trace #96 at position 23.750000
$GPZDA,083953.05,09,10,2011,00,00*6D
$GPRMC,083953.00,A,4611.969303,N,01258.220310,E,001.5,166.9,091011,0.2,E,A*3F
$GPGGA,083954.00,4611.968905,N,01258.220666,E,1,08,1.3,140GSV,3,2,09,14,32,260,43,25,72,316,47,29,45,219,42,30,27,287,42*78
$GPGSV,3,3,09,31,19,314,40,,,,,,,,,,,,*48
$GPGSA,M,3,02,04,12,14,25,29,30,31,,,,,2.3,1.3,1.9*38
Trace #97 at position 24.000000
$GPZDA,083953.05,09,10,2011,00,00*6D
$GPRMC,083953.00,A,4611.969303,N,01258.220310,E,001.5,166.9,091011,0.2,E,A*3F
$GPGGA,083954.00,4611.968905,N,01258.220666,E,1,08,1.3,140GSV,3,2,09,14,32,260,43,25,72,316,47,29,45,219,42,30,27,287,42*78
$GPGSV,3,3,09,31,19,314,40,,,,,,,,,,,,*48
$GPGSA,M,3,02,04,12,14,25,29,30,31,,,,,2.3,1.3,1.9*38
Trace #98 at position 24.250000
$GPZDA,083957.04,09,10,2011,00,$GPGGA,083958.00,4611.967099,N,01258.221556,E,1,08,1.3,140.35,M,46.25,M,,*6C
$GPGLL,4611.967099,N,01258.221556,E,083958.00,A,A*65
$GPVTG,160.8,T,161.0,M,002.5,N,004.5,K,A*2C
$GPGSV,3,1,09,02,38,087,38,04,16,043,40,09,25,149,38,12,62,068,42*79
$GPGSV,3,2,09,14,32,260,42,25,72,316,47,29,45,219,43,30,27,287,41*7B
$GPGSV,3,3,09,31,19,314,40,,,,,,,,,,,,*48
$GPGSA,M,3,02,04,12,14,25,29,30,31,,,,,2.3,1.3,1.9*38
Trace #99 at position 24.500000
$GPZDA,083958.04,09,10,2011,00,00*67
$GPRMC,083958.00,A,4611.967099,N,01258.221556,E,002.5,160.8$GPGGA,083959.00,4611.966455,N,01258.221797,E,1,08,1.3,140.21,M,46.25,M,,*62
$GPGLL,4611.966455,N,01258.221797,E,083959.00,A,A*6E
$GPVTG,174.7,T,174.8,M,002.4,N,004.4,K,A*2A
$GPGSV,3,1,09,02,38,087,39,04,16,043,40,09,25,149,36,12,62,068,42*76
$GPGSV,3,2,09,14,32,260,41,25,72,316,46,29,45,219,41,30,27,287,42*78
$GPGSV,3,3,09,31,19,314,40,,,,,,,,,,,,*48
$GPGSA,M,3,02,04,12,14,25,29,30,31,,,,,2.3,1.3,1.9*38
Trace #100 at position 24.750000
$GPZDA,083958.04,09,10,2011,00,00*67
$GPRMC,083958.00,A,4611.967099,N,01258.221556,E,002.5,160.8$GPGGA,083959.00,4611.966455,N,01258.221797,E,1,08,1.3,140.21,M,46.25,M,,*62
$GPGLL,4611.966455,N,01258.221797,E,083959.00,A,A*6E
$GPVTG,174.7,T,174.8,M,002.4,N,004.4,K,A*2A
$GPGSV,3,1,09,02,38,087,39,04,16,043,40,09,25,149,36,12,62,068,42*76
$GPGSV,3,2,09,14,32,260,41,25,72,316,46,29,45,219,41,30,27,287,42*78
$GPGSV,3,3,09,31,19,314,40,,,,,,,,,,,,*48
$GPGSA,M,3,02,04,12,14,25,29,30,31,,,,,2.3,1.3,1.9*38
Trace #101 at position 25.000000
$GPZDA,083958.04,09,10,2011,00,00*67
$GPRMC,083958.00,A,4611.967099,N,01258.221556,E,002.5,160.8$GPGGA,083959.00,4611.966455,N,01258.221797,E,1,08,1.3,140.21,M,46.25,M,,*62
$GPGLL,4611.966455,N,01258.221797,E,083959.00,A,A*6E
$GPVTG,174.7,T,174.8,M,002.4,N,004.4,K,A*2A
$GPGSV,3,1,09,02,38,087,39,04,16,043,40,09,25,149,36,12,62,068,42*76
$GPGSV,3,2,09,14,32,260,41,25,72,316,46,29,45,219,41,30,27,287,42*78
$GPGSV,3,3,09,31,19,314,40,,,,,,,,,,,,*48
$GPGSA,M,3,02,04,12,14,25,29,30,31,,,,,2.3,1.3,1.9*38
Trace #102 at position 25.250000
$GPZDA,083958.04,09,10,2011,00,00*67
$GPRMC,083958.00,A,4611.967099,N,01258.221556,E,002.5,160.8$GPGGA,083959.00,4611.966455,N,01258.221797,E,1,08,1.3,140.21,M,46.25,M,,*62
$GPGLL,4611.966455,N,01258.221797,E,083959.00,A,A*6E
$GPVTG,174.7,T,174.8,M,002.4,N,004.4,K,A*2A
$GPGSV,3,1,09,02,38,087,39,04,16,043,40,09,25,149,36,12,62,068,42*76
$GPGSV,3,2,09,14,32,260,41,25,72,316,46,29,45,219,41,30,27,287,42*78
$GPGSV,3,3,09,31,19,314,40,,,,,,,,,,,,*48
$GPGSA,M,3,02,04,12,14,25,29,30,31,,,,,2.3,1.3,1.9*38
Trace #103 at position 25.500000
$GPZDA,083959.04,09,10,2011,00,00*66
$GPRMC,083959.00,A,4611.966455,N,01258.221797,E,002.4,174.7$GPGGA,084000.00,4611.966067,N,01258.221898,E,1,08,1.3,140.21,M,46.25,M,,*65
$GPGLL,4611.966067,N,01258.221898,E,084000.00,A,A*69
$GPVTG,170.9,T,171.1,M,000.6,N,001.2,K,A*2F
$GPGSV,3,1,09,02,38,087,38,04,16,043,40,09,25,149,36,12,62,068,43*76
$GPGSV,3,2,09,14,32,260,42,25,72,316,46,29,45,219,43,30,27,287,42*79
$GPGSV,3,3,09,31,19,314,40,,,,,,,,,,,,*48
$GPGSA,M,3,02,04,12,14,25,29,30,31,,,,,2.3,1.3,1.9*38
Trace #104 at position 25.750000
$GPZDA,083959.04,09,10,2011,00,00*66
$GPRMC,083959.00,A,4611.966455,N,01258.221797,E,002.4,174.7$GPGGA,084000.00,4611.966067,N,01258.221898,E,1,08,1.3,140.21,M,46.25,M,,*65
$GPGLL,4611.966067,N,01258.221898,E,084000.00,A,A*69
$GPVTG,170.9,T,171.1,M,000.6,N,001.2,K,A*2F
$GPGSV,3,1,09,02,38,087,38,04,16,043,40,09,25,149,36,12,62,068,43*76
$GPGSV,3,2,09,14,32,260,42,25,72,316,46,29,45,219,43,30,27,287,42*79
$GPGSV,3,3,09,31,19,314,40,,,,,,,,,,,,*48
$GPGSA,M,3,02,04,12,14,25,29,30,31,,,,,2.3,1.3,1.9*38
Trace #105 at position 26.000000
$GPZDA,083959.04,09,10,2011,00,00*66
$GPRMC,083959.00,A,4611.966455,N,01258.221797,E,002.4,174.7$GPGGA,084000.00,4611.966067,N,01258.221898,E,1,08,1.3,140.21,M,46.25,M,,*65
$GPGLL,4611.966067,N,01258.221898,E,084000.00,A,A*69
$GPVTG,170.9,T,171.1,M,000.6,N,001.2,K,A*2F
$GPGSV,3,1,09,02,38,087,38,04,16,043,40,09,25,149,36,12,62,068,43*76
$GPGSV,3,2,09,14,32,260,42,25,72,316,46,29,45,219,43,30,27,287,42*79
$GPGSV,3,3,09,31,19,314,40,,,,,,,,,,,,*48
$GPGSA,M,3,02,04,12,14,25,29,30,31,,,,,2.3,1.3,1.9*38
Trace #106 at position 26.250000
$GPZDA,083959.04,09,10,2011,00,00*66
$GPRMC,083959.00,A,4611.966455,N,01258.221797,E,002.4,174.7$GPGGA,084000.00,4611.966067,N,01258.221898,E,1,08,1.3,140.21,M,46.25,M,,*65
$GPGLL,4611.966067,N,01258.221898,E,084000.00,A,A*69
$GPVTG,170.9,T,171.1,M,000.6,N,001.2,K,A*2F
$GPGSV,3,1,09,02,38,087,38,04,16,043,40,09,25,149,36,12,62,068,43*76
$GPGSV,3,2,09,14,32,260,42,25,72,316,46,29,45,219,43,30,27,287,42*79
$GPGSV,3,3,09,31,19,314,40,,,,,,,,,,,,*48
$GPGSA,M,3,02,04,12,14,25,29,30,31,,,,,2.3,1.3,1.9*38
Trace #107 at position 26.500000
$GPZDA,084000.04,09,10,2011,00,00*64
$GPRMC,084000.00,A,4611.966067,N,01258.221898,E,000.6,170.9$GPGGA,084001.00,4611.965798,N,01258.221906,E,1,08,1.3,140.15,M,46.25,M,,*61
$GPGLL,4611.965798,N,01258.221906,E,084001.00,A,A*6A
$GPVTG,191.2,T,191.4,M,001.6,N,002.9,K,A*29
$GPGSV,3,1,09,02,38,087,39,04,16,043,40,09,25,149,25,12,62,068,42*74
$GPGSV,3,2,09,14,32,260,42,25,72,316,46,29,45,219,43,30,27,287,41*7A
$GPGSV,3,3,09,31,19,314,40,,,,,,,,,,,,*48
$GPGSA,M,3,02,04,12,14,25,29,30,31,,,,,2.3,1.3,1.9*38
Trace #108 at position 26.750000
$GPZDA,084000.04,09,10,2011,00,00*64
$GPRMC,084000.00,A,4611.966067,N,01258.221898,E,000.6,170.9$GPGGA,084001.00,4611.965798,N,01258.221906,E,1,08,1.3,140.15,M,46.25,M,,*61
$GPGLL,4611.965798,N,01258.221906,E,084001.00,A,A*6A
$GPVTG,191.2,T,191.4,M,001.6,N,002.9,K,A*29
$GPGSV,3,1,09,02,38,087,39,04,16,043,40,09,25,149,25,12,62,068,42*74
$GPGSV,3,2,09,14,32,260,42,25,72,316,46,29,45,219,43,30,27,287,41*7A
$GPGSV,3,3,09,31,19,314,40,,,,,,,,,,,,*48
$GPGSA,M,3,02,04,12,14,25,29,30,31,,,,,2.3,1.3,1.9*38
Trace #109 at position 27.000000
$GPZDA,084000.04,09,10,2011,00,00*64
$GPRMC,084000.00,A,4611.966067,N,01258.221898,E,000.6,170.9$GPGGA,084001.00,4611.965798,N,01258.221906,E,1,08,1.3,140.15,M,46.25,M,,*61
$GPGLL,4611.965798,N,01258.221906,E,084001.00,A,A*6A
$GPVTG,191.2,T,191.4,M,001.6,N,002.9,K,A*29
$GPGSV,3,1,09,02,38,087,39,04,16,043,40,09,25,149,25,12,62,068,42*74
$GPGSV,3,2,09,14,32,260,42,25,72,316,46,29,45,219,43,30,27,287,41*7A
$GPGSV,3,3,09,31,19,314,40,,,,,,,,,,,,*48
$GPGSA,M,3,02,04,12,14,25,29,30,31,,,,,2.3,1.3,1.9*38
Trace #110 at position 27.250000
$GPZDA,084000.04,09,10,2011,00,00*64
$GPRMC,084000.00,A,4611.966067,N,01258.221898,E,000.6,170.9$GPGGA,084001.00,4611.965798,N,01258.221906,E,1,08,1.3,140.15,M,46.25,M,,*61
$GPGLL,4611.965798,N,01258.221906,E,084001.00,A,A*6A
$GPVTG,191.2,T,191.4,M,001.6,N,002.9,K,A*29
$GPGSV,3,1,09,02,38,087,39,04,16,043,40,09,25,149,25,12,62,068,42*74
$GPGSV,3,2,09,14,32,260,42,25,72,316,46,29,45,219,43,30,27,287,41*7A
$GPGSV,3,3,09,31,19,314,40,,,,,,,,,,,,*48
$GPGSA,M,3,02,04,12,14,25,29,30,31,,,,,2.3,1.3,1.9*38
Trace #111 at position 27.500000
$GPZDA,084001.04,09,10,2011,00,00*65
$GPRMC,084001.00,A,4611.965798,N,01258.221906,E,001.6,191.2$GPGGA,084002.00,4611.965457,N,01258.222049,E,1,07,1.5,140.02,M,46.25,M,,*6C
$GPGLL,4611.965457,N,01258.222049,E,084002.00,A,A*68
$GPVTG,151.2,T,151.4,M,001.3,N,002.4,K,A*21
$GPGSV,3,1,09,02,38,087,35,04,16,043,38,09,25,149,28,12,62,068,43*7B
$GPGSV,3,2,09,14,32,260,43,25,72,316,47,29,45,219,44,30,27,287,42*7E
$GPGSV,3,3,09,31,19,314,40,,,,,,,,,,,,*48
$GPGSA,M,3,04,12,14,25,29,30,31,,,,,,2.5,1.5,2.0*30
Trace #112 at position 27.750000
$GPZDA,084001.04,09,10,2011,00,00*65
$GPRMC,084001.00,A,4611.965798,N,01258.221906,E,001.6,191.2$GPGGA,084002.00,4611.965457,N,01258.222049,E,1,07,1.5,140.02,M,46.25,M,,*6C
$GPGLL,4611.965457,N,01258.222049,E,084002.00,A,A*68
$GPVTG,151.2,T,151.4,M,001.3,N,002.4,K,A*21
$GPGSV,3,1,09,02,38,087,35,04,16,043,38,09,25,149,28,12,62,068,43*7B
$GPGSV,3,2,09,14,32,260,43,25,72,316,47,29,45,219,44,30,27,287,42*7E
$GPGSV,3,3,09,31,19,314,40,,,,,,,,,,,,*48
$GPGSA,M,3,04,12,14,25,29,30,31,,,,,,2.5,1.5,2.0*30
Trace #113 at position 28.000000
