Trace #1 at position 0.000000
$GPZDA,085835.04,09,10,2011,00,00*6B
$GPRMC,085835.00,A,4611.979365,N,01258.218239,E,000.8,291.7,091011,0.2,E,A*31
$GPGGA,085836.00,4611.979417,N,01258.217810,E,1,06,1.8,141.11,M,46.25,M,,*66
$GPGLL,4611.979417,N,01258.217810,E,085836.00,A,A*6D
$GPVTG,279.0,T,279.1,M,001.6,N,003.0,K,A*26
$GPGSV,2,1,08,02,38,076,38,09,17,152,,12,56,079,,14,27,251,42*76
$GPGSV,2,2,08,25,77,343,46,29,54,224,41,30,35,291,42,31,27,313,42*72
$GPGSA,M,3,12,14,25,29,30,31,,,,,,,3.8,1.8,3.3*37
Trace #2 at position 0.250000
$GPZDA,085840.04,09,10,2011,00,00*69
$GPRMC,085840.00,A,4611.979590,N,01258.216001,E,000.2,157.8,091011,0.2,E,A*34
$GPGGA,085841.00,4611.979541,N,01258.216279,E,1,06,1.5,143.65,M,46.25,M,,*6C
$GPGLL,4611.979541,N,01258.216279,E,085841.00,A,A*6B
$GPVTG,6.1,T,6.3,M,000.1,N,000.2,K,A*22
$GPGSV,2,1,08,02,38,076,40,09,17,152,,12,56,079,42,14,27,251,42*7F
$GPGSV,2,2,08,25,77,343,48,29,54,224,44,30,35,291,44,31,27,313,39*73
$GPGSA,M,3,02,14,25,29,30,31,,,,,,,2.9,1.5,2.5*3C
Trace #3 at position 0.500000
$GPZDA,085841.04,09,10,2011,00,00*68
$GPRMC,085841.00,A,4611.979541,N,01258.216279,E,000.1,6.1,091011,0.2,E,A*3B
$GPGGA,085842.00,4611.979506,N,01258.216511,E,1,06,1.5,143.21,M,46.25,M,,*65
$GPGLL,4611.979506,N,01258.216511,E,085842.00,A,A*62
$GPVTG,176.7,T,176.8,M,000.1,N,000.2,K,A*2F
$GPGSV,2,1,08,02,38,076,42,09,17,152,,12,56,079,43,14,27,251,44*7A
$GPGSV,2,2,08,25,77,343,49,29,54,224,43,30,35,291,43,31,27,313,40*7C
$GPGSA,M,3,02,14,25,29,30,31,,,,,,,2.9,1.5,2.5*3C
Trace #4 at position 0.750000
$GPZDA,085841.04,09,10,2011,00,00*68
$GPRMC,085841.00,A,4611.979541,N,01258.216279,E,000.1,6.1,091011,0.2,E,A*3B
$GPGGA,085842.00,4611.979506,N,01258.216511,E,1,06,1.5,143.21,M,46.25,M,,*65
$GPGLL,4611.979506,N,01258.216511,E,085842.00,A,A*62
$GPVTG,176.7,T,176.8,M,000.1,N,000.2,K,A*2F
$GPGSV,2,1,08,02,38,076,42,09,17,152,,12,56,079,43,14,27,251,44*7A
$GPGSV,2,2,08,25,77,343,49,29,54,224,43,30,35,291,43,31,27,313,40*7C
$GPGSA,M,3,02,14,25,29,30,31,,,,,,,2.9,1.5,2.5*3C
Trace #5 at position 1.000000
$GPZDA,085842.03,09,10,2011,00,00*6C
$GPRMC,085842.00,A,4611.979506,N,01258.216511,E,000.1,176.7,091011,0.2,E,A*32
$GPGGA,085843.00,4611.979463,N,01258.216716,E,1,06,1.5,142.85,M,46.25,M,,*6C
$GPGLL,4611.979463,N,01258.216716,E,085843.00,A,A*64
$GPVTG,37.3,T,37.4,M,000.0,N,000.0,K,A*24
$GPGSV,2,1,08,02,38,076,41,09,17,152,,12,56,079,43,14,27,251,42*7F
$GPGSV,2,2,08,25,77,343,50,29,54,224,44,30,35,291,42,31,27,313,42*70
$GPGSA,M,3,02,14,25,29,30,31,,,,,,,2.9,1.5,2.5*3C
Trace #6 at position 1.250000
$GPZDA,085842.03,09,10,2011,00,00*6C
$GPRMC,085842.00,A,4611.979506,N,01258.216511,E,000.1,176.7,091011,0.2,E,A*32
$GPGGA,085843.00,4611.979463,N,01258.216716,E,1,06,1.5,142.85,M,46.25,M,,*6C
$GPGLL,4611.979463,N,01258.216716,E,085843.00,A,A*64
$GPVTG,37.3,T,37.4,M,000.0,N,000.0,K,A*24
$GPGSV,2,1,08,02,38,076,41,09,17,152,,12,56,079,43,14,27,251,42*7F
$GPGSV,2,2,08,25,77,343,50,29,54,224,44,30,35,291,42,31,27,313,42*70
$GPGSA,M,3,02,14,25,29,30,31,,,,,,,2.9,1.5,2.5*3C
Trace #7 at position 1.500000
$GPZDA,085843.04,09,10,2011,00,00*6A
$GPRMC,085843.00,A,4611.979463,N,01258.216716,E,000.0,37.3,091011,0.2,E,A*05
$GPGGA,085844.00,4611.979430,N,01258.216869,E,1,07,1.4,142.58,M,46.25,M,,*6A
$GPGLL,4611.979430,N,01258.216869,E,085844.00,A,A*62
$GPVTG,133.3,T,133.5,M,000.1,N,000.2,K,A*26
$GPGSV,2,1,08,02,38,076,39,09,17,152,,12,56,079,42,14,27,251,42*71
$GPGSV,2,2,08,25,77,343,48,29,54,224,42,30,35,291,40,31,27,313,43*7C
$GPGSA,M,3,02,12,14,25,29,30,31,,,,,,2.8,1.4,2.5*3F
Trace #8 at position 1.750000
$GPZDA,085843.04,09,10,2011,00,00*6A
$GPRMC,085843.00,A,4611.979463,N,01258.216716,E,000.0,37.3,091011,0.2,E,A*05
$GPGGA,085844.00,4611.979430,N,01258.216869,E,1,07,1.4,142.58,M,46.25,M,,*6A
$GPGLL,4611.979430,N,01258.216869,E,085844.00,A,A*62
$GPVTG,133.3,T,133.5,M,000.1,N,000.2,K,A*26
$GPGSV,2,1,08,02,38,076,39,09,17,152,,12,56,079,42,14,27,251,42*71
$GPGSV,2,2,08,25,77,343,48,29,54,224,42,30,35,291,40,31,27,313,43*7C
$GPGSA,M,3,02,12,14,25,29,30,31,,,,,,2.8,1.4,2.5*3F
Trace #9 at position 2.000000
$GPZDA,085843.04,09,10,2011,00,00*6A
$GPRMC,085843.00,A,4611.979463,N,01258.216716,E,000.0,37.3,091011,0.2,E,A*05
$GPGGA,085844.00,4611.979430,N,01258.216869,E,1,07,1.4,142.58,M,46.25,M,,*6A
$GPGLL,4611.979430,N,01258.216869,E,085844.00,A,A*62
$GPVTG,133.3,T,133.5,M,000.1,N,000.2,K,A*26
$GPGSV,2,1,08,02,38,076,39,09,17,152,,12,56,079,42,14,27,251,42*71
$GPGSV,2,2,08,25,77,343,48,29,54,224,42,30,35,291,40,31,27,313,43*7C
$GPGSA,M,3,02,12,14,25,29,30,31,,,,,,2.8,1.4,2.5*3F
Trace #10 at position 2.250000
$GPZDA,085844.04,09,10,2011,00,00*6D
$GPRMC,085844.00,A,4611.979430,N,01258.216869,E,000.1,133.3,091011,0.2,E,A*37
$GPGGA,085845.00,4611.979288,N,01258.217105,E,1,07,1.4,142.36,M,46.25,M,,*64
$GPGLL,4611.979288,N,01258.217105,E,085845.00,A,A*64
$GPVTG,147.2,T,147.3,M,000.9,N,001.7,K,A*2D
$GPGSV,2,1,08,02,38,076,41,09,17,152,,12,56,079,38,14,27,251,43*72
$GPGSV,2,2,08,25,77,343,48,29,54,224,43,30,35,291,42,31,27,313,41*7D
$GPGSA,M,3,02,12,14,25,29,30,31,,,,,,2.8,1.4,2.4*3E
Trace #11 at position 2.500000
$GPZDA,085844.04,09,10,2011,00,00*6D
$GPRMC,085844.00,A,4611.979430,N,01258.216869,E,000.1,133.3,091011,0.2,E,A*37
$GPGGA,085845.00,4611.979288,N,01258.217105,E,1,07,1.4,142.36,M,46.25,M,,*64
$GPGLL,4611.979288,N,01258.217105,E,085845.00,A,A*64
$GPVTG,147.2,T,147.3,M,000.9,N,001.7,K,A*2D
$GPGSV,2,1,08,02,38,076,41,09,17,152,,12,56,079,38,14,27,251,43*72
$GPGSV,2,2,08,25,77,343,48,29,54,224,43,30,35,291,42,31,27,313,41*7D
$GPGSA,M,3,02,12,14,25,29,30,31,,,,,,2.8,1.4,2.4*3E
Trace #12 at position 2.750000
$GPZDA,085844.04,09,10,2011,00,00*6D
$GPRMC,085844.00,A,4611.979430,N,01258.216869,E,000.1,133.3,091011,0.2,E,A*37
$GPGGA,085845.00,4611.979288,N,01258.217105,E,1,07,1.4,142.36,M,46.25,M,,*64
$GPGLL,4611.979288,N,01258.217105,E,085845.00,A,A*64
$GPVTG,147.2,T,147.3,M,000.9,N,001.7,K,A*2D
$GPGSV,2,1,08,02,38,076,41,09,17,152,,12,56,079,38,14,27,251,43*72
$GPGSV,2,2,08,25,77,343,48,29,54,224,43,30,35,291,42,31,27,313,41*7D
$GPGSA,M,3,02,12,14,25,29,30,31,,,,,,2.8,1.4,2.4*3E
Trace #13 at position 3.000000
$GPZDA,085844.04,09,10,2011,00,00*6D
$GPRMC,085844.00,A,4611.979430,N,01258.216869,E,000.1,133.3,091011,0.2,E,A*37
$GPGGA,085845.00,4611.979288,N,01258.217105,E,1,07,1.4,142.36,M,46.25,M,,*64
$GPGLL,4611.979288,N,01258.217105,E,085845.00,A,A*64
$GPVTG,147.2,T,147.3,M,000.9,N,001.7,K,A*2D
$GPGSV,2,1,08,02,38,076,41,09,17,152,,12,56,079,38,14,27,251,43*72
$GPGSV,2,2,08,25,77,343,48,29,54,224,43,30,35,291,42,31,27,313,41*7D
$GPGSA,M,3,02,12,14,25,29,30,31,,,,,,2.8,1.4,2.4*3E
Trace #14 at position 3.250000
$GPZDA,085845.04,09,10,2011,00,00*6C
$GPRMC,085845.00,A,4611.979288,N,01258.217105,E,000.9,147.2,091011,0.2,E,A*3B
$GPGGA,085846.00,4611.979010,N,01258.217365,E,1,07,1.4,142.07,M,46.25,M,,*62
$GPGLL,4611.979010,N,01258.217365,E,085846.00,A,A*60
$GPVTG,166.3,T,166.5,M,001.1,N,002.1,K,A*26
$GPGSV,2,1,08,02,38,076,39,09,17,152,,12,56,079,41,14,27,251,41*71
$GPGSV,2,2,08,25,77,343,47,29,54,224,43,30,35,291,44,31,27,313,39*7B
$GPGSA,M,3,02,12,14,25,29,30,31,,,,,,2.8,1.4,2.4*3E
Trace #15 at position 3.500000
$GPZDA,085845.04,09,10,2011,00,00*6C
$GPRMC,085845.00,A,4611.979288,N,01258.217105,E,000.9,147.2,091011,0.2,E,A*3B
$GPGGA,085846.00,4611.979010,N,01258.217365,E,1,07,1.4,142.07,M,46.25,M,,*62
$GPGLL,4611.979010,N,01258.217365,E,085846.00,A,A*60
$GPVTG,166.3,T,166.5,M,001.1,N,002.1,K,A*26
$GPGSV,2,1,08,02,38,076,39,09,17,152,,12,56,079,41,14,27,251,41*71
$GPGSV,2,2,08,25,77,343,47,29,54,224,43,30,35,291,44,31,27,313,39*7B
$GPGSA,M,3,02,12,14,25,29,30,31,,,,,,2.8,1.4,2.4*3E
Trace #16 at position 3.750000
$GPZDA,085845.04,09,10,2011,00,00*6C
$GPRMC,085845.00,A,4611.979288,N,01258.217105,E,000.9,147.2,091011,0.2,E,A*3B
$GPGGA,085846.00,4611.979010,N,01258.217365,E,1,07,1.4,142.07,M,46.25,M,,*62
$GPGLL,4611.979010,N,01258.217365,E,085846.00,A,A*60
$GPVTG,166.3,T,166.5,M,001.1,N,002.1,K,A*26
$GPGSV,2,1,08,02,38,076,39,09,17,152,,12,56,079,41,14,27,251,41*71
$GPGSV,2,2,08,25,77,343,47,29,54,224,43,30,35,291,44,31,27,313,39*7B
$GPGSA,M,3,02,12,14,25,29,30,31,,,,,,2.8,1.4,2.4*3E
Trace #17 at position 4.000000
$GPZDA,085846.04,09,10,2011,00,00*6F
$GPRMC,085846.00,A,4611.979010,N,01258.217365,E,001.1,166.3,091011,0.2,E,A*34
$GPGGA,085847.00,4611.978720,N,01258.217638,E,1,07,1.4,141.78,M,46.25,M,,*60
$GPGLL,4611.978720,N,01258.217638,E,085847.00,A,A*69
$GPVTG,145.7,T,145.9,M,001.1,N,002.1,K,A*2E
$GPGSV,2,1,08,02,38,076,40,09,17,152,,12,56,079,40,14,27,251,41*7E
$GPGSV,2,2,08,25,77,343,48,29,54,224,43,30,35,291,42,31,27,313,43*7F
$GPGSA,M,3,02,12,14,25,29,30,31,,,,,,2.8,1.4,2.4*3E
Trace #18 at position 4.250000
$GPZDA,085846.04,09,10,2011,00,00*6F
$GPRMC,085846.00,A,4611.979010,N,01258.217365,E,001.1,166.3,091011,0.2,E,A*34
$GPGGA,085847.00,4611.978720,N,01258.217638,E,1,07,1.4,141.78,M,46.25,M,,*60
$GPGLL,4611.978720,N,01258.217638,E,085847.00,A,A*69
$GPVTG,145.7,T,145.9,M,001.1,N,002.1,K,A*2E
$GPGSV,2,1,08,02,38,076,40,09,17,152,,12,56,079,40,14,27,251,41*7E
$GPGSV,2,2,08,25,77,343,48,29,54,224,43,30,35,291,42,31,27,313,43*7F
$GPGSA,M,3,02,12,14,25,29,30,31,,,,,,2.8,1.4,2.4*3E
Trace #19 at position 4.500000
$GPZDA,085846.04,09,10,2011,00,00*6F
$GPRMC,085846.00,A,4611.979010,N,01258.217365,E,001.1,166.3,091011,0.2,E,A*34
$GPGGA,085847.00,4611.978720,N,01258.217638,E,1,07,1.4,141.78,M,46.25,M,,*60
$GPGLL,4611.978720,N,01258.217638,E,085847.00,A,A*69
$GPVTG,145.7,T,145.9,M,001.1,N,002.1,K,A*2E
$GPGSV,2,1,08,02,38,076,40,09,17,152,,12,56,079,40,14,27,251,41*7E
$GPGSV,2,2,08,25,77,343,48,29,54,224,43,30,35,291,42,31,27,313,43*7F
$GPGSA,M,3,02,12,14,25,29,30,31,,,,,,2.8,1.4,2.4*3E
Trace #20 at position 4.750000
$GPZDA,085846.04,09,10,2011,00,00*6F
$GPRMC,085846.00,A,4611.979010,N,01258.217365,E,001.1,166.3,091011,0.2,E,A*34
$GPGGA,085847.00,4611.978720,N,01258.217638,E,1,07,1.4,141.78,M,46.25,M,,*60
$GPGLL,4611.978720,N,01258.217638,E,085847.00,A,A*69
$GPVTG,145.7,T,145.9,M,001.1,N,002.1,K,A*2E
$GPGSV,2,1,08,02,38,076,40,09,17,152,,12,56,079,40,14,27,251,41*7E
$GPGSV,2,2,08,25,77,343,48,29,54,224,43,30,35,291,42,31,27,313,43*7F
$GPGSA,M,3,02,12,14,25,29,30,31,,,,,,2.8,1.4,2.4*3E
Trace #21 at position 5.000000
$GPZDA,085847.04,09,10,2011,00,00*6E
$GPRMC,085847.00,A,4611.978720,N,01258.217638,E,001.1,145.7,091011,0.2,E,A*38
$GPGGA,085848.00,4611.978337,N,01258.218094,E,1,07,1.4,141.55,M,46.25,M,,*6D
$GPGLL,4611.978337,N,01258.218094,E,085848.00,A,A*6B
$GPVTG,141.8,T,142.0,M,002.3,N,004.2,K,A*2F
$GPGSV,2,1,08,02,38,076,41,09,17,152,,12,56,079,42,14,27,251,42*7E
$GPGSV,2,2,08,25,77,343,48,29,54,224,43,30,35,291,42,31,27,313,42*7E
$GPGSA,M,3,02,12,14,25,29,30,31,,,,,,2.8,1.4,2.4*3E
Trace #22 at position 5.250000
$GPZDA,085847.04,09,10,2011,00,00*6E
$GPRMC,085847.00,A,4611.978720,N,01258.217638,E,001.1,145.7,091011,0.2,E,A*38
$GPGGA,085848.00,4611.978337,N,01258.218094,E,1,07,1.4,141.55,M,46.25,M,,*6D
$GPGLL,4611.978337,N,01258.218094,E,085848.00,A,A*6B
$GPVTG,141.8,T,142.0,M,002.3,N,004.2,K,A*2F
$GPGSV,2,1,08,02,38,076,41,09,17,152,,12,56,079,42,14,27,251,42*7E
$GPGSV,2,2,08,25,77,343,48,29,54,224,43,30,35,291,42,31,27,313,42*7E
$GPGSA,M,3,02,12,14,25,29,30,31,,,,,,2.8,1.4,2.4*3E
Trace #23 at position 5.500000
$GPZDA,085847.04,09,10,2011,00,00*6E
$GPRMC,085847.00,A,4611.978720,N,01258.217638,E,001.1,145.7,091011,0.2,E,A*38
$GPGGA,085848.00,4611.978337,N,01258.218094,E,1,07,1.4,141.55,M,46.25,M,,*6D
$GPGLL,4611.978337,N,01258.218094,E,085848.00,A,A*6B
$GPVTG,141.8,T,142.0,M,002.3,N,004.2,K,A*2F
$GPGSV,2,1,08,02,38,076,41,09,17,152,,12,56,079,42,14,27,251,42*7E
$GPGSV,2,2,08,25,77,343,48,29,54,224,43,30,35,291,42,31,27,313,42*7E
$GPGSA,M,3,02,12,14,25,29,30,31,,,,,,2.8,1.4,2.4*3E
Trace #24 at position 5.750000
$GPZDA,085847.04,09,10,2011,00,00*6E
$GPRMC,085847.00,A,4611.978720,N,01258.217638,E,001.1,145.7,091011,0.2,E,A*38
$GPGGA,085848.00,4611.978337,N,01258.218094,E,1,07,1.4,141.55,M,46.25,M,,*6D
$GPGLL,4611.978337,N,01258.218094,E,085848.00,A,A*6B
$GPVTG,141.8,T,142.0,M,002.3,N,004.2,K,A*2F
$GPGSV,2,1,08,02,38,076,41,09,17,152,,12,56,079,42,14,27,251,42*7E
$GPGSV,2,2,08,25,77,343,48,29,54,224,43,30,35,291,42,31,27,313,42*7E
$GPGSA,M,3,02,12,14,25,29,30,31,,,,,,2.8,1.4,2.4*3E
Trace #25 at position 6.000000
$GPZDA,085848.04,09,10,2011,00,00*61
$GPRMC,085848.00,A,4611.978337,N,01258.218094,E,002.3,141.8,091011,0.2,E,A*30
$GPGGA,085849.00,4611.977870,N,01258.218516,E,1,07,1.4,141.39,M,46.25,M,,*6E
$GPGLL,4611.977870,N,01258.218516,E,085849.00,A,A*62
$GPVTG,159.8,T,159.9,M,001.6,N,003.0,K,A*26
$GPGSV,2,1,08,02,38,076,41,09,17,152,,12,55,079,41,14,27,251,42*7E
$GPGSV,2,2,08,25,77,344,48,29,54,224,44,30,35,291,42,31,27,313,41*7D
$GPGSA,M,3,02,12,14,25,29,30,31,,,,,,2.8,1.4,2.4*3E
Trace #26 at position 6.250000
$GPZDA,085848.04,09,10,2011,00,00*61
$GPRMC,085848.00,A,4611.978337,N,01258.218094,E,002.3,141.8,091011,0.2,E,A*30
$GPGGA,085849.00,4611.977870,N,01258.218516,E,1,07,1.4,141.39,M,46.25,M,,*6E
$GPGLL,4611.977870,N,01258.218516,E,085849.00,A,A*62
$GPVTG,159.8,T,159.9,M,001.6,N,003.0,K,A*26
$GPGSV,2,1,08,02,38,076,41,09,17,152,,12,55,079,41,14,27,251,42*7E
$GPGSV,2,2,08,25,77,344,48,29,54,224,44,30,35,291,42,31,27,313,41*7D
$GPGSA,M,3,02,12,14,25,29,30,31,,,,,,2.8,1.4,2.4*3E
Trace #27 at position 6.500000
$GPZDA,085848.04,09,10,2011,00,00*61
$GPRMC,085848.00,A,4611.978337,N,01258.218094,E,002.3,141.8,091011,0.2,E,A*30
$GPGGA,085849.00,4611.977870,N,01258.218516,E,1,07,1.4,141.39,M,46.25,M,,*6E
$GPGLL,4611.977870,N,01258.218516,E,085849.00,A,A*62
$GPVTG,159.8,T,159.9,M,001.6,N,003.0,K,A*26
$GPGSV,2,1,08,02,38,076,41,09,17,152,,12,55,079,41,14,27,251,42*7E
$GPGSV,2,2,08,25,77,344,48,29,54,224,44,30,35,291,42,31,27,313,41*7D
$GPGSA,M,3,02,12,14,25,29,30,31,,,,,,2.8,1.4,2.4*3E
Trace #28 at position 6.750000
$GPZDA,085848.04,09,10,2011,00,00*61
$GPRMC,085848.00,A,4611.978337,N,01258.218094,E,002.3,141.8,091011,0.2,E,A*30
$GPGGA,085849.00,4611.977870,N,01258.218516,E,1,07,1.4,141.39,M,46.25,M,,*6E
$GPGLL,4611.977870,N,01258.218516,E,085849.00,A,A*62
$GPVTG,159.8,T,159.9,M,001.6,N,003.0,K,A*26
$GPGSV,2,1,08,02,38,076,41,09,17,152,,12,55,079,41,14,27,251,42*7E
$GPGSV,2,2,08,25,77,344,48,29,54,224,44,30,35,291,42,31,27,313,41*7D
$GPGSA,M,3,02,12,14,25,29,30,31,,,,,,2.8,1.4,2.4*3E
Trace #29 at position 7.000000
$GPZDA,085849.04,09,10,2011,00,00*60
$GPRMC,085849.00,A,4611.977870,N,01258.218516,E,001.6,159.8,091011,0.2,E,A*36
$GPGGA,085850.00,4611.977544,N,01258.218716,E,1,07,1.4,141.43,M,46.25,M,,*63
$GPGLL,4611.977544,N,01258.218716,E,085850.00,A,A*62
$GPVTG,156.9,T,157.1,M,000.7,N,001.4,K,A*28
$GPGSV,2,1,08,02,38,076,41,09,17,152,,12,55,079,40,14,27,251,42*7F
$GPGSV,2,2,08,25,77,344,48,29,54,224,42,30,35,291,43,31,27,313,42*79
$GPGSA,M,3,02,12,14,25,29,30,31,,,,,,2.8,1.4,2.4*3E
Trace #30 at position 7.250000
$GPZDA,085849.04,09,10,2011,00,00*60
$GPRMC,085849.00,A,4611.977870,N,01258.218516,E,001.6,159.8,091011,0.2,E,A*36
$GPGGA,085850.00,4611.977544,N,01258.218716,E,1,07,1.4,141.43,M,46.25,M,,*63
$GPGLL,4611.977544,N,01258.218716,E,085850.00,A,A*62
$GPVTG,156.9,T,157.1,M,000.7,N,001.4,K,A*28
$GPGSV,2,1,08,02,38,076,41,09,17,152,,12,55,079,40,14,27,251,42*7F
$GPGSV,2,2,08,25,77,344,48,29,54,224,42,30,35,291,43,31,27,313,42*79
$GPGSA,M,3,02,12,14,25,29,30,31,,,,,,2.8,1.4,2.4*3E
Trace #31 at position 7.500000
$GPZDA,085849.04,09,10,2011,00,00*60
$GPRMC,085849.00,A,4611.977870,N,01258.218516,E,001.6,159.8,091011,0.2,E,A*36
$GPGGA,085850.00,4611.977544,N,01258.218716,E,1,07,1.4,141.43,M,46.25,M,,*63
$GPGLL,4611.977544,N,01258.218716,E,085850.00,A,A*62
$GPVTG,156.9,T,157.1,M,000.7,N,001.4,K,A*28
$GPGSV,2,1,08,02,38,076,41,09,17,152,,12,55,079,40,14,27,251,42*7F
$GPGSV,2,2,08,25,77,344,48,29,54,224,42,30,35,291,43,31,27,313,42*79
$GPGSA,M,3,02,12,14,25,29,30,31,,,,,,2.8,1.4,2.4*3E
Trace #32 at position 7.750000
$GPZDA,085849.04,09,10,2011,00,00*60
$GPRMC,085849.00,A,4611.977870,N,01258.218516,E,001.6,159.8,091011,0.2,E,A*36
$GPGGA,085850.00,4611.977544,N,01258.218716,E,1,07,1.4,141.43,M,46.25,M,,*63
$GPGLL,4611.977544,N,01258.218716,E,085850.00,A,A*62
$GPVTG,156.9,T,157.1,M,000.7,N,001.4,K,A*28
$GPGSV,2,1,08,02,38,076,41,09,17,152,,12,55,079,40,14,27,251,42*7F
$GPGSV,2,2,08,25,77,344,48,29,54,224,42,30,35,291,43,31,27,313,42*79
$GPGSA,M,3,02,12,14,25,29,30,31,,,,,,2.8,1.4,2.4*3E
Trace #33 at position 8.000000
$GPZDA,085850.04,09,10,2011,00,00*68
$GPRMC,085850.00,A,4611.977544,N,01258.218716,E,000.7,156.9,091011,0.2,E,A*38
$GPGGA,085851.00,4611.977195,N,01258.218905,E,1,07,1.4,141.45,M,46.25,M,,*60
$GPGLL,4611.977195,N,01258.218905,E,085851.00,A,A*67
$GPVTG,161.0,T,161.1,M,001.6,N,003.0,K,A*26
$GPGSV,2,1,08,02,38,076,40,09,17,152,,12,55,079,39,14,27,251,41*73
$GPGSV,2,2,08,25,77,344,48,29,54,224,42,30,35,291,43,31,27,313,41*7A
$GPGSA,M,3,02,12,14,25,29,30,31,,,,,,2.8,1.4,2.4*3E
Trace #34 at position 8.250000
$GPZDA,085850.04,09,10,2011,00,00*68
$GPRMC,085850.00,A,4611.977544,N,01258.218716,E,000.7,156.9,091011,0.2,E,A*38
$GPGGA,085851.00,4611.977195,N,01258.218905,E,1,07,1.4,141.45,M,46.25,M,,*60
$GPGLL,4611.977195,N,01258.218905,E,085851.00,A,A*67
$GPVTG,161.0,T,161.1,M,001.6,N,003.0,K,A*26
$GPGSV,2,1,08,02,38,076,40,09,17,152,,12,55,079,39,14,27,251,41*73
$GPGSV,2,2,08,25,77,344,48,29,54,224,42,30,35,291,43,31,27,313,41*7A
$GPGSA,M,3,02,12,14,25,29,30,31,,,,,,2.8,1.4,2.4*3E
Trace #35 at position 8.500000
$GPZDA,085850.04,09,10,2011,00,00*68
$GPRMC,085850.00,A,4611.977544,N,01258.218716,E,000.7,156.9,091011,0.2,E,A*38
$GPGGA,085851.00,4611.977195,N,01258.218905,E,1,07,1.4,141.45,M,46.25,M,,*60
$GPGLL,4611.977195,N,01258.218905,E,085851.00,A,A*67
$GPVTG,161.0,T,161.1,M,001.6,N,003.0,K,A*26
$GPGSV,2,1,08,02,38,076,40,09,17,152,,12,55,079,39,14,27,251,41*73
$GPGSV,2,2,08,25,77,344,48,29,54,224,42,30,35,291,43,31,27,313,41*7A
$GPGSA,M,3,02,12,14,25,29,30,31,,,,,,2.8,1.4,2.4*3E
Trace #36 at position 8.750000
$GPZDA,085850.04,09,10,2011,00,00*68
$GPRMC,085850.00,A,4611.977544,N,01258.218716,E,000.7,156.9,091011,0.2,E,A*38
$GPGGA,085851.00,4611.977195,N,01258.218905,E,1,07,1.4,141.45,M,46.25,M,,*60
$GPGLL,4611.977195,N,01258.218905,E,085851.00,A,A*67
$GPVTG,161.0,T,161.1,M,001.6,N,003.0,K,A*26
$GPGSV,2,1,08,02,38,076,40,09,17,152,,12,55,079,39,14,27,251,41*73
$GPGSV,2,2,08,25,77,344,48,29,54,224,42,30,35,291,43,31,27,313,41*7A
$GPGSA,M,3,02,12,14,25,29,30,31,,,,,,2.8,1.4,2.4*3E
Trace #37 at position 9.000000
$GPZDA,085851.04,09,10,2011,00,00*69
$GPRMC,085851.00,A,4611.977195,N,01258.218905,E,001.6,161.0,091011,0.2,E,A*30
$GPGGA,085852.00,4611.976688,N,01258.219101,E,1,07,1.4,141.29,M,46.25,M,,*6E
$GPGLL,4611.976688,N,01258.219101,E,085852.00,A,A*63
$GPVTG,170.8,T,171.0,M,001.9,N,003.5,K,A*24
$GPGSV,2,1,08,02,38,076,41,09,17,152,,12,55,079,40,14,27,251,41*7C
$GPGSV,2,2,08,25,77,344,47,29,54,224,43,30,35,291,43,31,27,313,41*74
$GPGSA,M,3,02,12,14,25,29,30,31,,,,,,2.8,1.4,2.4*3E
Trace #38 at position 9.250000
$GPZDA,085851.04,09,10,2011,00,00*69
$GPRMC,085851.00,A,4611.977195,N,01258.218905,E,001.6,161.0,091011,0.2,E,A*30
$GPGGA,085852.00,4611.976688,N,01258.219101,E,1,07,1.4,141.29,M,46.25,M,,*6E
$GPGLL,4611.976688,N,01258.219101,E,085852.00,A,A*63
$GPVTG,170.8,T,171.0,M,001.9,N,003.5,K,A*24
$GPGSV,2,1,08,02,38,076,41,09,17,152,,12,55,079,40,14,27,251,41*7C
$GPGSV,2,2,08,25,77,344,47,29,54,224,43,30,35,291,43,31,27,313,41*74
$GPGSA,M,3,02,12,14,25,29,30,31,,,,,,2.8,1.4,2.4*3E
Trace #39 at position 9.500000
$GPZDA,085851.04,09,10,2011,00,00*69
$GPRMC,085851.00,A,4611.977195,N,01258.218905,E,001.6,161.0,091011,0.2,E,A*30
$GPGGA,085852.00,4611.976688,N,01258.219101,E,1,07,1.4,141.29,M,46.25,M,,*6E
$GPGLL,4611.976688,N,01258.219101,E,085852.00,A,A*63
$GPVTG,170.8,T,171.0,M,001.9,N,003.5,K,A*24
$GPGSV,2,1,08,02,38,076,41,09,17,152,,12,55,079,40,14,27,251,41*7C
$GPGSV,2,2,08,25,77,344,47,29,54,224,43,30,35,291,43,31,27,313,41*74
$GPGSA,M,3,02,12,14,25,29,30,31,,,,,,2.8,1.4,2.4*3E
Trace #40 at position 9.750000
$GPZDA,085851.04,09,10,2011,00,00*69
$GPRMC,085851.00,A,4611.977195,N,01258.218905,E,001.6,161.0,091011,0.2,E,A*30
$GPGGA,085852.00,4611.976688,N,01258.219101,E,1,07,1.4,141.29,M,46.25,M,,*6E
$GPGLL,4611.976688,N,01258.219101,E,085852.00,A,A*63
$GPVTG,170.8,T,171.0,M,001.9,N,003.5,K,A*24
$GPGSV,2,1,08,02,38,076,41,09,17,152,,12,55,079,40,14,27,251,41*7C
$GPGSV,2,2,08,25,77,344,47,29,54,224,43,30,35,291,43,31,27,313,41*74
$GPGSA,M,3,02,12,14,25,29,30,31,,,,,,2.8,1.4,2.4*3E
Trace #41 at position 10.000000
$GPZDA,085852.04,09,10,2011,00,00*6A
$GPRMC,085852.00,A,4611.976688,N,01258.219101,E,001.9,170.8,091011,0.2,E,A*33
$GPGGA,085853.00,4611.976126,N,01258.219382,E,1,07,1.4,141.08,M,46.25,M,,*66
$GPGLL,4611.976126,N,01258.219382,E,085853.00,A,A*68
$GPVTG,153.9,T,154.1,M,002.2,N,004.0,K,A*28
$GPGSV,2,1,08,02,38,076,41,09,17,152,,12,55,079,40,14,27,251,41*7C
$GPGSV,2,2,08,25,77,344,47,29,54,224,43,30,35,291,43,31,27,313,42*77
$GPGSA,M,3,02,12,14,25,29,30,31,,,,,,2.8,1.4,2.4*3E
Trace #42 at position 10.250000
$GPZDA,085852.04,09,10,2011,00,00*6A
$GPRMC,085852.00,A,4611.976688,N,01258.219101,E,001.9,170.8,091011,0.2,E,A*33
$GPGGA,085853.00,4611.976126,N,01258.219382,E,1,07,1.4,141.08,M,46.25,M,,*66
$GPGLL,4611.976126,N,01258.219382,E,085853.00,A,A*68
$GPVTG,153.9,T,154.1,M,002.2,N,004.0,K,A*28
$GPGSV,2,1,08,02,38,076,41,09,17,152,,12,55,079,40,14,27,251,41*7C
$GPGSV,2,2,08,25,77,344,47,29,54,224,43,30,35,291,43,31,27,313,42*77
$GPGSA,M,3,02,12,14,25,29,30,31,,,,,,2.8,1.4,2.4*3E
Trace #43 at position 10.500000
$GPZDA,085852.04,09,10,2011,00,00*6A
$GPRMC,085852.00,A,4611.976688,N,01258.219101,E,001.9,170.8,091011,0.2,E,A*33
$GPGGA,085853.00,4611.976126,N,01258.219382,E,1,07,1.4,141.08,M,46.25,M,,*66
$GPGLL,4611.976126,N,01258.219382,E,085853.00,A,A*68
$GPVTG,153.9,T,154.1,M,002.2,N,004.0,K,A*28
$GPGSV,2,1,08,02,38,076,41,09,17,152,,12,55,079,40,14,27,251,41*7C
$GPGSV,2,2,08,25,77,344,47,29,54,224,43,30,35,291,43,31,27,313,42*77
$GPGSA,M,3,02,12,14,25,29,30,31,,,,,,2.8,1.4,2.4*3E
Trace #44 at position 10.750000
$GPZDA,085852.04,09,10,2011,00,00*6A
$GPRMC,085852.00,A,4611.976688,N,01258.219101,E,001.9,170.8,091011,0.2,E,A*33
$GPGGA,085853.00,4611.976126,N,01258.219382,E,1,07,1.4,141.08,M,46.25,M,,*66
$GPGLL,4611.976126,N,01258.219382,E,085853.00,A,A*68
$GPVTG,153.9,T,154.1,M,002.2,N,004.0,K,A*28
$GPGSV,2,1,08,02,38,076,41,09,17,152,,12,55,079,40,14,27,251,41*7C
$GPGSV,2,2,08,25,77,344,47,29,54,224,43,30,35,291,43,31,27,313,42*77
$GPGSA,M,3,02,12,14,25,29,30,31,,,,,,2.8,1.4,2.4*3E
Trace #45 at position 11.000000
$GPZDA,085852.04,09,10,2011,00,00*6A
$GPRMC,085852.00,A,4611.976688,N,01258.219101,E,001.9,170.8,091011,0.2,E,A*33
$GPGGA,085853.00,4611.976126,N,01258.219382,E,1,07,1.4,141.08,M,46.25,M,,*66
$GPGLL,4611.976126,N,01258.219382,E,085853.00,A,A*68
$GPVTG,153.9,T,154.1,M,002.2,N,004.0,K,A*28
$GPGSV,2,1,08,02,38,076,41,09,17,152,,12,55,079,40,14,27,251,41*7C
$GPGSV,2,2,08,25,77,344,47,29,54,224,43,30,35,291,43,31,27,313,42*77
$GPGSA,M,3,02,12,14,25,29,30,31,,,,,,2.8,1.4,2.4*3E
Trace #46 at position 11.250000
$GPZDA,085853.04,09,10,2011,00,00*6B
$GPRMC,085853.00,A,4611.976126,N,01258.219382,E,002.2,153.9,091011,0.2,E,A*30
$GPGGA,085854.00,4611.975708,N,01258.219715,E,1,07,1.4,141.08,M,46.25,M,,*62
$GPGLL,4611.975708,N,01258.219715,E,085854.00,A,A*6C
$GPVTG,140.3,T,140.4,M,000.9,N,001.8,K,A*24
$GPGSV,2,1,08,02,38,076,42,09,17,152,,12,55,079,41,14,27,251,40*7F
$GPGSV,2,2,08,25,77,344,47,29,54,224,43,30,35,291,42,31,27,313,42*76
$GPGSA,M,3,02,12,14,25,29,30,31,,,,,,2.8,1.4,2.4*3E
Trace #47 at position 11.500000
$GPZDA,085853.04,09,10,2011,00,00*6B
$GPRMC,085853.00,A,4611.976126,N,01258.219382,E,002.2,153.9,091011,0.2,E,A*30
$GPGGA,085854.00,4611.975708,N,01258.219715,E,1,07,1.4,141.08,M,46.25,M,,*62
$GPGLL,4611.975708,N,01258.219715,E,085854.00,A,A*6C
$GPVTG,140.3,T,140.4,M,000.9,N,001.8,K,A*24
$GPGSV,2,1,08,02,38,076,42,09,17,152,,12,55,079,41,14,27,251,40*7F
$GPGSV,2,2,08,25,77,344,47,29,54,224,43,30,35,291,42,31,27,313,42*76
$GPGSA,M,3,02,12,14,25,29,30,31,,,,,,2.8,1.4,2.4*3E
Trace #48 at position 11.750000
$GPZDA,085853.04,09,10,2011,00,00*6B
$GPRMC,085853.00,A,4611.976126,N,01258.219382,E,002.2,153.9,091011,0.2,E,A*30
$GPGGA,085854.00,4611.975708,N,01258.219715,E,1,07,1.4,141.08,M,46.25,M,,*62
$GPGLL,4611.975708,N,01258.219715,E,085854.00,A,A*6C
$GPVTG,140.3,T,140.4,M,000.9,N,001.8,K,A*24
$GPGSV,2,1,08,02,38,076,42,09,17,152,,12,55,079,41,14,27,251,40*7F
$GPGSV,2,2,08,25,77,344,47,29,54,224,43,30,35,291,42,31,27,313,42*76
$GPGSA,M,3,02,12,14,25,29,30,31,,,,,,2.8,1.4,2.4*3E
Trace #49 at position 12.000000
$GPZDA,085854.04,09,10,2011,00,00*6C
$GPRMC,085854.00,A,4611.975708,N,01258.219715,E,000.9,140.3,091011,0.2,E,A*35
$GPGGA,085855.00,4611.975300,N,01258.220006,E,1,07,1.4,141.10,M,46.25,M,,*69
$GPGLL,4611.975300,N,01258.220006,E,085855.00,A,A*6E
$GPVTG,156.6,T,156.8,M,001.9,N,003.6,K,A*20
$GPGSV,2,1,08,02,38,076,40,09,17,152,,12,55,079,39,14,27,251,39*7C
$GPGSV,2,2,08,25,77,344,46,29,54,224,42,30,35,291,42,31,27,313,42*76
$GPGSA,M,3,02,12,14,25,29,30,31,,,,,,2.8,1.4,2.4*3E
Trace #50 at position 12.250000
$GPZDA,085854.04,09,10,2011,00,00*6C
$GPRMC,085854.00,A,4611.975708,N,01258.219715,E,000.9,140.3,091011,0.2,E,A*35
$GPGGA,085855.00,4611.975300,N,01258.220006,E,1,07,1.4,141.10,M,46.25,M,,*69
$GPGLL,4611.975300,N,01258.220006,E,085855.00,A,A*6E
$GPVTG,156.6,T,156.8,M,001.9,N,003.6,K,A*20
$GPGSV,2,1,08,02,38,076,40,09,17,152,,12,55,079,39,14,27,251,39*7C
$GPGSV,2,2,08,25,77,344,46,29,54,224,42,30,35,291,42,31,27,313,42*76
$GPGSA,M,3,02,12,14,25,29,30,31,,,,,,2.8,1.4,2.4*3E
Trace #51 at position 12.500000
$GPZDA,085854.04,09,10,2011,00,00*6C
$GPRMC,085854.00,A,4611.975708,N,01258.219715,E,000.9,140.3,091011,0.2,E,A*35
$GPGGA,085855.00,4611.975300,N,01258.220006,E,1,07,1.4,141.10,M,46.25,M,,*69
$GPGLL,4611.975300,N,01258.220006,E,085855.00,A,A*6E
$GPVTG,156.6,T,156.8,M,001.9,N,003.6,K,A*20
$GPGSV,2,1,08,02,38,076,40,09,17,152,,12,55,079,39,14,27,251,39*7C
$GPGSV,2,2,08,25,77,344,46,29,54,224,42,30,35,291,42,31,27,313,42*76
$GPGSA,M,3,02,12,14,25,29,30,31,,,,,,2.8,1.4,2.4*3E
Trace #52 at position 12.750000
$GPZDA,085854.04,09,10,2011,00,00*6C
$GPRMC,085854.00,A,4611.975708,N,01258.219715,E,000.9,140.3,091011,0.2,E,A*35
$GPGGA,085855.00,4611.975300,N,01258.220006,E,1,07,1.4,141.10,M,46.25,M,,*69
$GPGLL,4611.975300,N,01258.220006,E,085855.00,A,A*6E
$GPVTG,156.6,T,156.8,M,001.9,N,003.6,K,A*20
$GPGSV,2,1,08,02,38,076,40,09,17,152,,12,55,079,39,14,27,251,39*7C
$GPGSV,2,2,08,25,77,344,46,29,54,224,42,30,35,291,42,31,27,313,42*76
$GPGSA,M,3,02,12,14,25,29,30,31,,,,,,2.8,1.4,2.4*3E
Trace #53 at position 13.000000
$GPZDA,085855.04,09,10,2011,00,00*6D
$GPRMC,085855.00,A,4611.975300,N,01258.220006,E,001.9,156.6,091011,0.2,E,A*34
$GPGGA,085856.00,4611.974787,N,01258.220332,E,1,07,1.4,141.02,M,46.25,M,,*67
$GPGLL,4611.974787,N,01258.220332,E,085856.00,A,A*63
$GPVTG,150.3,T,150.5,M,001.7,N,003.2,K,A*22
$GPGSV,2,1,08,02,38,076,41,09,17,152,,12,55,079,41,14,27,251,41*7D
$GPGSV,2,2,08,25,77,344,47,29,54,224,43,30,35,291,43,31,27,313,42*77
$GPGSA,M,3,02,12,14,25,29,30,31,,,,,,2.8,1.4,2.4*3E
Trace #54 at position 13.250000
$GPZDA,085855.04,09,10,2011,00,00*6D
$GPRMC,085855.00,A,4611.975300,N,01258.220006,E,001.9,156.6,091011,0.2,E,A*34
$GPGGA,085856.00,4611.974787,N,01258.220332,E,1,07,1.4,141.02,M,46.25,M,,*67
$GPGLL,4611.974787,N,01258.220332,E,085856.00,A,A*63
$GPVTG,150.3,T,150.5,M,001.7,N,003.2,K,A*22
$GPGSV,2,1,08,02,38,076,41,09,17,152,,12,55,079,41,14,27,251,41*7D
$GPGSV,2,2,08,25,77,344,47,29,54,224,43,30,35,291,43,31,27,313,42*77
$GPGSA,M,3,02,12,14,25,29,30,31,,,,,,2.8,1.4,2.4*3E
Trace #55 at position 13.500000
$GPZDA,085855.04,09,10,2011,00,00*6D
$GPRMC,085855.00,A,4611.975300,N,01258.220006,E,001.9,156.6,091011,0.2,E,A*34
$GPGGA,085856.00,4611.974787,N,01258.220332,E,1,07,1.4,141.02,M,46.25,M,,*67
$GPGLL,4611.974787,N,01258.220332,E,085856.00,A,A*63
$GPVTG,150.3,T,150.5,M,001.7,N,003.2,K,A*22
$GPGSV,2,1,08,02,38,076,41,09,17,152,,12,55,079,41,14,27,251,41*7D
$GPGSV,2,2,08,25,77,344,47,29,54,224,43,30,35,291,43,31,27,313,42*77
$GPGSA,M,3,02,12,14,25,29,30,31,,,,,,2.8,1.4,2.4*3E
Trace #56 at position 13.750000
$GPZDA,085855.04,09,10,2011,00,00*6D
$GPRMC,085855.00,A,4611.975300,N,01258.220006,E,001.9,156.6,091011,0.2,E,A*34
$GPGGA,085856.00,4611.974787,N,01258.220332,E,1,07,1.4,141.02,M,46.25,M,,*67
$GPGLL,4611.974787,N,01258.220332,E,085856.00,A,A*63
$GPVTG,150.3,T,150.5,M,001.7,N,003.2,K,A*22
$GPGSV,2,1,08,02,38,076,41,09,17,152,,12,55,079,41,14,27,251,41*7D
$GPGSV,2,2,08,25,77,344,47,29,54,224,43,30,35,291,43,31,27,313,42*77
$GPGSA,M,3,02,12,14,25,29,30,31,,,,,,2.8,1.4,2.4*3E
Trace #57 at position 14.000000
$GPZDA,085856.04,09,10,2011,00,00*6E
$GPRMC,085856.00,A,4611.974787,N,01258.220332,E,001.7,150.3,091011,0.2,E,A*34
$GPGGA,085857.00,4611.974328,N,01258.220646,E,1,07,1.4,141.08,M,46.25,M,,*6B
$GPGLL,4611.974328,N,01258.220646,E,085857.00,A,A*65
$GPVTG,149.9,T,150.1,M,001.5,N,002.8,K,A*2D
$GPGSV,2,1,08,02,38,076,42,09,17,152,,12,55,079,41,14,27,251,40*7F
$GPGSV,2,2,08,25,77,344,47,29,54,224,43,30,35,291,43,31,27,313,42*77
$GPGSA,M,3,02,12,14,25,29,30,31,,,,,,2.8,1.4,2.4*3E
Trace #58 at position 14.250000
$GPZDA,085856.04,09,10,2011,00,00*6E
$GPRMC,085856.00,A,4611.974787,N,01258.220332,E,001.7,150.3,091011,0.2,E,A*34
$GPGGA,085857.00,4611.974328,N,01258.220646,E,1,07,1.4,141.08,M,46.25,M,,*6B
$GPGLL,4611.974328,N,01258.220646,E,085857.00,A,A*65
$GPVTG,149.9,T,150.1,M,001.5,N,002.8,K,A*2D
$GPGSV,2,1,08,02,38,076,42,09,17,152,,12,55,079,41,14,27,251,40*7F
$GPGSV,2,2,08,25,77,344,47,29,54,224,43,30,35,291,43,31,27,313,42*77
$GPGSA,M,3,02,12,14,25,29,30,31,,,,,,2.8,1.4,2.4*3E
Trace #59 at position 14.500000
$GPZDA,085856.04,09,10,2011,00,00*6E
$GPRMC,085856.00,A,4611.974787,N,01258.220332,E,001.7,150.3,091011,0.2,E,A*34
$GPGGA,085857.00,4611.974328,N,01258.220646,E,1,07,1.4,141.08,M,46.25,M,,*6B
$GPGLL,4611.974328,N,01258.220646,E,085857.00,A,A*65
$GPVTG,149.9,T,150.1,M,001.5,N,002.8,K,A*2D
$GPGSV,2,1,08,02,38,076,42,09,17,152,,12,55,079,41,14,27,251,40*7F
$GPGSV,2,2,08,25,77,344,47,29,54,224,43,30,35,291,43,31,27,313,42*77
$GPGSA,M,3,02,12,14,25,29,30,31,,,,,,2.8,1.4,2.4*3E
Trace #60 at position 14.750000
$GPZDA,085856.04,09,10,2011,00,00*6E
$GPRMC,085856.00,A,4611.974787,N,01258.220332,E,001.7,150.3,091011,0.2,E,A*34
$GPGGA,085857.00,4611.974328,N,01258.220646,E,1,07,1.4,141.08,M,46.25,M,,*6B
$GPGLL,4611.974328,N,01258.220646,E,085857.00,A,A*65
$GPVTG,149.9,T,150.1,M,001.5,N,002.8,K,A*2D
$GPGSV,2,1,08,02,38,076,42,09,17,152,,12,55,079,41,14,27,251,40*7F
$GPGSV,2,2,08,25,77,344,47,29,54,224,43,30,35,291,43,31,27,313,42*77
$GPGSA,M,3,02,12,14,25,29,30,31,,,,,,2.8,1.4,2.4*3E
Trace #61 at position 15.000000
$GPZDA,085856.04,09,10,2011,00,00*6E
$GPRMC,085856.00,A,4611.974787,N,01258.220332,E,001.7,150.3,091011,0.2,E,A*34
$GPGGA,085857.00,4611.974328,N,01258.220646,E,1,07,1.4,141.08,M,46.25,M,,*6B
$GPGLL,4611.974328,N,01258.220646,E,085857.00,A,A*65
$GPVTG,149.9,T,150.1,M,001.5,N,002.8,K,A*2D
$GPGSV,2,1,08,02,38,076,42,09,17,152,,12,55,079,41,14,27,251,40*7F
$GPGSV,2,2,08,25,77,344,47,29,54,224,43,30,35,291,43,31,27,313,42*77
$GPGSA,M,3,02,12,14,25,29,30,31,,,,,,2.8,1.4,2.4*3E
Trace #62 at position 15.250000
$GPZDA,085857.04,09,10,2011,00,00*6F
$GPRMC,085857.00,A,4611.974328,N,01258.220646,E,001.5,149.9,091011,0.2,E,A*32
$GPGGA,085858.00,4611.973823,N,01258.220969,E,1,07,1.4,141.14,M,46.25,M,,*6C
$GPGLL,4611.973823,N,01258.220969,E,085858.00,A,A*6F
$GPVTG,152.0,T,152.2,M,002.0,N,003.7,K,A*27
$GPGSV,2,1,08,02,38,076,41,09,17,152,,12,55,079,40,14,27,251,40*7D
$GPGSV,2,2,08,25,77,344,47,29,54,224,43,30,35,291,43,31,27,313,42*77
$GPGSA,M,3,02,12,14,25,29,30,31,,,,,,2.8,1.4,2.4*3E
Trace #63 at position 15.500000
$GPZDA,085857.04,09,10,2011,00,00*6F
$GPRMC,085857.00,A,4611.974328,N,01258.220646,E,001.5,149.9,091011,0.2,E,A*32
$GPGGA,085858.00,4611.973823,N,01258.220969,E,1,07,1.4,141.14,M,46.25,M,,*6C
$GPGLL,4611.973823,N,01258.220969,E,085858.00,A,A*6F
$GPVTG,152.0,T,152.2,M,002.0,N,003.7,K,A*27
$GPGSV,2,1,08,02,38,076,41,09,17,152,,12,55,079,40,14,27,251,40*7D
$GPGSV,2,2,08,25,77,344,47,29,54,224,43,30,35,291,43,31,27,313,42*77
$GPGSA,M,3,02,12,14,25,29,30,31,,,,,,2.8,1.4,2.4*3E
Trace #64 at position 15.750000
$GPZDA,085857.04,09,10,2011,00,00*6F
$GPRMC,085857.00,A,4611.974328,N,01258.220646,E,001.5,149.9,091011,0.2,E,A*32
$GPGGA,085858.00,4611.973823,N,01258.220969,E,1,07,1.4,141.14,M,46.25,M,,*6C
$GPGLL,4611.973823,N,01258.220969,E,085858.00,A,A*6F
$GPVTG,152.0,T,152.2,M,002.0,N,003.7,K,A*27
$GPGSV,2,1,08,02,38,076,41,09,17,152,,12,55,079,40,14,27,251,40*7D
$GPGSV,2,2,08,25,77,344,47,29,54,224,43,30,35,291,43,31,27,313,42*77
$GPGSA,M,3,02,12,14,25,29,30,31,,,,,,2.8,1.4,2.4*3E
Trace #65 at position 16.000000
$GPZDA,085857.04,09,10,2011,00,00*6F
$GPRMC,085857.00,A,4611.974328,N,01258.220646,E,001.5,149.9,091011,0.2,E,A*32
$GPGGA,085858.00,4611.973823,N,01258.220969,E,1,07,1.4,141.14,M,46.25,M,,*6C
$GPGLL,4611.973823,N,01258.220969,E,085858.00,A,A*6F
$GPVTG,152.0,T,152.2,M,002.0,N,003.7,K,A*27
$GPGSV,2,1,08,02,38,076,41,09,17,152,,12,55,079,40,14,27,251,40*7D
$GPGSV,2,2,08,25,77,344,47,29,54,224,43,30,35,291,43,31,27,313,42*77
$GPGSA,M,3,02,12,14,25,29,30,31,,,,,,2.8,1.4,2.4*3E
Trace #66 at position 16.250000
$GPZDA,085858.04,09,10,2011,00,00*60
$GPRMC,085858.00,A,4611.973823,N,01258.220969,E,002.0,152.0,091011,0.2,E,A*3D
$GPGGA,085859.00,4611.973216,N,01258.221181,E,1,07,1.4,141.06,M,46.25,M,,*6D
$GPGLL,4611.973216,N,01258.221181,E,085859.00,A,A*6D
$GPVTG,174.1,T,174.3,M,002.2,N,004.0,K,A*25
$GPGSV,2,1,08,02,38,076,42,09,17,152,,12,55,079,41,14,27,251,40*7F
$GPGSV,2,2,08,25,77,344,47,29,54,224,43,30,35,291,43,31,27,313,42*77
$GPGSA,M,3,02,12,14,25,29,30,31,,,,,,2.8,1.4,2.4*3E
Trace #67 at position 16.500000
$GPZDA,085858.04,09,10,2011,00,00*60
$GPRMC,085858.00,A,4611.973823,N,01258.220969,E,002.0,152.0,091011,0.2,E,A*3D
$GPGGA,085859.00,4611.973216,N,01258.221181,E,1,07,1.4,141.06,M,46.25,M,,*6D
$GPGLL,4611.973216,N,01258.221181,E,085859.00,A,A*6D
$GPVTG,174.1,T,174.3,M,002.2,N,004.0,K,A*25
$GPGSV,2,1,08,02,38,076,42,09,17,152,,12,55,079,41,14,27,251,40*7F
$GPGSV,2,2,08,25,77,344,47,29,54,224,43,30,35,291,43,31,27,313,42*77
$GPGSA,M,3,02,12,14,25,29,30,31,,,,,,2.8,1.4,2.4*3E
Trace #68 at position 16.750000
$GPZDA,085858.04,09,10,2011,00,00*60
$GPRMC,085858.00,A,4611.973823,N,01258.220969,E,002.0,152.0,091011,0.2,E,A*3D
$GPGGA,085859.00,4611.973216,N,01258.221181,E,1,07,1.4,141.06,M,46.25,M,,*6D
$GPGLL,4611.973216,N,01258.221181,E,085859.00,A,A*6D
$GPVTG,174.1,T,174.3,M,002.2,N,004.0,K,A*25
$GPGSV,2,1,08,02,38,076,42,09,17,152,,12,55,079,41,14,27,251,40*7F
$GPGSV,2,2,08,25,77,344,47,29,54,224,43,30,35,291,43,31,27,313,42*77
$GPGSA,M,3,02,12,14,25,29,30,31,,,,,,2.8,1.4,2.4*3E
Trace #69 at position 17.000000
$GPZDA,085858.04,09,10,2011,00,00*60
$GPRMC,085858.00,A,4611.973823,N,01258.220969,E,002.0,152.0,091011,0.2,E,A*3D
$GPGGA,085859.00,4611.973216,N,01258.221181,E,1,07,1.4,141.06,M,46.25,M,,*6D
$GPGLL,4611.973216,N,01258.221181,E,085859.00,A,A*6D
$GPVTG,174.1,T,174.3,M,002.2,N,004.0,K,A*25
$GPGSV,2,1,08,02,38,076,42,09,17,152,,12,55,079,41,14,27,251,40*7F
$GPGSV,2,2,08,25,77,344,47,29,54,224,43,30,35,291,43,31,27,313,42*77
$GPGSA,M,3,02,12,14,25,29,30,31,,,,,,2.8,1.4,2.4*3E
Trace #70 at position 17.250000
$GPZDA,085858.04,09,10,2011,00,00*60
$GPRMC,085858.00,A,4611.973823,N,01258.220969,E,002.0,152.0,091011,0.2,E,A*3D
$GPGGA,085859.00,4611.973216,N,01258.221181,E,1,07,1.4,141.06,M,46.25,M,,*6D
$GPGLL,4611.973216,N,01258.221181,E,085859.00,A,A*6D
$GPVTG,174.1,T,174.3,M,002.2,N,004.0,K,A*25
$GPGSV,2,1,08,02,38,076,42,09,17,152,,12,55,079,41,14,27,251,40*7F
$GPGSV,2,2,08,25,77,344,47,29,54,224,43,30,35,291,43,31,27,313,42*77
$GPGSA,M,3,02,12,14,25,29,30,31,,,,,,2.8,1.4,2.4*3E
Trace #71 at position 17.500000
$GPZDA,085859.04,09,10,2011,00,00*61
$GPRMC,085859.00,A,4611.973216,N,01258.221181,E,002.2,174.1,091011,0.2,E,A*38
$GPGGA,085900.00,4611.972592,N,01258.221269,E,1,07,1.4,140.95,M,46.25,M,,*64
$GPGLL,4611.972592,N,01258.221269,E,085900.00,A,A*6F
$GPVTG,173.6,T,173.7,M,002.0,N,003.7,K,A*24
$GPGSV,2,1,08,02,38,076,41,09,17,152,,12,55,079,40,14,27,251,41*7C
$GPGSV,2,2,08,25,77,344,47,29,54,224,42,30,35,291,42,31,27,313,42*77
$GPGSA,M,3,02,12,14,25,29,30,31,,,,,,2.8,1.4,2.4*3E
Trace #72 at position 17.750000
$GPZDA,085859.04,09,10,2011,00,00*61
$GPRMC,085859.00,A,4611.973216,N,01258.221181,E,002.2,174.1,091011,0.2,E,A*38
$GPGGA,085900.00,4611.972592,N,01258.221269,E,1,07,1.4,140.95,M,46.25,M,,*64
$GPGLL,4611.972592,N,01258.221269,E,085900.00,A,A*6F
$GPVTG,173.6,T,173.7,M,002.0,N,003.7,K,A*24
$GPGSV,2,1,08,02,38,076,41,09,17,152,,12,55,079,40,14,27,251,41*7C
$GPGSV,2,2,08,25,77,344,47,29,54,224,42,30,35,291,42,31,27,313,42*77
$GPGSA,M,3,02,12,14,25,29,30,31,,,,,,2.8,1.4,2.4*3E
Trace #73 at position 18.000000
$GPZDA,085859.04,09,10,2011,00,00*61
$GPRMC,085859.00,A,4611.973216,N,01258.221181,E,002.2,174.1,091011,0.2,E,A*38
$GPGGA,085900.00,4611.972592,N,01258.221269,E,1,07,1.4,140.95,M,46.25,M,,*64
$GPGLL,4611.972592,N,01258.221269,E,085900.00,A,A*6F
$GPVTG,173.6,T,173.7,M,002.0,N,003.7,K,A*24
$GPGSV,2,1,08,02,38,076,41,09,17,152,,12,55,079,40,14,27,251,41*7C
$GPGSV,2,2,08,25,77,344,47,29,54,224,42,30,35,291,42,31,27,313,42*77
$GPGSA,M,3,02,12,14,25,29,30,31,,,,,,2.8,1.4,2.4*3E
Trace #74 at position 18.250000
$GPZDA,085859.04,09,10,2011,00,00*61
$GPRMC,085859.00,A,4611.973216,N,01258.221181,E,002.2,174.1,091011,0.2,E,A*38
$GPGGA,085900.00,4611.972592,N,01258.221269,E,1,07,1.4,140.95,M,46.25,M,,*64
$GPGLL,4611.972592,N,01258.221269,E,085900.00,A,A*6F
$GPVTG,173.6,T,173.7,M,002.0,N,003.7,K,A*24
$GPGSV,2,1,08,02,38,076,41,09,17,152,,12,55,079,40,14,27,251,41*7C
$GPGSV,2,2,08,25,77,344,47,29,54,224,42,30,35,291,42,31,27,313,42*77
$GPGSA,M,3,02,12,14,25,29,30,31,,,,,,2.8,1.4,2.4*3E
Trace #75 at position 18.500000
$GPZDA,085900.04,09,10,2011,00,00*6C
$GPRMC,085900.00,A,4611.972592,N,01258.221269,E,002.0,173.6,091011,0.2,E,A*38
$GPGGA,085901.00,4611.971965,N,01258.221477,E,1,07,1.4,140.82,M,46.25,M,,*6D
$GPGLL,4611.971965,N,01258.221477,E,085901.00,A,A*60
$GPVTG,161.3,T,161.4,M,002.4,N,004.4,K,A*22
$GPGSV,2,1,08,02,38,076,42,09,17,152,,12,55,079,41,14,27,251,40*7F
$GPGSV,2,2,08,25,77,344,48,29,54,224,42,30,35,291,43,31,27,313,42*79
$GPGSA,M,3,02,12,14,25,29,30,31,,,,,,2.8,1.4,2.4*3E
Trace #76 at position 18.750000
$GPZDA,085900.04,09,10,2011,00,00*6C
$GPRMC,085900.00,A,4611.972592,N,01258.221269,E,002.0,173.6,091011,0.2,E,A*38
$GPGGA,085901.00,4611.971965,N,01258.221477,E,1,07,1.4,140.82,M,46.25,M,,*6D
$GPGLL,4611.971965,N,01258.221477,E,085901.00,A,A*60
$GPVTG,161.3,T,161.4,M,002.4,N,004.4,K,A*22
$GPGSV,2,1,08,02,38,076,42,09,17,152,,12,55,079,41,14,27,251,40*7F
$GPGSV,2,2,08,25,77,344,48,29,54,224,42,30,35,291,43,31,27,313,42*79
$GPGSA,M,3,02,12,14,25,29,30,31,,,,,,2.8,1.4,2.4*3E
Trace #77 at position 19.000000
$GPZDA,085900.04,09,10,2011,00,00*6C
$GPRMC,085900.00,A,4611.972592,N,01258.221269,E,002.0,173.6,091011,0.2,E,A*38
$GPGGA,085901.00,4611.971965,N,01258.221477,E,1,07,1.4,140.82,M,46.25,M,,*6D
$GPGLL,4611.971965,N,01258.221477,E,085901.00,A,A*60
$GPVTG,161.3,T,161.4,M,002.4,N,004.4,K,A*22
$GPGSV,2,1,08,02,38,076,42,09,17,152,,12,55,079,41,14,27,251,40*7F
$GPGSV,2,2,08,25,77,344,48,29,54,224,42,30,35,291,43,31,27,313,42*79
$GPGSA,M,3,02,12,14,25,29,30,31,,,,,,2.8,1.4,2.4*3E
Trace #78 at position 19.250000
$GPZDA,085901.04,09,10,2011,00,00*6D
$GPRMC,085901.00,A,4611.971965,N,01258.221477,E,002.4,161.3,091011,0.2,E,A*35
$GPGGA,085902.00,4611.971365,N,01258.221802,E,1,07,1.4,140.78,M,46.25,M,,*6F
$GPGLL,4611.971365,N,01258.221802,E,085902.00,A,A*67
$GPVTG,155.3,T,155.4,M,002.0,N,003.7,K,A*22
$GPGSV,2,1,08,02,38,076,41,09,17,152,,12,55,079,41,14,27,251,41*7D
$GPGSV,2,2,08,25,77,344,47,29,54,224,42,30,35,291,42,31,27,313,42*77
$GPGSA,M,3,02,12,14,25,29,30,31,,,,,,2.8,1.4,2.4*3E
Trace #79 at position 19.500000
$GPZDA,085901.04,09,10,2011,00,00*6D
$GPRMC,085901.00,A,4611.971965,N,01258.221477,E,002.4,161.3,091011,0.2,E,A*35
$GPGGA,085902.00,4611.971365,N,01258.221802,E,1,07,1.4,140.78,M,46.25,M,,*6F
$GPGLL,4611.971365,N,01258.221802,E,085902.00,A,A*67
$GPVTG,155.3,T,155.4,M,002.0,N,003.7,K,A*22
$GPGSV,2,1,08,02,38,076,41,09,17,152,,12,55,079,41,14,27,251,41*7D
$GPGSV,2,2,08,25,77,344,47,29,54,224,42,30,35,291,42,31,27,313,42*77
$GPGSA,M,3,02,12,14,25,29,30,31,,,,,,2.8,1.4,2.4*3E
Trace #80 at position 19.750000
$GPZDA,085901.04,09,10,2011,00,00*6D
$GPRMC,085901.00,A,4611.971965,N,01258.221477,E,002.4,161.3,091011,0.2,E,A*35
$GPGGA,085902.00,4611.971365,N,01258.221802,E,1,07,1.4,140.78,M,46.25,M,,*6F
$GPGLL,4611.971365,N,01258.221802,E,085902.00,A,A*67
$GPVTG,155.3,T,155.4,M,002.0,N,003.7,K,A*22
$GPGSV,2,1,08,02,38,076,41,09,17,152,,12,55,079,41,14,27,251,41*7D
$GPGSV,2,2,08,25,77,344,47,29,54,224,42,30,35,291,42,31,27,313,42*77
$GPGSA,M,3,02,12,14,25,29,30,31,,,,,,2.8,1.4,2.4*3E
Trace #81 at position 20.000000
$GPZDA,085901.04,09,10,2011,00,00*6D
$GPRMC,085901.00,A,4611.971965,N,01258.221477,E,002.4,161.3,091011,0.2,E,A*35
$GPGGA,085902.00,4611.971365,N,01258.221802,E,1,07,1.4,140.78,M,46.25,M,,*6F
$GPGLL,4611.971365,N,01258.221802,E,085902.00,A,A*67
$GPVTG,155.3,T,155.4,M,002.0,N,003.7,K,A*22
$GPGSV,2,1,08,02,38,076,41,09,17,152,,12,55,079,41,14,27,251,41*7D
$GPGSV,2,2,08,25,77,344,47,29,54,224,42,30,35,291,42,31,27,313,42*77
$GPGSA,M,3,02,12,14,25,29,30,31,,,,,,2.8,1.4,2.4*3E
Trace #82 at position 20.250000
$GPZDA,085902.04,09,10,2011,00,00*6E
$GPRMC,085902.00,A,4611.971365,N,01258.221802,E,002.0,155.3,091011,0.2,E,A*31
$GPGGA,085903.00,4611.970807,N,01258.222158,E,1,07,1.4,140.80,M,46.25,M,,*62
$GPGLL,4611.970807,N,01258.222158,E,085903.00,A,A*6D
$GPVTG,153.3,T,153.5,M,002.1,N,004.0,K,A*22
$GPGSV,2,1,08,02,38,076,42,09,17,152,,12,55,079,41,14,27,251,40*7F
$GPGSV,2,2,08,25,77,344,47,29,54,224,43,30,35,291,42,31,27,313,41*75
$GPGSA,M,3,02,12,14,25,29,30,31,,,,,,2.8,1.4,2.4*3E
Trace #83 at position 20.500000
$GPZDA,085902.04,09,10,2011,00,00*6E
$GPRMC,085902.00,A,4611.971365,N,01258.221802,E,002.0,155.3,091011,0.2,E,A*31
$GPGGA,085903.00,4611.970807,N,01258.222158,E,1,07,1.4,140.80,M,46.25,M,,*62
$GPGLL,4611.970807,N,01258.222158,E,085903.00,A,A*6D
$GPVTG,153.3,T,153.5,M,002.1,N,004.0,K,A*22
$GPGSV,2,1,08,02,38,076,42,09,17,152,,12,55,079,41,14,27,251,40*7F
$GPGSV,2,2,08,25,77,344,47,29,54,224,43,30,35,291,42,31,27,313,41*75
$GPGSA,M,3,02,12,14,25,29,30,31,,,,,,2.8,1.4,2.4*3E
Trace #84 at position 20.750000
$GPZDA,085902.04,09,10,2011,00,00*6E
$GPRMC,085902.00,A,4611.971365,N,01258.221802,E,002.0,155.3,091011,0.2,E,A*31
$GPGGA,085903.00,4611.970807,N,01258.222158,E,1,07,1.4,140.80,M,46.25,M,,*62
$GPGLL,4611.970807,N,01258.222158,E,085903.00,A,A*6D
$GPVTG,153.3,T,153.5,M,002.1,N,004.0,K,A*22
$GPGSV,2,1,08,02,38,076,42,09,17,152,,12,55,079,41,14,27,251,40*7F
$GPGSV,2,2,08,25,77,344,47,29,54,224,43,30,35,291,42,31,27,313,41*75
$GPGSA,M,3,02,12,14,25,29,30,31,,,,,,2.8,1.4,2.4*3E
Trace #85 at position 21.000000
$GPZDA,085902.04,09,10,2011,00,00*6E
$GPRMC,085902.00,A,4611.971365,N,01258.221802,E,002.0,155.3,091011,0.2,E,A*31
$GPGGA,085903.00,4611.970807,N,01258.222158,E,1,07,1.4,140.80,M,46.25,M,,*62
$GPGLL,4611.970807,N,01258.222158,E,085903.00,A,A*6D
$GPVTG,153.3,T,153.5,M,002.1,N,004.0,K,A*22
$GPGSV,2,1,08,02,38,076,42,09,17,152,,12,55,079,41,14,27,251,40*7F
$GPGSV,2,2,08,25,77,344,47,29,54,224,43,30,35,291,42,31,27,313,41*75
$GPGSA,M,3,02,12,14,25,29,30,31,,,,,,2.8,1.4,2.4*3E
Trace #86 at position 21.250000
$GPZDA,085903.04,09,10,2011,00,00*6F
$GPRMC,085903.00,A,4611.970807,N,01258.222158,E,002.1,153.3,091011,0.2,E,A*3C
$GPGGA,085904.00,4611.970207,N,01258.222405,E,1,07,1.4,140.73,M,46.25,M,,*6E
$GPGLL,4611.970207,N,01258.222405,E,085904.00,A,A*6D
$GPVTG,172.2,T,172.4,M,002.1,N,004.0,K,A*22
$GPGSV,2,1,08,02,38,076,41,09,17,152,,12,55,079,41,14,27,251,41*7D
$GPGSV,2,2,08,25,77,344,48,29,54,224,42,30,35,291,42,31,27,313,41*7B
$GPGSA,M,3,02,12,14,25,29,30,31,,,,,,2.8,1.4,2.4*3E
Trace #87 at position 21.500000
$GPZDA,085903.04,09,10,2011,00,00*6F
$GPRMC,085903.00,A,4611.970807,N,01258.222158,E,002.1,153.3,091011,0.2,E,A*3C
$GPGGA,085904.00,4611.970207,N,01258.222405,E,1,07,1.4,140.73,M,46.25,M,,*6E
$GPGLL,4611.970207,N,01258.222405,E,085904.00,A,A*6D
$GPVTG,172.2,T,172.4,M,002.1,N,004.0,K,A*22
$GPGSV,2,1,08,02,38,076,41,09,17,152,,12,55,079,41,14,27,251,41*7D
$GPGSV,2,2,08,25,77,344,48,29,54,224,42,30,35,291,42,31,27,313,41*7B
$GPGSA,M,3,02,12,14,25,29,30,31,,,,,,2.8,1.4,2.4*3E
Trace #88 at position 21.750000
$GPZDA,085903.04,09,10,2011,00,00*6F
$GPRMC,085903.00,A,4611.970807,N,01258.222158,E,002.1,153.3,091011,0.2,E,A*3C
$GPGGA,085904.00,4611.970207,N,01258.222405,E,1,07,1.4,140.73,M,46.25,M,,*6E
$GPGLL,4611.970207,N,01258.222405,E,085904.00,A,A*6D
$GPVTG,172.2,T,172.4,M,002.1,N,004.0,K,A*22
$GPGSV,2,1,08,02,38,076,41,09,17,152,,12,55,079,41,14,27,251,41*7D
$GPGSV,2,2,08,25,77,344,48,29,54,224,42,30,35,291,42,31,27,313,41*7B
$GPGSA,M,3,02,12,14,25,29,30,31,,,,,,2.8,1.4,2.4*3E
Trace #89 at position 22.000000
$GPZDA,085903.04,09,10,2011,00,00*6F
$GPRMC,085903.00,A,4611.970807,N,01258.222158,E,002.1,153.3,091011,0.2,E,A*3C
$GPGGA,085904.00,4611.970207,N,01258.222405,E,1,07,1.4,140.73,M,46.25,M,,*6E
$GPGLL,4611.970207,N,01258.222405,E,085904.00,A,A*6D
$GPVTG,172.2,T,172.4,M,002.1,N,004.0,K,A*22
$GPGSV,2,1,08,02,38,076,41,09,17,152,,12,55,079,41,14,27,251,41*7D
$GPGSV,2,2,08,25,77,344,48,29,54,224,42,30,35,291,42,31,27,313,41*7B
$GPGSA,M,3,02,12,14,25,29,30,31,,,,,,2.8,1.4,2.4*3E
Trace #90 at position 22.250000
$GPZDA,085904.04,09,10,2011,00,00*68
$GPRMC,085904.00,A,4611.970207,N,01258.222405,E,002.1,172.2,091011,0.2,E,A*3E
$GPGGA,085905.00,4611.969678,N,01258.222442,E,1,07,1.4,140.72,M,46.25,M,,*69
$GPGLL,4611.969678,N,01258.222442,E,085905.00,A,A*6B
$GPVTG,186.8,T,187.0,M,001.4,N,002.7,K,A*2A
$GPGSV,2,1,08,02,38,076,40,09,17,152,,12,55,079,40,14,27,251,41*7D
$GPGSV,2,2,08,25,77,344,47,29,54,224,43,30,35,291,42,31,27,313,41*75
$GPGSA,M,3,02,12,14,25,29,30,31,,,,,,2.8,1.4,2.4*3E
Trace #91 at position 22.500000
$GPZDA,085904.04,09,10,2011,00,00*68
$GPRMC,085904.00,A,4611.970207,N,01258.222405,E,002.1,172.2,091011,0.2,E,A*3E
$GPGGA,085905.00,4611.969678,N,01258.222442,E,1,07,1.4,140.72,M,46.25,M,,*69
$GPGLL,4611.969678,N,01258.222442,E,085905.00,A,A*6B
$GPVTG,186.8,T,187.0,M,001.4,N,002.7,K,A*2A
$GPGSV,2,1,08,02,38,076,40,09,17,152,,12,55,079,40,14,27,251,41*7D
$GPGSV,2,2,08,25,77,344,47,29,54,224,43,30,35,291,42,31,27,313,41*75
$GPGSA,M,3,02,12,14,25,29,30,31,,,,,,2.8,1.4,2.4*3E
Trace #92 at position 22.750000
$GPZDA,085904.04,09,10,2011,00,00*68
$GPRMC,085904.00,A,4611.970207,N,01258.222405,E,002.1,172.2,091011,0.2,E,A*3E
$GPGGA,085905.00,4611.969678,N,01258.222442,E,1,07,1.4,140.72,M,46.25,M,,*69
$GPGLL,4611.969678,N,01258.222442,E,085905.00,A,A*6B
$GPVTG,186.8,T,187.0,M,001.4,N,002.7,K,A*2A
$GPGSV,2,1,08,02,38,076,40,09,17,152,,12,55,079,40,14,27,251,41*7D
$GPGSV,2,2,08,25,77,344,47,29,54,224,43,30,35,291,42,31,27,313,41*75
$GPGSA,M,3,02,12,14,25,29,30,31,,,,,,2.8,1.4,2.4*3E
Trace #93 at position 23.000000
$GPZDA,085904.04,09,10,2011,00,00*68
$GPRMC,085904.00,A,4611.970207,N,01258.222405,E,002.1,172.2,091011,0.2,E,A*3E
$GPGGA,085905.00,4611.969678,N,01258.222442,E,1,07,1.4,140.72,M,46.25,M,,*69
$GPGLL,4611.969678,N,01258.222442,E,085905.00,A,A*6B
$GPVTG,186.8,T,187.0,M,001.4,N,002.7,K,A*2A
$GPGSV,2,1,08,02,38,076,40,09,17,152,,12,55,079,40,14,27,251,41*7D
$GPGSV,2,2,08,25,77,344,47,29,54,224,43,30,35,291,42,31,27,313,41*75
$GPGSA,M,3,02,12,14,25,29,30,31,,,,,,2.8,1.4,2.4*3E
Trace #94 at position 23.250000
$GPZDA,085905.04,09,10,2011,00,00*69
$GPRMC,085905.00,A,4611.969678,N,01258.222442,E,001.4,186.8,091011,0.2,E,A*3F
$GPGGA,085906.00,4611.969235,N,01258.222369,E,1,07,1.4,140.67,M,46.25,M,,*6D
$GPGLL,4611.969235,N,01258.222369,E,085906.00,A,A*6B
$GPVTG,197.1,T,197.2,M,001.6,N,002.9,K,A*2C
$GPGSV,2,1,08,02,38,076,42,09,17,152,,12,55,079,41,14,27,251,41*7E
$GPGSV,2,2,08,25,77,344,47,29,54,224,42,30,35,291,41,31,27,313,41*77
$GPGSA,M,3,02,12,14,25,29,30,31,,,,,,2.8,1.4,2.4*3E
Trace #95 at position 23.500000
$GPZDA,085905.04,09,10,2011,00,00*69
$GPRMC,085905.00,A,4611.969678,N,01258.222442,E,001.4,186.8,091011,0.2,E,A*3F
$GPGGA,085906.00,4611.969235,N,01258.222369,E,1,07,1.4,140.67,M,46.25,M,,*6D
$GPGLL,4611.969235,N,01258.222369,E,085906.00,A,A*6B
$GPVTG,197.1,T,197.2,M,001.6,N,002.9,K,A*2C
$GPGSV,2,1,08,02,38,076,42,09,17,152,,12,55,079,41,14,27,251,41*7E
$GPGSV,2,2,08,25,77,344,47,29,54,224,42,30,35,291,41,31,27,313,41*77
$GPGSA,M,3,02,12,14,25,29,30,31,,,,,,2.8,1.4,2.4*3E
Trace #96 at position 23.750000
$GPZDA,085905.04,09,10,2011,00,00*69
$GPRMC,085905.00,A,4611.969678,N,01258.222442,E,001.4,186.8,091011,0.2,E,A*3F
$GPGGA,085906.00,4611.969235,N,01258.222369,E,1,07,1.4,140.67,M,46.25,M,,*6D
$GPGLL,4611.969235,N,01258.222369,E,085906.00,A,A*6B
$GPVTG,197.1,T,197.2,M,001.6,N,002.9,K,A*2C
$GPGSV,2,1,08,02,38,076,42,09,17,152,,12,55,079,41,14,27,251,41*7E
$GPGSV,2,2,08,25,77,344,47,29,54,224,42,30,35,291,41,31,27,313,41*77
$GPGSA,M,3,02,12,14,25,29,30,31,,,,,,2.8,1.4,2.4*3E
Trace #97 at position 24.000000
$GPZDA,085905.04,09,10,2011,00,00*69
$GPRMC,085905.00,A,4611.969678,N,01258.222442,E,001.4,186.8,091011,0.2,E,A*3F
$GPGGA,085906.00,4611.969235,N,01258.222369,E,1,07,1.4,140.67,M,46.25,M,,*6D
$GPGLL,4611.969235,N,01258.222369,E,085906.00,A,A*6B
$GPVTG,197.1,T,197.2,M,001.6,N,002.9,K,A*2C
$GPGSV,2,1,08,02,38,076,42,09,17,152,,12,55,079,41,14,27,251,41*7E
$GPGSV,2,2,08,25,77,344,47,29,54,224,42,30,35,291,41,31,27,313,41*77
$GPGSA,M,3,02,12,14,25,29,30,31,,,,,,2.8,1.4,2.4*3E
Trace #98 at position 24.250000
$GPZDA,085905.04,09,10,2011,00,00*69
$GPRMC,085905.00,A,4611.969678,N,01258.222442,E,001.4,186.8,091011,0.2,E,A*3F
$GPGGA,085906.00,4611.969235,N,01258.222369,E,1,07,1.4,140.67,M,46.25,M,,*6D
$GPGLL,4611.969235,N,01258.222369,E,085906.00,A,A*6B
$GPVTG,197.1,T,197.2,M,001.6,N,002.9,K,A*2C
$GPGSV,2,1,08,02,38,076,42,09,17,152,,12,55,079,41,14,27,251,41*7E
$GPGSV,2,2,08,25,77,344,47,29,54,224,42,30,35,291,41,31,27,313,41*77
$GPGSA,M,3,02,12,14,25,29,30,31,,,,,,2.8,1.4,2.4*3E
Trace #99 at position 24.500000
$GPZDA,085906.04,09,10,2011,00,00*6A
$GPRMC,085906.00,A,4611.969235,N,01258.222369,E,001.6,197.1,091011,0.2,E,A*34
$GPGGA,085907.00,4611.968684,N,01258.222583,E,1,07,1.4,140.47,M,46.25,M,,*63
$GPGLL,4611.968684,N,01258.222583,E,085907.00,A,A*67
$GPVTG,151.4,T,151.6,M,002.6,N,004.8,K,A*29
$GPGSV,2,1,08,02,38,076,41,09,17,152,,12,55,079,41,14,27,251,41*7D
$GPGSV,2,2,08,25,77,344,47,29,54,224,43,30,35,291,42,31,27,313,41*75
$GPGSA,M,3,02,12,14,25,29,30,31,,,,,,2.8,1.4,2.4*3E
Trace #100 at position 24.750000
$GPZDA,085906.04,09,10,2011,00,00*6A
$GPRMC,085906.00,A,4611.969235,N,01258.222369,E,001.6,197.1,091011,0.2,E,A*34
$GPGGA,085907.00,4611.968684,N,01258.222583,E,1,07,1.4,140.47,M,46.25,M,,*63
$GPGLL,4611.968684,N,01258.222583,E,085907.00,A,A*67
$GPVTG,151.4,T,151.6,M,002.6,N,004.8,K,A*29
$GPGSV,2,1,08,02,38,076,41,09,17,152,,12,55,079,41,14,27,251,41*7D
$GPGSV,2,2,08,25,77,344,47,29,54,224,43,30,35,291,42,31,27,313,41*75
$GPGSA,M,3,02,12,14,25,29,30,31,,,,,,2.8,1.4,2.4*3E
Trace #101 at position 25.000000
$GPZDA,085906.04,09,10,2011,00,00*6A
$GPRMC,085906.00,A,4611.969235,N,01258.222369,E,001.6,197.1,091011,0.2,E,A*34
$GPGGA,085907.00,4611.968684,N,01258.222583,E,1,07,1.4,140.47,M,46.25,M,,*63
$GPGLL,4611.968684,N,01258.222583,E,085907.00,A,A*67
$GPVTG,151.4,T,151.6,M,002.6,N,004.8,K,A*29
$GPGSV,2,1,08,02,38,076,41,09,17,152,,12,55,079,41,14,27,251,41*7D
$GPGSV,2,2,08,25,77,344,47,29,54,224,43,30,35,291,42,31,27,313,41*75
$GPGSA,M,3,02,12,14,25,29,30,31,,,,,,2.8,1.4,2.4*3E
Trace #102 at position 25.250000
$GPZDA,085906.04,09,10,2011,00,00*6A
$GPRMC,085906.00,A,4611.969235,N,01258.222369,E,001.6,197.1,091011,0.2,E,A*34
$GPGGA,085907.00,4611.968684,N,01258.222583,E,1,07,1.4,140.47,M,46.25,M,,*63
$GPGLL,4611.968684,N,01258.222583,E,085907.00,A,A*67
$GPVTG,151.4,T,151.6,M,002.6,N,004.8,K,A*29
$GPGSV,2,1,08,02,38,076,41,09,17,152,,12,55,079,41,14,27,251,41*7D
$GPGSV,2,2,08,25,77,344,47,29,54,224,43,30,35,291,42,31,27,313,41*75
$GPGSA,M,3,02,12,14,25,29,30,31,,,,,,2.8,1.4,2.4*3E
Trace #103 at position 25.500000
$GPZDA,085907.04,09,10,2011,00,00*6B
$GPRMC,085907.00,A,4611.968684,N,01258.222583,E,002.6,151.4,091011,0.2,E,A*34
$GPGGA,085908.00,4611.968010,N,01258.222891,E,1,07,1.4,140.26,M,46.25,M,,*6E
$GPGLL,4611.968010,N,01258.222891,E,085908.00,A,A*6D
$GPVTG,178.9,T,179.0,M,002.6,N,004.8,K,A*23
$GPGSV,2,1,08,02,38,076,41,09,17,152,,12,55,079,41,14,27,251,41*7D
$GPGSV,2,2,08,25,77,344,47,29,54,224,43,30,35,291,42,31,27,313,41*75
$GPGSA,M,3,02,12,14,25,29,30,31,,,,,,2.8,1.4,2.4*3E
Trace #104 at position 25.750000
$GPZDA,085907.04,09,10,2011,00,00*6B
$GPRMC,085907.00,A,4611.968684,N,01258.222583,E,002.6,151.4,091011,0.2,E,A*34
$GPGGA,085908.00,4611.968010,N,01258.222891,E,1,07,1.4,140.26,M,46.25,M,,*6E
$GPGLL,4611.968010,N,01258.222891,E,085908.00,A,A*6D
$GPVTG,178.9,T,179.0,M,002.6,N,004.8,K,A*23
$GPGSV,2,1,08,02,38,076,41,09,17,152,,12,55,079,41,14,27,251,41*7D
$GPGSV,2,2,08,25,77,344,47,29,54,224,43,30,35,291,42,31,27,313,41*75
$GPGSA,M,3,02,12,14,25,29,30,31,,,,,,2.8,1.4,2.4*3E
Trace #105 at position 26.000000
$GPZDA,085907.04,09,10,2011,00,00*6B
$GPRMC,085907.00,A,4611.968684,N,01258.222583,E,002.6,151.4,091011,0.2,E,A*34
$GPGGA,085908.00,4611.968010,N,01258.222891,E,1,07,1.4,140.26,M,46.25,M,,*6E
$GPGLL,4611.968010,N,01258.222891,E,085908.00,A,A*6D
$GPVTG,178.9,T,179.0,M,002.6,N,004.8,K,A*23
$GPGSV,2,1,08,02,38,076,41,09,17,152,,12,55,079,41,14,27,251,41*7D
$GPGSV,2,2,08,25,77,344,47,29,54,224,43,30,35,291,42,31,27,313,41*75
$GPGSA,M,3,02,12,14,25,29,30,31,,,,,,2.8,1.4,2.4*3E
Trace #106 at position 26.250000
$GPZDA,085907.04,09,10,2011,00,00*6B
$GPRMC,085907.00,A,4611.968684,N,01258.222583,E,002.6,151.4,091011,0.2,E,A*34
$GPGGA,085908.00,4611.968010,N,01258.222891,E,1,07,1.4,140.26,M,46.25,M,,*6E
$GPGLL,4611.968010,N,01258.222891,E,085908.00,A,A*6D
$GPVTG,178.9,T,179.0,M,002.6,N,004.8,K,A*23
$GPGSV,2,1,08,02,38,076,41,09,17,152,,12,55,079,41,14,27,251,41*7D
$GPGSV,2,2,08,25,77,344,47,29,54,224,43,30,35,291,42,31,27,313,41*75
$GPGSA,M,3,02,12,14,25,29,30,31,,,,,,2.8,1.4,2.4*3E
Trace #107 at position 26.500000
$GPZDA,085907.04,09,10,2011,00,00*6B
$GPRMC,085907.00,A,4611.968684,N,01258.222583,E,002.6,151.4,091011,0.2,E,A*34
$GPGGA,085908.00,4611.968010,N,01258.222891,E,1,07,1.4,140.26,M,46.25,M,,*6E
$GPGLL,4611.968010,N,01258.222891,E,085908.00,A,A*6D
$GPVTG,178.9,T,179.0,M,002.6,N,004.8,K,A*23
$GPGSV,2,1,08,02,38,076,41,09,17,152,,12,55,079,41,14,27,251,41*7D
$GPGSV,2,2,08,25,77,344,47,29,54,224,43,30,35,291,42,31,27,313,41*75
$GPGSA,M,3,02,12,14,25,29,30,31,,,,,,2.8,1.4,2.4*3E
Trace #108 at position 26.750000
$GPZDA,085908.04,09,10,2011,00,00*64
$GPRMC,085908.00,A,4611.968010,N,01258.222891,E,002.6,178.9,091011,0.2,E,A*38
$GPGGA,085909.00,4611.967395,N,01258.223190,E,1,07,1.4,140.25,M,46.25,M,,*64
$GPGLL,4611.967395,N,01258.223190,E,085909.00,A,A*64
$GPVTG,149.1,T,149.2,M,002.3,N,004.2,K,A*27
$GPGSV,2,1,08,02,38,076,42,09,17,152,,12,55,079,41,14,27,251,41*7E
$GPGSV,2,2,08,25,77,344,48,29,54,224,43,30,35,291,42,31,27,313,40*7B
$GPGSA,M,3,02,12,14,25,29,30,31,,,,,,2.8,1.4,2.4*3E
Trace #109 at position 27.000000
$GPZDA,085908.04,09,10,2011,00,00*64
$GPRMC,085908.00,A,4611.968010,N,01258.222891,E,002.6,178.9,091011,0.2,E,A*38
$GPGGA,085909.00,4611.967395,N,01258.223190,E,1,07,1.4,140.25,M,46.25,M,,*64
$GPGLL,4611.967395,N,01258.223190,E,085909.00,A,A*64
$GPVTG,149.1,T,149.2,M,002.3,N,004.2,K,A*27
$GPGSV,2,1,08,02,38,076,42,09,17,152,,12,55,079,41,14,27,251,41*7E
$GPGSV,2,2,08,25,77,344,48,29,54,224,43,30,35,291,42,31,27,313,40*7B
$GPGSA,M,3,02,12,14,25,29,30,31,,,,,,2.8,1.4,2.4*3E
Trace #110 at position 27.250000
$GPZDA,085908.04,09,10,2011,00,00*64
$GPRMC,085908.00,A,4611.968010,N,01258.222891,E,002.6,178.9,091011,0.2,E,A*38
$GPGGA,085909.00,4611.967395,N,01258.223190,E,1,07,1.4,140.25,M,46.25,M,,*64
$GPGLL,4611.967395,N,01258.223190,E,085909.00,A,A*64
$GPVTG,149.1,T,149.2,M,002.3,N,004.2,K,A*27
$GPGSV,2,1,08,02,38,076,42,09,17,152,,12,55,079,41,14,27,251,41*7E
$GPGSV,2,2,08,25,77,344,48,29,54,224,43,30,35,291,42,31,27,313,40*7B
$GPGSA,M,3,02,12,14,25,29,30,31,,,,,,2.8,1.4,2.4*3E
Trace #111 at position 27.500000
$GPZDA,085908.04,09,10,2011,00,00*64
$GPRMC,085908.00,A,4611.968010,N,01258.222891,E,002.6,178.9,091011,0.2,E,A*38
$GPGGA,085909.00,4611.967395,N,01258.223190,E,1,07,1.4,140.25,M,46.25,M,,*64
$GPGLL,4611.967395,N,01258.223190,E,085909.00,A,A*64
$GPVTG,149.1,T,149.2,M,002.3,N,004.2,K,A*27
$GPGSV,2,1,08,02,38,076,42,09,17,152,,12,55,079,41,14,27,251,41*7E
$GPGSV,2,2,08,25,77,344,48,29,54,224,43,30,35,291,42,31,27,313,40*7B
$GPGSA,M,3,02,12,14,25,29,30,31,,,,,,2.8,1.4,2.4*3E
Trace #112 at position 27.750000
$GPZDA,085909.04,09,10,2011,00,00*65
$GPRMC,085909.00,A,4611.967395,N,01258.223190,E,002.3,149.1,091011,0.2,E,A*3E
$GPGGA,085910.00,4611.966903,N,01258.223499,E,1,07,1.4,140.29,M,46.25,M,,*68
$GPGLL,4611.966903,N,01258.223499,E,085910.00,A,A*64
$GPVTG,172.4,T,172.6,M,001.7,N,003.1,K,A*25
$GPGSV,2,1,08,02,38,076,41,09,17,152,,12,55,079,40,14,27,251,41*7C
$GPGSV,2,2,08,25,77,344,48,29,54,224,43,30,35,291,42,31,27,313,41*7A
$GPGSA,M,3,02,12,14,25,29,30,31,,,,,,2.8,1.4,2.4*3E
Trace #113 at position 28.000000
$GPZDA,085909.04,09,10,2011,00,00*65
$GPRMC,085909.00,A,4611.967395,N,01258.223190,E,002.3,149.1,091011,0.2,E,A*3E
$GPGGA,085910.00,4611.966903,N,01258.223499,E,1,07,1.4,140.29,M,46.25,M,,*68
$GPGLL,4611.966903,N,01258.223499,E,085910.00,A,A*64
$GPVTG,172.4,T,172.6,M,001.7,N,003.1,K,A*25
$GPGSV,2,1,08,02,38,076,41,09,17,152,,12,55,079,40,14,27,251,41*7C
$GPGSV,2,2,08,25,77,344,48,29,54,224,43,30,35,291,42,31,27,313,41*7A
$GPGSA,M,3,02,12,14,25,29,30,31,,,,,,2.8,1.4,2.4*3E
Trace #114 at position 28.250000
$GPZDA,085909.04,09,10,2011,00,00*65
$GPRMC,085909.00,A,4611.967395,N,01258.223190,E,002.3,149.1,091011,0.2,E,A*3E
$GPGGA,085910.00,4611.966903,N,01258.223499,E,1,07,1.4,140.29,M,46.25,M,,*68
$GPGLL,4611.966903,N,01258.223499,E,085910.00,A,A*64
$GPVTG,172.4,T,172.6,M,001.7,N,003.1,K,A*25
$GPGSV,2,1,08,02,38,076,41,09,17,152,,12,55,079,40,14,27,251,41*7C
$GPGSV,2,2,08,25,77,344,48,29,54,224,43,30,35,291,42,31,27,313,41*7A
$GPGSA,M,3,02,12,14,25,29,30,31,,,,,,2.8,1.4,2.4*3E
Trace #115 at position 28.500000
$GPZDA,085909.04,09,10,2011,00,00*65
