Trace #1 at position 0.000000
$GPZDA,090702.04,08,10,2011,00,00*65
$GPRMC,090702.00,A,4611.975939,N,01258.209123,E,000.1,0.4,081011,0.2,E,A*38
$GPGGA,090703.00,4611.975983,N,01258.208866,E,1,07,1.4,136.68,M,46.25,M,,*6B
$GPGLL,4611.975983,N,01258.208866,E,090703.00,A,A*63
$GPVTG,22.6,T,22.7,M,000.1,N,000.1,K,A*22
$GPGSV,2,1,08,02,38,074,43,09,15,152,,12,54,081,38,14,26,250,42*74
$GPGSV,2,2,08,25,78,352,49,29,56,225,46,30,37,293,45,31,28,312,44*79
$GPGSA,M,3,02,12,14,25,29,30,31,,,,,,2.8,1.4,2.4*3E
Trace #2 at position 0.250000
$GPZDA,090712.03,08,10,2011,00,00*63
$GPRMC,090712.00,A,4611.976136,N,01258.207636,E,000.1,105.4,081011,0.2,E,A*34
$GPGGA,090713.00,4611.976134,N,01258.207580,E,1,06,1.5,139.08,M,46.25,M,,*6E
$GPGLL,4611.976134,N,01258.207580,E,090713.00,A,A*6F
$GPVTG,259.3,T,259.4,M,000.1,N,000.2,K,A*27
$GPGSV,2,1,08,02,38,074,42,09,15,152,,12,54,081,35,14,26,250,41*7B
$GPGSV,2,2,08,25,78,352,48,29,56,225,44,30,37,293,45,31,28,312,44*7A
$GPGSA,M,3,02,14,25,29,30,31,,,,,,,2.8,1.5,2.4*3C
Trace #3 at position 0.500000
$GPZDA,090712.03,08,10,2011,00,00*63
$GPRMC,090712.00,A,4611.976136,N,01258.207636,E,000.1,105.4,081011,0.2,E,A*34
$GPGGA,090713.00,4611.976134,N,01258.207580,E,1,06,1.5,139.08,M,46.25,M,,*6E
$GPGLL,4611.976134,N,01258.207580,E,090713.00,A,A*6F
$GPVTG,259.3,T,259.4,M,000.1,N,000.2,K,A*27
$GPGSV,2,1,08,02,38,074,42,09,15,152,,12,54,081,35,14,26,250,41*7B
$GPGSV,2,2,08,25,78,352,48,29,56,225,44,30,37,293,45,31,28,312,44*7A
$GPGSA,M,3,02,14,25,29,30,31,,,,,,,2.8,1.5,2.4*3C
Trace #4 at position 0.750000
$GPZDA,090713.04,08,10,2011,00,00*65
$GPRMC,090713.00,A,4611.976134,N,01258.207580,E,000.1,259.3,081011,0.2,E,A*34
$GPGGA,090714.00,4611.976150,N,01258.207483,E,1,07,1.4,139.30,M,46.25,M,,*62
$GPGLL,4611.976150,N,01258.207483,E,090714.00,A,A*68
$GPVTG,355.8,T,355.9,M,000.1,N,000.2,K,A*21
$GPGSV,2,1,08,02,38,074,42,09,15,152,,12,54,081,40,14,26,250,41*79
$GPGSV,2,2,08,25,78,352,49,29,56,225,45,30,37,293,46,31,28,312,46*7B
$GPGSA,M,3,02,12,14,25,29,30,31,,,,,,2.8,1.4,2.4*3E
Trace #5 at position 1.000000
$GPZDA,090714.04,08,10,2011,00,00*62
$GPRMC,090714.00,A,4611.976150,N,01258.207483,E,000.1,355.8,081011,0.2,E,A*35
$GPGGA,090715.00,4611.976160,N,01258.207406,E,1,07,1.4,139.44,M,46.25,M,,*6E
$GPGLL,4611.976160,N,01258.207406,E,090715.00,A,A*67
$GPVTG,226.5,T,226.7,M,000.1,N,000.1,K,A*21
$GPGSV,2,1,08,02,38,074,42,09,15,152,,12,54,081,39,14,26,250,44*72
$GPGSV,2,2,08,25,78,352,48,29,56,225,44,30,37,293,45,31,28,312,45*7B
$GPGSA,M,3,02,12,14,25,29,30,31,,,,,,2.8,1.4,2.4*3E
Trace #6 at position 1.250000
$GPZDA,090715.04,08,10,2011,00,00*63
$GPRMC,090715.00,A,4611.976160,N,01258.207406,E,000.1,226.5,081011,0.2,E,A*32
$GPGGA,090716.00,4611.976165,N,01258.207360,E,1,06,1.9,139.57,M,46.25,M,,*61
$GPGLL,4611.976165,N,01258.207360,E,090716.00,A,A*66
$GPVTG,124.1,T,124.2,M,000.1,N,000.2,K,A*23
$GPGSV,2,1,08,02,38,074,40,09,15,152,,12,54,081,37,14,26,250,35*78
$GPGSV,2,2,08,25,78,352,49,29,56,225,43,30,37,293,46,31,28,312,44*7F
$GPGSA,M,3,02,12,25,29,30,31,,,,,,,3.8,1.9,3.2*30
Trace #7 at position 1.500000
$GPZDA,090716.04,08,10,2011,00,00*60
$GPRMC,090716.00,A,4611.976165,N,01258.207360,E,000.1,124.1,081011,0.2,E,A*36
$GPGGA,090717.00,4611.976132,N,01258.207323,E,1,06,1.9,139.73,M,46.25,M,,*63
$GPGLL,4611.976132,N,01258.207323,E,090717.00,A,A*62
$GPVTG,190.9,T,191.0,M,000.3,N,000.5,K,A*2D
$GPGSV,2,1,08,02,38,074,39,09,15,152,,12,54,081,42,14,26,250,30*71
$GPGSV,2,2,08,25,78,352,49,29,56,225,41,30,37,293,46,31,28,312,44*7D
$GPGSA,M,3,02,12,25,29,30,31,,,,,,,3.8,1.9,3.2*30
Trace #8 at position 1.750000
$GPZDA,090716.04,08,10,2011,00,00*60
$GPRMC,090716.00,A,4611.976165,N,01258.207360,E,000.1,124.1,081011,0.2,E,A*36
$GPGGA,090717.00,4611.976132,N,01258.207323,E,1,06,1.9,139.73,M,46.25,M,,*63
$GPGLL,4611.976132,N,01258.207323,E,090717.00,A,A*62
$GPVTG,190.9,T,191.0,M,000.3,N,000.5,K,A*2D
$GPGSV,2,1,08,02,38,074,39,09,15,152,,12,54,081,42,14,26,250,30*71
$GPGSV,2,2,08,25,78,352,49,29,56,225,41,30,37,293,46,31,28,312,44*7D
$GPGSA,M,3,02,12,25,29,30,31,,,,,,,3.8,1.9,3.2*30
Trace #9 at position 2.000000
$GPZDA,090717.03,08,10,2011,00,00*66
$GPRMC,090717.00,A,4611.976132,N,01258.207323,E,000.3,190.9,081011,0.2,E,A*37
$GPGGA,090718.00,4611.976097,N,01258.207270,E,1,06,1.9,139.87,M,46.25,M,,*6E
$GPGLL,4611.976097,N,01258.207270,E,090718.00,A,A*64
$GPVTG,208.8,T,209.0,M,000.1,N,000.2,K,A*29
$GPGSV,2,1,08,02,38,074,36,09,15,152,,12,54,081,41,14,26,249,34*71
$GPGSV,2,2,08,25,78,352,49,29,56,225,43,30,3,M,3,02,12,25,29,30,31,,,,,,,3.8,1.9,3.2*30
$GPZDA,090718.04,08,10,2011,00,00*6E
$GPRMC,090718.00,A,4611.976097,N,01258.207270,E,000.1,208.8,081011,0.2,E,A*30
$GPGGA,090719.00,4611.976032,N,01258.207256,E,1,06,1.9,139.93,M,46.25,M,,*61
$GPGLL,4611.976032,N,01258.207256,E,090719.00,A,A*6E
$GPVTG,166.7,T,166.9,M,000.5,N,001.0,K,A*29
$GPGSV,2,1,08,02,38,074,38,09,15,152,,12,54,081,41,14,26,249,30*7B
$GPGSV,2,2,08,25,78,352,49,29,56,225,44,30,37,293,44,31,28,312,45*7B
$GPGSA,M,3,02,12,25,29,30,31,,,,,,,,08,10,2011,00,00*68
Trace #10 at position 2.250000
$GPZDA,090717.03,08,10,2011,00,00*66
$GPRMC,090717.00,A,4611.976132,N,01258.207323,E,000.3,190.9,081011,0.2,E,A*37
$GPGGA,090718.00,4611.976097,N,01258.207270,E,1,06,1.9,139.87,M,46.25,M,,*6E
$GPGLL,4611.976097,N,01258.207270,E,090718.00,A,A*64
$GPVTG,208.8,T,209.0,M,000.1,N,000.2,K,A*29
$GPGSV,2,1,08,02,38,074,36,09,15,152,,12,54,081,41,14,26,249,34*71
$GPGSV,2,2,08,25,78,352,49,29,56,225,43,30,3,M,3,02,12,25,29,30,31,,,,,,,3.8,1.9,3.2*30
$GPZDA,090718.04,08,10,2011,00,00*6E
$GPRMC,090718.00,A,4611.976097,N,01258.207270,E,000.1,208.8,081011,0.2,E,A*30
$GPGGA,090719.00,4611.976032,N,01258.207256,E,1,06,1.9,139.93,M,46.25,M,,*61
$GPGLL,4611.976032,N,01258.207256,E,090719.00,A,A*6E
$GPVTG,166.7,T,166.9,M,000.5,N,001.0,K,A*29
$GPGSV,2,1,08,02,38,074,38,09,15,152,,12,54,081,41,14,26,249,30*7B
$GPGSV,2,2,08,25,78,352,49,29,56,225,44,30,37,293,44,31,28,312,45*7B
$GPGSA,M,3,02,12,25,29,30,31,,,,,,,,08,10,2011,00,00*68
Trace #11 at position 2.500000
$GPRMC,090719.00,A,4611.976032,N,01258.207256,E,000.5,166.7,081011,0.2,E,A*3A
$GPGGA,090720.00,4611.975903,N,01258.207296,E,1,06,1.9,140.02,M,46.25,M,,*69
$GPGLL,4611.975903,N,01258.207296,E,090720.00,A,A*60
$GPVTG,157.6,T,157.8,M,000.6,N,001.1,K,A*2B
$GPGSV,2,1,08,02,38,074,39,09,15,152,,12,54,081,42,14,26,249,36*7F
$GPGSV,2,2,08,25,78,352,48,29,56,225,45,30,37,293,39,31,28,312,47*73
$GPGSA,M,3,02,12,25,29,30,31,,,,,,,3.8,1.9,3.2*30
Trace #12 at position 2.750000
$GPZDA,090720.03,08,10,2011,00,00*62
$GPRMC,$GPGGA,090721.00,4611.975732,N,01258.207371,E,1,07,1.4,140.06,M,46.25,M,,*64
$GPGLL,4611.975732,N,01258.207371,E,090721.00,A,A*65
$GPVTG,152.0,T,152.2,M,000.7,N,001.3,K,A*24
$GPGSV,2,1,08,02,38,074,40,09,15,152,,12,54,081,39,14,26,249,44*78
$GPGSV,2,2,08,25,78,352,48,29,56,225,46,30,37,293,41,31,28,312,38*77
$GPGSA,M,3,02,12,14,25,29,30,31,,,,,,2.8,1.4,2.4*3E
Trace #13 at position 3.000000
$GPZDA,090721.04,08,10,2011,00,00*64
$GPRMC,090721.00,A,4611.975732,N,01258.207371,E,000.7,152.0,081011,0.2,E,A*33
$GPGGA,090722.00,4611.975473,N,01258.207323,E,1,07,1.4,140.00,M,46.25,M,,*60
$GPGLL,4611.975473,N,01258.207323,E,090722.00,A,A*67
$GPVTG,199.7,T,199.8,M,001.4,N,002.5,K,A*2E
$GPGSV,2,1,08,02,38,074,42,09,15,152,,12,54,081,39,14,26,249,42*7C
$GPGSV,2,2,08,25,78,353,49,29,56,225,44,30,37,293,40,31,28,312,40*7B
$GPGSA,M,3,02,12,14,25,29,30,31,,,,,,2.8,1.4,2.4*3E
Trace #14 at position 3.250000
$GPZDA,090722.04,08,10,2011,00,00*67
$GPRMC,090722.00,A,4611.975473,N,01258.207323,E,001.4,199.7,081011,0.2,E,A*33
$GPGGA,090723.00,4611.975281,N,01258.207214,E,1,07,1.4,139.91,M,46.25,M,,*69
$GPGLL,4611.975281,N,01258.207214,E,090723.00,A,A*68
$GPVTG,203.7,T,203.8,M,000.2,N,000.4,K,A*2A
$GPGSV,2,1,08,02,38,074,42,09,15,152,,12,54,081,40,14,26,249,43*73
$GPGSV,2,2,08,25,78,353,48,29,56,225,45,30,37,293,47,31,28,312,42*7E
$GPGSA,M,3,02,12,14,25,29,30,31,,,,,,2.8,1.4,2.4*3E
Trace #15 at position 3.500000
$GPZDA,090723.04,08,10,2011,00,00*66
$GPRMC,090723.00,A,4611.975281,N,01258.207214,E,000.2,203.7,081011,0.2,E,A*3B
$GPGGA,090724.00,4611.975199,N,01258.207291,E,1,07,1.4,139.90,M,46.25,M,,*68
$GPGLL,4611.975199,N,01258.207291,E,090724.00,A,A*68
$GPVTG,134.6,T,134.7,M,000.7,N,001.2,K,A*26
$GPGSV,2,1,08,02,38,074,39,09,15,152,,12,54,081,37,14,26,249,44*78
$GPGSV,2,2,08,25,78,353,48,29,56,225,46,30,37,293,46,31,28,312,42*7C
$GPGSA,M,3,02,12,14,25,29,30,31,,,,,,2.8,1.4,2.4*3E
Trace #16 at position 3.750000
$GPZDA,090723.04,08,10,2011,00,00*66
$GPRMC,090723.00,A,4611.975281,N,01258.207214,E,000.2,203.7,081011,0.2,E,A*3B
$GPGGA,090724.00,4611.975199,N,01258.207291,E,1,07,1.4,139.90,M,46.25,M,,*68
$GPGLL,4611.975199,N,01258.207291,E,090724.00,A,A*68
$GPVTG,134.6,T,134.7,M,000.7,N,001.2,K,A*26
$GPGSV,2,1,08,02,38,074,39,09,15,152,,12,54,081,37,14,26,249,44*78
$GPGSV,2,2,08,25,78,353,48,29,56,225,46,30,37,293,46,31,28,312,42*7C
$GPGSA,M,3,02,12,14,25,29,30,31,,,,,,2.8,1.4,2.4*3E
Trace #17 at position 4.000000
$GPZDA,090724.04,08,10,2011,00,00*61
$GPRMC,090724.00,A,4611.975199,N,01258.207291,E,000.7,134.6,081011,0.2,E,A*38
$GPGGA,090725.00,4611.975024,N,01258.207435,E,1,07,1.4,139.90,M,46.25,M,,*66
$GPGLL,4611.975024,N,01258.207435,E,090725.00,A,A*66
$GPVTG,161.9,T,162.1,M,000.9,N,001.6,K,A*26
$GPGSV,2,1,08,02,38,074,39,09,15,152,,12,54,081,39,14,26,249,42*70
$GPGSV,2,2,08,25,78,353,49,29,56,225,45,30,37,293,45,31,28,312,45*7A
$GPGSA,M,3,02,12,14,25,29,30,31,,,,,,2.8,1.4,2.4*3E
Trace #18 at position 4.250000
$GPZDA,090725.04,08,10,2011,00,00*60
$GPRMC,090725.00,A,4611.975024,N,01258.207435,E,000.9,161.9,081011,0.2,E,A*37
$GPGGA,090726.00,4611.974814,N,01258.207510,E,1,07,1.4,139.88,M,46.25,M,,*60
$GPGLL,4611.974814,N,01258.207510,E,090726.00,A,A*69
$GPVTG,171.5,T,171.7,M,000.7,N,001.4,K,A*23
$GPGSV,2,1,08,02,38,074,40,09,15,152,,12,54,081,39,14,26,249,43*7F
$GPGSV,2,2,08,25,78,353,49,29,56,225,45,30,37,293,46,31,28,312,47*7B
$GPGSA,M,3,02,12,14,25,29,30,31,,,,,,2.8,1.4,2.4*3E
Trace #19 at position 4.500000
$GPZDA,090726.04,08,10,2011,00,00*63
$GPRMC,090726.00,A,4611.974814,N,01258.207510,E,000.7,171.5,081011,0.2,E,A*3B
$GPGGA,090727.00,4611.974633,N,01258.207551,E,1,07,1.4,139.90,M,46.25,M,,*66
$GPGLL,4611.974633,N,01258.207551,E,090727.00,A,A*66
$GPVTG,173.0,T,173.1,M,000.7,N,001.2,K,A*26
$GPGSV,2,1,08,02,38,074,41,09,15,152,,12,54,081,39,14,26,249,43*7E
$GPGSV,2,2,08,25,78,353,49,29,56,225,45,30,37,293,47,31,28,312,46*7B
$GPGSA,M,3,02,12,14,25,29,30,31,,,,,,2.8,1.4,2.4*3E
Trace #20 at position 4.750000
$GPZDA,090727.04,08,10,2011,00,00*62
$GPRMC,090727.00,A,4611.974633,N,01258.207551,E,000.7,173.0,081011,0.2,E,A*33
$GPGGA,090728.00,4611.974461,N,01258.207578,E,1,07,1.4,139.91,M,46.25,M,,*66
$GPGLL,4611.974461,N,01258.207578,E,090728.00,A,A*67
$GPVTG,177.7,T,177.9,M,000.8,N,001.4,K,A*20
$GPGSV,2,1,08,02,38,074,41,09,15,152,,12,54,081,38,14,26,249,42*7E
$GPGSV,2,2,08,25,78,353,49,29,56,225,46,30,37,293,46,31,28,312,46*79
$GPGSA,M,3,02,12,14,25,29,30,31,,,,,,2.8,1.4,2.4*3E
Trace #21 at position 5.000000
$GPZDA,090728.04,08,10,2011,00,00*6D
$GPRMC,090728.00,A,4611.974461,N,01258.207578,E,000.8,177.7,081011,0.2,E,A*3E
$GPGGA,090729.00,4611.974324,N,01258.207606,E,1,07,1.4,139.92,M,46.25,M,,*68
$GPGLL,4611.974324,N,01258.207606,E,090729.00,A,A*6A
$GPVTG,166.6,T,166.8,M,000.4,N,000.7,K,A*2E
$GPGSV,2,1,08,02,38,074,43,09,15,152,,12,54,081,40,14,26,249,41*70
$GPGSV,2,2,08,25,78,353,48,29,56,225,45,30,37,293,46,31,28,312,46*7B
$GPGSA,M,3,02,12,14,25,29,30,31,,,,,,2.8,1.4,2.4*3E
Trace #22 at position 5.250000
$GPZDA,090728.04,08,10,2011,00,00*6D
$GPRMC,090728.00,A,4611.974461,N,01258.207578,E,000.8,177.7,081011,0.2,E,A*3E
$GPGGA,090729.00,4611.974324,N,01258.207606,E,1,07,1.4,139.92,M,46.25,M,,*68
$GPGLL,4611.974324,N,01258.207606,E,090729.00,A,A*6A
$GPVTG,166.6,T,166.8,M,000.4,N,000.7,K,A*2E
$GPGSV,2,1,08,02,38,074,43,09,15,152,,12,54,081,40,14,26,249,41*70
$GPGSV,2,2,08,25,78,353,48,29,56,225,45,30,37,293,46,31,28,312,46*7B
$GPGSA,M,3,02,12,14,25,29,30,31,,,,,,2.8,1.4,2.4*3E
Trace #23 at position 5.500000
$GPZDA,090729.04,08,10,2011,00,00*6C
$GPRMC,090729.00,A,4611.974324,N,01258.207606,E,000.4,166.6,081011,0.2,E,A*3E
$GPGGA,090730.00,4611.974169,N,01258.207728,E,1,07,1.4,139.89,M,46.25,M,,*6C
$GPGLL,4611.974169,N,01258.207728,E,090730.00,A,A*64
$GPVTG,151.2,T,151.3,M,001.1,N,002.0,K,A*20
$GPGSV,2,1,08,02,38,074,42,09,15,152,,12,54,081,39,14,26,249,42*7CZDA,090730.04,08,10,2011,00,00*64
$GPRMC,090730.00,A,4611.974169,N,01258.207728,E,001.1,151.2,081011,0.2,E,A*34
$GPGGA,090731.00,4611.974002,N,01258.207812,E,1,07,1.4,139.85,M,46.25,M,,*6B
$GPGLL,4611.974002,N,01258.207812,E,090731.00,A,A*6F
$GPVTG,187.1,T,187.3,M,000.5,N,000.9,K,A*2D
$GPGSV,2,1,08,02,38,074,41,09,15,152,,12,54,081,38,14,26,249,42*7E
$GPGSV,2,2,08,25,78,353,49,29,56,225,46,30,37,293,46,31,28,312,46*79
$GPGSA,M,3,02,12,14,25,29,30,31,,,,,,2.8,1.4,2.4*3E
Trace #24 at position 5.750000
$GPZDA,090731.04,08,10,2011,007.1,081011,0.2,E,A*32
$GPGGA,090732.00,4611.973855,N,01258.207855,E,1,07,1.4,139.90,M,46.25,M,,*62
$GPGLL,4611.973855,N,01258.207855,E,090732.00,A,A*62
$GPVTG,161.5,T,161.6,M,000.9,N,001.6,K,A*2E
$GPGSV,2,1,08,02,38,074,39,09,15,152,,12,54,081,39,14,26,249,41*73
$GPGSV,2,2,08,25,78,353,49,29,56,225,46,30,37,293,46,31,28,312,45*7A
$GPGSA,M,3,02,12,14,25,29,30,31,,,,,,2.8,1.4,2.4*3E
Trace #25 at position 6.000000
$GPZDA,090731.04,08,10,2011,007.1,081011,0.2,E,A*32
$GPGGA,090732.00,4611.973855,N,01258.207855,E,1,07,1.4,139.90,M,46.25,M,,*62
$GPGLL,4611.973855,N,01258.207855,E,090732.00,A,A*62
$GPVTG,161.5,T,161.6,M,000.9,N,001.6,K,A*2E
$GPGSV,2,1,08,02,38,074,39,09,15,152,,12,54,081,39,14,26,249,41*73
$GPGSV,2,2,08,25,78,353,49,29,56,225,46,30,37,293,46,31,28,312,45*7A
$GPGSA,M,3,02,12,14,25,29,30,31,,,,,,2.8,1.4,2.4*3E
Trace #26 at position 6.250000
$GPZDA,090732.04,08,10,2011,00,00*66
$GPRMC,090732.00,A,4611.973855,N,01258.207855,E,000.9,161.5,081011,0.2,E,A*3F
$GPGGA,090733.00,4611.973685,N,01258.207926,E,1,07,1.4,139.91,M,46.25,M,,*64
$GPGLL,4611.973685,N,01258.207926,E,090733.00,A,A*65
$GPVTG,170.7,T,170.8,M,000.7,N,001.2,K,A*28
$GPGSV,2,1,08,02,38,074,41,09,15,152,,12,54,081,39,14,26,249,42*7F
$GPGSV,2,2,08,25,78,353,49,29,56,225,46,30,37,293,46,31,28,312,45*7A
$GPGSA,M,3,02,12,14,25,29,30,31,,,,,,2.8,1.4,2.4*3E
Trace #27 at position 6.500000
$GPZDA,090733.04,08,10,2011,00,00*67
$GPRMC,090733.00,A,4611.973685,N,01258.207926,E,000.7,170.7,081011,0.2,E,A*34
$GPGGA,090734.00,4611.973523,N,01258.208000,E,1,07,1.4,139.90,M,46.25,M,,*6F
$GPGLL,4611.973523,N,01258.208000,E,090734.00,A,A*6F
$GPVTG,159.8,T,159.9,M,000.8,N,001.5,K,A*2E
$GPGSV,2,1,08,02,38,074,40,09,15,152,,12,54,081,38,14,26,249,43*7E
$GPGSV,2,2,08,25,78,353,49,29,56,225,45,30,37,293,46,31,28,312,45*79
$GPGSA,M,3,02,12,14,25,29,30,31,,,,,,2.8,1.4,2.4*3E
Trace #28 at position 6.750000
$GPZDA,090733.04,08,10,2011,00,00*67
$GPRMC,090733.00,A,4611.973685,N,01258.207926,E,000.7,170.7,081011,0.2,E,A*34
$GPGGA,090734.00,4611.973523,N,01258.208000,E,1,07,1.4,139.90,M,46.25,M,,*6F
$GPGLL,4611.973523,N,01258.208000,E,090734.00,A,A*6F
$GPVTG,159.8,T,159.9,M,000.8,N,001.5,K,A*2E
$GPGSV,2,1,08,02,38,074,40,09,15,152,,12,54,081,38,14,26,249,43*7E
$GPGSV,2,2,08,25,78,353,49,29,56,225,45,30,37,293,46,31,28,312,45*79
$GPGSA,M,3,02,12,14,25,29,30,31,,,,,,2.8,1.4,2.4*3E
Trace #29 at position 7.000000
$GPZDA,090734.04,08,10,2011,00,00*60
$GPRMC,090734.00,A,4611.973523,N,01258.208000,E,000.8,159.8,081011,0.2,E,A*35
$GPGGA,090735.00,4611.973340,N,01258.208098,E,1,07,1.4,139.91,M,46.25,M,,*6D
$GPGLL,4611.973340,N,01258.208098,E,090735.00,A,A*6C
$GPVTG,161.8,T,162.0,M,000.9,N,001.6,K,A*26
$GPGSV,2,1,08,02,38,074,41,09,15,152,,12,54,081,38,14,26,249,43*7F
$GPGSV,2,2,08,25,78,353,48,29,56,225,44,30,37,293,46,31,28,312,45*79
$GPGSA,M,3,02,12,14,25,29,30,31,,,,,,2.8,1.4,2.4*3E
Trace #30 at position 7.250000
$GPZDA,090735.04,08,10,2011,00,00*61
$GPRMC,090735.00,A,4611.973340,N,01258.208098,E,000.9,161.8,081011,0.2,E,A*3C
$GPGGA,090736.00,4611.973158,N,01258.208154,E,1,07,1.4,139.87,M,46.25,M,,*63
$GPGLL,4611.973158,N,01258.208154,E,090736.00,A,A*65
$GPVTG,178.6,T,178.8,M,000.7,N,001.3,K,A*28
$GPGSV,2,1,08,02,38,074,41,09,15,152,,12,54,081,39,14,26,249,42*7F
$GPGSV,2,2,08,25,78,353,48,29,56,225,44,30,37,293,46,31,29,312,44*79
$GPGSA,M,3,02,12,14,25,29,30,31,,,,,,2.8,1.4,2.4*3E
Trace #31 at position 7.500000
$GPZDA,090735.04,08,10,2011,00,00*61
$GPRMC,090735.00,A,4611.973340,N,01258.208098,E,000.9,161.8,081011,0.2,E,A*3C
$GPGGA,090736.00,4611.973158,N,01258.208154,E,1,07,1.4,139.87,M,46.25,M,,*63
$GPGLL,4611.973158,N,01258.208154,E,090736.00,A,A*65
$GPVTG,178.6,T,178.8,M,000.7,N,001.3,K,A*28
$GPGSV,2,1,08,02,38,074,41,09,15,152,,12,54,081,39,14,26,249,42*7F
$GPGSV,2,2,08,25,78,353,48,29,56,225,44,30,37,293,46,31,29,312,44*79
$GPGSA,M,3,02,12,14,25,29,30,31,,,,,,2.8,1.4,2.4*3E
Trace #32 at position 7.750000
$GPZDA,090736.04,08,10,2011,00,00*62
$GPRMC,090736.00,A,4611.973158,N,01258.208154,E,000.7,178.6,081011,0.2,E,A*3D
$GPGGA,090737.00,4611.973010,N,01258.208191,E,1,07,1.4,139.84,M,46.25,M,,*65
$GPGLL,4611.973010,N,01258.208191,E,090737.00,A,A*60
$GPVTG,165.2,T,165.3,M,000.6,N,001.1,K,A*24
$GPGSV,2,1,08,02,38,074,41,09,15,152,,12,54,081,39,14,26,249,43*7E
$GPGSV,2,2,08,25,78,353,48,29,56,225,45,30,37,293,46,31,29,312,44*78
$GPGSA,M,3,02,12,14,25,29,30,31,,,,,,2.8,1.4,2.4*3E
Trace #33 at position 8.000000
$GPZDA,090736.04,08,10,2011,00,00*62
$GPRMC,090736.00,A,4611.973158,N,01258.208154,E,000.7,178.6,081011,0.2,E,A*3D
$GPGGA,090737.00,4611.973010,N,01258.208191,E,1,07,1.4,139.84,M,46.25,M,,*65
$GPGLL,4611.973010,N,01258.208191,E,090737.00,A,A*60
$GPVTG,165.2,T,165.3,M,000.6,N,001.1,K,A*24
$GPGSV,2,1,08,02,38,074,41,09,15,152,,12,54,081,39,14,26,249,43*7E
$GPGSV,2,2,08,25,78,353,48,29,56,225,45,30,37,293,46,31,29,312,44*78
$GPGSA,M,3,02,12,14,25,29,30,31,,,,,,2.8,1.4,2.4*3E
Trace #34 at position 8.250000
$GPZDA,090737.04,08,10,2011,00,00*63
$GPRMC,090737.00,A,4611.973010,N,01258.208191,E,000.6,165.2,081011,0.2,E,A*31
$GPGGA,090738.00,4611.972867,N,01258.208173,E,1,07,1.4,139.90,M,46.25,M,,*6A
$GPGLL,4611.972867,N,01258.208173,E,090738.00,A,A*6A
$GPVTG,205.1,T,205.2,M,000.7,N,001.4,K,A*22
$GPGSV,2,1,08,02,38,074,41,09,15,152,,12,54,081,39,14,26,249,42*7F
$GPGSV,2,2,08,25,78,353,48,29,56,225,45,30,37,293,45,31,29,312,45*7A
$GPGSA,M,3,02,12,14,25,29,30,31,,,,,,2.8,1.4,2.4*3E
Trace #35 at position 8.500000
$GPZDA,090737.04,08,10,2011,00,00*63
$GPRMC,090737.00,A,4611.973010,N,01258.208191,E,000.6,165.2,081011,0.2,E,A*31
$GPGGA,090738.00,4611.972867,N,01258.208173,E,1,07,1.4,139.90,M,46.25,M,,*6A
$GPGLL,4611.972867,N,01258.208173,E,090738.00,A,A*6A
$GPVTG,205.1,T,205.2,M,000.7,N,001.4,K,A*22
$GPGSV,2,1,08,02,38,074,41,09,15,152,,12,54,081,39,14,26,249,42*7F
$GPGSV,2,2,08,25,78,353,48,29,56,225,45,30,37,293,45,31,29,312,45*7A
$GPGSA,M,3,02,12,14,25,29,30,31,,,,,,2.8,1.4,2.4*3E
Trace #36 at position 8.750000
$GPZDA,090738.04,08,10,2011,00,00*6C
$GPRMC,090738.00,A,4611.972867,N,01258.208173,E,000.7,205.1,081011,0.2,E,A*3C
$GPGGA,090739.00,4611.972726,N,01258.208177,E,1,07,1.4,139.98,M,46.25,M,,*6D
$GPGLL,4611.972726,N,01258.208177,E,090739.00,A,A*65
$GPVTG,162.6,T,162.8,M,000.6,N,001.0,K,A*2A
$GPGSV,2,1,08,02,38,074,41,09,15,152,,12,54,081,40,14,26,249,43*70
$GPGSV,2,2,08,25,78,353,49,29,56,225,46,30,37,293,46,31,29,312,43*7D
$GPGSA,M,3,02,12,14,25,29,30,31,,,,,,2.8,1.4,2.4*3E
Trace #37 at position 9.000000
$GPZDA,090738.04,08,10,2011,00,00*6C
$GPRMC,090738.00,A,4611.972867,N,01258.208173,E,000.7,205.1,081011,0.2,E,A*3C
$GPGGA,090739.00,4611.972726,N,01258.208177,E,1,07,1.4,139.98,M,46.25,M,,*6D
$GPGLL,4611.972726,N,01258.208177,E,090739.00,A,A*65
$GPVTG,162.6,T,162.8,M,000.6,N,001.0,K,A*2A
$GPGSV,2,1,08,02,38,074,41,09,15,152,,12,54,081,40,14,26,249,43*70
$GPGSV,2,2,08,25,78,353,49,29,56,225,46,30,37,293,46,31,29,312,43*7D
$GPGSA,M,3,02,12,14,25,29,30,31,,,,,,2.8,1.4,2.4*3E
Trace #38 at position 9.250000
$GPZDA,090739.04,08,10,2011,00,00*6D
$GPRMC,090739.00,A,4611.972726,N,01258.208177,E,000.6,162.6,081011,0.2,E,A*37
$GPGGA,090740.00,4611.972569,N,01258.208281,E,1,07,1.4,140.00,M,46.25,M,,*6F
$GPGLL,4611.972569,N,01258.208281,E,090740.00,A,A*68
$GPVTG,161.5,T,161.7,M,000.8,N,001.5,K,A*2D
$GPGSV,2,1,08,02,38,074,41,09,15,152,,12,54,081,40,14,25,249,43*73
$GPGSV,2,2,08,25,78,353,48,29,56,225,45,30,37,293,46,31,29,312,45*79
$GPGSA,M,3,02,12,14,25,29,30,31,,,,,,2.8,1.4,2.4*3E
Trace #39 at position 9.500000
$GPZDA,090739.04,08,10,2011,00,00*6D
$GPRMC,090739.00,A,4611.972726,N,01258.208177,E,000.6,162.6,081011,0.2,E,A*37
$GPGGA,090740.00,4611.972569,N,01258.208281,E,1,07,1.4,140.00,M,46.25,M,,*6F
$GPGLL,4611.972569,N,01258.208281,E,090740.00,A,A*68
$GPVTG,161.5,T,161.7,M,000.8,N,001.5,K,A*2D
$GPGSV,2,1,08,02,38,074,41,09,15,152,,12,54,081,40,14,25,249,43*73
$GPGSV,2,2,08,25,78,353,48,29,56,225,45,30,37,293,46,31,29,312,45*79
$GPGSA,M,3,02,12,14,25,29,30,31,,,,,,2.8,1.4,2.4*3E
Trace #40 at position 9.750000
$GPZDA,090740.04,08,10,2011,00,00*63
$GPRMC,090740.00,A,4611.972569,N,01258.208281,E,000.8,161.5,081011,0.2,E,A*34
$GPGGA,090741.00,4611.972408,N,01258.208392,E,1,07,1.4,139.99,M,46.25,M,,*65
$GPGLL,4611.972408,N,01258.208392,E,090741.00,A,A*6C
$GPVTG,160.3,T,160.4,M,000.6,N,001.0,K,A*23
$GPGSV,2,1,08,02,38,074,40,09,15,152,,12,54,49,29,56,225,46,30,37,293,46,31,29,312,44*7A
$GPGSA,M,3,02,12,14,25,29,30,31,,,,,,2.8,1.4,2.4*3E
Trace #41 at position 10.000000
$GPZDA,090740.04,08,10,2011,00,00*63
$GPRMC,090740.00,A,4611.972569,N,01258.208281,E,000.8,161.5,081011,0.2,E,A*34
$GPGGA,090741.00,4611.972408,N,01258.208392,E,1,07,1.4,139.99,M,46.25,M,,*65
$GPGLL,4611.972408,N,01258.208392,E,090741.00,A,A*6C
$GPVTG,160.3,T,160.4,M,000.6,N,001.0,K,A*23
$GPGSV,2,1,08,02,38,074,40,09,15,152,,12,54,49,29,56,225,46,30,37,293,46,31,29,312,44*7A
$GPGSA,M,3,02,12,14,25,29,30,31,,,,,,2.8,1.4,2.4*3E
Trace #42 at position 10.250000
$GPZDA,090740.04,08,10,2011,00,00*63
$GPRMC,090740.00,A,4611.972569,N,01258.208281,E,000.8,161.5,081011,0.2,E,A*34
$GPGGA,090741.00,4611.972408,N,01258.208392,E,1,07,1.4,139.99,M,46.25,M,,*65
$GPGLL,4611.972408,N,01258.208392,E,090741.00,A,A*6C
$GPVTG,160.3,T,160.4,M,000.6,N,001.0,K,A*23
$GPGSV,2,1,08,02,38,074,40,09,15,152,,12,54,49,29,56,225,46,30,37,293,46,31,29,312,44*7A
$GPGSA,M,3,02,12,14,25,29,30,31,,,,,,2.8,1.4,2.4*3E
Trace #43 at position 10.500000
$GPZDA,090741.04,08,10,2011,00,00*62
$GPRMC,090741.00,A,4611.972408,N,01258.208392,E,000.6,160.3,081011,0.2,E,A*39
$GPGGA,090742.00,4611.972228,N,01258.208484,E,1,07,1.4,139.94,M,46.25,M,,*6F
$GPGLL,4611.972228,N,01258.208484,E,090742.00,A,A*6B
$GPVTG,169.0,T,169.1,M,000.9,N,001.7,K,A*2D
$GPGSV,2,1,08,02,38,074,40,09,15,152,,12,54,081,38,14,25,249,43*7D
$GPGSV,2,2,08,25,78,353,49,29,56,225,46,30,37,293,,2.4*3E
$GPZDA,090742.04,08,10,2011,00,00*61
$GPRMC,090742.00,A,4611.972228,N,01258.208484,E,000.9,169.0,081011,0.2,E,A*3B
$GPGGA,090743.00,4611.972015,N,01258.208590,E,1,07,1.4,139.89,M,46.25,M,,*6A
$GPGLL,4611.972015,N,01258.208590,E,090743.00,A,A*62
$GPVTG,160.8,T,161.0,M,000.8,N,001.5,K,A*26
$GPGSV,2,1,08,02,38,074,41,09,15,152,,12,54,081,41,14,25,249,41*70
$GPGSV,2,2,08,25,78,353,49,29,56,225,45,30,37,293,44,31,29,312,43*7C
$GPGSA,M,3,02,12,14,25,29,30,31,,,,,,2.8,1.4,2.4*3E
Trace #44 at position 10.750000
$GPZDA,090743.04,03.00,A,4611.972015,N,01258.208590,E,000.8,160.8,081011,0.2,E,A*32
$GPGGA,090744.00,4611.971766,N,01258.208737,E,1,07,1.4,139.91,M,46.25,M,,*6B
$GPGLL,4611.971766,N,01258.208737,E,090744.00,A,A*6A
$GPVTG,160.1,T,160.3,M,001.2,N,002.2,K,A*22
$GPGSV,2,1,08,02,38,074,41,09,15,152,,12,54,081,39,14,25,249,44*7A
$GPGSV,2,2,08,25,78,353,48,29,56,225,45,30,37,293,45,31,29,312,44*7B
$GPGSA,M,3,02,12,14,25,29,30,31,,,,,,2.8,1.4,2.4*3E
Trace #45 at position 11.000000
$GPZDA,090743.04,03.00,A,4611.972015,N,01258.208590,E,000.8,160.8,081011,0.2,E,A*32
$GPGGA,090744.00,4611.971766,N,01258.208737,E,1,07,1.4,139.91,M,46.25,M,,*6B
$GPGLL,4611.971766,N,01258.208737,E,090744.00,A,A*6A
$GPVTG,160.1,T,160.3,M,001.2,N,002.2,K,A*22
$GPGSV,2,1,08,02,38,074,41,09,15,152,,12,54,081,39,14,25,249,44*7A
$GPGSV,2,2,08,25,78,353,48,29,56,225,45,30,37,293,45,31,29,312,44*7B
$GPGSA,M,3,02,12,14,25,29,30,31,,,,,,2.8,1.4,2.4*3E
Trace #46 at position 11.250000
$GPZDA,090744.04,08,10,2011,00,00*67
$GPRMC,090744.00,A,4611.971766,N,01258.$GPGGA,090745.00,4611.971496,N,01258.208809,E,1,07,1.4,139.94,M,46.25,M,,*61
$GPGLL,4611.971496,N,01258.208809,E,090745.00,A,A*65
$GPVTG,188.1,T,188.2,M,001.0,N,001.8,K,A*28
$GPGSV,2,1,08,02,38,074,42,09,15,152,,12,54,081,39,14,25,249,44*79
$GPGSV,2,2,08,25,78,353,47,29,56,225,45,30,37,293,46,31,29,312,44*77
$GPGSA,M,3,02,12,14,25,29,30,31,,,,,,2.8,1.4,2.4*3E
Trace #47 at position 11.500000
$GPZDA,090745.04,08,10,2011,00,00*66
$GPRMC,090745.00,A,4611.971496,N,01258.208809,E,001.0,188.1,081011,0.2,E,A*33
$GPGGA,090746.00,4611.971268,N,01258.208871,E,1,07,1.4,140.00,M,46.25,M,,*69
$GPGLL,4611.971268,N,01258.208871,E,090746.00,A,A*6E
$GPVTG,159.0,T,159.1,M,000.8,N,001.5,K,A*2E
$GPGSV,2,1,08,02,38,074,41,09,15,152,,12,54,081,39,14,25,249,43*7D
$GPGSV,2,2,08,25,78,354,48,29,56,225,45,30,37,293,45,31,29,312,44*7C
$GPGSA,M,3,02,12,14,25,29,30,31,,,,,,2.8,1.4,2.4*3E
Trace #48 at position 11.750000
$GPZDA,090745.04,08,10,2011,00,00*66
$GPRMC,090745.00,A,4611.971496,N,01258.208809,E,001.0,188.1,081011,0.2,E,A*33
$GPGGA,090746.00,4611.971268,N,01258.208871,E,1,07,1.4,140.00,M,46.25,M,,*69
$GPGLL,4611.971268,N,01258.208871,E,090746.00,A,A*6E
$GPVTG,159.0,T,159.1,M,000.8,N,001.5,K,A*2E
$GPGSV,2,1,08,02,38,074,41,09,15,152,,12,54,081,39,14,25,249,43*7D
$GPGSV,2,2,08,25,78,354,48,29,56,225,45,30,37,293,45,31,29,312,44*7C
$GPGSA,M,3,02,12,14,25,29,30,31,,,,,,2.8,1.4,2.4*3E
Trace #49 at position 12.000000
$GPZDA,090746.04,08,10,2011,00,00*65
$GPRMC,090746.00,A,4611.971268,N,01258.208871,E,000.8,159.0,081011,0.2,E,A*3C
$GPGGA,090747.00,4611.971085,N,01258.209023,E,1,07,1.4,140.03,M,46.25,M,,*64
$GPGLL,4611.971085,N,01258.209023,E,090747.00,A,A*60
$GPVTG,150.4,T,150.5,M,000.7,N,001.2,K,A*26
$GPGSV,2,1,08,02,38,074,42,09,15,152,,12,54,081,39,14,25,249,42*7F
$GPGSV,2,2,08,25,78,354,48,29,56,225,45,30,37,293,45,31,29,312,45*7D
$GPGSA,M,3,02,12,14,25,29,30,31,,,,,,2.8,1.4,2.4*3E
Trace #50 at position 12.250000
$GPZDA,090746.04,08,10,2011,00,00*65
$GPRMC,090746.00,A,4611.971268,N,01258.208871,E,000.8,159.0,081011,0.2,E,A*3C
$GPGGA,090747.00,4611.971085,N,01258.209023,E,1,07,1.4,140.03,M,46.25,M,,*64
$GPGLL,4611.971085,N,01258.209023,E,090747.00,A,A*60
$GPVTG,150.4,T,150.5,M,000.7,N,001.2,K,A*26
$GPGSV,2,1,08,02,38,074,42,09,15,152,,12,54,081,39,14,25,249,42*7F
$GPGSV,2,2,08,25,78,354,48,29,56,225,45,30,37,293,45,31,29,312,45*7D
$GPGSA,M,3,02,12,14,25,29,30,31,,,,,,2.8,1.4,2.4*3E
Trace #51 at position 12.500000
$GPZDA,090747.04,08,10,2011,00,00*64
$GPRMC,090747.00,A,4611.971085,N,01258.209023,E,000.7,150.4,081011,0.2,E,A*30
$GPGGA,090748.00,4611.970892,N,01258.209172,E,1,07,1.4,140.03,M,46.25,M,,*61
$GPGLL,4611.970892,N,01258.209172,E,090748.00,A,A*65
$GPVTG,157.7,T,157.8,M,000.9,N,001.6,K,A*22
$GPGSV,2,1,08,02,38,074,42,09,15,152,,12,54,081,39,14,25,249,43*7E
$GPGSV,2,2,08,25,78,354,48,29,56,225,45,30,37,293,46,31,29,312,45*7E
$GPGSA,M,3,02,12,14,25,29,30,31,,,,,,2.8,1.4,2.4*3E
Trace #52 at position 12.750000
$GPZDA,090747.04,08,10,2011,00,00*64
$GPRMC,090747.00,A,4611.971085,N,01258.209023,E,000.7,150.4,081011,0.2,E,A*30
$GPGGA,090748.00,4611.970892,N,01258.209172,E,1,07,1.4,140.03,M,46.25,M,,*61
$GPGLL,4611.970892,N,01258.209172,E,090748.00,A,A*65
$GPVTG,157.7,T,157.8,M,000.9,N,001.6,K,A*22
$GPGSV,2,1,08,02,38,074,42,09,15,152,,12,54,081,39,14,25,249,43*7E
$GPGSV,2,2,08,25,78,354,48,29,56,225,45,30,37,293,46,31,29,312,45*7E
$GPGSA,M,3,02,12,14,25,29,30,31,,,,,,2.8,1.4,2.4*3E
Trace #53 at position 13.000000
$GPZDA,090748.04,08,10,2011,00,00*6B
$GPRMC,090748.00,A,4611.970892,N,01258.209172,E,000.9,157.7,081011,0.2,E,A*3F
$GPGGA,090749.00,4611.970716,N,01258.209321,E,1,07,1.4,140.08,M,46.25,M,,*6C
$GPGLL,4611.970716,N,01258.209321,E,090749.00,A,A*63
$GPVTG,139.8,T,140.0,M,000.6,N,001.0,K,A*22
$GPGSV,2,1,08,02,38,074,41,09,15,152,,12,54,081,39,14,25,249,43*7D
$GPGSV,2,2,08,25,78,354,48,29,56,225,44,30,37,293,46,31,29,312,44*7E
$GPGSA,M,3,02,12,14,25,29,30,31,,,,,,2.8,1.4,2.4*3E
Trace #54 at position 13.250000
$GPZDA,090748.04,08,10,2011,00,00*6B
$GPRMC,090748.00,A,4611.970892,N,01258.209172,E,000.9,157.7,081011,0.2,E,A*3F
$GPGGA,090749.00,4611.970716,N,01258.209321,E,1,07,1.4,140.08,M,46.25,M,,*6C
$GPGLL,4611.970716,N,01258.209321,E,090749.00,A,A*63
$GPVTG,139.8,T,140.0,M,000.6,N,001.0,K,A*22
$GPGSV,2,1,08,02,38,074,41,09,15,152,,12,54,081,39,14,25,249,43*7D
$GPGSV,2,2,08,25,78,354,48,29,56,225,44,30,37,293,46,31,29,312,44*7E
$GPGSA,M,3,02,12,14,25,29,30,31,,,,,,2.8,1.4,2.4*3E
Trace #55 at position 13.500000
$GPZDA,090749.04,08,10,2011,00,00*6A
$GPRMC,090749.00,A,4611.970716,N,01258.209321,E,000.6,139.8,081011,0.2,E,A*31
$GPGGA,090750.00,4611.970577,N,01258.209389,E,1,07,1.4,140.08,M,46.25,M,,*63
$GPGLL,4611.970577,N,01258.209389,E,090750.00,A,A*6C
$GPVTG,189.5,T,189.6,M,000.5,N,000.9,K,A*2C
$GPGSV,2,1,08,02,38,074,41,09,15,152,,12,54,081,40,14,25,249,43*73
$GPGSV,2,2,08,25,78,354,48,29,56,225,45,30,37,293,46,31,29,312,44*7F
$GPGSA,M,3,02,12,14,25,29,30,31,,,,,,2.8,1.4,2.4*3E
Trace #56 at position 13.750000
$GPZDA,090750.04,08,10,2011,00,00*62
$GPRMC,090750.00,A,4611.970577,N,01258.209389,E,000.5,189.5,081011,0.2,E,A*3B
$GPGGA,090751.00,4611.970367,N,01258.209391,E,1,07,1.4,140.02,M,46.25,M,,*66
$GPGLL,4611.970367,N,01258.209391,E,090751.00,A,A*63
$GPVTG,181.9,T,182.1,M,001.0,N,001.8,K,A*20
$GPGSV,2,1,08,02,38,074,42,09,15,152,,12,54,081,40,14,25,249,43*70
$GPGSV,2,2,08,25,78,354,48,29,56,225,45,30,37,293,46,31,29,312,45*7E
$GPGSA,M,3,02,12,14,25,29,30,31,,,,,,2.8,1.4,2.4*3E
Trace #57 at position 14.000000
$GPZDA,090751.04,08,10,2011,00,00*63
$GPRMC,090751.00,A,4611.970367,N,01258.209391,E,001.0,181.9,081011,0.2,E,A*34
$GPGGA,090752.00,4611.970080,N,01258.209384,E,1,07,1.4,140.05,M,46.25,M,,*6C
$GPGLL,4611.970080,N,01258.209384,E,090752.00,A,A*6E
$GPVTG,189.7,T,189.9,M,001.1,N,002.0,K,A*2F
$GPGSV,2,1,08,02,38,074,40,09,15,152,,12,54,081,41,14,25,249,42*72
$GPGSV,2,2,08,25,78,354,48,29,56,225,45,30,37,293,46,31,29,312,45*7E
$GPGSA,M,3,02,12,14,25,29,30,31,,,,,,2.8,1.4,2.4*3E
Trace #58 at position 14.250000
$GPZDA,090752.04,08,10,2011,00,00*60
$GPRMC,090752.00,A,4611.970080,N,01258.209384,E,001.1,189.7,081011,0.2,E,A*3E
$GPGGA,090753.00,4611.969899,N,01258.209440,E,1,07,1.4,140.14,M,46.25,M,,*6A
$GPGLL,4611.969899,N,01258.209440,E,090753.00,A,A*68
$GPVTG,123.4,T,123.5,M,000.3,N,000.6,K,A*27
$GPGSV,2,1,08,02,38,074,41,09,15,152,,12,54,081,40,14,25,249,42*72
$GPGSV,2,2,08,25,78,354,48,29,56,225,45,30,37,293,46,31,29,312,45*7E
$GPGSA,M,3,02,12,14,25,29,30,31,,,,,,2.8,1.4,2.4*3E
Trace #59 at position 14.500000
$GPZDA,090752.04,08,10,2011,00,00*60
$GPRMC,090752.00,A,4611.970080,N,01258.209384,E,001.1,189.7,081011,0.2,E,A*3E
$GPGGA,090753.00,4611.969899,N,01258.209440,E,1,07,1.4,140.14,M,46.25,M,,*6A
$GPGLL,4611.969899,N,01258.209440,E,090753.00,A,A*68
$GPVTG,123.4,T,123.5,M,000.3,N,000.6,K,A*27
$GPGSV,2,1,08,02,38,074,41,09,15,152,,12,54,081,40,14,25,249,42*72
$GPGSV,2,2,08,25,78,354,48,29,56,225,45,30,37,293,46,31,29,312,45*7E
$GPGSA,M,3,02,12,14,25,29,30,31,,,,,,2.8,1.4,2.4*3E
Trace #60 at position 14.750000
$GPZDA,090752.04,08,10,2011,00,00*60
$GPRMC,090752.00,A,4611.970080,N,01258.209384,E,001.1,189.7,081011,0.2,E,A*3E
$GPGGA,090753.00,4611.969899,N,01258.209440,E,1,07,1.4,140.14,M,46.25,M,,*6A
$GPGLL,4611.969899,N,01258.209440,E,090753.00,A,A*68
$GPVTG,123.4,T,123.5,M,000.3,N,000.6,K,A*27
$GPGSV,2,1,08,02,38,074,41,09,15,152,,12,54,081,40,14,25,249,42*72
$GPGSV,2,2,08,25,78,354,48,29,56,225,45,30,37,293,46,31,29,312,45*7E
$GPGSA,M,3,02,12,14,25,29,30,31,,,,,,2.8,1.4,2.4*3E
Trace #61 at position 15.000000
$GPZDA,090753.04,08,10,2011,00,00*61
$GPRMC,090753.00,A,4611.969899,N,01258.209440,E,000.3,123.4,081011,0.2,E,A*38
$GPGGA,090754.00,4611.969723,N,01258.209625,E,1,07,1.4,140.17,M,46.25,M,,*61
$GPGLL,4611.969723,N,01258.209625,E,090754.00,A,A*60
$GPVTG,153.9,T,154.1,M,001.2,N,002.2,K,A*2F
$GPGSV,2,1,08,02,38,074,42,09,15,152,,12,54,081,40,14,25,249,43*70.00,A,4611.969723,N,01258.209625,E,001.2,153.9,081011,0.2,E,A*3A
$GPGGA,090755.00,4611.969454,N,01258.209717,E,1,07,1.4,140.12,M,46.25,M,,*66
$GPGLL,4611.969454,N,01258.209717,E,090755.00,A,A*62
$GPVTG,191.0,T,191.2,M,000.9,N,001.7,K,A*2E
$GPGSV,2,1,08,02,38,074,42,09,15,152,,12,54,081,39,14,25,249,44*79
$GPGSV,2,2,08,25,78,354,48,29,56,225,45,30,37,293,46,31,29,312,45*7E
$GPGSA,M,3,02,12,14,25,29,30,31,,,,,,2.8,1.4,2.4*3E
Trace #62 at position 15.250000
$GPZDA,090755.04,08,10,2011,00,00*67
$GPRMC,090755.00,A,4611.969454,N,01258.2$GPGGA,090756.00,4611.969256,N,01258.209817,E,1,07,1.4,140.02,M,46.25,M,,*6F
$GPGLL,4611.969256,N,01258.209817,E,090756.00,A,A*6A
$GPVTG,135.4,T,135.6,M,000.8,N,001.4,K,A*2C
$GPGSV,2,1,08,02,38,074,42,09,15,152,,12,54,081,41,14,25,249,43*71
$GPGSV,2,2,08,25,78,354,48,29,56,225,45,30,37,293,45,31,29,312,44*7C
$GPGSA,M,3,02,12,14,25,29,30,31,,,,,,2.8,1.4,2.4*3E
Trace #63 at position 15.500000
$GPZDA,090755.04,08,10,2011,00,00*67
$GPRMC,090755.00,A,4611.969454,N,01258.2$GPGGA,090756.00,4611.969256,N,01258.209817,E,1,07,1.4,140.02,M,46.25,M,,*6F
$GPGLL,4611.969256,N,01258.209817,E,090756.00,A,A*6A
$GPVTG,135.4,T,135.6,M,000.8,N,001.4,K,A*2C
$GPGSV,2,1,08,02,38,074,42,09,15,152,,12,54,081,41,14,25,249,43*71
$GPGSV,2,2,08,25,78,354,48,29,56,225,45,30,37,293,45,31,29,312,44*7C
$GPGSA,M,3,02,12,14,25,29,30,31,,,,,,2.8,1.4,2.4*3E
Trace #64 at position 15.750000
$GPZDA,090756.04,08,10,2011,00,00*64
$GPRMC,090756.00,A,4611.969256,N,01258.209817,E,000.8,135.4,081011,0.2,E,A*36
$GPGGA,090757.00,4611.969106,N,01258.209967,E,1,07,1.4,139.97,M,46.25,M,,*6C
$GPGLL,4611.969106,N,01258.209967,E,090757.00,A,A*6B
$GPVTG,165.5,T,165.7,M,000.6,N,001.0,K,A*26
$GPGSV,2,1,08,02,38,074,41,09,15,152,,12,54,081,39,14,25,249,43*7D
$GPGSV,2,2,08,25,78,354,48,29,56,225,45,30,37,293,47,31,29,312,46*7C
$GPGSA,M,3,02,12,14,25,29,30,31,,,,,,2.8,1.4,2.4*3E
Trace #65 at position 16.000000
$GPZDA,090757.04,08,10,2011,00,00*65
$GPRMC,090757.00,A,4611.969106,N,01258.209967,E,000.6,165.5,081011,0.2,E,A*3D
$GPGGA,090758.00,4611.968929,N,01258.210039,E,1,07,1.4,139.93,M,46.25,M,,*69
$GPGLL,4611.968929,N,01258.210039,E,090758.00,A,A*6A
$GPVTG,167.3,T,167.4,M,000.7,N,001.3,K,A*21
$GPGSV,2,1,08,02,38,073,41,09,15,153,,12,54,081,39,14,25,249,43*7B
$GPGSV,2,2,08,25,78,354,47,29,56,225,47,30,37,293,46,31,29,312,46*70
$GPGSA,M,3,02,12,14,25,29,30,31,,,,,,2.8,1.4,2.4*3E
Trace #66 at position 16.250000
$GPZDA,090757.04,08,10,2011,00,00*65
$GPRMC,090757.00,A,4611.969106,N,01258.209967,E,000.6,165.5,081011,0.2,E,A*3D
$GPGGA,090758.00,4611.968929,N,01258.210039,E,1,07,1.4,139.93,M,46.25,M,,*69
$GPGLL,4611.968929,N,01258.210039,E,090758.00,A,A*6A
$GPVTG,167.3,T,167.4,M,000.7,N,001.3,K,A*21
$GPGSV,2,1,08,02,38,073,41,09,15,153,,12,54,081,39,14,25,249,43*7B
$GPGSV,2,2,08,25,78,354,47,29,56,225,47,30,37,293,46,31,29,312,46*70
$GPGSA,M,3,02,12,14,25,29,30,31,,,,,,2.8,1.4,2.4*3E
Trace #67 at position 16.500000
$GPZDA,090758.04,08,10,2011,00,00*6A
$GPRMC,090758.00,A,4611.968929,N,01258.210039,E,000.7,167.3,081011,0.2,E,A*39
$GPGGA,090759.00,4611.968736,N,01258.210199,E,1,07,1.4,139.87,M,46.25,M,,*66
$GPGLL,4611.968736,N,01258.210199,E,090759.00,A,A*60
$GPVTG,139.7,T,139.8,M,001.0,N,001.8,K,A*24
$GPGSV,2,1,08,02,38,073,41,09,15,153,,12,54,081,40,14,25,249,44*72
$GPGSV,2,2,08,25,78,354,47,29,56,225,46,30,37,293,46,31,29,312,46*71
$GPGSA,M,3,02,12,14,25,29,30,31,,,,,,2.8,1.4,2.4*3E
Trace #68 at position 16.750000
$GPZDA,090758.04,08,10,2011,00,00*6A
$GPRMC,090758.00,A,4611.968929,N,01258.210039,E,000.7,167.3,081011,0.2,E,A*39
$GPGGA,090759.00,4611.968736,N,01258.210199,E,1,07,1.4,139.87,M,46.25,M,,*66
$GPGLL,4611.968736,N,01258.210199,E,090759.00,A,A*60
$GPVTG,139.7,T,139.8,M,001.0,N,001.8,K,A*24
$GPGSV,2,1,08,02,38,073,41,09,15,153,,12,54,081,40,14,25,249,44*72
$GPGSV,2,2,08,25,78,354,47,29,56,225,46,30,37,293,46,31,29,312,46*71
$GPGSA,M,3,02,12,14,25,29,30,31,,,,,,2.8,1.4,2.4*3E
Trace #69 at position 17.000000
$GPZDA,090759.04,08,10,2011,00,00*6B
$GPRMC,090759.00,A,4611.968736,N,01258.210199,E,001.0,139.7,081011,0.2,E,A*3A
$GPGGA,090800.00,4611.968569,N,01258.210394,E,1,07,1.4,139.89,M,46.25,M,,*6C
$GPGLL,4611.968569,N,01258.210394,E,090800.00,A,A*64
$GPVTG,140.5,T,140.7,M,000.6,N,001.1,K,A*27
$GPGSV,2,1,08,02,38,073,41,09,15,153,,12,54,081,37,14,25,249,43*75
$GPGSV,2,2,08,25,78,354,48,29,56,225,46,30,38,293,46,31,29,312,46*71
$GPGSA,M,3,02,12,14,25,29,30,31,,,,,,2.8,1.4,2.4*3E
Trace #70 at position 17.250000
$GPZDA,090800.04,08,10,2011,00,00*68
$GPRMC,090800.00,A,4611.968569,N,01258.210394,E,000.6,140.5,081011,0.2,E,A*35
$GPGGA,090801.00,4611.968415,N,01258.210448,E,1,07,1.4,139.85,M,46.25,M,,*6D
$GPGLL,4611.968415,N,01258.210448,E,090801.00,A,A*69
$GPVTG,189.3,T,189.5,M,000.6,N,001.1,K,A*23
$GPGSV,2,1,08,02,38,073,42,09,15,153,,12,54,081,39,14,25,249,42*79
$GPGSV,2,2,08,25,78,354,48,29,56,225,46,30,38,293,46,31,29,312,46*71
$GPGSA,M,3,02,12,14,25,29,30,31,,,,,,2.8,1.4,2.4*3E
Trace #71 at position 17.500000
$GPZDA,090800.04,08,10,2011,00,00*68
$GPRMC,090800.00,A,4611.968569,N,01258.210394,E,000.6,140.5,081011,0.2,E,A*35
$GPGGA,090801.00,4611.968415,N,01258.210448,E,1,07,1.4,139.85,M,46.25,M,,*6D
$GPGLL,4611.968415,N,01258.210448,E,090801.00,A,A*69
$GPVTG,189.3,T,189.5,M,000.6,N,001.1,K,A*23
$GPGSV,2,1,08,02,38,073,42,09,15,153,,12,54,081,39,14,25,249,42*79
$GPGSV,2,2,08,25,78,354,48,29,56,225,46,30,38,293,46,31,29,312,46*71
$GPGSA,M,3,02,12,14,25,29,30,31,,,,,,2.8,1.4,2.4*3E
Trace #72 at position 17.750000
$GPZDA,090801.04,08,10,2011,00,00*69
$GPRMC,090801.00,A,4611.968415,N,01258.210448,E,000.6,189.3,081011,0.2,E,A*3B
$GPGGA,090802.00,4611.968253,N,01258.210482,E,1,07,1.4,139.83,M,46.25,M,,*6A
$GPGLL,4611.968253,N,01258.210482,E,090802.00,A,A*68
$GPVTG,154.1,T,154.3,M,000.6,N,001.2,K,A*24
$GPGSV,2,1,08,02,38,073,42,09,15,153,,12,54,081,41,14,25,249,42*76
$GPGSV,2,2,08,25,78,354,49,29,56,226,44,30,38,293,46,31,29,312,46*71
$GPGSA,M,3,02,12,14,25,29,30,31,,,,,,2.8,1.4,2.4*3E
Trace #73 at position 18.000000
$GPZDA,090802.04,08,10,2011,00,00*6A
$GPRMC,090802.00,A,4611.968253,N,01258.210482,E,000.6,154.1,081011,0.2,E,A*38
$GPGGA,090803.00,4611.968103,N,01258.210652,E,1,07,1.4,139.91,M,46.25,M,,*61
$GPGLL,4611.968103,N,01258.210652,E,090803.00,A,A*60
$GPVTG,123.9,T,124.0,M,000.8,N,001.4,K,A*20
$GPGSV,2,1,08,02,38,073,41,09,15,153,,12,54,081,40,14,25,249,41*77
$GPGSV,2,2,08,25,78,354,48,29,56,226,45,30,38,293,46,31,29,312,46*71
$GPGSA,M,3,02,12,14,25,29,30,31,,,,,,2.8,1.4,2.4*3E
Trace #74 at position 18.250000
$GPZDA,090802.04,08,10,2011,00,00*6A
$GPRMC,090802.00,A,4611.968253,N,01258.210482,E,000.6,154.1,081011,0.2,E,A*38
$GPGGA,090803.00,4611.968103,N,01258.210652,E,1,07,1.4,139.91,M,46.25,M,,*61
$GPGLL,4611.968103,N,01258.210652,E,090803.00,A,A*60
$GPVTG,123.9,T,124.0,M,000.8,N,001.4,K,A*20
$GPGSV,2,1,08,02,38,073,41,09,15,153,,12,54,081,40,14,25,249,41*77
$GPGSV,2,2,08,25,78,354,48,29,56,226,45,30,38,293,46,31,29,312,46*71
$GPGSA,M,3,02,12,14,25,29,30,31,,,,,,2.8,1.4,2.4*3E
Trace #75 at position 18.500000
$GPZDA,090803.04,08,10,2011,00,00*6B
$GPRMC,090803.00,A,4611.968103,N,01258.210652,E,000.8,123.9,081011,0.2,E,A*36
$GPGGA,090804.00,4611.967919,N,01258.210843,E,1,07,1.4,139.97,M,46.25,M,,*62
$GPGLL,4611.967919,N,01258.210843,E,090804.00,A,A*65
$GPVTG,150.2,T,150.3,M,000.9,N,001.6,K,A*2C
$GPGSV,2,1,08,02,38,073,41,09,15,153,,131,,,,,,2.8,1.4,2.4*3E
$GPZDA,090804.04,08,10,2011,00,00*6C
$GPRMC,090804.00,A,4611.967919,N,01258.210843,E,000.9,150.2,081011,0.2,E,A*3D
$GPGGA,090805.00,4611.967639,N,01258.210737,E,1,07,1.4,139.99,M,46.25,M,,*6C
$GPGLL,4611.967639,N,01258.210737,E,090805.00,A,A*65
$GPVTG,219.3,T,219.5,M,001.5,N,002.8,K,A*2B
$GPGSV,2,1,08,02,38,073,42,09,15,153,,12,54,081,40,14,25,249,41*74
$GPGSV,2,2,08,25,78,354,48,29,56,226,45,30,38,293,45,31,29,312,45*71
$GPGSA,M,3,02,12,14,25,29,30,31,,,,,,2.8,1.4,2.4*3E
Trace #76 at position 18.750000
$GP.00,A,4611.967639,N,01258.210737,E,001.5,219.3,081011,0.2,E,A*3F
$GPGGA,090806.00,4611.967347,N,01258.210655,E,1,07,1.4,139.95,M,46.25,M,,*6A
$GPGLL,4611.967347,N,01258.210655,E,090806.00,A,A*6F
$GPVTG,155.3,T,155.4,M,001.0,N,001.8,K,A*2C
$GPGSV,2,1,08,02,38,073,42,09,15,153,,12,54,081,40,14,25,249,41*74
$GPGSV,2,2,08,25,78,354,50,29,56,226,45,30,38,293,45,31,29,312,44*79
$GPGSA,M,3,02,12,14,25,29,30,31,,,,,,2.8,1.4,2.4*3E
Trace #77 at position 19.000000
$GPZDA,090806.04,08,10,2011,00,00*6E
$GPRMC,090806.00,A,4611.967347,N,01258.2$GPGGA,090807.00,4611.967193,N,01258.210813,E,1,07,1.4,139.93,M,46.25,M,,*6A
$GPGLL,4611.967193,N,01258.210813,E,090807.00,A,A*69
$GPVTG,118.2,T,118.3,M,000.3,N,000.6,K,A*27
$GPGSV,2,1,08,02,38,073,41,09,15,153,,12,54,081,38,14,25,249,42*7B
$GPGSV,2,2,08,25,78,354,49,29,56,226,45,30,38,293,45,31,29,312,45*70
$GPGSA,M,3,02,12,14,25,29,30,31,,,,,,2.8,1.4,2.4*3E
Trace #78 at position 19.250000
$GPZDA,090806.04,08,10,2011,00,00*6E
$GPRMC,090806.00,A,4611.967347,N,01258.2$GPGGA,090807.00,4611.967193,N,01258.210813,E,1,07,1.4,139.93,M,46.25,M,,*6A
$GPGLL,4611.967193,N,01258.210813,E,090807.00,A,A*69
$GPVTG,118.2,T,118.3,M,000.3,N,000.6,K,A*27
$GPGSV,2,1,08,02,38,073,41,09,15,153,,12,54,081,38,14,25,249,42*7B
$GPGSV,2,2,08,25,78,354,49,29,56,226,45,30,38,293,45,31,29,312,45*70
$GPGSA,M,3,02,12,14,25,29,30,31,,,,,,2.8,1.4,2.4*3E
Trace #79 at position 19.500000
$GPZDA,090807.04,08,10,2011,00,00*6F
$GPRMC,090807.00,A,4611.967193,N,01258.210813,E,000.3,118.2,081011,0.2,E,A*37
$GPGGA,090808.00,4611.967087,N,01258.210820,E,1,07,1.4,139.95,M,46.25,M,,*67
$GPGLL,4611.967087,N,01258.210820,E,090808.00,A,A*62
$GPVTG,216.9,T,217.1,M,000.6,N,001.2,K,A*2F
$GPGSV,2,1,08,02,38,073,42,09,15,153,,12,54,081,40,14,25,249,43*76
$GPGSV,2,2,08,25,78,354,48,29,56,226,45,30,38,293,45,31,29,312,45*71
$GPGSA,M,3,02,12,14,25,29,30,31,,,,,,2.8,1.4,2.4*3E
Trace #80 at position 19.750000
$GPZDA,090808.04,08,10,2011,00,00*60
$GPRMC,090808.00,A,4611.967087,N,01258.210820,E,000.6,216.9,081011,0.2,E,A*3F
$GPGGA,090809.00,4611.966892,N,01258.210773,E,1,07,1.4,139.86,M,46.25,M,,*60
$GPGLL,4611.966892,N,01258.210773,E,090809.00,A,A*67
$GPVTG,185.1,T,185.3,M,000.8,N,001.5,K,A*2D
$GPGSV,2,1,08,02,38,073,42,09,15,153,,12,54,081,38,14,25,249,42*78
$GPGSV,2,2,08,25,78,354,47,29,56,226,46,30,38,293,45,31,29,312,45*7D
$GPGSA,M,3,02,12,14,25,29,30,31,,,,,,2.8,1.4,2.4*3E
Trace #81 at position 20.000000
$GPZDA,090808.04,08,10,2011,00,00*60
$GPRMC,090808.00,A,4611.967087,N,01258.210820,E,000.6,216.9,081011,0.2,E,A*3F
$GPGGA,090809.00,4611.966892,N,01258.210773,E,1,07,1.4,139.86,M,46.25,M,,*60
$GPGLL,4611.966892,N,01258.210773,E,090809.00,A,A*67
$GPVTG,185.1,T,185.3,M,000.8,N,001.5,K,A*2D
$GPGSV,2,1,08,02,38,073,42,09,15,153,,12,54,081,38,14,25,249,42*78
$GPGSV,2,2,08,25,78,354,47,29,56,226,46,30,38,293,45,31,29,312,45*7D
$GPGSA,M,3,02,12,14,25,29,30,31,,,,,,2.8,1.4,2.4*3E
Trace #82 at position 20.250000
$GPZDA,090809.04,08,10,2011,00,00*61
$GPRMC,090809.00,A,4611.966892,N,01258.210773,E,000.8,185.1,081011,0.2,E,A*35
$GPGGA,090810.00,4611.966698,N,01258.210794,E,1,07,1.4,139.80,M,46.25,M,,*63
$GPGLL,4611.966698,N,01258.210794,E,090810.00,A,A*62
$GPVTG,185.2,T,185.3,M,000.5,N,001.0,K,A*26
$GPGSV,2,1,08,02,38,073,41,09,15,153,,12,54,082,39,14,25,249,43*78
$GPGSV,2,2,08,25,78,354,49,29,56,226,44,30,38,293,45,31,29,312,45*71
$GPGSA,M,3,02,12,14,25,29,30,31,,,,,,2.8,1.4,2.4*3E
Trace #83 at position 20.500000
$GPZDA,090810.04,08,10,2011,00,00*69
$GPRMC,090810.00,A,4611.966698,N,01258.210794,E,000.5,185.2,081011,0.2,E,A*3E
$GPGGA,090811.00,4611.966466,N,01258.210738,E,1,07,1.4,139.74,M,46.25,M,,*6C
$GPGLL,4611.966466,N,01258.210738,E,090811.00,A,A*66
$GPVTG,205.5,T,205.6,M,001.3,N,002.3,K,A*23
$GPGSV,2,1,08,02,38,073,42,09,15,153,,12,54,082,39,14,25,249,42*7A
$GPGSV,2,2,08,25,78,354,47,29,56,226,45,30,38,293,45,31,29,312,46*7D
$GPGSA,M,3,02,12,14,25,29,30,31,,,,,,2.8,1.4,2.4*3E
Trace #84 at position 20.750000
$GPZDA,090810.04,08,10,2011,00,00*69
$GPRMC,090810.00,A,4611.966698,N,01258.210794,E,000.5,185.2,081011,0.2,E,A*3E
$GPGGA,090811.00,4611.966466,N,01258.210738,E,1,07,1.4,139.74,M,46.25,M,,*6C
$GPGLL,4611.966466,N,01258.210738,E,090811.00,A,A*66
$GPVTG,205.5,T,205.6,M,001.3,N,002.3,K,A*23
$GPGSV,2,1,08,02,38,073,42,09,15,153,,12,54,082,39,14,25,249,42*7A
$GPGSV,2,2,08,25,78,354,47,29,56,226,45,30,38,293,45,31,29,312,46*7D
$GPGSA,M,3,02,12,14,25,29,30,31,,,,,,2.8,1.4,2.4*3E
Trace #85 at position 21.000000
$GPZDA,090811.04,08,10,2011,00,00*68
$GPRMC,090811.00,A,4611.966466,N,01258.210738,E,001.3,205.5,081011,0.2,E,A*31
$GPGGA,090812.00,4611.966237,N,01258.210864,E,1,07,1.4,139.67,M,46.25,M,,*69
$GPGLL,4611.966237,N,01258.210864,E,090812.00,A,A*61
$GPVTG,123.7,T,123.9,M,001.0,N,001.9,K,A*24
$GPGSV,2,1,08,02,38,073,42,09,15,153,,12,54,082,40,14,25,249,42*74
$GPGSV,2,2,08,25,78,354,49,29,56,226,44,30,38,293,44,31,29,312,44*71
$GPGSA,M,3,02,12,14,25,29,30,31,,,,,,2.8,1.4,2.4*3E
Trace #86 at position 21.250000
$GPZDA,090811.04,08,10,2011,00,00*68
$GPRMC,090811.00,A,4611.966466,N,01258.210738,E,001.3,205.5,081011,0.2,E,A*31
$GPGGA,090812.00,4611.966237,N,01258.210864,E,1,07,1.4,139.67,M,46.25,M,,*69
$GPGLL,4611.966237,N,01258.210864,E,090812.00,A,A*61
$GPVTG,123.7,T,123.9,M,001.0,N,001.9,K,A*24
$GPGSV,2,1,08,02,38,073,42,09,15,153,,12,54,082,40,14,25,249,42*74
$GPGSV,2,2,08,25,78,354,49,29,56,226,44,30,38,293,44,31,29,312,44*71
$GPGSA,M,3,02,12,14,25,29,30,31,,,,,,2.8,1.4,2.4*3E
Trace #87 at position 21.500000
$GPZDA,090812.04,08,10,2011,00,00*6B
$GPRMC,090812.00,A,4611.966237,N,01258.210864,E,001.0,123.7,081011,0.2,E,A*30
$GPGGA,090813.00,4611.966108,N,01258.211156,E,1,07,1.4,139.71,M,46.25,M,,*69
$GPGLL,4611.966108,N,01258.211156,E,090813.00,A,A*66
$GPVTG,132.1,T,132.2,M,000.6,N,001.2,K,A*25
$GPGSV,2,1,08,02,38,073,41,09,15,153,,12,54,082,39,14,25,249,43*78
$GPGSV,2,2,08,25,78,354,48,29,56,226,45,30,38,293,45,31,29,312,45*71
$GPGSA,M,3,02,12,14,25,29,30,31,,,,,,2.8,1.4,2.4*3E
Trace #88 at position 21.750000
$GPZDA,090812.04,08,10,2011,00,00*6B
$GPRMC,090812.00,A,4611.966237,N,01258.210864,E,001.0,123.7,081011,0.2,E,A*30
$GPGGA,090813.00,4611.966108,N,01258.211156,E,1,07,1.4,139.71,M,46.25,M,,*69
$GPGLL,4611.966108,N,01258.211156,E,090813.00,A,A*66
$GPVTG,132.1,T,132.2,M,000.6,N,001.2,K,A*25
$GPGSV,2,1,08,02,38,073,41,09,15,153,,12,54,082,39,14,25,249,43*78
$GPGSV,2,2,08,25,78,354,48,29,56,226,45,30,38,293,45,31,29,312,45*71
$GPGSA,M,3,02,12,14,25,29,30,31,,,,,,2.8,1.4,2.4*3E
Trace #89 at position 22.000000
$GPZDA,090813.04,08,10,2011,00,00*6A
$GPRMC,090813.00,A,4611.966108,N,01258.211156,E,000.6,132.1,081011,0.2,E,A*36
$GPGGA,090814.00,4611.965898,N,01258.211302,E,1,07,1.4,139.76,M,46.25,M,,*69
$GPGLL,4611.965898,N,01258.211302,E,090814.00,A,A*61
$GPVTG,172.0,T,172.1,M,001.2,N,002.1,K,A*22
$GPGSV,2,1,08,02,38,073,42,09,15,153,,12,54,082,38,14,25,249,43*7A
$GPGSV,2,2,08,25,78,355,48,29,56,226,46,30,38,293,46,31,29,312,46*73
$GPGSA,M,3,02,12,14,25,29,30,31,,,,,,2.8,1.4,2.4*3E
Trace #90 at position 22.250000
$GPZDA,090813.04,08,10,2011,00,00*6A
$GPRMC,090813.00,A,4611.966108,N,01258.211156,E,000.6,132.1,081011,0.2,E,A*36
$GPGGA,090814.00,4611.965898,N,01258.211302,E,1,07,1.4,139.76,M,46.25,M,,*69
$GPGLL,4611.965898,N,01258.211302,E,090814.00,A,A*61
$GPVTG,172.0,T,172.1,M,001.2,N,002.1,K,A*22
$GPGSV,2,1,08,02,38,073,42,09,15,153,,12,54,082,38,14,25,249,43*7A
$GPGSV,2,2,08,25,78,355,48,29,56,226,46,30,38,293,46,31,29,312,46*73
$GPGSA,M,3,02,12,14,25,29,30,31,,,,,,2.8,1.4,2.4*3E
Trace #91 at position 22.500000
$GPZDA,090814.04,08,10,2011,00,00*6D
$GPRMC,090814.00,A,4611.965898,N,01258.211302,E,001.2,172.0,081011,0.2,E,A*31
$GPGGA,090815.00,4611.965653,N,01258.211186,E,1,07,1.4,139.78,M,46.25,M,,*61
$GPGLL,4611.965653,N,01258.211186,E,090815.00,A,A*67
$GPVTG,233.2,T,233.3,M,001.2,N,002.2,K,A*21
$GPGSV,2,1,08,02,38,073,42,09,15,153,,12,54,082,40,14,25,249,41*77
$GPGSV,2,2,08,25,78,355,48,29,56,226,45,30,38,293,45,31,29,312,45*70
$GPGSA,M,3,02,12,14,25,29,30,31,,,,,,2.8,1.4,2.4*3E
Trace #92 at position 22.750000
$GPZDA,090815.04,08,10,2011,00,00*6C
$GPRMC,090815.00,A,4611.965653,N,01258.211186,E,001.2,233.2,081011,0.2,E,A*33
$GPGGA,090816.00,4611.965526,N,01258.211113,E,1,07,1.4,139.78,M,46.25,M,,*6F
$GPGLL,4611.965526,N,01258.211113,E,090816.00,A,A*69
$GPVTG,136.7,T,136.9,M,000.3,N,000.6,K,A*28
$GPGSV,2,1,08,02,38,073,40,09,15,153,,12,54,082,39,14,25,249,42*78
$GPGSV,2,2,08,25,78,355,48,29,56,226,46,30,38,293,45,31,29,312,45*73
$GPGSA,M,3,02,12,14,25,29,30,31,,,,,,2.8,1.4,2.4*3E
Trace #93 at position 23.000000
$GPZDA,090815.04,08,10,2011,00,00*6C
$GPRMC,090815.00,A,4611.965653,N,01258.211186,E,001.2,233.2,081011,0.2,E,A*33
$GPGGA,090816.00,4611.965526,N,01258.211113,E,1,07,1.4,139.78,M,46.25,M,,*6F
$GPGLL,4611.965526,N,01258.211113,E,090816.00,A,A*69
$GPVTG,136.7,T,136.9,M,000.3,N,000.6,K,A*28
$GPGSV,2,1,08,02,38,073,40,09,15,153,,12,54,082,39,14,25,249,42*78
$GPGSV,2,2,08,25,78,355,48,29,56,226,46,30,38,293,45,31,29,312,45*73
$GPGSA,M,3,02,12,14,25,29,30,31,,,,,,2.8,1.4,2.4*3E
Trace #94 at position 23.250000
$GPZDA,090815.04,08,10,2011,00,00*6C
$GPRMC,090815.00,A,4611.965653,N,01258.211186,E,001.2,233.2,081011,0.2,E,A*33
$GPGGA,090816.00,4611.965526,N,01258.211113,E,1,07,1.4,139.78,M,46.25,M,,*6F
$GPGLL,4611.965526,N,01258.211113,E,090816.00,A,A*69
$GPVTG,136.7,T,136.9,M,000.3,N,000.6,K,A*28
$GPGSV,2,1,08,02,38,073,40,09,15,153,,12,54,082,39,14,25,249,42*78
$GPGSV,2,2,08,25,78,355,48,29,56,226,46,30,38,293,45,31,29,312,45*73
$GPGSA,M,3,02,12,14,25,29,30,31,,,,,,2.8,1.4,2.4*3E
Trace #95 at position 23.500000
$GPZDA,090816.04,08,10,2011,00,00*6F
$GPRMC,090816.00,A,4611.965526,N,01258.211113,E,000.3,136.7,081011,0.2,E,A*3E
$GPGGA,090817.00,4611.965419,N,01258.211352,E,1,07,1.4,139.82,M,46.25,M,,*61
$GPGLL,4611.965419,N,01258.211352,E,090817.00,A,A*62
$GPVTG,126.5,T,126.7,M,000.9,N,001.6,K,A*2F
$GPGSV,2,1,08,02,38,073,39,09,15,153,,12,54,082,38,14,25,249,42*77
$GPGSV,2,2,08,25,78,355,4,,2.8,1.4,2.4*3E
$GPZDA,090817.04,08,10,2011,00,00*6E
$GPRMC,090817.00,A,4611.965419,N,01258.211352,E,000.9,126.5,081011,0.2,E,A*3C
$GPGGA,090818.00,4611.965243,N,01258.211580,E,1,07,1.4,139.90,M,46.25,M,,*6D
$GPGLL,4611.965243,N,01258.211580,E,090818.00,A,A*6D
$GPVTG,157.6,T,157.8,M,000.7,N,001.3,K,A*28
$GPGSV,2,1,08,02,38,073,42,09,15,153,,12,54,082,40,14,25,249,42*74
$GPGSV,2,2,08,25,78,355,47,29,56,226,45,30,38,293,45,31,29,312,46*7C
$GPGSA,M,3,02,12,14,25,29,30,31,,,,,,2.8,1.4,2.4*3E
Trace #96 at position 23.750000
$GPZDA,09RMC,090818.00,A,4611.965243,N,01258.211580,E,000.7,157.6,081011,0.2,E,A*38
$GPGGA,090819.00,4611.965030,N,01258.211725,E,1,07,1.4,139.86,M,46.25,M,,*60
$GPGLL,4611.965030,N,01258.211725,E,090819.00,A,A*67
$GPVTG,157.7,T,157.8,M,000.8,N,001.5,K,A*20
$GPGSV,2,1,08,02,38,073,42,09,15,153,,12,54,082,40,14,25,249,42*74
$GPGSV,2,2,08,25,78,355,47,29,56,226,46,30,38,293,46,31,29,312,46*7C
$GPGSA,M,3,02,12,14,25,29,30,31,,,,,,2.8,1.4,2.4*3E
Trace #97 at position 24.000000
$GPZDA,09RMC,090818.00,A,4611.965243,N,01258.211580,E,000.7,157.6,081011,0.2,E,A*38
$GPGGA,090819.00,4611.965030,N,01258.211725,E,1,07,1.4,139.86,M,46.25,M,,*60
$GPGLL,4611.965030,N,01258.211725,E,090819.00,A,A*67
$GPVTG,157.7,T,157.8,M,000.8,N,001.5,K,A*20
$GPGSV,2,1,08,02,38,073,42,09,15,153,,12,54,082,40,14,25,249,42*74
$GPGSV,2,2,08,25,78,355,47,29,56,226,46,30,38,293,46,31,29,312,46*7C
$GPGSA,M,3,02,12,14,25,29,30,31,,,,,,2.8,1.4,2.4*3E
Trace #98 at position 24.250000
$GPZDA,090819.04,08,10,2011,00,00*60
$GPRMC,090819.00,A,4611.965030$GPGGA,090820.00,4611.964783,N,01258.211799,E,1,07,1.4,139.82,M,46.25,M,,*67
$GPGLL,4611.964783,N,01258.211799,E,090820.00,A,A*64
$GPVTG,185.6,T,185.8,M,000.9,N,001.8,K,A*2D
$GPGSV,2,1,08,02,38,073,42,09,15,153,,12,54,082,41,14,25,249,42*75
$GPGSV,2,2,08,25,78,355,48,29,56,226,45,30,38,293,46,31,29,312,46*70
$GPGSA,M,3,02,12,14,25,29,30,31,,,,,,2.8,1.4,2.4*3E
Trace #99 at position 24.500000
$GPZDA,090820.04,08,10,2011,00,00*6A
$GPRMC,090820.00,A,4611.964783,N,01258.211799,E,000.9,185.6,081011,0.2,E,A*30
$GPGGA,090821.00,4611.964578,N,01258.211837,E,1,07,1.4,139.87,M,46.25,M,,*6E
$GPGLL,4611.964578,N,01258.211837,E,090821.00,A,A*68
$GPVTG,166.4,T,166.5,M,000.5,N,000.9,K,A*2E
$GPGSV,2,1,08,02,38,073,42,09,15,153,,12,54,082,41,14,25,249,42*75
$GPGSV,2,2,08,25,78,355,48,29,56,226,45,30,38,293,46,31,29,312,47*71
$GPGSA,M,3,02,12,14,25,29,30,31,,,,,,2.8,1.4,2.4*3E
Trace #100 at position 24.750000
$GPZDA,090827.04,08,10,2011,00,00*6D
$GPRMC,090827.00,A,4611.963248,N,01258.212569,E,000.3,145.2,081011,0.2,E,A*3E
$GPGGA,090828.00,4611.963150,N,01258.212669,E,1,06,1.5,139.54,M,46.25,M,,*66
$GPGLL,4611.963150,N,01258.212669,E,090828.00,A,A*6E
$GPVTG,155.3,T,155.4,M,000.6,N,001.2,K,A*21
$GPGSV,2,1,08,02,38,073,40,09,15,153,,12,53,082,31,14,25,249,43*76
$GPGSV,2,2,08,25,78,355,47,29,56,226,45,30,38,293,46,31,29,312,45*7C
$GPGSA,M,3,02,14,25,29,30,31,,,,,,,2.8,1.5,2.4*3C
Trace #101 at position 25.000000
$GPZDA,090828.04,08,10,2011,00,00*62
$GPRMC,090828.00,A,4611.963150,N,01258.212669,E,000.6,155.3,081011,0.2,E,A*3D
$GPGGA,090829.00,4611.963090,N,01258.212719,E,1,06,1.5,139.56,M,46.25,M,,*6E
$GPGLL,4611.963090,N,01258.212719,E,090829.00,A,A*64
$GPVTG,251.5,T,251.7,M,000.0,N,000.1,K,A*20
$GPGSV,2,1,08,02,38,073,40,09,15,153,,12,53,082,35,14,25,249,43*72
$GPGSV,2,2,08,25,78,355,48,29,56,226,45,30,38,293,45,31,29,312,46*73
$GPGSA,M,3,02,14,25,29,30,31,,,,,,,2.8,1.5,2.4*3C
Trace #102 at position 25.250000
$GPZDA,090828.04,08,10,2011,00,00*62
$GPRMC,090828.00,A,4611.963150,N,01258.212669,E,000.6,155.3,081011,0.2,E,A*3D
$GPGGA,090829.00,4611.963090,N,01258.212719,E,1,06,1.5,139.56,M,46.25,M,,*6E
$GPGLL,4611.963090,N,01258.212719,E,090829.00,A,A*64
$GPVTG,251.5,T,251.7,M,000.0,N,000.1,K,A*20
$GPGSV,2,1,08,02,38,073,40,09,15,153,,12,53,082,35,14,25,249,43*72
$GPGSV,2,2,08,25,78,355,48,29,56,226,45,30,38,293,45,31,29,312,46*73
$GPGSA,M,3,02,14,25,29,30,31,,,,,,,2.8,1.5,2.4*3C
Trace #103 at position 25.500000
$GPZDA,090828.04,08,10,2011,00,00*62
$GPRMC,090828.00,A,4611.963150,N,01258.212669,E,000.6,155.3,081011,0.2,E,A*3D
$GPGGA,090829.00,4611.963090,N,01258.212719,E,1,06,1.5,139.56,M,46.25,M,,*6E
$GPGLL,4611.963090,N,01258.212719,E,090829.00,A,A*64
$GPVTG,251.5,T,251.7,M,000.0,N,000.1,K,A*20
$GPGSV,2,1,08,02,38,073,40,09,15,153,,12,53,082,35,14,25,249,43*72
$GPGSV,2,2,08,25,78,355,48,29,56,226,45,30,38,293,45,31,29,312,46*73
$GPGSA,M,3,02,14,25,29,30,31,,,,,,,2.8,1.5,2.4*3C
Trace #104 at position 25.750000
$GPZDA,090828.04,08,10,2011,00,00*62
$GPRMC,090828.00,A,4611.963150,N,01258.212669,E,000.6,155.3,081011,0.2,E,A*3D
$GPGGA,090829.00,4611.963090,N,01258.212719,E,1,06,1.5,139.56,M,46.25,M,,*6E
$GPGLL,4611.963090,N,01258.212719,E,090829.00,A,A*64
$GPVTG,251.5,T,251.7,M,000.0,N,000.1,K,A*20
$GPGSV,2,1,08,02,38,073,40,09,15,153,,12,53,082,35,14,25,249,43*72
$GPGSV,2,2,08,25,78,355,48,29,56,226,45,30,38,293,45,31,29,312,46*73
$GPGSA,M,3,02,14,25,29,30,31,,,,,,,2.8,1.5,2.4*3C
Trace #105 at position 26.000000
$GPZDA,090829.03,08,10,2011,00,00*64
$GPRMC,090829.00,A,4611.963090,N,01258.212719,E,000.0,251.5,081011,0.2,E,A*30
$GPGGA,090830.00,4611.963110,N,01258.212715,E,1,06,1.5,139.61,M,46.25,M,,*67
$GPGLL,4611.963110,N,01258.212715,E,090830.00,A,A*69
$GPVTG,344.3,T,344.4,M,000.0,N,000.0,K,A*24
$GPGSV,2,1,08,02,38,073,37,09,15,153,,12,53,082,36,14,25,249,43*71
$GPGSV,2,2,08,25,78,355,49,29,53,02,14,25,29,30,31,,,,,,,2.8,1.5,2.4*3C
$GPZDA,090830.03,08,10,2011,00,00*6C
$GPRMC,090830.00,A,4611.963110,N,01258.212715,E,000.0,344.3,081011,0.2,E,A*3E
$GPGGA,090831.00,4611.963125,N,01258.212704,E,1,06,1.5,139.67,M,46.25,M,,*66
$GPGLL,4611.963125,N,01258.212704,E,090831.00,A,A*6E
$GPVTG,243.9,T,244.1,M,000.1,N,000.1,K,A*2C
$GPGSV,2,1,08,02,38,073,36,09,15,153,,12,53,082,35,14,25,249,43*73
$GPGSV,2,2,08,25,78,355,48,29,56,226,46,30,38,293,45,31,29,312,46*70
$GPGSA,M,3,02,14,25,29,30,31,,,,,,,2.8,10,2011,00,00*6D
Trace #106 at position 26.250000
$GPZDA,090829.03,08,10,2011,00,00*64
$GPRMC,090829.00,A,4611.963090,N,01258.212719,E,000.0,251.5,081011,0.2,E,A*30
$GPGGA,090830.00,4611.963110,N,01258.212715,E,1,06,1.5,139.61,M,46.25,M,,*67
$GPGLL,4611.963110,N,01258.212715,E,090830.00,A,A*69
$GPVTG,344.3,T,344.4,M,000.0,N,000.0,K,A*24
$GPGSV,2,1,08,02,38,073,37,09,15,153,,12,53,082,36,14,25,249,43*71
$GPGSV,2,2,08,25,78,355,49,29,53,02,14,25,29,30,31,,,,,,,2.8,1.5,2.4*3C
$GPZDA,090830.03,08,10,2011,00,00*6C
$GPRMC,090830.00,A,4611.963110,N,01258.212715,E,000.0,344.3,081011,0.2,E,A*3E
$GPGGA,090831.00,4611.963125,N,01258.212704,E,1,06,1.5,139.67,M,46.25,M,,*66
$GPGLL,4611.963125,N,01258.212704,E,090831.00,A,A*6E
$GPVTG,243.9,T,244.1,M,000.1,N,000.1,K,A*2C
$GPGSV,2,1,08,02,38,073,36,09,15,153,,12,53,082,35,14,25,249,43*73
$GPGSV,2,2,08,25,78,355,48,29,56,226,46,30,38,293,45,31,29,312,46*70
$GPGSA,M,3,02,14,25,29,30,31,,,,,,,2.8,10,2011,00,00*6D
Trace #107 at position 26.500000
$GPRMC,090831.00,A,4611.963125,N,01258.212704,E,000.1,243.9,081011,0.2,E,A*34
$GPGGA,090832.00,4611.963136,N,01258.212689,E,1,06,1.5,139.70,M,46.25,M,,*65
$GPGLL,4611.963136,N,01258.212689,E,090832.00,A,A*6B
$GPVTG,254.3,T,254.4,M,000.0,N,000.1,K,A*25
$GPGSV,2,1,08,02,38,073,36,09,15,153,,12,53,082,34,14,25,249,43*72
$GPGSV,2,2,08,25,78,355,48,29,56,226,46,30,38,293,45,31,29,312,47*71
$GPGSA,M,3,02,14,25,29,30,31,,,,,,,2.8,1.5,2.4*3C
Trace #108 at position 26.750000
$GPZDA,090832.03,08,10,2011,00,00*6E
$GPRMC,090689,E,000.0,254.3,081011,0.2,E,A*3C
$GPGGA,090833.00,4611.963149,N,01258.212674,E,1,06,1.5,139.72,M,46.25,M,,*6C
$GPGLL,4611.963149,N,01258.212674,E,090833.00,A,A*60
$GPVTG,260.4,T,260.5,M,000.1,N,000.1,K,A*22
$GPGSV,2,1,08,02,38,073,41,09,15,153,,12,53,082,36,14,25,249,43*70
$GPGSV,2,2,08,25,78,355,48,29,56,226,45,30,38,293,44,31,29,312,47*73
$GPGSA,M,3,02,14,25,29,30,31,,,,,,,2.8,1.5,2.4*3C
Trace #109 at position 27.000000
$GPZDA,090832.03,08,10,2011,00,00*6E
$GPRMC,090689,E,000.0,254.3,081011,0.2,E,A*3C
$GPGGA,090833.00,4611.963149,N,01258.212674,E,1,06,1.5,139.72,M,46.25,M,,*6C
$GPGLL,4611.963149,N,01258.212674,E,090833.00,A,A*60
$GPVTG,260.4,T,260.5,M,000.1,N,000.1,K,A*22
$GPGSV,2,1,08,02,38,073,41,09,15,153,,12,53,082,36,14,25,249,43*70
$GPGSV,2,2,08,25,78,355,48,29,56,226,45,30,38,293,44,31,29,312,47*73
