Trace #1 at position 0.000000
$GPZDA,122940.03,06,10,2011,00,00*6C
$GPRMC,122940.00,A,4611.949712,N,01258.216059,E,000.0,129.3,061011$GPGGA,122941.00,4611.949767,N,01258.216233,E,1,04,3.0,138.09,M,46.25,M,,*69
$GPGLL,4611.949767,N,01258.216233,E,122941.00,A,A*6D
$GPVTG,76.2,T,76.3,M,000.1,N,000.2,K,A*21
$GPGSV,3,1,10,05,10,035,42,16,36,308,,31,23,218,,18,22,146,31*77
$GPGSV,3,2,10,29,38,078,39,30,46,157,41,21,78,148,37,25,10,140,*7D
$GPGSV,3,3,10,03,16,280,,06,32,280,32,,,,,,,,*7A
$GPGSA,M,3,05,29,30,21,,,,,,,,,4.4,3.0,3.1*31
Trace #2 at position 0.250000
$GPZDA,122950.02,06,10,2011,00,00*6C
$GPRMC,122942.00,V,,,,,,,,,,N*73
$GPGGA,,,,,,0,03,,,M,,M,,*65
$GPGLL,,,,,,V,N*64
$GPVTG,,T,,,,N,,K,N*61
$GPGSV,3,1,10,05,10,035,38,16,36,308,,31,23,218,,18,22,145,29*70
$GPGSV,3,2,10,29,38,078,42,30,46,157,38,21,78,148,33,25,10,140,*7B
$GPGSV,3,3,10,03,16,280,,06,32,280,,,,,,,,,*7B
$GPGSA,M,1,,,,,,,,,,,,,4.4,3.0,3.1*3D
Trace #3 at position 0.500000
$GPZDA,122952.02,06,10,2011,00,00*6E
$GPRMC,122942.00,V,,,,,,,,,,N*73
$GPGGA,122953.00,4611.950259,N,01258.217215,E,1,04,3.0,140.37,M,46.25,M,,*6D
$GPGLL,4611.950259,N,01258.217215,E,122953.00,A,A*6B
$GPVTG,193.3,T,193.4,M,000.1,N,000.2,K,A*27
$GPGSV,3,1,10,05,10,035,36,16,36,308,,31,23,218,,18,22,145,35*73
$GPGSV,3,2,10,29,38,078,40,30,46,157,42,21,78,148,36,25,10,140,*71
$GPGSV,3,3,10,03,16,280,,06,32,280,,,,,,,,,*7B
$GPGSA,M,3,05,29,30,21,,,,,,,,,4.3,3.0,3.1*36
Trace #4 at position 0.750000
$GPZDA,122952.02,06,10,2011,00,00*6E
$GPRMC,122942.00,V,,,,,,,,,,N*73
$GPGGA,122953.00,4611.950259,N,01258.217215,E,1,04,3.0,140.37,M,46.25,M,,*6D
$GPGLL,4611.950259,N,01258.217215,E,122953.00,A,A*6B
$GPVTG,193.3,T,193.4,M,000.1,N,000.2,K,A*27
$GPGSV,3,1,10,05,10,035,36,16,36,308,,31,23,218,,18,22,145,35*73
$GPGSV,3,2,10,29,38,078,40,30,46,157,42,21,78,148,36,25,10,140,*71
$GPGSV,3,3,10,03,16,280,,06,32,280,,,,,,,,,*7B
$GPGSA,M,3,05,29,30,21,,,,,,,,,4.3,3.0,3.1*36
Trace #5 at position 1.000000
$GPZDA,122953.03,06,10,2011,00,00*6E
$GPRMC,122953.00,A,4611.950259,N,01258.217215,E,000.1,193.3,061011,0.2,E,A*3B
$GPGGA,122954.00,4611.950294,N,01258.217206,E,1,04,3.0,140.39,M,46.25,M,,*67
$GPGLL,4611.950294,N,01258.217206,E,122954.00,A,A*6F
$GPVTG,2.4,T,2.5,M,000.3,N,000.6,K,A*27
$GPGSV,3,1,10,05,10,035,36,16,36,308,,31,23,218,,18,22,145,33*75
$GPGSV,3,2,10,29,38,078,40,30,46,157,42,21,78,148,38,25,10,140,*7F
$GPGSV,3,3,10,03,16,280,,06,32,280,,,,,,,,,*7B
$GPGSA,M,3,05,29,30,21,,,,,,,,,4.3,3.0,3.1*36
Trace #6 at position 1.250000
$GPZDA,122954.03,06,10,2011,00,00*69
$GPRMC,122954.00,A,4611.950294,N,01258.217206,E,000.3,2.4,061011,0.2,E,A*33
$GPGGA,122955.00,4611.950391,N,01258.217122,E,1,04,3.0,140.37,M,46.25,M,,*69
$GPGLL,4611.950391,N,01258.217122,E,122955.00,A,A*6F
$GPVTG,314.2,T,314.4,M,000.7,N,001.2,K,A*21
$GPGSV,3,1,10,05,10,035,35,16,36,308,,31,23,218,,18,22,145,33*76
$GPGSV,3,2,10,29,38,078,39,30,46,157,42,21,78,147,37,25,10,140,*71
$GPGSV,3,3,10,03,16,280,,06,32,280,,,,,,,,,*7B
$GPGSA,M,3,05,29,30,21,,,,,,,,,4.3,3.0,3.1*36
Trace #7 at position 1.500000
$GPZDA,122956.03,06,10,2011,00,00*6B
$GPRMC,122956.00,A,4611.950539,N,01258.217101,E,000.8,24.4,061011,0.2,E,A*0A
$GPGGA,122957.00,4611.950681,N,01258.217167,E,1,04,3.0,140.47,M,46.25,M,,*69
$GPGLL,4611.950681,N,01258.217167,E,122957.00,A,A*68
$GPVTG,3.6,T,3.7,M,000.4,N,000.8,K,A*2E
$GPGSV,3,1,10,05,10,035,37,16,36,308,,31,23,218,,18,22,145,36*71
$GPGSV,3,2,10,29,38,078,39,30,46,157,43,21,78,147,37,25,10,140,*70
$GPGSV,3,3,10,03,16,280,,06,32,280,,,,,,,,,*7B
$GPGSA,M,3,05,29,30,21,,,,,,,,,4.3,3.0,3.1*36
Trace #8 at position 1.750000
$GPZDA,122956.03,06,10,2011,00,00*6B
$GPRMC,122956.00,A,4611.950539,N,01258.217101,E,000.8,24.4,061011,0.2,E,A*0A
$GPGGA,122957.00,4611.950681,N,01258.217167,E,1,04,3.0,140.47,M,46.25,M,,*69
$GPGLL,4611.950681,N,01258.217167,E,122957.00,A,A*68
$GPVTG,3.6,T,3.7,M,000.4,N,000.8,K,A*2E
$GPGSV,3,1,10,05,10,035,37,16,36,308,,31,23,218,,18,22,145,36*71
$GPGSV,3,2,10,29,38,078,39,30,46,157,43,21,78,147,37,25,10,140,*70
$GPGSV,3,3,10,03,16,280,,06,32,280,,,,,,,,,*7B
$GPGSA,M,3,05,29,30,21,,,,,,,,,4.3,3.0,3.1*36
Trace #9 at position 2.000000
$GPZDA,122958.03,06,10,2011,00,00*65
$GPRMC,122958.00,A,4611.950771,N,01258.217153,E,000.3,353.2,061011,0.2,E,A*33
$GPGGA,122959.00,4611.950877,N,01258.217134,E,1,04,3.0,140.54,M,46.25,M,,*64
$GPGLL,4611.950877,N,01258.217134,E,122959.00,A,A*67
$GPVTG,4.4,T,4.6,M,000.5,N,001.0,K,A*25
$GPGSV,3,1,10,05,10,035,36,16,36,308,,31,23,218,31,18,22,145,34*70
$GPGSV,3,2,10,29,38,078,38,30,46,157,43,21,78,147,37,25,10,140,*71
$GPGSV,3,3,10,03,16,281,,06,32,280,,,,,,,,,*7A
$GPGSA,M,3,05,29,30,21,,,,,,,,,4.3,3.0,3.1*36
Trace #10 at position 2.250000
$GPZDA,122959.03,06,10,2011,00,00*64
$GPRMC,122959.00,A,4611.950877,N,01258.217134,E,000.5,4.4,061011,0.2,E,A*3B
$GPGGA,123000.00,4611.951018,N,01258.217084,E,1,04,3.0,140.45,M,46.25,M,,*6A
$GPGLL,4611.951018,N,01258.217084,E,123000.00,A,A*69
$GPVTG,340.1,T,340.3,M,000.6,N,001.1,K,A*27
$GPGSV,3,1,10,05,10,035,36,16,36,308,,31,23,218,32,18,22,145,34*73
$GPGSV,3,2,10,29,38,078,38,30,46,157,41,21,78,147,37,25,10,140,*73
$GPGSV,3,3,10,03,16,281,,06,32,280,,,,,,,,,*7A
$GPGSA,M,3,05,29,30,21,,,,,,,,,4.3,3.0,3.1*36
Trace #11 at position 2.500000
$GPZDA,123000.03,06,10,2011,00,00*60
$GPRMC,123000.00,A,4611.951018,N,01258.217084,E,000.6,340.1,061011,0.2,E,A*30
$GPGGA,123001.00,4611.951047,N,01258.216866,E,1,05,2.2,140.13,M,46.25,M,,*65
$GPGLL,4611.951047,N,01258.216866,E,123001.00,A,A*67
$GPVTG,135.4,T,135.6,M,000.1,N,000.2,K,A*22
$GPGSV,3,1,10,05,10,035,37,16,37,308,,31,23,218,34,18,22,145,35*74
$GPGSV,3,2,10,29,38,078,39,30,46,157,41,21,78,147,37,25,10,140,*72
$GPGSV,3,3,10,03,16,281,,06,32,280,,,,,,,,,*7A
$GPGSA,M,3,05,31,29,30,21,,,,,,,,3.0,2.2,2.1*32
Trace #12 at position 2.750000
$GPZDA,123001.03,06,10,2011,00,00*61
$GPRMC,123001.00,A,4611.951047,N,01258.216866,E,000.1,135.4,061011,0.2,E,A*3C
$GPGGA,123002.00,4611.951069,N,01258.216718,E,1,05,2.2,139.92,M,46.25,M,,*6B
$GPGLL,4611.951069,N,01258.216718,E,123002.00,A,A*6E
$GPVTG,4.3,T,4.5,M,000.4,N,000.8,K,A*29
$GPGSV,3,1,10,05,10,035,35,16,37,308,,31,23,218,35,18,22,145,35*77
$GPGSV,3,2,10,29,38,078,38,30,46,157,42,21,78,147,37,25,10,140,*70
$GPGSV,3,3,10,03,16,281,,06,32,280,,,,,,,,,*7A
$GPGSA,M,3,05,31,29,30,21,,,,,,,,3.0,2.2,2.1*32
Trace #13 at position 3.000000
$GPZDA,123001.03,06,10,2011,00,00*61
$GPRMC,123001.00,A,4611.951047,N,01258.216866,E,000.1,135.4,061011,0.2,E,A*3C
$GPGGA,123002.00,4611.951069,N,01258.216718,E,1,05,2.2,139.92,M,46.25,M,,*6B
$GPGLL,4611.951069,N,01258.216718,E,123002.00,A,A*6E
$GPVTG,4.3,T,4.5,M,000.4,N,000.8,K,A*29
$GPGSV,3,1,10,05,10,035,35,16,37,308,,31,23,218,35,18,22,145,35*77
$GPGSV,3,2,10,29,38,078,38,30,46,157,42,21,78,147,37,25,10,140,*70
$GPGSV,3,3,10,03,16,281,,06,32,280,,,,,,,,,*7A
$GPGSA,M,3,05,31,29,30,21,,,,,,,,3.0,2.2,2.1*32
Trace #14 at position 3.250000
$GPZDA,123002.03,06,10,2011,00,00*62
$GPRMC,123002.00,A,4611.951069,N,01258.216718,E,000.4,4.3,061011,0.2,E,A*34
$GPGGA,123003.00,4611.951144,N,01258.216544,E,1,05,2.2,139.75,M,46.25,M,,*66
$GPGLL,4611.951144,N,01258.216544,E,123003.00,A,A*6A
$GPVTG,336.8,T,336.9,M,000.3,N,000.6,K,A*27
$GPGSV,3,1,10,05,10,035,38,16,37,308,,31,23,218,35,18,22,145,36*79
$GPGSV,3,2,10,29,38,078,37,30,46,157,41,21,78,147,36,25,10,140,*7D
$GPGSV,3,3,10,03,16,281,,06,32,280,33,,,,,,,,*7A
$GPGSA,M,3,05,31,29,30,21,,,,,,,,3.0,2.2,2.1*32
Trace #15 at position 3.500000
$GPZDA,123003.04,06,10,2011,00,00*64
$GPRMC,123003.00,A,4611.951144,N,01258.216544,E,000.3,336.8,061011,0.2,E,A*3E
$GPGGA,123004.00,4611.951203,N,01258.216427,E,1,05,2.2,139.61,M,46.25,M,,*60
$GPGLL,4611.951203,N,01258.216427,E,123004.00,A,A*69
$GPVTG,47.8,T,47.9,M,000.4,N,000.8,K,A*2E
$GPGSV,3,1,10,05,10,035,31,16,37,308,,31,23,218,36,18,22,145,36*73
$GPGSV,3,2,10,29,38,078,39,30,46,157,41,21,78,147,38,25,10,140,*7D
$GPGSV,3,3,10,03,16,281,,06,32,280,31,,,,,,,,*78
$GPGSA,M,3,05,31,29,30,21,,,,,,,,3.0,2.2,2.1*32
Trace #16 at position 3.750000
$GPZDA,123003.04,06,10,2011,00,00*64
$GPRMC,123003.00,A,4611.951144,N,01258.216544,E,000.3,336.8,061011,0.2,E,A*3E
$GPGGA,123004.00,4611.951203,N,01258.216427,E,1,05,2.2,139.61,M,46.25,M,,*60
$GPGLL,4611.951203,N,01258.216427,E,123004.00,A,A*69
$GPVTG,47.8,T,47.9,M,000.4,N,000.8,K,A*2E
$GPGSV,3,1,10,05,10,035,31,16,37,308,,31,23,218,36,18,22,145,36*73
$GPGSV,3,2,10,29,38,078,39,30,46,157,41,21,78,147,38,25,10,140,*7D
$GPGSV,3,3,10,03,16,281,,06,32,280,31,,,,,,,,*78
$GPGSA,M,3,05,31,29,30,21,,,,,,,,3.0,2.2,2.1*32
Trace #17 at position 4.000000
$GPZDA,123004.03,06,10,2011,00,00*64
$GPRMC,123004.00,A,4611.951203,N,01258.216427,E,000.4,47.8,061011,0.2,E,A*0F
$GPGGA,123005.00,4611.951266,N,01258.216300,E,1,05,2.2,139.49,M,46.25,M,,*6A
$GPGLL,4611.951266,N,01258.216300,E,123005.00,A,A*69
$GPVTG,316.7,T,316.8,M,000.3,N,000.6,K,A*29
$GPGSV,3,1,10,05,10,035,33,16,37,308,,31,23,218,34,18,22,145,37*72
$GPGSV,3,2,10,29,38,078,38,30,46,157,41,21,78,147,39,25,10,140,*7D
$GPGSV,3,3,10,03,16,281,,06,32,280,31,,,,,,,,*78
$GPGSA,M,3,05,31,29,30,21,,,,,,,,3.0,2.2,2.1*32
Trace #18 at position 4.250000
$GPZDA,123005.03,06,10,2011,00,00*65
$GPRMC,123005.00,A,4611.951266,N,01258.216300,E,000.3,316.7,061011,0.2,E,A*30
$GPGGA,123006.00,4611.951370,N,01258.216112,E,1,05,2.2,139.35,M,46.25,M,,*65
$GPGLL,4611.951370,N,01258.216112,E,123006.00,A,A*6D
$GPVTG,353.5,T,353.6,M,000.6,N,001.1,K,A*26
$GPGSV,3,1,10,05,10,035,33,16,37,308,,31,23,218,36,18,22,145,36*71
$GPGSV,3,2,10,29,38,078,38,30,46,157,41,21,78,147,37,25,10,140,*73
$GPGSV,3,3,10,03,16,281,,06,32,280,32,,,,,,,,*7B
$GPGSA,M,3,05,31,29,30,21,,,,,,,,3.0,2.2,2.1*32
Trace #19 at position 4.500000
$GPZDA,123006.03,06,10,2011,00,00*66
$GPRMC,123006.00,A,4611.951370,N,01258.216112,E,000.6,353.5,061011,0.2,E,A*32
$GPGGA,123007.00,4611.951489,N,01258.216011,E,1,05,2.2,139.17,M,46.25,M,,*67
$GPGLL,4611.951489,N,01258.216011,E,123007.00,A,A*6F
$GPVTG,20.2,T,20.4,M,000.4,N,000.8,K,A*29
$GPGSV,3,1,10,05,10,035,32,16,37,308,,31,23,218,33,18,22,145,35*76
$GPGSV,3,2,10,29,38,078,38,30,46,157,41,21,78,147,38,25,10,140,*7C
$GPGSV,3,3,10,03,16,281,,06,32,280,32,,,,,,,,*7B
$GPGSA,M,3,05,31,29,30,21,,,,,,,,3.0,2.2,2.1*32
Trace #20 at position 4.750000
$GPZDA,123007.03,06,10,2011,00,00*67
$GPRMC,123007.00,A,4611.951489,N,01258.216011,E,000.4,20.2,061011,0.2,E,A*02
$GPGGA,123008.00,4611.951662,N,01258.215878,E,1,05,2.2,139.00,M,46.25,M,,*6D
$GPGLL,4611.951662,N,01258.215878,E,123008.00,A,A*63
$GPVTG,344.8,T,345.0,M,000.9,N,001.7,K,A*25
$GPGSV,3,1,10,05,10,035,33,16,37,308,,31,23,218,35,18,22,145,36*72
$GPGSV,3,2,10,29,38,078,39,30,46,157,41,21,78,147,38,25,10,140,*7D
$GPGSV,3,3,10,03,16,281,,06,32,280,33,,,,,,,,*7A
$GPGSA,M,3,05,31,29,30,21,,,,,,,,3.0,2.2,2.1*32
Trace #21 at position 5.000000
$GPZDA,123007.03,06,10,2011,00,00*67
$GPRMC,123007.00,A,4611.951489,N,01258.216011,E,000.4,20.2,061011,0.2,E,A*02
$GPGGA,123008.00,4611.951662,N,01258.215878,E,1,05,2.2,139.00,M,46.25,M,,*6D
$GPGLL,4611.951662,N,01258.215878,E,123008.00,A,A*63
$GPVTG,344.8,T,345.0,M,000.9,N,001.7,K,A*25
$GPGSV,3,1,10,05,10,035,33,16,37,308,,31,23,218,35,18,22,145,36*72
$GPGSV,3,2,10,29,38,078,39,30,46,157,41,21,78,147,38,25,10,140,*7D
$GPGSV,3,3,10,03,16,281,,06,32,280,33,,,,,,,,*7A
$GPGSA,M,3,05,31,29,30,21,,,,,,,,3.0,2.2,2.1*32
Trace #22 at position 5.250000
$GPZDA,123008.04,06,10,2011,00,00*6F
$GPRMC,123008.00,A,4611.951662,N,01258.215878,E,000.9,344.8,061011,0.2,E,A*38
$GPGGA,123009.00,4611.951960,N,01258.215740,E,1,04,3.0,138.91,M,46.25,M,,*6E
$GPGLL,4611.951960,N,01258.215740,E,123009.00,A,A*6B
$GPVTG,321.1,T,321.3,M,001.6,N,003.0,K,A*25
$GPGSV,3,1,10,05,10,035,32,16,37,308,,31,23,218,28,18,22,145,37*7E
$GPGSV,3,2,10,29,38,078,40,30,46,157,41,21,78,147,38,25,10,140,*73
$GPGSV,3,3,10,03,16,281,,06,32,280,32,,,,,,,,*7B
$GPGSA,M,3,05,29,30,21,,,,,,,,,4.3,3.0,3.1*36
Trace #23 at position 5.500000
$GPZDA,123009.03,06,10,2011,00,00*69
$GPRMC,123009.00,A,4611.951960,N,01258.215740,E,001.6,321.1,061011,0.2,E,A*34
$GPGGA,123010.00,4611.952210,N,01258.215591,E,1,04,3.0,138.78,M,46.25,M,,*60
$GPGLL,4611.952210,N,01258.215591,E,123010.00,A,A*62
$GPVTG,330.6,T,330.8,M,000.7,N,001.3,K,A*28
$GPGSV,3,1,10,05,10,035,35,16,37,308,,31,23,218,32,18,22,145,38*7D
$GPGSV,3,2,10,29,38,078,39,30,46,157,41,21,78,147,38,25,10,140,*7D
$GPGSV,3,3,10,03,16,281,,06,32,280,31,,,,,,,,*78
$GPGSA,M,3,05,29,30,21,,,,,,,,,4.3,3.0,3.1*36
Trace #24 at position 5.750000
$GPZDA,123010.03,06,10,2011,00,00*61
$GPRMC,123010.00,A,4611.952210,N,01258.215591,E,000.7,330.6,061011,0.2,E,A*3A
$GPGGA,123011.00,4611.952272,N,01258.215385,E,1,05,2.2,138.60,M,46.25,M,,*6D
$GPGLL,4611.952272,N,01258.215385,E,123011.00,A,A*64
$GPVTG,275.4,T,275.6,M,000.2,N,000.4,K,A*27
$GPGSV,3,1,10,05,10,034,35,16,37,308,32,31,23,218,35,18,22,145,37*75
$GPGSV,3,2,10,29,38,078,39,30,46,157,42,21,78,147,38,25,10,140,*7E
$GPGSV,3,3,10,03,16,281,,06,32,280,,,,,,,,,*7A
$GPGSA,M,3,05,31,29,30,21,,,,,,,,3.0,2.2,2.1*32
Trace #25 at position 6.000000
$GPZDA,123011.04,06,10,2011,00,00*67
$GPRMC,123011.00,A,4611.952272,N,01258.215385,E,000.2,275.4,061011,0.2,E,A*3B
$GPGGA,123012.00,4611.952322,N,01258.215200,E,1,05,2.2,138.51,M,46.25,M,,*64
$GPGLL,4611.952322,N,01258.215200,E,123012.00,A,A*6F
$GPVTG,322.4,T,322.5,M,000.6,N,001.1,K,A*24
$GPGSV,3,1,10,05,10,034,3280,,,,,,,,,*7A
$GPGSA,M,3,05,31,29,30,21,,,,,,,,3.0,2.2,2.1*32
Trace #26 at position 6.250000
$GPZDA,123011.04,06,10,2011,00,00*67
$GPRMC,123011.00,A,4611.952272,N,01258.215385,E,000.2,275.4,061011,0.2,E,A*3B
$GPGGA,123012.00,4611.952322,N,01258.215200,E,1,05,2.2,138.51,M,46.25,M,,*64
$GPGLL,4611.952322,N,01258.215200,E,123012.00,A,A*6F
$GPVTG,322.4,T,322.5,M,000.6,N,001.1,K,A*24
$GPGSV,3,1,10,05,10,034,3280,,,,,,,,,*7A
$GPGSA,M,3,05,31,29,30,21,,,,,,,,3.0,2.2,2.1*32
Trace #27 at position 6.500000
$GPZDA,123012.03,06,10,2011,00,00*63
$GPRMC,123012.00,A,4611.952322,N,01258.215200,E,000.6,322.4,061011,0.2,E,A*37
$GPGGA,123013.00,4611.952447,N,01258.215068,E,1,05,2.2,138.42,M,46.25,M,,*6F
$GPGLL,4611.952447,N,01258.215068,E,123013.00,A,A*66
$GPVTG,359.4,T,359.6,M,000.6,N,001.1,K,A*27
$GPGSV,3,1,10,05,10,034,35,16,37,308,32,31,23,218,32,18,22,145,35*70
$GPGSV,3,2,10,29,38,078,38,30,46,157,41,21,78,147,38,25,10,140,*7C
$GPGSV,3,3,10,*32
$GPZDA,123013.04,06,10,2011,00,00*65
$GPRMC,123013.00,A,4611.952447,N,01258.215068,E,000.6,359.4,061011,0.2,E,A*32
$GPGGA,123014.00,4611.952613,N,01258.214974,E,1,05,2.2,138.32,M,46.25,M,,*69
$GPGLL,4611.952613,N,01258.214974,E,123014.00,A,A*67
$GPVTG,349.3,T,349.4,M,000.8,N,001.4,K,A*29
$GPGSV,3,1,10,05,10,034,35,16,37,308,29,31,23,218,33,18,22,145,35*7B
$GPGSV,3,2,10,29,38,078,38,30,46,157,42,21,78,147,38,25,10,140,*7F
$GPGSV,3,3,10,03,16,281,,06,32,280,33,,,,,,,,*7A
$GPGSA,M,3,05,31,29,30,21,4611.952613,N,01258.214974,E,000.8,349.3,061011,0.2,E,A*3B
Trace #28 at position 6.750000
$GPGGA,123015.00,4611.952792,N,01258.215134,E,1,04,3.0,138.57,M,46.25,M,,*6C
$GPGLL,4611.952792,N,01258.215134,E,123015.00,A,A*63
$GPVTG,28.2,T,28.3,M,000.5,N,000.9,K,A*2E
$GPGSV,3,1,10,05,10,034,36,16,37,308,26,31,23,218,29,18,22,145,33*7A
$GPGSV,3,2,10,29,38,078,38,30,46,157,42,21,78,147,38,25,10,140,*7F
$GPGSV,3,3,10,03,17,281,,06,32,280,32,,,,,,,,*7A
$GPGSA,M,3,05,29,30,21,,,,,,,,,4.3,3.0,3.1*36
Trace #29 at position 7.000000
$GPZDA,123015.03,06,10,2011,00,00*64
$GP$GPGGA,123016.00,4611.952915,N,01258.215315,E,1,04,3.0,138.77,M,46.25,M,,*6D
$GPGLL,4611.952915,N,01258.215315,E,123016.00,A,A*60
$GPVTG,18.0,T,18.2,M,000.4,N,000.7,K,A*22
$GPGSV,3,1,10,05,10,034,36,16,37,308,,31,23,218,30,18,22,145,32*77
$GPGSV,3,2,10,29,38,078,38,30,46,157,42,21,78,147,38,25,10,140,*7F
$GPGSV,3,3,10,03,17,281,,06,32,280,31,,,,,,,,*79
$GPGSA,M,3,05,29,30,21,,,,,,,,,4.3,3.0,3.1*36
Trace #30 at position 7.250000
$GPZDA,123016.03,06,10,2011,00,00*67
$GPRMC,123016.00,A,4611.952915,N,01258.215315,E,000.4,18.0,061011,$GPGGA,123017.00,4611.953060,N,01258.215418,E,1,04,3.0,138.95,M,46.25,M,,*60
$GPGLL,4611.953060,N,01258.215418,E,123017.00,A,A*61
$GPVTG,356.8,T,357.0,M,000.6,N,001.1,K,A*2C
$GPGSV,3,1,10,05,10,034,36,16,37,308,,31,23,218,31,18,22,145,35*71
$GPGSV,3,2,10,29,38,078,39,30,46,157,42,21,78,147,38,25,10,140,*7E
$GPGSV,3,3,10,03,17,281,,06,32,280,32,,,,,,,,*7A
$GPGSA,M,3,05,29,30,21,,,,,,,,,4.3,3.0,3.1*36
Trace #31 at position 7.500000
$GPZDA,123017.03,06,10,2011,00,00*66
$GPRMC,123017.00,A,4611.953060,N,01258.215418,E,000.6,356.8,0610$GPGGA,123018.00,4611.953220,N,01258.215442,E,1,04,3.0,139.13,M,46.25,M,,*69
$GPGLL,4611.953220,N,01258.215442,E,123018.00,A,A*67
$GPVTG,333.3,T,333.5,M,000.5,N,001.0,K,A*21
$GPGSV,3,1,10,05,10,034,37,16,37,308,,31,23,218,32,18,22,145,35*73
$GPGSV,3,2,10,29,38,078,38,30,46,157,41,21,78,147,38,25,10,140,*7C
$GPGSV,3,3,10,03,17,281,,06,32,280,32,,,,,,,,*7A
$GPGSA,M,3,05,29,30,21,,,,,,,,,4.3,3.0,3.1*36
Trace #32 at position 7.750000
$GPZDA,123018.03,06,10,2011,00,00*69
$GPRMC,123018.00,A,4611.953220,N,01258.215442,E,000.5,333.3,0610$GPGGA,123019.00,4611.953473,N,01258.215374,E,1,05,1.8,139.10,M,46.25,M,,*62
$GPGLL,4611.953473,N,01258.215374,E,123019.00,A,A*64
$GPVTG,14.1,T,14.3,M,001.3,N,002.4,K,A*25
$GPGSV,3,1,10,05,10,034,37,16,37,308,,31,23,218,32,18,22,145,35*73
$GPGSV,3,2,10,29,38,078,39,30,46,157,41,21,78,147,38,25,10,140,*7D
$GPGSV,3,3,10,03,17,281,,06,32,280,34,,,,,,,,*7C
$GPGSA,M,3,05,29,30,21,06,,,,,,,,3.3,1.8,2.8*35
Trace #33 at position 8.000000
$GPZDA,123018.03,06,10,2011,00,00*69
$GPRMC,123018.00,A,4611.953220,N,01258.215442,E,000.5,333.3,0610$GPGGA,123019.00,4611.953473,N,01258.215374,E,1,05,1.8,139.10,M,46.25,M,,*62
$GPGLL,4611.953473,N,01258.215374,E,123019.00,A,A*64
$GPVTG,14.1,T,14.3,M,001.3,N,002.4,K,A*25
$GPGSV,3,1,10,05,10,034,37,16,37,308,,31,23,218,32,18,22,145,35*73
$GPGSV,3,2,10,29,38,078,39,30,46,157,41,21,78,147,38,25,10,140,*7D
$GPGSV,3,3,10,03,17,281,,06,32,280,34,,,,,,,,*7C
$GPGSA,M,3,05,29,30,21,06,,,,,,,,3.3,1.8,2.8*35
Trace #34 at position 8.250000
$GPZDA,123019.03,06,10,2011,00,00*68
$GPRMC,123019.00,A,4611.953473,N,01258.215374,E,001.3,14.1,06101$GPGGA,123020.00,4611.953718,N,01258.215319,E,1,05,1.8,139.14,M,46.25,M,,*69
$GPGLL,4611.953718,N,01258.215319,E,123020.00,A,A*6B
$GPVTG,342.8,T,343.0,M,000.6,N,001.1,K,A*2C
$GPGSV,3,1,10,05,10,034,38,16,37,308,,31,23,218,30,18,22,145,36*7D
$GPGSV,3,2,10,29,38,078,38,30,46,157,42,21,78,147,38,25,10,140,*7F
$GPGSV,3,3,10,03,17,281,,06,32,280,34,,,,,,,,*7C
$GPGSA,M,3,05,29,30,21,06,,,,,,,,3.3,1.8,2.8*35
Trace #35 at position 8.500000
$GPZDA,123020.03,06,10,2011,00,00*62
$GPRMC,123020.00,A,4611.953718,N,01258.215319,E,000.6,342.8,06$GPGGA,123021.00,4611.953870,N,01258.215181,E,1,05,1.8,139.19,M,46.25,M,,*67
$GPGLL,4611.953870,N,01258.215181,E,123021.00,A,A*68
$GPVTG,346.6,T,346.8,M,000.6,N,001.2,K,A*28
$GPGSV,3,1,10,05,10,034,38,16,37,308,,31,23,218,29,18,22,145,35*76
$GPGSV,3,2,10,29,38,078,40,30,46,157,41,21,78,147,38,25,10,140,*73
$GPGSV,3,3,10,03,17,281,,06,32,280,33,,,,,,,,*7B
$GPGSA,M,3,05,29,30,21,06,,,,,,,,3.3,1.8,2.8*35
Trace #36 at position 8.750000
$GPZDA,123021.03,06,10,2011,00,00*63
$GPRMC,123021.00,A,4611.953870,N,01258.215181,E,000.6,346.6,061258.215038,E,1,05,1.8,139.18,M,46.25,M,,*6C
$GPGLL,4611.953995,N,01258.215038,E,123022.00,A,A*62
$GPVTG,328.8,T,328.9,M,000.5,N,000.9,K,A*2E
$GPGSV,3,1,10,05,10,034,37,16,37,308,,31,23,218,27,18,22,145,36*74
$GPGSV,3,2,10,29,38,078,39,30,46,157,42,21,78,147,38,25,10,140,*7E
$GPGSV,3,3,10,03,17,281,,06,32,280,34,,,,,,,,*7C
$GPGSA,M,3,05,29,30,21,06,,,,,,,,3.3,1.8,2.8*35
Trace #37 at position 9.000000
$GPZDA,123022.03,06,10,2011,00,00*60
$GPRMC,123022.00,A,4611.953995,N,01258.215038,E,000.5,328.8,061011,0.2,E,A*3F
$GPGGA,123023.05,N,01258.215151,E,123023.00,A,A*63
$GPVTG,36.0,T,36.1,M,000.6,N,001.1,K,A*24
$GPGSV,3,1,10,05,10,034,38,16,37,308,,31,23,218,32,18,22,145,36*7F
$GPGSV,3,2,10,29,38,078,39,30,46,157,41,21,78,146,39,25,10,140,*7D
$GPGSV,3,3,10,03,17,281,,06,32,280,32,,,,,,,,*7A
$GPGSA,M,3,05,29,30,21,,,,,,,,,4.3,3.0,3.1*36
Trace #38 at position 9.250000
$GPZDA,123023.04,06,10,2011,00,00*66
$GPRMC,123023.00,A,4611.954095,N,01258.215151,E,000.6,36.0,061011,0.2,E,A*09
$GPGGA,123024.00,4611.954211,N,01258.215195,E,1,05,1.8,139.33,M,46.25,M,,*65
$GPGL1.1,K,A*22
$GPGSV,3,1,10,05,10,034,37,16,37,308,,31,23,218,29,18,22,145,35*79
$GPGSV,3,2,10,29,38,078,39,30,46,157,42,21,78,146,38,25,10,140,*7F
$GPGSV,3,3,10,03,17,281,,06,32,280,31,,,,,,,,*79
$GPGSA,M,3,05,29,30,21,06,,,,,,,,3.3,1.8,2.8*35
Trace #39 at position 9.500000
$GPZDA,123023.04,06,10,2011,00,00*66
$GPRMC,123023.00,A,4611.954095,N,01258.215151,E,000.6,36.0,061011,0.2,E,A*09
$GPGGA,123024.00,4611.954211,N,01258.215195,E,1,05,1.8,139.33,M,46.25,M,,*65
$GPGL1.1,K,A*22
$GPGSV,3,1,10,05,10,034,37,16,37,308,,31,23,218,29,18,22,145,35*79
$GPGSV,3,2,10,29,38,078,39,30,46,157,42,21,78,146,38,25,10,140,*7F
$GPGSV,3,3,10,03,17,281,,06,32,280,31,,,,,,,,*79
$GPGSA,M,3,05,29,30,21,06,,,,,,,,3.3,1.8,2.8*35
Trace #40 at position 9.750000
$GPZDA,123023.04,06,10,2011,00,00*66
$GPRMC,123023.00,A,4611.954095,N,01258.215151,E,000.6,36.0,061011,0.2,E,A*09
$GPGGA,123024.00,4611.954211,N,01258.215195,E,1,05,1.8,139.33,M,46.25,M,,*65
$GPGL1.1,K,A*22
$GPGSV,3,1,10,05,10,034,37,16,37,308,,31,23,218,29,18,22,145,35*79
$GPGSV,3,2,10,29,38,078,39,30,46,157,42,21,78,146,38,25,10,140,*7F
$GPGSV,3,3,10,03,17,281,,06,32,280,31,,,,,,,,*79
$GPGSA,M,3,05,29,30,21,06,,,,,,,,3.3,1.8,2.8*35
Trace #41 at position 10.000000
$GPZDA,123024.03,06,10,2011,00,00*66
$GPRMC,123024.00,A,4611.954211,N,01258.215195,E,000.6,43.3,061011,0.2,E,A*09
$GPGGA,123025.00,4611.954351,N,01258.215034,E,1,05,1.8,139.23,M,46.25,M,,*6A
$GPGLL,4611.954351,N,01258.215034,E,123025.00,A,A*6C
$GPVTG,316.7,T,315,29,30,21,06,,,,,,,,3.3,1.8,2.8*35
$GPZDA,123025.03,06,10,2011,00,00*67
$GPRMC,123025.00,A,4611.954351,N,01258.215034,E,000.9,316.7,061011,0.2,E,A*3F
$GPGGA,123026.00,4611.954524,N,01258.214987,E,1,04,3.0,139.22,M,46.25,M,,*67
$GPGLL,4611.954524,N,01258.214987,E,123026.00,A,A*6B
$GPVTG,353.6,T,353.7,M,000.8,N,001.4,K,A*2F
$GPGSV,3,1,10,05,10,034,38,16,37,308,,31,23,218,31,18,22,145,31*7B
$GPGSV,3,2,10,29,38,078,38,30,46,157,41,21,78,146,38,25,10,140,*7D
$GPGSV,3,3,10,03,17,281,,06,32,280,32,,,,,,,,.214987,E,000.8,353.6,061011,0.2,E,A*39
$GPGGA,123027.00,4611.954716,N,01258.214838,E,1,05,1.8,139.14,M,46.25,M,,*6E
$GPGLL,4611.954716,N,01258.214838,E,123027.00,A,A*6C
$GPVTG,349.2,T,349.3,M,000.7,N,001.4,K,A*20
$GPGSV,3,1,10,05,10,034,37,16,37,308,,31,23,218,33,18,22,145,*74
$GPGSV,3,2,10,29,38,078,40,30,46,157,41,21,78,146,37,25,10,140,*7D
$GPGSV,3,3,10,03,17,281,,06,32,280,31,,,,,,,,*79
$GPGSA,M,3,05,29,30,21,06,,,,,,,,3.3,1.8,2.8*35
Trace #42 at position 10.250000
$GPZDA,123027.03,06,10,2011,00,00*65
$GPRMC,123027.00,A,4611$GPGGA,123028.00,4611.954908,N,01258.214628,E,1,05,1.8,139.02,M,46.25,M,,*68
$GPGLL,4611.954908,N,01258.214628,E,123028.00,A,A*6D
$GPVTG,329.4,T,329.6,M,001.0,N,001.9,K,A*28
$GPGSV,3,1,10,05,10,034,38,16,37,308,,31,23,218,,18,22,145,34*7C
$GPGSV,3,2,10,29,38,078,38,30,46,157,41,21,78,146,37,25,10,140,*72
$GPGSV,3,3,10,03,17,281,,06,32,280,32,,,,,,,,*7A
$GPGSA,M,3,05,29,30,21,06,,,,,,,,3.3,1.8,2.8*35
Trace #43 at position 10.500000
$GPZDA,123027.03,06,10,2011,00,00*65
$GPRMC,123027.00,A,4611$GPGGA,123028.00,4611.954908,N,01258.214628,E,1,05,1.8,139.02,M,46.25,M,,*68
$GPGLL,4611.954908,N,01258.214628,E,123028.00,A,A*6D
$GPVTG,329.4,T,329.6,M,001.0,N,001.9,K,A*28
$GPGSV,3,1,10,05,10,034,38,16,37,308,,31,23,218,,18,22,145,34*7C
$GPGSV,3,2,10,29,38,078,38,30,46,157,41,21,78,146,37,25,10,140,*72
$GPGSV,3,3,10,03,17,281,,06,32,280,32,,,,,,,,*7A
$GPGSA,M,3,05,29,30,21,06,,,,,,,,3.3,1.8,2.8*35
Trace #44 at position 10.750000
$GPZDA,123028.03,06,10,2011,00,00*6A
$GPRMC,123028.00,A,4611.954908,N,01258.214628,E,001.0,329.4,0610$GPGGA,123029.00,4611.955015,N,01258.214471,E,1,05,1.8,138.97,M,46.25,M,,*6E
$GPGLL,4611.955015,N,01258.214471,E,123029.00,A,A*66
$GPVTG,29.9,T,30.0,M,000.1,N,000.2,K,A*21
$GPGSV,3,1,10,05,10,034,37,16,37,308,,31,23,218,32,18,22,145,33*75
$GPGSV,3,2,10,29,38,078,38,30,46,157,41,21,79,146,37,25,10,140,*73
$GPGSV,3,3,10,03,17,281,,06,32,280,32,,,,,,,,*7A
$GPGSA,M,3,05,29,30,21,06,,,,,,,,3.3,1.8,2.8*35
Trace #45 at position 11.000000
$GPZDA,123029.03,06,10,2011,00,00*6B
$GPRMC,123029.00,A,4611.955015,N,01258.214471,E,000.1,29.9,06101$GPGGA,123030.00,4611.955106,N,01258.214594,E,1,04,3.0,139.14,M,46.25,M,,*6E
$GPGLL,4611.955106,N,01258.214594,E,123030.00,A,A*67
$GPVTG,356.8,T,357.0,M,000.8,N,001.5,K,A*26
$GPGSV,3,1,10,05,10,034,37,16,37,308,,31,23,218,,18,22,145,34*73
$GPGSV,3,2,10,29,38,078,40,30,46,157,42,21,79,146,38,25,10,140,*70
$GPGSV,3,3,10,03,17,281,,06,32,280,31,,,,,,,,*79
$GPGSA,M,3,05,29,30,21,,,,,,,,,4.3,3.0,3.1*36
Trace #46 at position 11.250000
$GPZDA,123030.03,06,10,2011,00,00*63
$GPRMC,123030.00,A,4611.955106,N,01258.214594,E,000.8,356.8,061011$GPGGA,123031.00,4611.955246,N,01258.214439,E,1,05,1.8,138.99,M,46.25,M,,*61
$GPGLL,4611.955246,N,01258.214439,E,123031.00,A,A*67
$GPVTG,303.7,T,303.8,M,000.7,N,001.2,K,A*28
$GPGSV,3,1,10,05,10,034,36,16,37,308,,31,23,218,32,18,22,145,33*74
$GPGSV,3,2,10,29,38,078,39,30,46,157,42,21,79,146,38,25,10,140,*7E
$GPGSV,3,3,10,03,17,281,,06,32,280,31,,,,,,,,*79
$GPGSA,M,3,05,29,30,21,06,,,,,,,,3.3,1.8,2.8*35
Trace #47 at position 11.500000
$GPZDA,123031.03,06,10,2011,00,00*62
$GPRMC,123031.00,A,4611.955246,N,01258.214439,E,000.7,303.7,061258.214388,E,1,04,3.0,138.99,M,46.25,M,,*61
$GPGLL,4611.955353,N,01258.214388,E,123032.00,A,A*6C
$GPVTG,329.3,T,329.5,M,000.7,N,001.3,K,A*20
$GPGSV,3,1,10,05,10,034,36,16,37,308,,31,23,218,31,18,22,145,33*77
$GPGSV,3,2,10,29,38,078,38,30,46,157,41,21,79,146,38,25,10,140,*7C
$GPGSV,3,3,10,03,17,281,,06,32,280,29,,,,,,,,*70
$GPGSA,M,3,05,29,30,21,,,,,,,,,4.3,3.0,3.1*36
Trace #48 at position 11.750000
$GPZDA,123032.03,06,10,2011,00,00*61
$GPRMC,123032.00,A,4611.955353,N,01258.214388,E,000.7,329.3,061011,0.2,E,A*39
$GPGGA,123033.00,GLL,4611.955483,N,01258.214451,E,123033.00,A,A*64
$GPVTG,12.9,T,13.1,M,000.5,N,001.0,K,A*2E
$GPGSV,3,1,10,05,10,034,36,16,37,308,,31,23,218,30,18,22,145,33*76
$GPGSV,3,2,10,29,38,078,38,30,46,157,42,21,79,146,38,25,10,140,*7F
$GPGSV,3,3,10,03,17,281,,06,32,280,31,,,,,,,,*79
$GPGSA,M,3,05,29,30,21,,,,,,,,,4.3,3.0,3.1*36
Trace #49 at position 12.000000
$GPZDA,123033.04,06,10,2011,00,00*67
$GPRMC,123033.00,A,4611.955483,N,01258.214451,E,000.5,12.9,061011,0.2,E,A*02
$GPGGA,123034.00,4611.955600,N,01258.214516,E,1,04,3.0,139.21,M,46.25SV,3,1,10,05,10,034,38,16,37,308,,31,23,218,33,18,22,145,32*7A
$GPGSV,3,2,10,29,38,078,39,30,46,157,42,21,79,146,38,25,10,140,*7E
$GPGSV,3,3,10,03,17,281,,06,32,280,31,,,,,,,,*79
$GPGSA,M,3,05,29,30,21,,,,,,,,,4.3,3.0,3.1*36
Trace #50 at position 12.250000
$GPZDA,123034.03,06,10,2011,00,00*67
$GPRMC,123034.00,A,4611.955600,N,01258.214516,E,000.6,333.7,061011,0.2,E,A*33
$GPGGA,123035.00,4611.955695,N,01258.214556,E,1,04,3.0,139.40,M,46.25,M,,*69
$GPGLL,4611.955695,N,01258.214556,E,123035.00,A,A*61
$GPVTG,7.4,T,7.5,M,000.3,N,000.6,K$GPZDA,123035.03,06,10,2011,00,00*66
$GPRMC,123035.00,A,4611.955695,N,01258.214556,E,000.3,7.4,061011,0.2,E,A*38
$GPGGA,123036.00,4611.955761,N,01258.214602,E,1,04,3.0,139.61,M,46.25,M,,*61
$GPGLL,4611.955761,N,01258.214602,E,123036.00,A,A*6A
$GPVTG,330.8,T,331.0,M,000.3,N,000.5,K,A*2C
$GPGSV,3,1,10,05,10,034,34,16,37,308,,31,23,218,32,18,22,145,31*74
$GPGSV,3,2,10,29,38,078,37,30,46,157,42,21,79,146,37,25,09,140,*77
$GPGSV,3,3,10,03,17,281,,06,32,280,32,,,,,,,,*7A
$GPGSA,M,3,05,29,30,21,,,,,,,,,4.31,N,01258.214602,E,000.3,330.8,061011,0.2,E,A*38
Trace #51 at position 12.500000
$GPZDA,123037.03,06,10,2011,00,00*64
$GPRMC,123037.$GPGGA,123038.00,4611.956022,N,01258.214241,E,1,04,3.0,139.78,M,46.25,M,,*67
$GPGLL,4611.956022,N,01258.214241,E,123038.00,A,A*64
$GPVTG,328.7,T,328.9,M,000.5,N,001.0,K,A*29
$GPGSV,3,1,10,05,10,034,35,16,37,308,,31,23,218,30,18,22,145,35*73
$GPGSV,3,2,10,29,38,078,38,30,46,157,42,21,79,146,38,25,09,140,*77
$GPGSV,3,3,10,03,17,281,,06,32,280,31,,,,,,,,*79
$GPGSA,M,3,05,29,30,21,,,,,,,,,4.3,3.0,3.1*36
Trace #52 at position 12.750000
$GPZDA,123038.03,06,10,2011,00,00*6B
$GPRMC,123038.00,A,4611.956022,N,01258.214241,E,000.5,328.7,0610$GPGGA,123039.00,4611.956178,N,01258.214207,E,1,04,3.0,139.90,M,46.25,M,,*6C
$GPGLL,4611.956178,N,01258.214207,E,123039.00,A,A*69
$GPVTG,338.0,T,338.1,M,000.8,N,001.5,K,A*2E
$GPGSV,3,1,10,05,10,034,34,16,37,308,,31,23,218,33,18,22,145,35*71
$GPGSV,3,2,10,29,38,078,38,30,46,157,41,21,79,146,38,25,09,140,*74
$GPGSV,3,3,10,03,17,281,,06,32,280,29,,,,,,,,*70
$GPGSA,M,3,05,29,30,21,,,,,,,,,4.3,3.0,3.1*36
Trace #53 at position 13.000000
$GPZDA,123039.03,06,10,2011,00,00*6A
$GPRMC,123039.00,A,4611.956178,N,01258.214207,E,000.8,338.0,0610$GPGGA,123040.00,4611.956287,N,01258.214011,E,1,05,2.2,139.71,M,46.25,M,,*69
$GPGLL,4611.956287,N,01258.214011,E,123040.00,A,A*61
$GPVTG,5.2,T,5.4,M,000.3,N,000.5,K,A*23
$GPGSV,3,1,10,05,10,034,36,16,37,308,,31,23,218,31,18,22,145,34*70
$GPGSV,3,2,10,29,38,078,38,30,46,157,41,21,79,146,38,25,09,140,*74
$GPGSV,3,3,10,03,17,281,,06,32,280,27,,,,,,,,*7E
$GPGSA,M,3,05,31,29,30,21,,,,,,,,3.0,2.2,2.1*32
Trace #54 at position 13.250000
$GPZDA,123040.03,06,10,2011,00,00*64
$GPRMC,123040.00,A,4611.956287,N,01258.214011,E,000.3,5.2,061011,0$GPGGA,123041.00,4611.956332,N,01258.213879,E,1,05,2.2,139.41,M,46.25,M,,*65
$GPGLL,4611.956332,N,01258.213879,E,123041.00,A,A*6E
$GPVTG,358.1,T,358.3,M,000.2,N,000.4,K,A*27
$GPGSV,3,1,10,05,10,034,36,16,37,308,,31,23,218,30,18,22,145,35*70
$GPGSV,3,2,10,29,38,078,39,30,46,157,41,21,79,146,37,25,09,140,*7A
$GPGSV,3,3,10,03,17,281,,06,32,280,29,,,,,,,,*70
$GPGSA,M,3,05,31,29,30,21,,,,,,,,3.0,2.2,2.1*32
Trace #55 at position 13.500000
$GPZDA,123041.03,06,10,2011,00,00*65
$GPRMC,123041.00,A,4611.956332,N,01258.213879,E,000.2,358.1,06$GPGGA,123042.00,4611.956355,N,01258.213744,E,1,05,2.2,139.16,M,46.25,M,,*64
$GPGLL,4611.956355,N,01258.213744,E,123042.00,A,A*6D
$GPVTG,353.1,T,353.3,M,000.1,N,000.2,K,A*22
$GPGSV,3,1,10,05,10,034,37,16,37,308,,31,23,218,31,18,22,145,36*73
$GPGSV,3,2,10,29,38,078,38,30,46,157,42,21,79,146,37,25,09,140,*78
$GPGSV,3,3,10,03,17,281,,06,32,280,32,,,,,,,,*7A
$GPGSA,M,3,05,31,29,30,21,,,,,,,,3.0,2.2,2.1*32
Trace #56 at position 13.750000
$GPZDA,123042.03,06,10,2011,00,00*66
$GPRMC,123042.00,A,4611.956355,N,01258.213744,E,000.1,353.1,06$GPGGA,123043.00,4611.956404,N,01258.213660,E,1,05,2.1,138.96,M,46.25,M,,*6B
$GPGLL,4611.956404,N,01258.213660,E,123043.00,A,A*68
$GPVTG,30.9,T,31.0,M,000.4,N,000.8,K,A*27
$GPGSV,3,1,10,05,10,034,37,16,37,308,,31,23,218,31,18,22,145,38*7D
$GPGSV,3,2,10,29,38,078,40,30,46,157,42,21,79,146,39,25,09,140,*79
$GPGSV,3,3,10,03,17,281,,06,32,281,32,,,,,,,,*7B
$GPGSA,M,3,05,31,29,30,21,,,,,,,,3.0,2.1,2.1*31
Trace #57 at position 14.000000
$GPZDA,123043.03,06,10,2011,00,00*67
$GPRMC,123043.00,A,4611.956404,N,01258.213660,E,000.4,30.9,06101,4611.956503,N,01258.213474,E,1,05,2.1,138.75,M,46.25,M,,*60
$GPGLL,4611.956503,N,01258.213474,E,123044.00,A,A*6E
$GPVTG,313.7,T,313.9,M,000.7,N,001.3,K,A*28
$GPGSV,3,1,10,05,10,034,38,16,37,308,,31,23,218,32,18,22,145,37*7E
$GPGSV,3,2,10,29,38,078,39,30,46,157,41,21,79,146,37,25,09,140,*7A
$GPGSV,3,3,10,03,17,281,,06,32,281,29,,,,,,,,*71
$GPGSA,M,3,05,31,29,30,21,,,,,,,,3.0,2.1,2.1*31
Trace #58 at position 14.250000
$GPZDA,123044.03,06,10,2011,00,00*60
$GPRMC,123044.00,A,4611.956503,N,01258.213474,E,000.7,313.7,061011,0.2,E,A*36,N,01258.213391,E,123045.00,A,A*62
$GPVTG,60.1,T,60.3,M,000.6,N,001.2,K,A*24
$GPGSV,3,1,10,05,10,034,38,16,37,308,,31,23,218,,18,22,145,38*70
$GPGSV,3,2,10,29,37,078,39,30,46,157,42,21,79,146,37,25,09,140,*76
$GPGSV,3,3,10,03,17,281,,06,32,281,32,,,,,,,,*7B
$GPGSA,M,3,05,31,29,30,21,,,,,,,,3.0,2.1,2.1*31
Trace #59 at position 14.500000
$GPZDA,123045.03,06,10,2011,00,00*61
$GPRMC,123045.00,A,4611.956601,N,01258.213391,E,000.6,60.1,061011,0.2,E,A*0A
$GPGGA,123046.00,4611.956756,N,01258.213665,E,1,04,3.0,139.33,M,46.25,M,,*60
$GPGLLGPGSV,3,2,10,29,37,078,39,30,46,157,42,21,79,146,37,25,09,140,*76
$GPGSV,3,3,10,03,17,281,,06,32,281,30,,,,,,,,*79
$GPGSA,M,3,05,29,30,21,,,,,,,,,4.3,3.0,3.1*36
Trace #60 at position 14.750000
$GPZDA,123045.03,06,10,2011,00,00*61
$GPRMC,123045.00,A,4611.956601,N,01258.213391,E,000.6,60.1,061011,0.2,E,A*0A
$GPGGA,123046.00,4611.956756,N,01258.213665,E,1,04,3.0,139.33,M,46.25,M,,*60
$GPGLLGPGSV,3,2,10,29,37,078,39,30,46,157,42,21,79,146,37,25,09,140,*76
$GPGSV,3,3,10,03,17,281,,06,32,281,30,,,,,,,,*79
$GPGSA,M,3,05,29,30,21,,,,,,,,,4.3,3.0,3.1*36
Trace #61 at position 15.000000
$GPZDA,123046.03,06,10,2011,00,00*62
$GPRMC,123046.00,A,4611.956756,N,01258.213665,E,000.7,17.0,061011,0.2,E,A*04
$GPGGA,123047.00,4611.956967,N,01258.213670,E,1,05,2.1,139.33,M,46.25,M,,*68
$GPGLL,4611.956967,N,01258.213670,E,123047.00,A,A*65
$GPVTG,18.6,T,18.7,M,001.1,N,002.1,K,A*21
$GPGSV,3,1,10,05,10,034,37,16,37,308,,31,23,218,31,18,22,
$GPZDA,123047.03,06,10,2011,00,00*63
$GPRMC,123047.00,A,4611.956967,N,01258.213670,E,001.1,18.6,061011,0.2,E,A*03
$GPGGA,123048.00,4611.957147,N,01258.213494,E,1,05,2.1,139.10,M,46.25,M,,*65
$GPGLL,4611.957147,N,01258.213494,E,123048.00,A,A*69
$GPVTG,304.3,T,304.4,M,000.8,N,001.6,K,A*2B
$GPGSV,3,1,10,05,10,034,37,16,37,308,,31,23,218,32,18,22,145,37*71
$GPGSV,3,2,10,29,37,078,38,30,46,157,43,21,79,146,37,25,09,140,*76
$GPGSV,3,3,10,03,17,281,,06,32,281,32,,,,,,,,*7B
$GPGSA,M,3,05,31,29,30,21,,,,,,23048.00,A,4611.957147,N,01258.213494,E,000.8,304.3,061011,0.2,E,A*3C
Trace #62 at position 15.250000
$GPGGA,123049.00,4611.957194,N,01258.213142,E,1,05,2.1,138.64,M,46.25,M,,*66
$GPGLL,4611.957194,N,01258.213142,E,123049.00,A,A*68
$GPVTG,279.2,T,279.3,M,000.6,N,001.1,K,A*24
$GPGSV,3,1,10,05,10,034,36,16,37,308,,31,23,218,,18,22,145,38*7E
$GPGSV,3,2,10,29,37,078,38,30,46,157,42,21,79,146,37,25,09,140,*77
$GPGSV,3,3,10,03,17,281,,06,32,281,33,,,,,,,,*7A
$GPGSA,M,3,05,31,29,30,21,,,,,,,,3.0,2.1,2.1*31
Trace #63 at position 15.500000
$GPZDA,123049.03,06,10,2011,00,$GPGGA,123050.00,4611.957274,N,01258.213201,E,1,04,3.0,138.73,M,46.25,M,,*60
$GPGLL,4611.957274,N,01258.213201,E,123050.00,A,A*69
$GPVTG,13.5,T,13.7,M,000.4,N,000.8,K,A*2D
$GPGSV,3,1,10,05,10,034,37,16,37,308,,31,23,218,33,18,22,145,38*7F
$GPGSV,3,2,10,29,37,078,38,30,46,157,43,21,79,146,36,25,09,140,*77
$GPGSV,3,3,10,03,17,281,,06,32,281,32,,,,,,,,*7B
$GPGSA,M,3,05,29,30,21,,,,,,,,,4.3,3.0,3.1*36
Trace #64 at position 15.750000
$GPZDA,123050.03,06,10,2011,00,00*65
$GPRMC,123050.00,A,4611.957274,N,01258.213201,E,000.4,13.5,061011,$GPGGA,123051.00,4611.957440,N,01258.213369,E,1,04,3.0,138.91,M,46.25,M,,*63
$GPGLL,4611.957440,N,01258.213369,E,123051.00,A,A*66
$GPVTG,6.2,T,6.4,M,000.8,N,001.4,K,A*28
$GPGSV,3,1,10,05,10,034,37,16,37,308,,31,23,218,33,18,22,145,38*7F
$GPGSV,3,2,10,29,37,078,39,30,46,157,42,21,79,145,37,25,09,140,*75
$GPGSV,3,3,10,03,17,281,,06,32,281,30,,,,,,,,*79
$GPGSA,M,3,05,29,30,21,,,,,,,,,4.3,3.0,3.0*37
Trace #65 at position 16.000000
$GPZDA,123051.03,06,10,2011,00,00*64
$GPRMC,123051.00,A,4611.957440,N,01258.213369,E,000.8,6.2,061011,0.2$GPGGA,123052.00,4611.957619,N,01258.213545,E,1,04,3.0,139.12,M,46.25,M,,*6C
$GPGLL,4611.957619,N,01258.213545,E,123052.00,A,A*63
$GPVTG,25.7,T,25.8,M,000.6,N,001.2,K,A*29
$GPGSV,3,1,10,05,10,034,38,16,37,308,,31,23,218,,18,22,145,38*70
$GPGSV,3,2,10,29,37,078,39,30,46,157,41,21,79,145,38,25,09,140,*79
$GPGSV,3,3,10,03,17,281,,06,32,281,32,,,,,,,,*7B
$GPGSA,M,3,05,29,30,21,,,,,,,,,4.3,3.0,3.0*37
Trace #66 at position 16.250000
$GPZDA,123052.03,06,10,2011,00,00*67
$GPRMC,123052.00,A,4611.957619,N,01258.213545,E,000.6,25.7,061011,0.$GPGGA,123053.00,4611.957737,N,01258.213673,E,1,04,3.0,139.38,M,46.25,M,,*6E
$GPGLL,4611.957737,N,01258.213673,E,123053.00,A,A*69
$GPVTG,352.5,T,352.7,M,000.4,N,000.7,K,A*22
$GPGSV,3,1,10,05,10,034,38,16,37,308,,31,23,218,31,18,22,145,37*7D
$GPGSV,3,2,10,29,37,078,39,30,46,157,40,21,79,145,38,25,09,140,*78
$GPGSV,3,3,10,03,17,281,,06,32,281,,,,,,,,,*7A
$GPGSA,M,3,05,29,30,21,,,,,,,,,4.3,3.0,3.0*37
Trace #67 at position 16.500000
$GPZDA,123053.04,06,10,2011,00,00*61
$GPRMC,123053.00,A,4611.957737,N,01258.213673,E,000.4,352.5,061011$GPGGA,123054.00,4611.957868,N,01258.213461,E,1,05,2.1,139.25,M,46.25,M,,*60
$GPGLL,4611.957868,N,01258.213461,E,123054.00,A,A*6A
$GPVTG,342.8,T,343.0,M,000.9,N,001.7,K,A*25
$GPGSV,3,1,10,05,10,034,38,16,37,308,,31,23,218,33,18,22,145,38*70
$GPGSV,3,2,10,29,37,078,39,30,46,157,42,21,79,145,39,25,09,140,*7B
$GPGSV,3,3,10,03,17,281,,06,32,281,29,,,,,,,,*71
$GPGSA,M,3,05,31,29,30,21,,,,,,,,3.0,2.1,2.1*31
Trace #68 at position 16.750000
$GPZDA,123054.03,06,10,2011,00,00*61
$GPRMC,123054.00,A,4611.957868,N,01258.213461,E,000.9,342.8,06$GPGGA,123055.00,4611.958024,N,01258.213541,E,1,04,3.0,139.45,M,46.25,M,,*6A
$GPGLL,4611.958024,N,01258.213541,E,123055.00,A,A*67
$GPVTG,29.2,T,29.4,M,000.4,N,000.7,K,A*26
$GPGSV,3,1,10,05,10,034,38,16,37,308,,31,23,218,30,18,22,145,38*73
$GPGSV,3,2,10,29,37,078,39,30,46,157,42,21,79,145,38,25,09,140,*7A
$GPGSV,3,3,10,03,17,281,,06,32,281,27,,,,,,,,*7F
$GPGSA,M,3,05,29,30,21,,,,,,,,,4.3,3.0,3.0*37
Trace #69 at position 17.000000
$GPZDA,123054.03,06,10,2011,00,00*61
$GPRMC,123054.00,A,4611.957868,N,01258.213461,E,000.9,342.8,06$GPGGA,123055.00,4611.958024,N,01258.213541,E,1,04,3.0,139.45,M,46.25,M,,*6A
$GPGLL,4611.958024,N,01258.213541,E,123055.00,A,A*67
$GPVTG,29.2,T,29.4,M,000.4,N,000.7,K,A*26
$GPGSV,3,1,10,05,10,034,38,16,37,308,,31,23,218,30,18,22,145,38*73
$GPGSV,3,2,10,29,37,078,39,30,46,157,42,21,79,145,38,25,09,140,*7A
$GPGSV,3,3,10,03,17,281,,06,32,281,27,,,,,,,,*7F
$GPGSA,M,3,05,29,30,21,,,,,,,,,4.3,3.0,3.0*37
Trace #70 at position 17.250000
$GPZDA,123055.03,06,10,2011,00,00*60
$GPRMC,123055.00,A,4611.958024,N,01258.213541,E,000.4,29.2,061011,$GPGGA,123056.00,4611.958164,N,01258.213630,E,1,04,3.0,139.49,M,46.25,M,,*65
$GPGLL,4611.958164,N,01258.213630,E,123056.00,A,A*64
$GPVTG,352.9,T,353.1,M,000.7,N,001.3,K,A*2F
$GPGSV,3,1,10,05,10,034,37,16,37,308,,31,23,218,32,18,22,145,37*71
$GPGSV,3,2,10,29,37,078,39,30,46,157,42,21,79,145,37,25,09,140,*75
$GPGSV,3,3,10,03,17,281,,06,32,281,30,,,,,,,,*79
$GPGSA,M,3,05,29,30,21,,,,,,,,,4.3,3.0,3.0*37
Trace #71 at position 17.500000
$GPZDA,123056.03,06,10,2011,00,00*63
$GPRMC,123056.00,A,4611.958164,N,01258.213630,E,000.7,352.9,061046.25,M,,*64
$GPGLL,4611.958234,N,01258.213678,E,123057.00,A,A*6F
$GPVTG,158.3,T,158.4,M,000.2,N,000.4,K,A*22
$GPGSV,3,1,10,05,10,034,37,16,37,308,,31,23,218,33,18,22,145,38*7F
$GPGSV,3,2,10,29,37,078,39,30,46,157,42,21,79,145,38,25,09,140,*7A
$GPGSV,3,3,10,03,17,281,,06,32,281,32,,,,,,,,*7B
$GPGSA,M,3,05,29,30,21,,,,,,,,,4.3,3.0,3.0*37
Trace #72 at position 17.750000
$GPZDA,123058.04,06,10,2011,00,00*6A
$GPRMC,123058.00,A,4611.958332,N,01258.213584,E,001.2,21.7,061011,0.2,E,A*09
$GPGGA,123059.00,4611.958529,N,01258.213463,E,1,06,1.2,138.96,M,46.25,M,,*62
$GPGLL,4611.958529,N,01258.213463,E,123059.00,A,A*62
$GPVTG,336.9,T,337.0,M,000.8,N,001.5,K,A*27
$G,,,*7A
$GPGSA,M,3,05,31,29,30,21,06,,,,,,,2.2,1.2,1.9*3F
Trace #73 at position 18.000000
$GPZDA,123058.04,06,10,2011,00,00*6A
$GPRMC,123058.00,A,4611.958332,N,01258.213584,E,001.2,21.7,061011,0.2,E,A*09
$GPGGA,123059.00,4611.958529,N,01258.213463,E,1,06,1.2,138.96,M,46.25,M,,*62
$GPGLL,4611.958529,N,01258.213463,E,123059.00,A,A*62
$GPVTG,336.9,T,337.0,M,000.8,N,001.5,K,A*27
$G,,,*7A
$GPGSA,M,3,05,31,29,30,21,06,,,,,,,2.2,1.2,1.9*3F
Trace #74 at position 18.250000
$GPZDA,123059.04,06,10,2011,00,00*6B
$GPRMC,123059.00,A,4611.958529,N,01258.213463,E,000.8,336.9,061011,0.2,E,A*3C
$GPGGA,123100.00,4611.958729,N,01258.213171,E,1,05,1.7,138.96,M,46.25,M,,*6D
$GPGLL,4611.958729,N,01258.213171,E,123100.00,A,A*6B
$GPVTG,315.2,T,315.4,M,001.0,N,001.8,K,A*2D
$GPGSV,3,1,10,05,10,034,37,16,37,308,,31,23,218,,18,22,145,37*70
$GPGSV,3,2,10,29,37,078,39,30,46,157,42,21,79,145,36,25,09,140,*74
$GPGSV,3,3,10,03,17,281,,001.0,315.2,061011,0.2,E,A*36
$GPGGA,123101.00,4611.958820,N,01258.212876,E,1,06,1.2,138.79,M,46.25,M,,*62
$GPGLL,4611.958820,N,01258.212876,E,123101.00,A,A*63
$GPVTG,326.9,T,327.1,M,000.7,N,001.2,K,A*2E
$GPGSV,3,1,10,05,10,034,37,16,37,308,,31,23,218,32,18,22,145,38*7E
$GPGSV,3,2,10,29,37,078,39,30,46,157,42,21,79,145,38,25,09,140,*7A
$GPGSV,3,3,10,03,17,281,,06,32,281,32,,,,,,,,*7B
$GPGSA,M,3,05,31,29,30,21,06,,,,,,,2.2,1.2,1.9*3F
Trace #75 at position 18.500000
$GPZDA,123101.04,06,10,2011,00,00*67
$GPRMC,123101.00,A,4611.95882$GPGGA,123102.00,4611.958868,N,01258.212752,E,1,06,1.2,138.66,M,46.25,M,,*6A
$GPGLL,4611.958868,N,01258.212752,E,123102.00,A,A*65
$GPVTG,17.6,T,17.8,M,000.4,N,000.8,K,A*21
$GPGSV,3,1,10,05,10,034,38,16,37,308,,31,23,218,34,18,22,145,39*76
$GPGSV,3,2,10,29,37,078,38,30,46,157,42,21,79,145,37,25,09,140,*74
$GPGSV,3,3,10,03,17,281,,06,32,281,31,,,,,,,,*78
$GPGSA,M,3,05,31,29,30,21,06,,,,,,,2.2,1.2,1.9*3F
Trace #76 at position 18.750000
$GPZDA,123102.04,06,10,2011,00,00*64
$GPRMC,123102.00,A,4611.958868,N,01258.212752,E,000.4,17.6,061$GPGGA,123103.00,4611.958884,N,01258.212662,E,1,06,1.2,138.56,M,46.25,M,,*68
$GPGLL,4611.958884,N,01258.212662,E,123103.00,A,A*64
$GPVTG,310.5,T,310.7,M,000.2,N,000.4,K,A*27
$GPGSV,3,1,10,05,10,034,37,16,37,308,,31,23,218,32,18,22,145,37*71
$GPGSV,3,2,10,29,37,078,38,30,46,157,42,21,79,145,37,25,09,140,*74
$GPGSV,3,3,10,03,17,281,,06,32,281,30,,,,,,,,*79
$GPGSA,M,3,05,31,29,30,21,06,,,,,,,2.2,1.2,1.9*3F
Trace #77 at position 19.000000
$GPZDA,123103.04,06,10,2011,00,00*65
$GPRMC,123103.00,A,4611.958884,N,01258.212662,E,000.2,310.5,$GPGGA,123104.00,4611.958960,N,01258.212601,E,1,06,1.2,138.44,M,46.25,M,,*62
$GPGLL,4611.958960,N,01258.212601,E,123104.00,A,A*6D
$GPVTG,20.0,T,20.2,M,000.8,N,001.5,K,A*2D
$GPGSV,3,1,10,05,10,034,38,16,37,308,,31,23,218,31,18,22,145,37*7D
$GPGSV,3,2,10,29,37,078,38,30,46,157,42,21,79,145,37,25,09,140,*74
$GPGSV,3,3,10,03,17,281,,06,32,281,31,,,,,,,,*78
$GPGSA,M,3,05,31,29,30,21,06,,,,,,,2.2,1.2,1.9*3F
Trace #78 at position 19.250000
$GPZDA,123104.03,06,10,2011,00,00*65
$GPRMC,123104.00,A,4611.958960,N,01258.212601,E,000.8,20.0,061$GPGGA,123105.00,4611.959009,N,01258.212639,E,1,06,1.2,138.24,M,46.25,M,,*69
$GPGLL,4611.959009,N,01258.212639,E,123105.00,A,A*60
$GPVTG,99.7,T,99.9,M,000.4,N,000.7,K,A*2E
$GPGSV,3,1,10,05,10,034,38,16,37,308,,31,23,218,32,18,22,145,37*7E
$GPGSV,3,2,10,29,37,078,38,30,46,157,41,21,79,145,37,25,09,140,*77
$GPGSV,3,3,10,03,17,281,,06,32,281,32,,,,,,,,*7B
$GPGSA,M,3,05,31,29,30,21,06,,,,,,,2.2,1.2,1.9*3F
Trace #79 at position 19.500000
$GPZDA,123105.04,06,10,2011,00,00*63
$GPRMC,123105.00,A,4611.959009,N,01258.212639,E,000.4,99.7,061$GPGGA,123106.00,4611.959147,N,01258.212807,E,1,04,3.0,138.49,M,46.25,M,,*6B
$GPGLL,4611.959147,N,01258.212807,E,123106.00,A,A*6B
$GPVTG,359.0,T,359.1,M,000.8,N,001.4,K,A*2F
$GPGSV,3,1,10,05,10,034,38,16,37,308,,31,23,218,29,18,22,145,36*75
$GPGSV,3,2,10,29,37,078,39,30,46,157,41,21,79,145,37,25,09,140,*76
$GPGSV,3,3,10,03,17,281,,06,32,281,32,,,,,,,,*7B
$GPGSA,M,3,05,29,30,21,,,,,,,,,4.3,3.0,3.0*37
Trace #80 at position 19.750000
$GPZDA,123106.03,06,10,2011,00,00*67
$GPRMC,123106.00,A,4611.959147,N,01258.212807,E,000.8,359.0,0610$GPGGA,123107.00,4611.959363,N,01258.212735,E,1,05,1.7,138.58,M,46.25,M,,*64
$GPGLL,4611.959363,N,01258.212735,E,123107.00,A,A*60
$GPVTG,4.5,T,4.6,M,000.5,N,000.9,K,A*2C
$GPGSV,3,1,10,05,10,034,37,16,37,308,,31,23,218,32,18,22,145,37*71
$GPGSV,3,2,10,29,37,078,38,30,46,157,43,21,79,145,37,25,09,141,*74
$GPGSV,3,3,10,03,17,281,,06,32,281,31,,,,,,,,*78
$GPGSA,M,3,05,29,30,21,06,,,,,,,,3.3,1.7,2.8*3A
Trace #81 at position 20.000000
$GPZDA,123107.03,06,10,2011,00,00*66
$GPRMC,123107.00,A,4611.959363,N,01258.212735,E,000.5,4.5,061011,046.25,M,,*64
$GPGLL,4611.959530,N,01258.212727,E,123108.00,A,A*6C
$GPVTG,38.3,T,38.4,M,000.6,N,001.1,K,A*22
$GPGSV,3,1,10,05,10,034,37,16,37,308,,31,23,218,33,18,22,145,35*72
$GPGSV,3,2,10,29,37,078,38,30,46,157,43,21,79,145,37,25,09,141,*74
$GPGSV,3,3,10,03,17,281,,06,32,281,32,,,,,,,,*7B
$GPGSA,M,3,05,29,30,21,06,,,,,,,,3.3,1.7,2.8*3A
Trace #82 at position 20.250000
$GPZDA,123108.04,06,10,2011,00,00*6E
$GPRMC,123108.00,A,4611.959530,N,01258.212727,E,000.6,38.3,061011,0.2,E,A*0B
$GPGGA,123109.00,4611.959658,N,01258.212641,E,1,06GPGSV,3,1,10,05,10,034,37,16,37,308,,31,23,218,33,18,22,145,35*72
$GPGSV,3,2,10,29,37,078,38,30,46,157,42,21,79,145,37,25,09,141,*75
$GPGSV,3,3,10,03,17,281,,06,32,281,32,,,,,,,,*7B
$GPGSA,M,3,05,31,29,30,21,06,,,,,,,2.2,1.2,1.9*3F
Trace #83 at position 20.500000
$GPZDA,123108.04,06,10,2011,00,00*6E
$GPRMC,123108.00,A,4611.959530,N,01258.212727,E,000.6,38.3,061011,0.2,E,A*0B
$GPGGA,123109.00,4611.959658,N,01258.212641,E,1,06GPGSV,3,1,10,05,10,034,37,16,37,308,,31,23,218,33,18,22,145,35*72
$GPGSV,3,2,10,29,37,078,38,30,46,157,42,21,79,145,37,25,09,141,*75
$GPGSV,3,3,10,03,17,281,,06,32,281,32,,,,,,,,*7B
$GPGSA,M,3,05,31,29,30,21,06,,,,,,,2.2,1.2,1.9*3F
Trace #84 at position 20.750000
$GPZDA,123108.04,06,10,2011,00,00*6E
$GPRMC,123108.00,A,4611.959530,N,01258.212727,E,000.6,38.3,061011,0.2,E,A*0B
$GPGGA,123109.00,4611.959658,N,01258.212641,E,1,06GPGSV,3,1,10,05,10,034,37,16,37,308,,31,23,218,33,18,22,145,35*72
$GPGSV,3,2,10,29,37,078,38,30,46,157,42,21,79,145,37,25,09,141,*75
$GPGSV,3,3,10,03,17,281,,06,32,281,32,,,,,,,,*7B
$GPGSA,M,3,05,31,29,30,21,06,,,,,,,2.2,1.2,1.9*3F
Trace #85 at position 21.000000
$GPZDA,123109.04,06,10,2011,00,00*6F
$GPRMC,123109.00,A,4611.959658,N,01258.212641,E,000.9,351.1,061011,0.2,E,A*37
$GPGGA,123110.00,4611.959853,N,01258.212349,E,1,05,2.1,138.38,M,46.25,M,,*66
$GPGLL,4611.959853,N,01258.212349,E,123110.00,A,A*61
$GPVTG,327.4,T,327.5,M,000.SA,M,3,05,31,29,30,21,,,,,,,,3.0,2.1,2.1*31
$GPZDA,123110.03,06,10,2011,00,00*60
$GPRMC,123110.00,A,4611.959853,N,01258.212349,E,000.9,327.4,061011,0.2,E,A*33
$GPGGA,123111.00,4611.960036,N,01258.212370,E,1,04,3.0,138.63,M,46.25,M,,*63
$GPGLL,4611.960036,N,01258.212370,E,123111.00,A,A*6B
$GPVTG,352.2,T,352.3,M,000.6,N,001.1,K,A*24
$GPGSV,3,1,10,05,10,034,37,16,37,308,,31,23,218,29,18,22,145,36*7A
$GPGSV,3,2,10,29,37,079,38,30,46,157,43,21,79,145,37,25,09,141,*75
$GPGSV,3,3,10,03,17,281,,06,32,281,29$GPGGA,123112.00,4611.960137,N,01258.212400,E,1,04,3.0,138.86,M,46.25,M,,*6B
$GPGLL,4611.960137,N,01258.212400,E,123112.00,A,A*68
$GPVTG,294.4,T,294.6,M,000.4,N,000.7,K,A*22
$GPGSV,3,1,10,05,10,034,37,16,37,308,,31,23,218,30,18,22,145,35*71
$GPGSV,3,2,10,29,37,079,38,30,46,157,43,21,79,145,37,25,09,141,*75
$GPGSV,3,3,10,03,17,281,,06,32,281,32,,,,,,,,*7B
$GPGSA,M,3,05,29,30,21,,,,,,,,,4.3,3.0,3.0*37
Trace #86 at position 21.250000
$GPZDA,123112.03,06,10,2011,00,00*62
$GPRMC,123112.00,A,4611.960137,N,01258.212400,E,000.4,294.4,0610$GPGGA,123113.00,4611.960264,N,01258.212427,E,1,04,3.0,139.13,M,46.25,M,,*67
$GPGLL,4611.960264,N,01258.212427,E,123113.00,A,A*69
$GPVTG,356.5,T,356.7,M,000.8,N,001.4,K,A*2C
$GPGSV,3,1,10,05,10,034,37,16,37,308,,31,23,218,32,18,23,145,36*71
$GPGSV,3,2,10,29,37,079,38,30,46,157,42,21,79,145,38,25,09,141,*7B
$GPGSV,3,3,10,03,17,281,,06,32,281,30,,,,,,,,*79
$GPGSA,M,3,05,29,30,21,,,,,,,,,4.3,3.0,3.0*37
Trace #87 at position 21.500000
$GPZDA,123113.03,06,10,2011,00,00*63
$GPRMC,123113.00,A,4611.960264,N,01258.212427,E,000.8,356.5,0610$GPGGA,123114.00,4611.960374,N,01258.212447,E,1,04,3.0,139.42,M,46.25,M,,*62
$GPGLL,4611.960374,N,01258.212447,E,123114.00,A,A*68
$GPVTG,274.7,T,274.8,M,000.3,N,000.6,K,A*29
$GPGSV,3,1,10,05,10,034,38,16,37,308,,31,23,218,31,18,23,145,37*7C
$GPGSV,3,2,10,29,37,079,38,30,46,157,41,21,79,145,37,25,09,141,*77
$GPGSV,3,3,10,03,17,281,,06,32,281,31,,,,,,,,*78
$GPGSA,M,3,05,29,30,21,,,,,,,,,4.3,3.0,3.0*37
Trace #88 at position 21.750000
$GPZDA,123113.03,06,10,2011,00,00*63
$GPRMC,123113.00,A,4611.960264,N,01258.212427,E,000.8,356.5,0610$GPGGA,123114.00,4611.960374,N,01258.212447,E,1,04,3.0,139.42,M,46.25,M,,*62
$GPGLL,4611.960374,N,01258.212447,E,123114.00,A,A*68
$GPVTG,274.7,T,274.8,M,000.3,N,000.6,K,A*29
$GPGSV,3,1,10,05,10,034,38,16,37,308,,31,23,218,31,18,23,145,37*7C
$GPGSV,3,2,10,29,37,079,38,30,46,157,41,21,79,145,37,25,09,141,*77
$GPGSV,3,3,10,03,17,281,,06,32,281,31,,,,,,,,*78
$GPGSA,M,3,05,29,30,21,,,,,,,,,4.3,3.0,3.0*37
Trace #89 at position 22.000000
$GPZDA,123114.03,06,10,2011,00,00*64
$GPRMC,123114.00,A,4611.960374,N,01258.212447,E,000.3,274.7,0610$GPGGA,123115.00,4611.960501,N,01258.212399,E,1,04,3.0,139.68,M,46.25,M,,*6B
$GPGLL,4611.960501,N,01258.212399,E,123115.00,A,A*69
$GPVTG,335.0,T,335.1,M,001.0,N,001.8,K,A*2A
$GPGSV,3,1,10,05,10,034,39,16,37,308,,31,22,218,32,18,23,145,36*7E
$GPGSV,3,2,10,29,37,079,39,30,45,157,41,21,79,145,37,25,09,141,*75
$GPGSV,3,3,10,03,17,281,,06,32,281,29,,,,,,,,*71
$GPGSA,M,3,05,29,30,21,,,,,,,,,4.3,3.0,3.0*37
Trace #90 at position 22.250000
$GPZDA,123115.03,06,10,2011,00,00*65
$GPRMC,123115.00,A,4611.960501,N,01258.212399,E,001.0,335.0,0610$GPGGA,123116.00,4611.960657,N,01258.212390,E,1,04,3.0,139.89,M,46.25,M,,*6E
$GPGLL,4611.960657,N,01258.212390,E,123116.00,A,A*63
$GPVTG,338.3,T,338.5,M,000.3,N,000.5,K,A*23
$GPGSV,3,1,10,05,10,034,38,16,37,308,,31,22,218,30,18,23,145,36*7D
$GPGSV,3,2,10,29,37,079,39,30,45,157,41,21,79,145,37,25,09,141,*75
$GPGSV,3,3,10,03,17,281,,06,32,281,,,,,,,,,*7A
$GPGSA,M,3,05,29,30,21,,,,,,,,,4.3,3.0,3.0*37
Trace #91 at position 22.500000
$GPZDA,123115.03,06,10,2011,00,00*65
$GPRMC,123115.00,A,4611.960501,N,01258.212399,E,001.0,335.0,0610$GPGGA,123116.00,4611.960657,N,01258.212390,E,1,04,3.0,139.89,M,46.25,M,,*6E
$GPGLL,4611.960657,N,01258.212390,E,123116.00,A,A*63
$GPVTG,338.3,T,338.5,M,000.3,N,000.5,K,A*23
$GPGSV,3,1,10,05,10,034,38,16,37,308,,31,22,218,30,18,23,145,36*7D
$GPGSV,3,2,10,29,37,079,39,30,45,157,41,21,79,145,37,25,09,141,*75
$GPGSV,3,3,10,03,17,281,,06,32,281,,,,,,,,,*7A
$GPGSA,M,3,05,29,30,21,,,,,,,,,4.3,3.0,3.0*37
Trace #92 at position 22.750000
$GPZDA,123116.03,06,10,2011,00,00*66
$GPRMC,123116.00,A,4611.960657,N,01258.212390,E,000.3,338.3,061011$GPGGA,123117.00,4611.960722,N,01258.212398,E,1,04,3.0,140.11,M,46.25,M,,*6B
$GPGLL,4611.960722,N,01258.212398,E,123117.00,A,A*69
$GPVTG,297.1,T,297.3,M,000.3,N,000.5,K,A*27
$GPGSV,3,1,10,05,10,034,37,16,37,308,,31,22,218,29,18,23,145,37*7B
$GPGSV,3,2,10,29,37,079,39,30,45,157,42,21,79,145,36,25,09,141,*77
$GPGSV,3,3,10,03,17,281,,06,32,281,29,,,,,,,,*71
$GPGSA,M,3,05,29,30,21,,,,,,,,,4.3,3.0,3.0*37
Trace #93 at position 23.000000
$GPZDA,123116.03,06,10,2011,00,00*66
$GPRMC,123116.00,A,4611.960657,N,01258.212390,E,000.3,338.3,061011$GPGGA,123117.00,4611.960722,N,01258.212398,E,1,04,3.0,140.11,M,46.25,M,,*6B
$GPGLL,4611.960722,N,01258.212398,E,123117.00,A,A*69
$GPVTG,297.1,T,297.3,M,000.3,N,000.5,K,A*27
$GPGSV,3,1,10,05,10,034,37,16,37,308,,31,22,218,29,18,23,145,37*7B
$GPGSV,3,2,10,29,37,079,39,30,45,157,42,21,79,145,36,25,09,141,*77
$GPGSV,3,3,10,03,17,281,,06,32,281,29,,,,,,,,*71
$GPGSA,M,3,05,29,30,21,,,,,,,,,4.3,3.0,3.0*37
Trace #94 at position 23.250000
$GPZDA,123118.03,06,10,2011,00,00*68
$GPRMC,123118.00,A,4611.960769,N,01258.212422,E,000.0,38.4,061011,0.2,E,A*09
$GPG,4611.960836,N,01258.212462,E,123119.00,A,A*6F
$GPVTG,324.3,T,324.5,M,000.2,N,000.4,K,A*23
$GPGSV,3,1,10,05,10,034,37,16,37,308,,31,22,217,31,18,23,145,34*7E
$GPGSV,3,2,10,29,37,079,38,30,45,157,43,21,79,144,36,25,09,141,*76
$GPGSV,3,3,10,03,17,281,,06,32,281,31,,,,,,,,*78
$GPGSA,M,3,05,29,30,21,,,,,,,,,4.2,3.0,3.0*36
Trace #95 at position 23.500000
$GPZDA,123119.03,06,10,2011,00,00*69
$GPRMC,123119.00,A,4611.960836,N,01258.212462,E,000.2,324.3,061011,0.2,E,A*32
$GPGGA,123120.00,4611.961012,N,01258.212477,E,1,04,3.0,140.62,M,46.25SV,3,1,10,05,10,034,37,16,37,308,,31,22,217,30,18,23,145,34*7F
$GPGSV,3,2,10,29,37,079,38,30,45,157,41,21,79,144,37,25,09,141,*75
$GPGSV,3,3,10,03,17,281,,06,32,281,30,,,,,,,,*79
$GPGSA,M,3,05,29,30,21,,,,,,,,,4.2,3.0,3.0*36
Trace #96 at position 23.750000
$GPZDA,123120.03,06,10,2011,00,00*63
$GPRMC,123120.00,A,4611.961012,N,01258.212477,E,000.8,357.0,061011,0.2,E,A*3E
$GPGGA,123121.00,4611.961206,N,01258.212497,E,1,04,3.0,140.65,M,46.25,M,,*67
$GPGLL,4611.961206,N,01258.212497,E,123121.00,A,A*66
$GPVTG,354.1,T,354.2,M,000.4,N,0007
$GPGSV,3,3,10,03,17,281,,06,32,281,31,,,,,,,,*78
$GPGSA,M,3,05,29,30,21,,,,,,,,,4.2,3.0,3.0*36
Trace #97 at position 24.000000
$GPZDA,123120.03,06,10,2011,00,00*63
$GPRMC,123120.00,A,4611.961012,N,01258.212477,E,000.8,357.0,061011,0.2,E,A*3E
$GPGGA,123121.00,4611.961206,N,01258.212497,E,1,04,3.0,140.65,M,46.25,M,,*67
$GPGLL,4611.961206,N,01258.212497,E,123121.00,A,A*66
$GPVTG,354.1,T,354.2,M,000.4,N,0007
$GPGSV,3,3,10,03,17,281,,06,32,281,31,,,,,,,,*78
$GPGSA,M,3,05,29,30,21,,,,,,,,,4.2,3.0,3.0*36
Trace #98 at position 24.250000
$GPZDA,123121.03,06,10,2011,00,00*62
$GPRMC,123121.00,A,4611.961206,N,01258.212497,E,000.4,354.1,061011,0.2,E,A*38
$GPGGA,123122.00,4611.961372,N,01258.212538,E,1,04,3.0,140.78,M,46.25,M,,*6E
$GPGLL,4611.961372,N,01258.212538,E,123122.00,A,A*63
$GPVTG,12.8,T,12.9,M,000.6,N,001.2,K,A*27
$GPGSV,3,1,10,05,10,034,36,16,37,308,,31,22,217,30,18,23,145,35*7F
$GPGSV,3,2,10,29,37,079,38,30,45,157,43,21,79,144,36$GPGSA,M,3,05,29,30,21,,,,,,,,,4.2,3.0,3.0*36
Trace #99 at position 24.500000
$GPZDA,123122.03,06,10,2011,00,00*61
$GPRMC,123122.00,A,4611.961372,N,01258.212538,E,000.6,12.8,061011,0.2,E,A*07
$GPGGA,123123.00,4611.961591,N,01258.212519,E,1,04,3.0,140.85,M,46.25,M,,*65
$GPGLL,4611.961591,N,01258.212519,E,123123.00,A,A*6A
$GPVTG,338.7,T,338.9,M,000.8,N,001.5,K,A*21
$GPGSV,3,1,10,05,10,034,36,16,37,308,,31,22,217,30,18,23,145,35*7F
$GPGSV,3,2,10,29,37,079,38,30,45,157,43,21,79,144,37,25,09,141,*77
$GPGSV,3,3,10,03,17,281,,06,32,281,2$GPGGA,123124.00,4611.961794,N,01258.212410,E,1,04,3.0,140.81,M,46.25,M,,*69
$GPGLL,4611.961794,N,01258.212410,E,123124.00,A,A*62
$GPVTG,329.5,T,329.6,M,000.6,N,001.1,K,A*26
$GPGSV,3,1,10,05,10,034,37,16,37,308,,31,22,217,31,18,23,145,36*7C
$GPGSV,3,2,10,29,37,079,39,30,45,157,42,21,79,144,37,25,09,141,*77
$GPGSV,3,3,10,03,17,281,,06,32,281,31,,,,,,,,*78
$GPGSA,M,3,05,29,30,21,,,,,,,,,4.2,3.0,3.0*36
Trace #100 at position 24.750000
$GPZDA,123124.03,06,10,2011,00,00*67
$GPRMC,123124.00,A,4611.961794,N,01258.212410,E,000.6,329.5,0610$GPGGA,123125.00,4611.961913,N,01258.212301,E,1,04,3.0,140.79,M,46.25,M,,*69
$GPGLL,4611.961913,N,01258.212301,E,123125.00,A,A*65
$GPVTG,291.6,T,291.8,M,000.4,N,000.7,K,A*2E
$GPGSV,3,1,10,05,10,034,37,16,37,308,,31,22,217,31,18,23,145,35*7F
$GPGSV,3,2,10,29,37,079,40,30,45,157,42,21,79,144,36,25,09,141,*78
$GPGSV,3,3,10,03,17,281,,06,32,281,30,,,,,,,,*79
$GPGSA,M,3,05,29,30,21,,,,,,,,,4.2,3.0,3.0*36
Trace #101 at position 25.000000
$GPZDA,123125.03,06,10,2011,00,00*66
$GPRMC,123125.00,A,4611.961913,N,01258.212301,E,000.4,291.6,0610$GPGGA,123126.00,4611.961984,N,01258.212243,E,1,04,3.0,140.83,M,46.25,M,,*66
$GPGLL,4611.961984,N,01258.212243,E,123126.00,A,A*6F
$GPVTG,340.2,T,340.3,M,000.1,N,000.2,K,A*21
$GPGSV,3,1,10,05,10,034,37,16,37,308,,31,22,217,32,18,23,145,37*7E
$GPGSV,3,2,10,29,37,079,39,30,45,157,43,21,79,144,36,25,09,141,*77
$GPGSV,3,3,10,03,17,281,,06,32,281,32,,,,,,,,*7B
$GPGSA,M,3,05,29,30,21,,,,,,,,,4.2,3.0,3.0*36
Trace #102 at position 25.250000
$GPGGA,123135.00,4611.962913,N,01258.210398,E,1,05,2.1,138.95,M,46.25,M,,*65
$GPGLL,4611.962913,N,01258.210398,E,123135.00,A,A*65
$GPVTG,170.5,T,170.7,M,000.1,N,000.2,K,A*22
$GPGSV,3,1,10,05,10,034,37,16,37,308,,31,22,217,32,18,23,145,36*7F
$GPGSV,3,2,10,29,37,079,39,30,45,157,42,21,79,144,38,25,09,141,*78
$GPGSV,3,3,10,03,17,281,,06,32,281,30,,,,,,,,*79
$GPGSA,M,3,05,31,29,30,21,,,,,,,,2.9,2.1,2.0*38
Trace #103 at position 25.500000
$GPZDA,123135.03,06,10,2011,00,00*67
$GP$GPGGA,123136.00,4611.962900,N,01258.210331,E,1,05,2.1,138.84,M,46.25,M,,*67
$GPGLL,4611.962900,N,01258.210331,E,123136.00,A,A*67
$GPVTG,315.4,T,315.6,M,000.1,N,000.1,K,A*21
$GPGSV,3,1,10,05,10,034,36,16,37,308,,31,22,217,32,18,23,145,36*7E
$GPGSV,3,2,10,29,37,079,39,30,45,157,42,21,79,144,38,25,09,141,*78
$GPGSV,3,3,10,03,17,281,,06,32,281,29,,,,,,,,*71
$GPGSA,M,3,05,31,29,30,21,,,,,,,,2.9,2.1,2.0*38
Trace #104 at position 25.750000
$GPZDA,123136.03,06,10,2011,00,00*64
$GPRMC,123136.00,A,4611.962900,N,01258.210331,E,000.1,315.4,06$GPGGA,123137.00,4611.962898,N,01258.210267,E,1,05,2.1,138.78,M,46.25,M,,*67
$GPGLL,4611.962898,N,01258.210267,E,123137.00,A,A*64
$GPVTG,231.7,T,231.8,M,000.0,N,000.0,K,A*2C
$GPGSV,3,1,10,05,10,034,36,16,37,308,,31,22,217,33,18,23,145,37*7E
$GPGSV,3,2,10,29,37,079,39,30,45,157,41,21,79,144,38,25,09,141,*7B
$GPGSV,3,3,10,03,17,281,,06,32,281,31,,,,,,,,*78
$GPGSA,M,3,05,31,29,30,21,,,,,,,,2.9,2.1,2.0*38
Trace #105 at position 26.000000
$GPZDA,123137.03,06,10,2011,00,00*65
$GPRMC,123137.00,A,4611.962898,N,01258.210267,E,000.0,231.7,06$GPGGA,123138.00,4611.962888,N,01258.210225,E,1,05,2.1,138.72,M,46.25,M,,*65
$GPGLL,4611.962888,N,01258.210225,E,123138.00,A,A*6C
$GPVTG,107.8,T,107.9,M,000.0,N,000.1,K,A*23
$GPGSV,3,1,10,05,10,034,36,16,37,308,,31,22,217,32,18,23,145,38*70
$GPGSV,3,2,10,29,37,079,39,30,45,157,42,21,79,144,38,25,09,141,*78
$GPGSV,3,3,10,03,17,281,,06,32,281,30,,,,,,,,*79
$GPGSA,M,3,05,31,29,30,21,,,,,,,,2.9,2.1,2.0*38
Trace #106 at position 26.250000
$GPZDA,123138.04,06,10,2011,00,00*6D
$GPRMC,123138.00,A,4611.962888,N,01258.210225,E,000.0,107.8,06$GPGGA,123139.00,4611.962919,N,01258.210466,E,1,04,3.0,139.04,M,46.25,M,,*6D
$GPGLL,4611.962919,N,01258.210466,E,123139.00,A,A*65
$GPVTG,74.2,T,74.4,M,000.1,N,000.3,K,A*27
$GPGSV,3,1,10,05,10,034,36,16,37,308,,31,22,217,29,18,23,145,35*77
$GPGSV,3,2,10,29,37,079,38,30,45,157,41,21,79,144,37,25,09,141,*75
$GPGSV,3,3,10,03,17,281,,06,32,281,29,,,,,,,,*71
$GPGSA,M,3,05,29,30,21,,,,,,,,,4.2,3.0,3.0*36
Trace #107 at position 26.500000
$GPZDA,123139.03,06,10,2011,00,00*6B
$GPRMC,123139.00,A,4611.962919,N,01258.210466,E,000.1,74.2,061011,$GPGGA,123140.00,4611.962903,N,01258.210428,E,1,05,2.1,138.90,M,46.25,M,,*6F
$GPGLL,4611.962903,N,01258.210428,E,123140.00,A,A*6A
$GPVTG,146.5,T,146.7,M,000.1,N,000.2,K,A*22
$GPGSV,3,1,10,05,10,034,36,16,37,308,,31,22,217,33,18,23,145,38*71
$GPGSV,3,2,10,29,37,079,39,30,45,157,41,21,79,144,38,25,09,141,*7B
$GPGSV,3,3,10,03,17,281,,06,32,281,31,,,,,,,,*78
$GPGSA,M,3,05,31,29,30,21,,,,,,,,2.9,2.1,2.0*38
Trace #108 at position 26.750000
$GPZDA,123139.03,06,10,2011,00,00*6B
$GPRMC,123139.00,A,4611.962919,N,01258.210466,E,000.1,74.2,061011,$GPGGA,123140.00,4611.962903,N,01258.210428,E,1,05,2.1,138.90,M,46.25,M,,*6F
$GPGLL,4611.962903,N,01258.210428,E,123140.00,A,A*6A
$GPVTG,146.5,T,146.7,M,000.1,N,000.2,K,A*22
$GPGSV,3,1,10,05,10,034,36,16,37,308,,31,22,217,33,18,23,145,38*71
