Trace #1 at position 0.000000
$GPZDA,100555.03,08,10,2011,00,00*6A
$GPRMC,100555.00,A,4611.967784,N,01258.209151,E,000.4,167.4,081011,0.2,E,A*3B
$GPGGA,100556.00,4611.967831,N,01258.209171,E,1,04,8.5,120.55,M,46.25,M,,*66
$GPGLL,4611.967831,N,01258.209171,E,100556.00,A,A*6C
$GPVTG,4.1,T,4.3,M,000.7,N,001.2,K,A*25
$GPGSV,2,1,07,21,18,186,27,02,26,049,45,12,32,105,32,25,66,095,*7B
$GPGSV,2,2,07,29,82,272,39,30,63,305,41,31,48,294,41,,,,*43
$GPGSA,M,3,02,29,30,31,,,,,,,,,12.5,8.5,9.1*05
Trace #2 at position 0.250000
$GPZDA,100558.03,08,10,2011,00,00*67
$GPRMC,100558.00,A,4611.967798,N,01258.209205,E,000.2,12.1,081011,0.2,E,A*09
$GPGGA,100559.00,4611.967851,N,01258.209227,E,1,04,8.5,120.75,M,46.25,M,,*6D
$GPGLL,4611.967851,N,01258.209227,E,100559.00,A,A*65
$GPVTG,32.5,T,32.7,M,000.2,N,000.4,K,A*27
$GPGSV,2,1,07,21,18,186,32,02,26,049,45,12,32,105,37,25,66,095,38*71
$GPGSV,2,2,07,29,82,272,38,30,63,305,42,31,49,294,40,,,,*41
$GPGSA,M,3,02,29,30,31,,,,,,,,,12.5,8.5,9.1*05
Trace #3 at position 0.500000
$GPZDA,100558.03,08,10,2011,00,00*67
$GPRMC,100558.00,A,4611.967798,N,01258.209205,E,000.2,12.1,081011,0.2,E,A*09
$GPGGA,100559.00,4611.967851,N,01258.209227,E,1,04,8.5,120.75,M,46.25,M,,*6D
$GPGLL,4611.967851,N,01258.209227,E,100559.00,A,A*65
$GPVTG,32.5,T,32.7,M,000.2,N,000.4,K,A*27
$GPGSV,2,1,07,21,18,186,32,02,26,049,45,12,32,105,37,25,66,095,38*71
$GPGSV,2,2,07,29,82,272,38,30,63,305,42,31,49,294,40,,,,*41
$GPGSA,M,3,02,29,30,31,,,,,,,,,12.5,8.5,9.1*05
Trace #4 at position 0.750000
$GPZDA,100559.03,08,10,2011,00,00*66
$GPRMC,100559.00,A,4611.967851,N,01258.209227,E,000.2,32.5,081011,0.2,E,A*04
$GPGGA,100600.00,4611.968877,N,01258.209378,E,1,06,2.3,123.08,M,46.25,M,,*65
$GPGLL,4611.968877,N,01258.209378,E,100600.00,A,A*6A
$GPVTG,139.2,T,139.4,M,000.6,N,001.2,K,A*20
$GPGSV,2,1,07,21,18,186,34,02,26,049,43,12,32,105,39,25,66,095,43*73
$GPGSV,2,2,07,29,82,272,39,30,63,305,42,31,49,294,41,,,,*41
$GPGSA,M,3,02,12,25,29,30,31,,,,,,,4.0,2.3,3.3*37
Trace #5 at position 1.000000
$GPZDA,100559.03,08,10,2011,00,00*66
$GPRMC,100559.00,A,4611.967851,N,01258.209227,E,000.2,32.5,081011,0.2,E,A*04
$GPGGA,100600.00,4611.968877,N,01258.209378,E,1,06,2.3,123.08,M,46.25,M,,*65
$GPGLL,4611.968877,N,01258.209378,E,100600.00,A,A*6A
$GPVTG,139.2,T,139.4,M,000.6,N,001.2,K,A*20
$GPGSV,2,1,07,21,18,186,34,02,26,049,43,12,32,105,39,25,66,095,43*73
$GPGSV,2,2,07,29,82,272,39,30,63,305,42,31,49,294,41,,,,*41
$GPGSA,M,3,02,12,25,29,30,31,,,,,,,4.0,2.3,3.3*37
Trace #6 at position 1.250000
$GPZDA,100600.04,08,10,2011,00,00*6E
$GPRMC,100600.00,A,4611.968877,N,01258.209378,E,000.6,139.2,081011,0.2,E,A*32
$GPGGA,100601.00,4611.969491,N,01258.209523,E,1,06,2.3,124.73,M,46.25,M,,*62
$GPGLL,4611.969491,N,01258.209523,E,100601.00,A,A*66
$GPVTG,165.4,T,165.6,M,000.6,N,001.2,K,A*24
$GPGSV,2,1,07,21,18,186,34,02,26,049,43,12,32,105,39,25,66,095,42*72
$GPGSV,2,2,07,29,82,272,40,30,63,305,42,31,49,294,40,,,,*4E
$GPGSA,M,3,02,12,25,29,30,31,,,,,,,4.0,2.3,3.3*37
Trace #7 at position 1.500000
$GPZDA,100600.04,08,10,2011,00,00*6E
$GPRMC,100600.00,A,4611.968877,N,01258.209378,E,000.6,139.2,081011,0.2,E,A*32
$GPGGA,100601.00,4611.969491,N,01258.209523,E,1,06,2.3,124.73,M,46.25,M,,*62
$GPGLL,4611.969491,N,01258.209523,E,100601.00,A,A*66
$GPVTG,165.4,T,165.6,M,000.6,N,001.2,K,A*24
$GPGSV,2,1,07,21,18,186,34,02,26,049,43,12,32,105,39,25,66,095,42*72
$GPGSV,2,2,07,29,82,272,40,30,63,305,42,31,49,294,40,,,,*4E
$GPGSA,M,3,02,12,25,29,30,31,,,,,,,4.0,2.3,3.3*37
Trace #8 at position 1.750000
$GPZDA,100600.04,08,10,2011,00,00*6E
$GPRMC,100600.00,A,4611.968877,N,01258.209378,E,000.6,139.2,081011,0.2,E,A*32
$GPGGA,100601.00,4611.969491,N,01258.209523,E,1,06,2.3,124.73,M,46.25,M,,*62
$GPGLL,4611.969491,N,01258.209523,E,100601.00,A,A*66
$GPVTG,165.4,T,165.6,M,000.6,N,001.2,K,A*24
$GPGSV,2,1,07,21,18,186,34,02,26,049,43,12,32,105,39,25,66,095,42*72
$GPGSV,2,2,07,29,82,272,40,30,63,305,42,31,49,294,40,,,,*4E
$GPGSA,M,3,02,12,25,29,30,31,,,,,,,4.0,2.3,3.3*37
Trace #9 at position 2.000000
$GPZDA,100601.03,08,10,2011,00,00*68
$GPRMC,100601.00,A,4611.969491,N,01258.209523,E,000.6,165.4,081011,0.2,E,A*31
$GPGGA,100602.00,4611.969928,N,01258.209616,E,1,06,2.3,126.06,M,46.25,M,,*6B
$GPGLL,4611.969928,N,01258.209616,E,100602.00,A,A*6F
$GPVTG,172.8,T,173.0,M,001.2,N,002.3,K,A*28
$GPGSV,2,1,07,21,18,186,32,02,26,049,44,12,32,105,38,25,66,095,43*73
$GPGSV,2,2,07,29,82,272,39,30,63,305,42,31,49,294,40,,,,*40
$GPGSA,M,3,02,12,25,29,30,31,,,,,,,4.0,2.3,3.3*37
Trace #10 at position 2.250000
$GPZDA,100601.03,08,10,2011,00,00*68
$GPRMC,100601.00,A,4611.969491,N,01258.209523,E,000.6,165.4,081011,0.2,E,A*31
$GPGGA,100602.00,4611.969928,N,01258.209616,E,1,06,2.3,126.06,M,46.25,M,,*6B
$GPGLL,4611.969928,N,01258.209616,E,100602.00,A,A*6F
$GPVTG,172.8,T,173.0,M,001.2,N,002.3,K,A*28
$GPGSV,2,1,07,21,18,186,32,02,26,049,44,12,32,105,38,25,66,095,43*73
$GPGSV,2,2,07,29,82,272,39,30,63,305,42,31,49,294,40,,,,*40
$GPGSA,M,3,02,12,25,29,30,31,,,,,,,4.0,2.3,3.3*37
Trace #11 at position 2.500000
$GPZDA,100601.03,08,10,2011,00,00*68
$GPRMC,100601.00,A,4611.969491,N,01258.209523,E,000.6,165.4,081011,0.2,E,A*31
$GPGGA,100602.00,4611.969928,N,01258.209616,E,1,06,2.3,126.06,M,46.25,M,,*6B
$GPGLL,4611.969928,N,01258.209616,E,100602.00,A,A*6F
$GPVTG,172.8,T,173.0,M,001.2,N,002.3,K,A*28
$GPGSV,2,1,07,21,18,186,32,02,26,049,44,12,32,105,38,25,66,095,43*73
$GPGSV,2,2,07,29,82,272,39,30,63,305,42,31,49,294,40,,,,*40
$GPGSA,M,3,02,12,25,29,30,31,,,,,,,4.0,2.3,3.3*37
Trace #12 at position 2.750000
$GPZDA,100602.03,08,10,2011,00,00*6B
$GPRMC,100602.00,A,4611.969928,N,01258.209616,E,001.2,172.8,081011,0.2,E,A*37
$GPGGA,100603.00,4611.970218,N,01258.209733,E,1,06,2.3,127.24,M,46.25,M,,*6D
$GPGLL,4611.970218,N,01258.209733,E,100603.00,A,A*68
$GPVTG,166.9,T,167.1,M,001.2,N,002.2,K,A*29
$GPGSV,2,1,07,21,18,186,32,02,26,049,44,12,32,105,38,25,66,095,42*72
$GPGSV,2,2,07,29,82,272,39,30,63,305,43,31,49,294,40,,,,*41
$GPGSA,M,3,02,12,25,29,30,31,,,,,,,4.0,2.3,3.3*37
Trace #13 at position 3.000000
$GPZDA,100602.03,08,10,2011,00,00*6B
$GPRMC,100602.00,A,4611.969928,N,01258.209616,E,001.2,172.8,081011,0.2,E,A*37
$GPGGA,100603.00,4611.970218,N,01258.209733,E,1,06,2.3,127.24,M,46.25,M,,*6D
$GPGLL,4611.970218,N,01258.209733,E,100603.00,A,A*68
$GPVTG,166.9,T,167.1,M,001.2,N,002.2,K,A*29
$GPGSV,2,1,07,21,18,186,32,02,26,049,44,12,32,105,38,25,66,095,42*72
$GPGSV,2,2,07,29,82,272,39,30,63,305,43,31,49,294,40,,,,*41
$GPGSA,M,3,02,12,25,29,30,31,,,,,,,4.0,2.3,3.3*37
Trace #14 at position 3.250000
$GPZDA,100602.03,08,10,2011,00,00*6B
$GPRMC,100602.00,A,4611.969928,N,01258.209616,E,001.2,172.8,081011,0.2,E,A*37
$GPGGA,100603.00,4611.970218,N,01258.209733,E,1,06,2.3,127.24,M,46.25,M,,*6D
$GPGLL,4611.970218,N,01258.209733,E,100603.00,A,A*68
$GPVTG,166.9,T,167.1,M,001.2,N,002.2,K,A*29
$GPGSV,2,1,07,21,18,186,32,02,26,049,44,12,32,105,38,25,66,095,42*72
$GPGSV,2,2,07,29,82,272,39,30,63,305,43,31,49,294,40,,,,*41
$GPGSA,M,3,02,12,25,29,30,31,,,,,,,4.0,2.3,3.3*37
Trace #15 at position 3.500000
$GPZDA,100602.03,08,10,2011,00,00*6B
$GPRMC,100602.00,A,4611.969928,N,01258.209616,E,001.2,172.8,081011,0.2,E,A*37
$GPGGA,100603.00,4611.970218,N,01258.209733,E,1,06,2.3,127.24,M,46.25,M,,*6D
$GPGLL,4611.970218,N,01258.209733,E,100603.00,A,A*68
$GPVTG,166.9,T,167.1,M,001.2,N,002.2,K,A*29
$GPGSV,2,1,07,21,18,186,32,02,26,049,44,12,32,105,38,25,66,095,42*72
$GPGSV,2,2,07,29,82,272,39,30,63,305,43,31,49,294,40,,,,*41
$GPGSA,M,3,02,12,25,29,30,31,,,,,,,4.0,2.3,3.3*37
Trace #16 at position 3.750000
$GPZDA,100603.04,08,10,2011,00,00*6D
$GPRMC,100603.00,A,4611.970218,N,01258.209733,E,001.2,166.9,081011,0.2,E,A*34
$GPGGA,100604.00,4611.970410,N,01258.209904,E,1,06,2.3,128.29,M,46.25,M,,*6C
$GPGLL,4611.970410,N,01258.209904,E,100604.00,A,A*6B
$GPVTG,163.9,T,164.1,M,001.5,N,002.8,K,A*22
$GPGSV,2,1,07,21,18,186,32,02,26,049,44,12,32,105,37,25,66,095,41*7E
$GPGSV,2,2,07,29,82,272,39,30,63,305,42,31,49,294,39,,,,*4E
$GPGSA,M,3,02,12,25,29,30,31,,,,,,,4.0,2.3,3.3*37
Trace #17 at position 4.000000
$GPZDA,100603.04,08,10,2011,00,00*6D
$GPRMC,100603.00,A,4611.970218,N,01258.209733,E,001.2,166.9,081011,0.2,E,A*34
$GPGGA,100604.00,4611.970410,N,01258.209904,E,1,06,2.3,128.29,M,46.25,M,,*6C
$GPGLL,4611.970410,N,01258.209904,E,100604.00,A,A*6B
$GPVTG,163.9,T,164.1,M,001.5,N,002.8,K,A*22
$GPGSV,2,1,07,21,18,186,32,02,26,049,44,12,32,105,37,25,66,095,41*7E
$GPGSV,2,2,07,29,82,272,39,30,63,305,42,31,49,294,39,,,,*4E
$GPGSA,M,3,02,12,25,29,30,31,,,,,,,4.0,2.3,3.3*37
Trace #18 at position 4.250000
$GPZDA,100603.04,08,10,2011,00,00*6D
$GPRMC,100603.00,A,4611.970218,N,01258.209733,E,001.2,166.9,081011,0.2,E,A*34
$GPGGA,100604.00,4611.970410,N,01258.209904,E,1,06,2.3,128.29,M,46.25,M,,*6C
$GPGLL,4611.970410,N,01258.209904,E,100604.00,A,A*6B
$GPVTG,163.9,T,164.1,M,001.5,N,002.8,K,A*22
$GPGSV,2,1,07,21,18,186,32,02,26,049,44,12,32,105,37,25,66,095,41*7E
$GPGSV,2,2,07,29,82,272,39,30,63,305,42,31,49,294,39,,,,*4E
$GPGSA,M,3,02,12,25,29,30,31,,,,,,,4.0,2.3,3.3*37
Trace #19 at position 4.500000
$GPZDA,100604.03,08,10,2011,00,00*6D
$GPRMC,100604.00,A,4611.970410,N,01258.209904,E,001.5,163.9,081011,0.2,E,A*35
$GPGGA,100605.00,4611.970615,N,01258.210172,E,1,06,2.3,129.53,M,46.25,M,,*67
$GPGLL,4611.970615,N,01258.210172,E,100605.00,A,A*6C
$GPVTG,151.4,T,151.6,M,001.6,N,003.0,K,A*25
$GPGSV,2,1,07,21,18,186,32,02,26,049,44,12,32,105,38,25,66,095,41*71
$GPGSV,2,2,07,29,82,272,40,30,63,305,43,31,49,294,40,,,,*4F
$GPGSA,M,3,02,12,25,29,30,31,,,,,,,4.0,2.3,3.3*37
Trace #20 at position 4.750000
$GPZDA,100604.03,08,10,2011,00,00*6D
$GPRMC,100604.00,A,4611.970410,N,01258.209904,E,001.5,163.9,081011,0.2,E,A*35
$GPGGA,100605.00,4611.970615,N,01258.210172,E,1,06,2.3,129.53,M,46.25,M,,*67
$GPGLL,4611.970615,N,01258.210172,E,100605.00,A,A*6C
$GPVTG,151.4,T,151.6,M,001.6,N,003.0,K,A*25
$GPGSV,2,1,07,21,18,186,32,02,26,049,44,12,32,105,38,25,66,095,41*71
$GPGSV,2,2,07,29,82,272,40,30,63,305,43,31,49,294,40,,,,*4F
$GPGSA,M,3,02,12,25,29,30,31,,,,,,,4.0,2.3,3.3*37
Trace #21 at position 5.000000
$GPZDA,100604.03,08,10,2011,00,00*6D
$GPRMC,100604.00,A,4611.970410,N,01258.209904,E,001.5,163.9,081011,0.2,E,A*35
$GPGGA,100605.00,4611.970615,N,01258.210172,E,1,06,2.3,129.53,M,46.25,M,,*67
$GPGLL,4611.970615,N,01258.210172,E,100605.00,A,A*6C
$GPVTG,151.4,T,151.6,M,001.6,N,003.0,K,A*25
$GPGSV,2,1,07,21,18,186,32,02,26,049,44,12,32,105,38,25,66,095,41*71
$GPGSV,2,2,07,29,82,272,40,30,63,305,43,31,49,294,40,,,,*4F
$GPGSA,M,3,02,12,25,29,30,31,,,,,,,4.0,2.3,3.3*37
Trace #22 at position 5.250000
$GPZDA,100605.03,08,10,2011,00,00*6C
$GPRMC,100605.00,A,4611.970615,N,01258.210172,E,001.6,151.4,081011,0.2,E,A*3D
$GPGGA,100606.00,4611.970729,N,01258.210447,E,1,06,2.3,130.66,M,46.25,M,,*67
$GPGLL,4611.970729,N,01258.210447,E,100606.00,A,A*62
$GPVTG,160.4,T,160.5,M,001.7,N,003.1,K,A*26
$GPGSV,2,1,07,21,18,186,30,02,26,049,44,12,32,105,39,25,66,095,41*72
$GPGSV,2,2,07,29,82,273,39,30,63,305,41,31,49,293,39,,,,*4B
$GPGSA,M,3,02,12,25,29,30,31,,,,,,,4.0,2.3,3.3*37
Trace #23 at position 5.500000
$GPZDA,100605.03,08,10,2011,00,00*6C
$GPRMC,100605.00,A,4611.970615,N,01258.210172,E,001.6,151.4,081011,0.2,E,A*3D
$GPGGA,100606.00,4611.970729,N,01258.210447,E,1,06,2.3,130.66,M,46.25,M,,*67
$GPGLL,4611.970729,N,01258.210447,E,100606.00,A,A*62
$GPVTG,160.4,T,160.5,M,001.7,N,003.1,K,A*26
$GPGSV,2,1,07,21,18,186,30,02,26,049,44,12,32,105,39,25,66,095,41*72
$GPGSV,2,2,07,29,82,273,39,30,63,305,41,31,49,293,39,,,,*4B
$GPGSA,M,3,02,12,25,29,30,31,,,,,,,4.0,2.3,3.3*37
Trace #24 at position 5.750000
$GPZDA,100605.03,08,10,2011,00,00*6C
$GPRMC,100605.00,A,4611.970615,N,01258.210172,E,001.6,151.4,081011,0.2,E,A*3D
$GPGGA,100606.00,4611.970729,N,01258.210447,E,1,06,2.3,130.66,M,46.25,M,,*67
$GPGLL,4611.970729,N,01258.210447,E,100606.00,A,A*62
$GPVTG,160.4,T,160.5,M,001.7,N,003.1,K,A*26
$GPGSV,2,1,07,21,18,186,30,02,26,049,44,12,32,105,39,25,66,095,41*72
$GPGSV,2,2,07,29,82,273,39,30,63,305,41,31,49,293,39,,,,*4B
$GPGSA,M,3,02,12,25,29,30,31,,,,,,,4.0,2.3,3.3*37
Trace #25 at position 6.000000
$GPZDA,100605.03,08,10,2011,00,00*6C
$GPRMC,100605.00,A,4611.970615,N,01258.210172,E,001.6,151.4,081011,0.2,E,A*3D
$GPGGA,100606.00,4611.970729,N,01258.210447,E,1,06,2.3,130.66,M,46.25,M,,*67
$GPGLL,4611.970729,N,01258.210447,E,100606.00,A,A*62
$GPVTG,160.4,T,160.5,M,001.7,N,003.1,K,A*26
$GPGSV,2,1,07,21,18,186,30,02,26,049,44,12,32,105,39,25,66,095,41*72
$GPGSV,2,2,07,29,82,273,39,30,63,305,41,31,49,293,39,,,,*4B
$GPGSA,M,3,02,12,25,29,30,31,,,,,,,4.0,2.3,3.3*37
Trace #26 at position 6.250000
$GPZDA,100606.03,08,10,2011,00,00*6F
$GPRMC,100606.00,A,4611.970729,N,01258.210447,E,001.7,160.4,081011,0.2,E,A*30
$GPGGA,100607.00,4611.970786,N,01258.210666,E,1,06,2.3,131.64,M,46.25,M,,*61
$GPGLL,4611.970786,N,01258.210666,E,100607.00,A,A*67
$GPVTG,159.3,T,159.5,M,001.4,N,002.7,K,A*25
$GPGSV,2,1,07,21,18,186,30,02,26,049,43,12,32,105,38,25,66,095,40*75
$GPGSV,2,2,07,29,82,273,40,30,63,305,41,31,49,293,39,,,,*45
$GPGSA,M,3,02,12,25,29,30,31,,,,,,,4.0,2.3,3.3*37
Trace #27 at position 6.500000
$GPZDA,100606.03,08,10,2011,00,00*6F
$GPRMC,100606.00,A,4611.970729,N,01258.210447,E,001.7,160.4,081011,0.2,E,A*30
$GPGGA,100607.00,4611.970786,N,01258.210666,E,1,06,2.3,131.64,M,46.25,M,,*61
$GPGLL,4611.970786,N,01258.210666,E,100607.00,A,A*67
$GPVTG,159.3,T,159.5,M,001.4,N,002.7,K,A*25
$GPGSV,2,1,07,21,18,186,30,02,26,049,43,12,32,105,38,25,66,095,40*75
$GPGSV,2,2,07,29,82,273,40,30,63,305,41,31,49,293,39,,,,*45
$GPGSA,M,3,02,12,25,29,30,31,,,,,,,4.0,2.3,3.3*37
Trace #28 at position 6.750000
$GPZDA,100607.03,08,10,2011,00,00*6E
$GPRMC,100607.00,A,4611.970786,N,01258.210666,E,001.4,159.3,081011,0.2,E,A*3B
$GPGGA,100608.00,4611.970806,N,01258.210917,E,1,06,2.3,132.54,M,46.25,M,,*60
$GPGLL,4611.970806,N,01258.210917,E,100608.00,A,A*66
$GPVTG,151.6,T,151.7,M,001.6,N,002.9,K,A*2E
$GPGSV,2,1,07,21,18,186,29,02,26,049,44,12,32,105,37,25,66,095,40*75
$GPGSV,2,2,07,29,82,273,40,30,63,305,42,31,49,293,40,,,,*48
$GPGSA,M,3,02,12,25,29,30,31,,,,,,,4.0,2.3,3.2*36
Trace #29 at position 7.000000
$GPZDA,100613.04,08,10,2011,00,00*6C
$GPRMC,100613.00,A,4611.971491,N,01258.211294,E,000.0,207.1,081011,0.2,E,A*3D
$GPGGA,100614.00,4611.971684,N,01258.211278,E,1,06,2.3,135.87,M,46.25,M,,*62
$GPGLL,4611.971684,N,01258.211278,E,100614.00,A,A*6D
$GPVTG,19.7,T,19.8,M,000.1,N,000.2,K,A*2F
$GPGSV,2,1,07,21,18,186,32,02,26,049,43,12,32,105,39,25,66,096,40*75
$GPGSV,2,2,07,29,82,273,40,30,63,305,41,31,49,293,41,,,,*4A
$GPGSA,M,3,02,12,25,29,30,31,,,,,,,4.0,2.3,3.2*36
Trace #30 at position 7.250000
$GPZDA,100613.04,08,10,2011,00,00*6C
$GPRMC,100613.00,A,4611.971491,N,01258.211294,E,000.0,207.1,081011,0.2,E,A*3D
$GPGGA,100614.00,4611.971684,N,01258.211278,E,1,06,2.3,135.87,M,46.25,M,,*62
$GPGLL,4611.971684,N,01258.211278,E,100614.00,A,A*6D
$GPVTG,19.7,T,19.8,M,000.1,N,000.2,K,A*2F
$GPGSV,2,1,07,21,18,186,32,02,26,049,43,12,32,105,39,25,66,096,40*75
$GPGSV,2,2,07,29,82,273,40,30,63,305,41,31,49,293,41,,,,*4A
$GPGSA,M,3,02,12,25,29,30,31,,,,,,,4.0,2.3,3.2*36
Trace #31 at position 7.500000
$GPZDA,100614.03,08,10,2011,00,00*6C
$GPRMC,100614.00,A,4611.971684,N,01258.211278,E,000.1,19.7,081011,0.2,E,A*04
$GPGGA,100615.00,4611.971844,N,01258.211267,E,1,06,2.3,136.26,M,46.25,M,,*67
$GPGLL,4611.971844,N,01258.211267,E,100615.00,A,A*60
$GPVTG,171.4,T,171.5,M,000.1,N,000.2,K,A*21
$GPGSV,2,1,07,21,18,186,,02,26,049,43,12,32,105,39,25,66,096,40*74
$GPGSV,2,2,07,29,82,273,39,30,63,305,41,31,49,293,41,,,,*44
$GPGSA,M,3,02,12,25,29,30,31,,,,,,,4.0,2.3,3.2*36
Trace #32 at position 7.750000
$GPZDA,100614.03,08,10,2011,00,00*6C
$GPRMC,100614.00,A,4611.971684,N,01258.211278,E,000.1,19.7,081011,0.2,E,A*04
$GPGGA,100615.00,4611.971844,N,01258.211267,E,1,06,2.3,136.26,M,46.25,M,,*67
$GPGLL,4611.971844,N,01258.211267,E,100615.00,A,A*60
$GPVTG,171.4,T,171.5,M,000.1,N,000.2,K,A*21
$GPGSV,2,1,07,21,18,186,,02,26,049,43,12,32,105,39,25,66,096,40*74
$GPGSV,2,2,07,29,82,273,39,30,63,305,41,31,49,293,41,,,,*44
$GPGSA,M,3,02,12,25,29,30,31,,,,,,,4.0,2.3,3.2*36
Trace #33 at position 8.000000
$GPZDA,100615.03,08,10,2011,00,00*6D
$GPRMC,100615.00,A,4611.971844,N,01258.211267,E,000.1,171.4,081011,0.2,E,A*35
$GPGGA,100616.00,4611.971884,N,01258.211332,E,1,06,2.3,136.55,M,46.25,M,,*6D
$GPGLL,4611.971884,N,01258.211332,E,100616.00,A,A*6E
$GPVTG,142.5,T,142.6,M,000.7,N,001.3,K,A*25
$GPGSV,2,1,07,21,18,186,,02,26,049,44,12,32,105,37,25,66,096,42*7F
$GPGSV,2,2,07,29,82,273,40,30,63,305,42,31,49,293,39,,,,*46
$GPGSA,M,3,02,12,25,29,30,31,,,,,,,4.0,2.3,3.2*36
Trace #34 at position 8.250000
$GPZDA,100615.03,08,10,2011,00,00*6D
$GPRMC,100615.00,A,4611.971844,N,01258.211267,E,000.1,171.4,081011,0.2,E,A*35
$GPGGA,100616.00,4611.971884,N,01258.211332,E,1,06,2.3,136.55,M,46.25,M,,*6D
$GPGLL,4611.971884,N,01258.211332,E,100616.00,A,A*6E
$GPVTG,142.5,T,142.6,M,000.7,N,001.3,K,A*25
$GPGSV,2,1,07,21,18,186,,02,26,049,44,12,32,105,37,25,66,096,42*7F
$GPGSV,2,2,07,29,82,273,40,30,63,305,42,31,49,293,39,,,,*46
$GPGSA,M,3,02,12,25,29,30,31,,,,,,,4.0,2.3,3.2*36
Trace #35 at position 8.500000
$GPZDA,100615.03,08,10,2011,00,00*6D
$GPRMC,100615.00,A,4611.971844,N,01258.211267,E,000.1,171.4,081011,0.2,E,A*35
$GPGGA,100616.00,4611.971884,N,01258.211332,E,1,06,2.3,136.55,M,46.25,M,,*6D
$GPGLL,4611.971884,N,01258.211332,E,100616.00,A,A*6E
$GPVTG,142.5,T,142.6,M,000.7,N,001.3,K,A*25
$GPGSV,2,1,07,21,18,186,,02,26,049,44,12,32,105,37,25,66,096,42*7F
$GPGSV,2,2,07,29,82,273,40,30,63,305,42,31,49,293,39,,,,*46
$GPGSA,M,3,02,12,25,29,30,31,,,,,,,4.0,2.3,3.2*36
Trace #36 at position 8.750000
$GPZDA,100616.03,08,10,2011,00,00*6E
$GPRMC,100616.00,A,4611.971884,N,01258.211332,E,000.7,142.5,081011,0.2,E,A*3C
$GPGGA,100617.00,4611.971789,N,01258.211522,E,1,06,2.3,136.84,M,46.25,M,,*65
$GPGLL,4611.971789,N,01258.211522,E,100617.00,A,A*6A
$GPVTG,144.1,T,144.3,M,001.1,N,002.0,K,A*23
$GPGSV,2,1,07,21,18,186,34,02,26,049,44,12,32,105,37,25,66,096,42*78
$GPGSV,2,2,07,29,82,273,40,30,63,305,41,31,49,293,39,,,,*45
$GPGSA,M,3,02,12,25,29,30,31,,,,,,,4.0,2.3,3.2*36
Trace #37 at position 9.000000
$GPZDA,100625.03,08,10,2011,00,00*6E
$GPRMC,100625.00,A,4611.971608,N,01258.211662,E,000.1,230.3,081011,0.2,E,A*30
$GPGGA,100626.00,4611.971631,N,01258.211659,E,1,06,2.3,137.65,M,46.25,M,,*64
$GPGLL,4611.971631,N,01258.211659,E,100626.00,A,A*65
$GPVTG,158.1,T,158.3,M,000.1,N,000.2,K,A*22
$GPGSV,2,1,07,21,18,186,35,02,26,049,43,12,32,105,40,25,66,096,43*7F
$GPGSV,2,2,07,29,82,273,39,30,63,305,40,31,49,293,41,,,,*45
$GPGSA,M,3,02,12,25,29,30,31,,,,,,,4.0,2.3,3.2*36
Trace #38 at position 9.250000
$GPZDA,100625.03,08,10,2011,00,00*6E
$GPRMC,100625.00,A,4611.971608,N,01258.211662,E,000.1,230.3,081011,0.2,E,A*30
$GPGGA,100626.00,4611.971631,N,01258.211659,E,1,06,2.3,137.65,M,46.25,M,,*64
$GPGLL,4611.971631,N,01258.211659,E,100626.00,A,A*65
$GPVTG,158.1,T,158.3,M,000.1,N,000.2,K,A*22
$GPGSV,2,1,07,21,18,186,35,02,26,049,43,12,32,105,40,25,66,096,43*7F
$GPGSV,2,2,07,29,82,273,39,30,63,305,40,31,49,293,41,,,,*45
$GPGSA,M,3,02,12,25,29,30,31,,,,,,,4.0,2.3,3.2*36
Trace #39 at position 9.500000
$GPZDA,100626.03,08,10,2011,00,00*6D
$GPRMC,100626.00,A,4611.971631,N,01258.211659,E,000.1,158.1,081011,0.2,E,A*3E
$GPGGA,100627.00,4611.971677,N,01258.211685,E,1,06,2.3,137.87,M,46.25,M,,*6A
$GPGLL,4611.971677,N,01258.211685,E,100627.00,A,A*67
$GPVTG,33.3,T,33.4,M,000.2,N,000.3,K,A*25
$GPGSV,2,1,07,21,18,186,34,02,26,049,43,12,32,105,38,25,66,096,43*71
$GPGSV,2,2,07,29,82,273,39,30,63,305,40,31,49,293,40,,,,*44
$GPGSA,M,3,02,12,25,29,30,31,,,,,,,4.0,2.3,3.2*36
Trace #40 at position 9.750000
$GPZDA,100626.03,08,10,2011,00,00*6D
$GPRMC,100626.00,A,4611.971631,N,01258.211659,E,000.1,158.1,081011,0.2,E,A*3E
$GPGGA,100627.00,4611.971677,N,01258.211685,E,1,06,2.3,137.87,M,46.25,M,,*6A
$GPGLL,4611.971677,N,01258.211685,E,100627.00,A,A*67
$GPVTG,33.3,T,33.4,M,000.2,N,000.3,K,A*25
$GPGSV,2,1,07,21,18,186,34,02,26,049,43,12,32,105,38,25,66,096,43*71
$GPGSV,2,2,07,29,82,273,39,30,63,305,40,31,49,293,40,,,,*44
$GPGSA,M,3,02,12,25,29,30,31,,,,,,,4.0,2.3,3.2*36
Trace #41 at position 10.000000
$GPZDA,100626.03,08,10,2011,00,00*6D
$GPRMC,100626.00,A,4611.971631,N,01258.211659,E,000.1,158.1,081011,0.2,E,A*3E
$GPGGA,100627.00,4611.971677,N,01258.211685,E,1,06,2.3,137.87,M,46.25,M,,*6A
$GPGLL,4611.971677,N,01258.211685,E,100627.00,A,A*67
$GPVTG,33.3,T,33.4,M,000.2,N,000.3,K,A*25
$GPGSV,2,1,07,21,18,186,34,02,26,049,43,12,32,105,38,25,66,096,43*71
$GPGSV,2,2,07,29,82,273,39,30,63,305,40,31,49,293,40,,,,*44
$GPGSA,M,3,02,12,25,29,30,31,,,,,,,4.0,2.3,3.2*36
Trace #42 at position 10.250000
$GPZDA,100626.03,08,10,2011,00,00*6D
$GPRMC,100626.00,A,4611.971631,N,01258.211659,E,000.1,158.1,081011,0.2,E,A*3E
$GPGGA,100627.00,4611.971677,N,01258.211685,E,1,06,2.3,137.87,M,46.25,M,,*6A
$GPGLL,4611.971677,N,01258.211685,E,100627.00,A,A*67
$GPVTG,33.3,T,33.4,M,000.2,N,000.3,K,A*25
$GPGSV,2,1,07,21,18,186,34,02,26,049,43,12,32,105,38,25,66,096,43*71
$GPGSV,2,2,07,29,82,273,39,30,63,305,40,31,49,293,40,,,,*44
$GPGSA,M,3,02,12,25,29,30,31,,,,,,,4.0,2.3,3.2*36
Trace #43 at position 10.500000
$GPZDA,100627.03,08,10,2011,00,00*6C
$GPRMC,100627.00,A,4611.971677,N,01258.211685,E,000.2,33.3,081011,0.2,E,A*01
$GPGGA,100628.00,4611.971552,N,01258.211717,E,1,06,2.3,138.02,M,46.25,M,,*69
$GPGLL,4611.971552,N,01258.211717,E,100628.00,A,A*66
$GPVTG,175.5,T,175.7,M,001.3,N,002.4,K,A*25
$GPGSV,2,1,07,21,18,186,34,02,26,049,44,12,32,105,38,25,66,096,44*71
$GPGSV,2,2,07,29,82,273,40,30,63,305,40,31,49,293,41,,,,*4B
$GPGSA,M,3,02,12,25,29,30,31,,,,,,,4.0,2.3,3.2*36
Trace #44 at position 10.750000
$GPZDA,100627.03,08,10,2011,00,00*6C
$GPRMC,100627.00,A,4611.971677,N,01258.211685,E,000.2,33.3,081011,0.2,E,A*01
$GPGGA,100628.00,4611.971552,N,01258.211717,E,1,06,2.3,138.02,M,46.25,M,,*69
$GPGLL,4611.971552,N,01258.211717,E,100628.00,A,A*66
$GPVTG,175.5,T,175.7,M,001.3,N,002.4,K,A*25
$GPGSV,2,1,07,21,18,186,34,02,26,049,44,12,32,105,38,25,66,096,44*71
$GPGSV,2,2,07,29,82,273,40,30,63,305,40,31,49,293,41,,,,*4B
$GPGSA,M,3,02,12,25,29,30,31,,,,,,,4.0,2.3,3.2*36
Trace #45 at position 11.000000
$GPZDA,100627.03,08,10,2011,00,00*6C
$GPRMC,100627.00,A,4611.971677,N,01258.211685,E,000.2,33.3,081011,0.2,E,A*01
$GPGGA,100628.00,4611.971552,N,01258.211717,E,1,06,2.3,138.02,M,46.25,M,,*69
$GPGLL,4611.971552,N,01258.211717,E,100628.00,A,A*66
$GPVTG,175.5,T,175.7,M,001.3,N,002.4,K,A*25
$GPGSV,2,1,07,21,18,186,34,02,26,049,44,12,32,105,38,25,66,096,44*71
$GPGSV,2,2,07,29,82,273,40,30,63,305,40,31,49,293,41,,,,*4B
$GPGSA,M,3,02,12,25,29,30,31,,,,,,,4.0,2.3,3.2*36
Trace #46 at position 11.250000
$GPZDA,100627.03,08,10,2011,00,00*6C
$GPRMC,100627.00,A,4611.971677,N,01258.211685,E,000.2,33.3,081011,0.2,E,A*01
$GPGGA,100628.00,4611.971552,N,01258.211717,E,1,06,2.3,138.02,M,46.25,M,,*69
$GPGLL,4611.971552,N,01258.211717,E,100628.00,A,A*66
$GPVTG,175.5,T,175.7,M,001.3,N,002.4,K,A*25
$GPGSV,2,1,07,21,18,186,34,02,26,049,44,12,32,105,38,25,66,096,44*71
$GPGSV,2,2,07,29,82,273,40,30,63,305,40,31,49,293,41,,,,*4B
$GPGSA,M,3,02,12,25,29,30,31,,,,,,,4.0,2.3,3.2*36
Trace #47 at position 11.500000
$GPZDA,100628.04,08,10,2011,00,00*64
$GPRMC,100628.00,A,4611.971552,N,01258.211717,E,001.3,175.5,081011,0.2,E,A*35
$GPGGA,100629.00,4611.971151,N,01258.211810,E,1,06,2.3,137.95,M,46.25,M,,*66
$GPGLL,4611.971151,N,01258.211810,E,100629.00,A,A*68
$GPVTG,169.6,T,169.7,M,001.9,N,003.5,K,A*2C
$GPGSV,2,1,07,21,18,186,33,02,26,049,43,12,32,105,39,25,66,096,41*75
$GPGSV,2,2,07,29,82,273,39,30,63,305,42,31,49,293,41,,,,*47
$GPGSA,M,3,02,12,25,29,30,31,,,,,,,4.0,2.3,3.2*36
Trace #48 at position 11.750000
$GPZDA,100628.04,08,10,2011,00,00*64
$GPRMC,100628.00,A,4611.971552,N,01258.211717,E,001.3,175.5,081011,0.2,E,A*35
$GPGGA,100629.00,4611.971151,N,01258.211810,E,1,06,2.3,137.95,M,46.25,M,,*66
$GPGLL,4611.971151,N,01258.211810,E,100629.00,A,A*68
$GPVTG,169.6,T,169.7,M,001.9,N,003.5,K,A*2C
$GPGSV,2,1,07,21,18,186,33,02,26,049,43,12,32,105,39,25,66,096,41*75
$GPGSV,2,2,07,29,82,273,39,30,63,305,42,31,49,293,41,,,,*47
$GPGSA,M,3,02,12,25,29,30,31,,,,,,,4.0,2.3,3.2*36
Trace #49 at position 12.000000
$GPZDA,100628.04,08,10,2011,00,00*64
$GPRMC,100628.00,A,4611.971552,N,01258.211717,E,001.3,175.5,081011,0.2,E,A*35
$GPGGA,100629.00,4611.971151,N,01258.211810,E,1,06,2.3,137.95,M,46.25,M,,*66
$GPGLL,4611.971151,N,01258.211810,E,100629.00,A,A*68
$GPVTG,169.6,T,169.7,M,001.9,N,003.5,K,A*2C
$GPGSV,2,1,07,21,18,186,33,02,26,049,43,12,32,105,39,25,66,096,41*75
$GPGSV,2,2,07,29,82,273,39,30,63,305,42,31,49,293,41,,,,*47
$GPGSA,M,3,02,12,25,29,30,31,,,,,,,4.0,2.3,3.2*36
Trace #50 at position 12.250000
$GPZDA,100628.04,08,10,2011,00,00*64
$GPRMC,100628.00,A,4611.971552,N,01258.211717,E,001.3,175.5,081011,0.2,E,A*35
$GPGGA,100629.00,4611.971151,N,01258.211810,E,1,06,2.3,137.95,M,46.25,M,,*66
$GPGLL,4611.971151,N,01258.211810,E,100629.00,A,A*68
$GPVTG,169.6,T,169.7,M,001.9,N,003.5,K,A*2C
$GPGSV,2,1,07,21,18,186,33,02,26,049,43,12,32,105,39,25,66,096,41*75
$GPGSV,2,2,07,29,82,273,39,30,63,305,42,31,49,293,41,,,,*47
$GPGSA,M,3,02,12,25,29,30,31,,,,,,,4.0,2.3,3.2*36
Trace #51 at position 12.500000
$GPZDA,100629.03,08,10,2011,00,00*62
$GPRMC,100629.00,A,4611.971151,N,01258.211810,E,001.9,169.6,081011,0.2,E,A*3F
$GPGGA,100630.00,4611.970626,N,01258.212083,E,1,06,2.3,137.91,M,46.25,M,,*6D
$GPGLL,4611.970626,N,01258.212083,E,100630.00,A,A*67
$GPVTG,155.1,T,155.3,M,002.4,N,004.4,K,A*27
$GPGSV,2,1,07,21,18,186,,02,26,049,43,12,32,105,39,25,66,096,41*75
$GPGSV,2,2,07,29,82,274,40,30,63,305,42,31,49,293,39,,,,*41
$GPGSA,M,3,02,12,25,29,30,31,,,,,,,4.0,2.3,3.2*36
Trace #52 at position 12.750000
$GPZDA,100629.03,08,10,2011,00,00*62
$GPRMC,100629.00,A,4611.971151,N,01258.211810,E,001.9,169.6,081011,0.2,E,A*3F
$GPGGA,100630.00,4611.970626,N,01258.212083,E,1,06,2.3,137.91,M,46.25,M,,*6D
$GPGLL,4611.970626,N,01258.212083,E,100630.00,A,A*67
$GPVTG,155.1,T,155.3,M,002.4,N,004.4,K,A*27
$GPGSV,2,1,07,21,18,186,,02,26,049,43,12,32,105,39,25,66,096,41*75
$GPGSV,2,2,07,29,82,274,40,30,63,305,42,31,49,293,39,,,,*41
$GPGSA,M,3,02,12,25,29,30,31,,,,,,,4.0,2.3,3.2*36
Trace #53 at position 13.000000
$GPZDA,100629.03,08,10,2011,00,00*62
$GPRMC,100629.00,A,4611.971151,N,01258.211810,E,001.9,169.6,081011,0.2,E,A*3F
$GPGGA,100630.00,4611.970626,N,01258.212083,E,1,06,2.3,137.91,M,46.25,M,,*6D
$GPGLL,4611.970626,N,01258.212083,E,100630.00,A,A*67
$GPVTG,155.1,T,155.3,M,002.4,N,004.4,K,A*27
$GPGSV,2,1,07,21,18,186,,02,26,049,43,12,32,105,39,25,66,096,41*75
$GPGSV,2,2,07,29,82,274,40,30,63,305,42,31,49,293,39,,,,*41
$GPGSA,M,3,02,12,25,29,30,31,,,,,,,4.0,2.3,3.2*36
Trace #54 at position 13.250000
$GPZDA,100629.03,08,10,2011,00,00*62
$GPRMC,100629.00,A,4611.971151,N,01258.211810,E,001.9,169.6,081011,0.2,E,A*3F
$GPGGA,100630.00,4611.970626,N,01258.212083,E,1,06,2.3,137.91,M,46.25,M,,*6D
$GPGLL,4611.970626,N,01258.212083,E,100630.00,A,A*67
$GPVTG,155.1,T,155.3,M,002.4,N,004.4,K,A*27
$GPGSV,2,1,07,21,18,186,,02,26,049,43,12,32,105,39,25,66,096,41*75
$GPGSV,2,2,07,29,82,274,40,30,63,305,42,31,49,293,39,,,,*41
$GPGSA,M,3,02,12,25,29,30,31,,,,,,,4.0,2.3,3.2*36
Trace #55 at position 13.500000
$GPZDA,100630.03,08,10,2011,00,00*6A
$GPRMC,100630.00,A,4611.970626,N,01258.212083,E,002.4,155.1,081011,0.2,E,A*36
$GPGGA,100631.00,4611.970050,N,01258.212386,E,1,06,2.3,137.84,M,46.25,M,,*69
$GPGLL,4611.970050,N,01258.212386,E,100631.00,A,A*67
$GPVTG,166.6,T,166.7,M,002.4,N,004.4,K,A*24
$GPGSV,2,1,07,21,18,186,,02,26,049,43,12,32,105,37,25,66,096,40*7A
$GPGSV,2,2,07,29,82,274,39,30,63,305,43,31,49,293,39,,,,*4E
$GPGSA,M,3,02,12,25,29,30,31,,,,,,,4.0,2.3,3.2*36
Trace #56 at position 13.750000
$GPZDA,100630.03,08,10,2011,00,00*6A
$GPRMC,100630.00,A,4611.970626,N,01258.212083,E,002.4,155.1,081011,0.2,E,A*36
$GPGGA,100631.00,4611.970050,N,01258.212386,E,1,06,2.3,137.84,M,46.25,M,,*69
$GPGLL,4611.970050,N,01258.212386,E,100631.00,A,A*67
$GPVTG,166.6,T,166.7,M,002.4,N,004.4,K,A*24
$GPGSV,2,1,07,21,18,186,,02,26,049,43,12,32,105,37,25,66,096,40*7A
$GPGSV,2,2,07,29,82,274,39,30,63,305,43,31,49,293,39,,,,*4E
$GPGSA,M,3,02,12,25,29,30,31,,,,,,,4.0,2.3,3.2*36
Trace #57 at position 14.000000
$GPZDA,100630.03,08,10,2011,00,00*6A
$GPRMC,100630.00,A,4611.970626,N,01258.212083,E,002.4,155.1,081011,0.2,E,A*36
$GPGGA,100631.00,4611.970050,N,01258.212386,E,1,06,2.3,137.84,M,46.25,M,,*69
$GPGLL,4611.970050,N,01258.212386,E,100631.00,A,A*67
$GPVTG,166.6,T,166.7,M,002.4,N,004.4,K,A*24
$GPGSV,2,1,07,21,18,186,,02,26,049,43,12,32,105,37,25,66,096,40*7A
$GPGSV,2,2,07,29,82,274,39,30,63,305,43,31,49,293,39,,,,*4E
$GPGSA,M,3,02,12,25,29,30,31,,,,,,,4.0,2.3,3.2*36
Trace #58 at position 14.250000
$GPZDA,100630.03,08,10,2011,00,00*6A
$GPRMC,100630.00,A,4611.970626,N,01258.212083,E,002.4,155.1,081011,0.2,E,A*36
$GPGGA,100631.00,4611.970050,N,01258.212386,E,1,06,2.3,137.84,M,46.25,M,,*69
$GPGLL,4611.970050,N,01258.212386,E,100631.00,A,A*67
$GPVTG,166.6,T,166.7,M,002.4,N,004.4,K,A*24
$GPGSV,2,1,07,21,18,186,,02,26,049,43,12,32,105,37,25,66,096,40*7A
$GPGSV,2,2,07,29,82,274,39,30,63,305,43,31,49,293,39,,,,*4E
$GPGSA,M,3,02,12,25,29,30,31,,,,,,,4.0,2.3,3.2*36
Trace #59 at position 14.500000
$GPZDA,100631.03,08,10,2011,00,00*6B
$GPRMC,100631.00,A,4611.970050,N,01258.212386,E,002.4,166.6,081011,0.2,E,A*31
$GPGGA,100632.00,4611.969516,N,01258.212575,E,1,06,2.3,137.78,M,46.25,M,,*6C
$GPGLL,4611.969516,N,01258.212575,E,100632.00,A,A*61
$GPVTG,167.9,T,168.0,M,001.9,N,003.6,K,A*28
$GPGSV,2,1,07,21,18,186,,02,26,049,43,12,32,105,39,25,66,096,42*76
$GPGSV,2,2,07,29,82,274,40,30,63,305,43,31,49,293,39,,,,*40
$GPGSA,M,3,02,12,25,29,30,31,,,,,,,4.0,2.3,3.2*36
Trace #60 at position 14.750000
$GPZDA,100631.03,08,10,2011,00,00*6B
$GPRMC,100631.00,A,4611.970050,N,01258.212386,E,002.4,166.6,081011,0.2,E,A*31
$GPGGA,100632.00,4611.969516,N,01258.212575,E,1,06,2.3,137.78,M,46.25,M,,*6C
$GPGLL,4611.969516,N,01258.212575,E,100632.00,A,A*61
$GPVTG,167.9,T,168.0,M,001.9,N,003.6,K,A*28
$GPGSV,2,1,07,21,18,186,,02,26,049,43,12,32,105,39,25,66,096,42*76
$GPGSV,2,2,07,29,82,274,40,30,63,305,43,31,49,293,39,,,,*40
$GPGSA,M,3,02,12,25,29,30,31,,,,,,,4.0,2.3,3.2*36
Trace #61 at position 15.000000
$GPZDA,100631.03,08,10,2011,00,00*6B
$GPRMC,100631.00,A,4611.970050,N,01258.212386,E,002.4,166.6,081011,0.2,E,A*31
$GPGGA,100632.00,4611.969516,N,01258.212575,E,1,06,2.3,137.78,M,46.25,M,,*6C
$GPGLL,4611.969516,N,01258.212575,E,100632.00,A,A*61
$GPVTG,167.9,T,168.0,M,001.9,N,003.6,K,A*28
$GPGSV,2,1,07,21,18,186,,02,26,049,43,12,32,105,39,25,66,096,42*76
$GPGSV,2,2,07,29,82,274,40,30,63,305,43,31,49,293,39,,,,*40
$GPGSA,M,3,02,12,25,29,30,31,,,,,,,4.0,2.3,3.2*36
Trace #62 at position 15.250000
$GPZDA,100631.03,08,10,2011,00,00*6B
$GPRMC,100631.00,A,4611.970050,N,01258.212386,E,002.4,166.6,081011,0.2,E,A*31
$GPGGA,100632.00,4611.969516,N,01258.212575,E,1,06,2.3,137.78,M,46.25,M,,*6C
$GPGLL,4611.969516,N,01258.212575,E,100632.00,A,A*61
$GPVTG,167.9,T,168.0,M,001.9,N,003.6,K,A*28
$GPGSV,2,1,07,21,18,186,,02,26,049,43,12,32,105,39,25,66,096,42*76
$GPGSV,2,2,07,29,82,274,40,30,63,305,43,31,49,293,39,,,,*40
$GPGSA,M,3,02,12,25,29,30,31,,,,,,,4.0,2.3,3.2*36
Trace #63 at position 15.500000
$GPZDA,100632.03,08,10,2011,00,00*68
$GPRMC,100632.00,A,4611.969516,N,01258.212575,E,001.9,167.9,081011,0.2,E,A*37
$GPGGA,100633.00,4611.968993,N,01258.212784,E,1,06,2.3,137.86,M,46.25,M,,*60
$GPGLL,4611.968993,N,01258.212784,E,100633.00,A,A*6C
$GPVTG,163.6,T,163.8,M,002.3,N,004.2,K,A*2A
$GPGSV,2,1,07,21,18,186,,02,26,049,42,12,32,105,38,25,66,096,42*76
$GPGSV,2,2,07,29,82,274,40,30,63,305,43,31,49,293,39,,,,*40
$GPGSA,M,3,02,12,25,29,30,31,,,,,,,4.0,2.3,3.2*36
Trace #64 at position 15.750000
$GPZDA,100632.03,08,10,2011,00,00*68
$GPRMC,100632.00,A,4611.969516,N,01258.212575,E,001.9,167.9,081011,0.2,E,A*37
$GPGGA,100633.00,4611.968993,N,01258.212784,E,1,06,2.3,137.86,M,46.25,M,,*60
$GPGLL,4611.968993,N,01258.212784,E,100633.00,A,A*6C
$GPVTG,163.6,T,163.8,M,002.3,N,004.2,K,A*2A
$GPGSV,2,1,07,21,18,186,,02,26,049,42,12,32,105,38,25,66,096,42*76
$GPGSV,2,2,07,29,82,274,40,30,63,305,43,31,49,293,39,,,,*40
$GPGSA,M,3,02,12,25,29,30,31,,,,,,,4.0,2.3,3.2*36
Trace #65 at position 16.000000
$GPZDA,100632.03,08,10,2011,00,00*68
$GPRMC,100632.00,A,4611.969516,N,01258.212575,E,001.9,167.9,081011,0.2,E,A*37
$GPGGA,100633.00,4611.968993,N,01258.212784,E,1,06,2.3,137.86,M,46.25,M,,*60
$GPGLL,4611.968993,N,01258.212784,E,100633.00,A,A*6C
$GPVTG,163.6,T,163.8,M,002.3,N,004.2,K,A*2A
$GPGSV,2,1,07,21,18,186,,02,26,049,42,12,32,105,38,25,66,096,42*76
$GPGSV,2,2,07,29,82,274,40,30,63,305,43,31,49,293,39,,,,*40
$GPGSA,M,3,02,12,25,29,30,31,,,,,,,4.0,2.3,3.2*36
Trace #66 at position 16.250000
$GPZDA,100633.04,08,10,2011,00,00*6E
$GPRMC,100633.00,A,4611.968993,N,01258.212784,E,002.3,163.6,081011,0.2,E,A*38
$GPGGA,100634.00,4611.967911,N,01258.212900,E,1,05,6.5,136.62,M,46.25,M,,*6A
$GPGLL,4611.967911,N,01258.212900,E,100634.00,A,A*6C
$GPVTG,164.8,T,165.0,M,001.4,N,002.6,K,A*2B
$GPGSV,2,1,07,21,18,186,33,02,26,049,43,12,32,105,34,25,66,096,40*79
$GPGSV,2,2,07,29,82,274,39,30,63,305,42,31,49,293,39,,,,*4F
$GPGSA,M,3,02,25,29,30,31,,,,,,,,10.5,6.5,8.2*0C
Trace #67 at position 16.500000
$GPZDA,100633.04,08,10,2011,00,00*6E
$GPRMC,100633.00,A,4611.968993,N,01258.212784,E,002.3,163.6,081011,0.2,E,A*38
$GPGGA,100634.00,4611.967911,N,01258.212900,E,1,05,6.5,136.62,M,46.25,M,,*6A
$GPGLL,4611.967911,N,01258.212900,E,100634.00,A,A*6C
$GPVTG,164.8,T,165.0,M,001.4,N,002.6,K,A*2B
$GPGSV,2,1,07,21,18,186,33,02,26,049,43,12,32,105,34,25,66,096,40*79
$GPGSV,2,2,07,29,82,274,39,30,63,305,42,31,49,293,39,,,,*4F
$GPGSA,M,3,02,25,29,30,31,,,,,,,,10.5,6.5,8.2*0C
Trace #68 at position 16.750000
$GPZDA,100633.04,08,10,2011,00,00*6E
$GPRMC,100633.00,A,4611.968993,N,01258.212784,E,002.3,163.6,081011,0.2,E,A*38
$GPGGA,100634.00,4611.967911,N,01258.212900,E,1,05,6.5,136.62,M,46.25,M,,*6A
$GPGLL,4611.967911,N,01258.212900,E,100634.00,A,A*6C
$GPVTG,164.8,T,165.0,M,001.4,N,002.6,K,A*2B
$GPGSV,2,1,07,21,18,186,33,02,26,049,43,12,32,105,34,25,66,096,40*79
$GPGSV,2,2,07,29,82,274,39,30,63,305,42,31,49,293,39,,,,*4F
$GPGSA,M,3,02,25,29,30,31,,,,,,,,10.5,6.5,8.2*0C
Trace #69 at position 17.000000
$GPZDA,100633.04,08,10,2011,00,00*6E
$GPRMC,100633.00,A,4611.968993,N,01258.212784,E,002.3,163.6,081011,0.2,E,A*38
$GPGGA,100634.00,4611.967911,N,01258.212900,E,1,05,6.5,136.62,M,46.25,M,,*6A
$GPGLL,4611.967911,N,01258.212900,E,100634.00,A,A*6C
$GPVTG,164.8,T,165.0,M,001.4,N,002.6,K,A*2B
$GPGSV,2,1,07,21,18,186,33,02,26,049,43,12,32,105,34,25,66,096,40*79
$GPGSV,2,2,07,29,82,274,39,30,63,305,42,31,49,293,39,,,,*4F
$GPGSA,M,3,02,25,29,30,31,,,,,,,,10.5,6.5,8.2*0C
Trace #70 at position 17.250000
$GPZDA,100634.04,08,10,2011,00,00*69
$GPRMC,100634.00,A,4611.967911,N,01258.212900,E,001.4,164.8,081011,0.2,E,A*35
$GPGGA,100635.00,4611.966905,N,01258.212925,E,1,05,6.5,135.45,M,46.25,M,,*6E
$GPGLL,4611.966905,N,01258.212925,E,100635.00,A,A*6E
$GPVTG,179.0,T,179.2,M,002.1,N,004.0,K,A*26
$GPGSV,2,1,07,21,18,186,35,02,26,049,44,12,32,105,35,25,66,096,40*79
$GPGSV,2,2,07,29,82,274,39,30,63,305,42,31,49,293,40,,,,*41
$GPGSA,M,3,02,25,29,30,31,,,,,,,,10.5,6.5,8.2*0C
Trace #71 at position 17.500000
$GPZDA,100634.04,08,10,2011,00,00*69
$GPRMC,100634.00,A,4611.967911,N,01258.212900,E,001.4,164.8,081011,0.2,E,A*35
$GPGGA,100635.00,4611.966905,N,01258.212925,E,1,05,6.5,135.45,M,46.25,M,,*6E
$GPGLL,4611.966905,N,01258.212925,E,100635.00,A,A*6E
$GPVTG,179.0,T,179.2,M,002.1,N,004.0,K,A*26
$GPGSV,2,1,07,21,18,186,35,02,26,049,44,12,32,105,35,25,66,096,40*79
$GPGSV,2,2,07,29,82,274,39,30,63,305,42,31,49,293,40,,,,*41
$GPGSA,M,3,02,25,29,30,31,,,,,,,,10.5,6.5,8.2*0C
Trace #72 at position 17.750000
$GPZDA,100634.04,08,10,2011,00,00*69
$GPRMC,100634.00,A,4611.967911,N,01258.212900,E,001.4,164.8,081011,0.2,E,A*35
$GPGGA,100635.00,4611.966905,N,01258.212925,E,1,05,6.5,135.45,M,46.25,M,,*6E
$GPGLL,4611.966905,N,01258.212925,E,100635.00,A,A*6E
$GPVTG,179.0,T,179.2,M,002.1,N,004.0,K,A*26
$GPGSV,2,1,07,21,18,186,35,02,26,049,44,12,32,105,35,25,66,096,40*79
$GPGSV,2,2,07,29,82,274,39,30,63,305,42,31,49,293,40,,,,*41
$GPGSA,M,3,02,25,29,30,31,,,,,,,,10.5,6.5,8.2*0C
Trace #73 at position 18.000000
$GPZDA,100635.03,08,10,2011,00,00*6F
$GPRMC,100635.00,A,4611.966905,N,01258.212925,E,002.1,179.0,081011,0.2,E,A*35
$GPGGA,100636.00,4611.965947,N,01258.212936,E,1,05,6.5,134.29,M,46.25,M,,*61
$GPGLL,4611.965947,N,01258.212936,E,100636.00,A,A*6A
$GPVTG,173.4,T,173.5,M,001.5,N,002.8,K,A*2C
$GPGSV,2,1,07,21,18,186,34,02,26,049,43,12,32,105,38,25,66,096,41*73
$GPGSV,2,2,07,29,82,274,40,30,63,305,42,31,49,293,39,,,,*41
$GPGSA,M,3,02,25,29,30,31,,,,,,,,10.4,6.5,8.2*0D
Trace #74 at position 18.250000
$GPZDA,100635.03,08,10,2011,00,00*6F
$GPRMC,100635.00,A,4611.966905,N,01258.212925,E,002.1,179.0,081011,0.2,E,A*35
$GPGGA,100636.00,4611.965947,N,01258.212936,E,1,05,6.5,134.29,M,46.25,M,,*61
$GPGLL,4611.965947,N,01258.212936,E,100636.00,A,A*6A
$GPVTG,173.4,T,173.5,M,001.5,N,002.8,K,A*2C
$GPGSV,2,1,07,21,18,186,34,02,26,049,43,12,32,105,38,25,66,096,41*73
$GPGSV,2,2,07,29,82,274,40,30,63,305,42,31,49,293,39,,,,*41
$GPGSA,M,3,02,25,29,30,31,,,,,,,,10.4,6.5,8.2*0D
Trace #75 at position 18.500000
$GPZDA,100635.03,08,10,2011,00,00*6F
$GPRMC,100635.00,A,4611.966905,N,01258.212925,E,002.1,179.0,081011,0.2,E,A*35
$GPGGA,100636.00,4611.965947,N,01258.212936,E,1,05,6.5,134.29,M,46.25,M,,*61
$GPGLL,4611.965947,N,01258.212936,E,100636.00,A,A*6A
$GPVTG,173.4,T,173.5,M,001.5,N,002.8,K,A*2C
$GPGSV,2,1,07,21,18,186,34,02,26,049,43,12,32,105,38,25,66,096,41*73
$GPGSV,2,2,07,29,82,274,40,30,63,305,42,31,49,293,39,,,,*41
$GPGSA,M,3,02,25,29,30,31,,,,,,,,10.4,6.5,8.2*0D
Trace #76 at position 18.750000
$GPZDA,100636.03,08,10,2011,00,00*6C
$GPRMC,100636.00,A,4611.965947,N,01258.212936,E,001.5,173.4,081011,0.2,E,A*38
$GPGGA,100637.00,4611.965228,N,01258.213094,E,1,05,6.5,133.60,M,46.25,M,,*68
$GPGLL,4611.965228,N,01258.213094,E,100637.00,A,A*69
$GPVTG,132.0,T,132.2,M,001.0,N,001.9,K,A*28
$GPGSV,2,1,07,21,18,186,33,02,26,049,42,12,32,105,37,25,66,096,40*7B
$GPGSV,2,2,07,29,82,274,39,30,63,305,41,31,49,293,39,,,,*4C
$GPGSA,M,3,02,25,29,30,31,,,,,,,,10.4,6.5,8.2*0D
Trace #77 at position 19.000000
$GPZDA,100636.03,08,10,2011,00,00*6C
$GPRMC,100636.00,A,4611.965947,N,01258.212936,E,001.5,173.4,081011,0.2,E,A*38
$GPGGA,100637.00,4611.965228,N,01258.213094,E,1,05,6.5,133.60,M,46.25,M,,*68
$GPGLL,4611.965228,N,01258.213094,E,100637.00,A,A*69
$GPVTG,132.0,T,132.2,M,001.0,N,001.9,K,A*28
$GPGSV,2,1,07,21,18,186,33,02,26,049,42,12,32,105,37,25,66,096,40*7B
$GPGSV,2,2,07,29,82,274,39,30,63,305,41,31,49,293,39,,,,*4C
$GPGSA,M,3,02,25,29,30,31,,,,,,,,10.4,6.5,8.2*0D
Trace #78 at position 19.250000
$GPZDA,100636.03,08,10,2011,00,00*6C
$GPRMC,100636.00,A,4611.965947,N,01258.212936,E,001.5,173.4,081011,0.2,E,A*38
$GPGGA,100637.00,4611.965228,N,01258.213094,E,1,05,6.5,133.60,M,46.25,M,,*68
$GPGLL,4611.965228,N,01258.213094,E,100637.00,A,A*69
$GPVTG,132.0,T,132.2,M,001.0,N,001.9,K,A*28
$GPGSV,2,1,07,21,18,186,33,02,26,049,42,12,32,105,37,25,66,096,40*7B
$GPGSV,2,2,07,29,82,274,39,30,63,305,41,31,49,293,39,,,,*4C
$GPGSA,M,3,02,25,29,30,31,,,,,,,,10.4,6.5,8.2*0D
Trace #79 at position 19.500000
$GPZDA,100636.03,08,10,2011,00,00*6C
$GPRMC,100636.00,A,4611.965947,N,01258.212936,E,001.5,173.4,081011,0.2,E,A*38
$GPGGA,100637.00,4611.965228,N,01258.213094,E,1,05,6.5,133.60,M,46.25,M,,*68
$GPGLL,4611.965228,N,01258.213094,E,100637.00,A,A*69
$GPVTG,132.0,T,132.2,M,001.0,N,001.9,K,A*28
$GPGSV,2,1,07,21,18,186,33,02,26,049,42,12,32,105,37,25,66,096,40*7B
$GPGSV,2,2,07,29,82,274,39,30,63,305,41,31,49,293,39,,,,*4C
$GPGSA,M,3,02,25,29,30,31,,,,,,,,10.4,6.5,8.2*0D
Trace #80 at position 19.750000
$GPZDA,100637.03,08,10,2011,00,00*6D
$GPRMC,100637.00,A,4611.965228,N,01258.213094,E,001.0,132.0,081011,0.2,E,A*3F
$GPGGA,100638.00,4611.964518,N,01258.213307,E,1,05,6.5,132.91,M,46.25,M,,*64
$GPGLL,4611.964518,N,01258.213307,E,100638.00,A,A*6A
$GPVTG,164.7,T,164.9,M,001.8,N,003.3,K,A*24
$GPGSV,2,1,07,21,18,186,34,02,26,049,42,12,32,105,36,25,66,096,40*7D
$GPGSV,2,2,07,29,82,274,40,30,63,305,42,31,49,293,39,,,,*41
$GPGSA,M,3,02,25,29,30,31,,,,,,,,10.4,6.5,8.2*0D
Trace #81 at position 20.000000
$GPZDA,100637.03,08,10,2011,00,00*6D
$GPRMC,100637.00,A,4611.965228,N,01258.213094,E,001.0,132.0,081011,0.2,E,A*3F
$GPGGA,100638.00,4611.964518,N,01258.213307,E,1,05,6.5,132.91,M,46.25,M,,*64
$GPGLL,4611.964518,N,01258.213307,E,100638.00,A,A*6A
$GPVTG,164.7,T,164.9,M,001.8,N,003.3,K,A*24
$GPGSV,2,1,07,21,18,186,34,02,26,049,42,12,32,105,36,25,66,096,40*7D
$GPGSV,2,2,07,29,82,274,40,30,63,305,42,31,49,293,39,,,,*41
$GPGSA,M,3,02,25,29,30,31,,,,,,,,10.4,6.5,8.2*0D
Trace #82 at position 20.250000
$GPZDA,100637.03,08,10,2011,00,00*6D
$GPRMC,100637.00,A,4611.965228,N,01258.213094,E,001.0,132.0,081011,0.2,E,A*3F
$GPGGA,100638.00,4611.964518,N,01258.213307,E,1,05,6.5,132.91,M,46.25,M,,*64
$GPGLL,4611.964518,N,01258.213307,E,100638.00,A,A*6A
$GPVTG,164.7,T,164.9,M,001.8,N,003.3,K,A*24
$GPGSV,2,1,07,21,18,186,34,02,26,049,42,12,32,105,36,25,66,096,40*7D
$GPGSV,2,2,07,29,82,274,40,30,63,305,42,31,49,293,39,,,,*41
$GPGSA,M,3,02,25,29,30,31,,,,,,,,10.4,6.5,8.2*0D
Trace #83 at position 20.500000
$GPZDA,100638.04,08,10,2011,00,00*65
$GPRMC,100638.00,A,4611.964518,N,01258.213307,E,001.8,164.7,081011,0.2,E,A*30
$GPGGA,100639.00,4611.963705,N,01258.213466,E,1,05,6.5,131.96,M,46.25,M,,*68
$GPGLL,4611.963705,N,01258.213466,E,100639.00,A,A*62
$GPVTG,165.8,T,166.0,M,001.8,N,003.3,K,A*21
$GPGSV,2,1,07,21,18,186,33,02,26,049,42,12,32,105,36,25,66,096,40*7A
$GPGSV,2,2,07,29,82,274,39,30,63,305,43,31,49,293,41,,,,*41
$GPGSA,M,3,02,25,29,30,31,,,,,,,,10.4,6.5,8.2*0D
Trace #84 at position 20.750000
$GPZDA,100638.04,08,10,2011,00,00*65
$GPRMC,100638.00,A,4611.964518,N,01258.213307,E,001.8,164.7,081011,0.2,E,A*30
$GPGGA,100639.00,4611.963705,N,01258.213466,E,1,05,6.5,131.96,M,46.25,M,,*68
$GPGLL,4611.963705,N,01258.213466,E,100639.00,A,A*62
$GPVTG,165.8,T,166.0,M,001.8,N,003.3,K,A*21
$GPGSV,2,1,07,21,18,186,33,02,26,049,42,12,32,105,36,25,66,096,40*7A
$GPGSV,2,2,07,29,82,274,39,30,63,305,43,31,49,293,41,,,,*41
$GPGSA,M,3,02,25,29,30,31,,,,,,,,10.4,6.5,8.2*0D
Trace #85 at position 21.000000
$GPZDA,100638.04,08,10,2011,00,00*65
$GPRMC,100638.00,A,4611.964518,N,01258.213307,E,001.8,164.7,081011,0.2,E,A*30
$GPGGA,100639.00,4611.963705,N,01258.213466,E,1,05,6.5,131.96,M,46.25,M,,*68
$GPGLL,4611.963705,N,01258.213466,E,100639.00,A,A*62
$GPVTG,165.8,T,166.0,M,001.8,N,003.3,K,A*21
$GPGSV,2,1,07,21,18,186,33,02,26,049,42,12,32,105,36,25,66,096,40*7A
$GPGSV,2,2,07,29,82,274,39,30,63,305,43,31,49,293,41,,,,*41
$GPGSA,M,3,02,25,29,30,31,,,,,,,,10.4,6.5,8.2*0D
Trace #86 at position 21.250000
$GPZDA,100639.03,08,10,2011,00,00*63
$GPRMC,100639.00,A,4611.963705,N,01258.213466,E,001.8,165.8,081011,0.2,E,A*36
$GPGGA,100640.00,4611.963020,N,01258.213599,E,1,05,6.5,131.29,M,46.25,M,,*63
$GPGLL,4611.963020,N,01258.213599,E,100640.00,A,A*6D
$GPVTG,165.6,T,165.8,M,001.1,N,002.0,K,A*2F
$GPGSV,2,1,07,21,19,186,36,02,26,049,45,12,32,105,33,25,66,096,39*72
$GPGSV,2,2,07,29,82,274,41,30,63,305,43,31,49,293,39,,,,*41
$GPGSA,M,3,02,25,29,30,31,,,,,,,,10.4,6.5,8.2*0D
Trace #87 at position 21.500000
$GPZDA,100639.03,08,10,2011,00,00*63
$GPRMC,100639.00,A,4611.963705,N,01258.213466,E,001.8,165.8,081011,0.2,E,A*36
$GPGGA,100640.00,4611.963020,N,01258.213599,E,1,05,6.5,131.29,M,46.25,M,,*63
$GPGLL,4611.963020,N,01258.213599,E,100640.00,A,A*6D
$GPVTG,165.6,T,165.8,M,001.1,N,002.0,K,A*2F
$GPGSV,2,1,07,21,19,186,36,02,26,049,45,12,32,105,33,25,66,096,39*72
$GPGSV,2,2,07,29,82,274,41,30,63,305,43,31,49,293,39,,,,*41
$GPGSA,M,3,02,25,29,30,31,,,,,,,,10.4,6.5,8.2*0D
Trace #88 at position 21.750000
$GPZDA,100639.03,08,10,2011,00,00*63
$GPRMC,100639.00,A,4611.963705,N,01258.213466,E,001.8,165.8,081011,0.2,E,A*36
$GPGGA,100640.00,4611.963020,N,01258.213599,E,1,05,6.5,131.29,M,46.25,M,,*63
$GPGLL,4611.963020,N,01258.213599,E,100640.00,A,A*6D
$GPVTG,165.6,T,165.8,M,001.1,N,002.0,K,A*2F
$GPGSV,2,1,07,21,19,186,36,02,26,049,45,12,32,105,33,25,66,096,39*72
$GPGSV,2,2,07,29,82,274,41,30,63,305,43,31,49,293,39,,,,*41
$GPGSA,M,3,02,25,29,30,31,,,,,,,,10.4,6.5,8.2*0D
Trace #89 at position 22.000000
$GPZDA,100640.03,08,10,2011,00,00*6D
$GPRMC,100640.00,A,4611.963020,N,01258.213599,E,001.1,165.6,081011,0.2,E,A*3E
$GPGGA,100641.00,4611.962415,N,01258.213785,E,1,05,6.5,130.81,M,46.25,M,,*6D
$GPGLL,4611.962415,N,01258.213785,E,100641.00,A,A*60
$GPVTG,153.6,T,153.8,M,001.5,N,002.8,K,A*23
$GPGSV,2,1,07,21,19,186,33,02,26,049,44,12,32,105,31,25,66,096,37*7A
$GPGSV,2,2,07,29,82,274,37,30,63,305,40,31,49,293,37,,,,*4D
$GPGSA,M,3,02,25,29,30,31,,,,,,,,10.4,6.5,8.2*0D
Trace #90 at position 22.250000
$GPZDA,100640.03,08,10,2011,00,00*6D
$GPRMC,100640.00,A,4611.963020,N,01258.213599,E,001.1,165.6,081011,0.2,E,A*3E
$GPGGA,100641.00,4611.962415,N,01258.213785,E,1,05,6.5,130.81,M,46.25,M,,*6D
$GPGLL,4611.962415,N,01258.213785,E,100641.00,A,A*60
$GPVTG,153.6,T,153.8,M,001.5,N,002.8,K,A*23
$GPGSV,2,1,07,21,19,186,33,02,26,049,44,12,32,105,31,25,66,096,37*7A
$GPGSV,2,2,07,29,82,274,37,30,63,305,40,31,49,293,37,,,,*4D
$GPGSA,M,3,02,25,29,30,31,,,,,,,,10.4,6.5,8.2*0D
Trace #91 at position 22.500000
$GPZDA,100640.03,08,10,2011,00,00*6D
$GPRMC,100640.00,A,4611.963020,N,01258.213599,E,001.1,165.6,081011,0.2,E,A*3E
$GPGGA,100641.00,4611.962415,N,01258.213785,E,1,05,6.5,130.81,M,46.25,M,,*6D
$GPGLL,4611.962415,N,01258.213785,E,100641.00,A,A*60
$GPVTG,153.6,T,153.8,M,001.5,N,002.8,K,A*23
$GPGSV,2,1,07,21,19,186,33,02,26,049,44,12,32,105,31,25,66,096,37*7A
$GPGSV,2,2,07,29,82,274,37,30,63,305,40,31,49,293,37,,,,*4D
$GPGSA,M,3,02,25,29,30,31,,,,,,,,10.4,6.5,8.2*0D
Trace #92 at position 22.750000
$GPZDA,100641.03,08,10,2011,00,00*6C
$GPRMC,100641.00,A,4611.962415,N,01258.213785,E,001.5,153.6,081011,0.2,E,A*32
$GPGGA,100642.00,4611.961803,N,01258.213954,E,1,05,6.5,130.15,M,46.25,M,,*69
$GPGLL,4611.961803,N,01258.213954,E,100642.00,A,A*69
$GPVTG,171.2,T,171.4,M,001.3,N,002.4,K,A*21
$GPGSV,2,1,07,21,19,186,34,02,26,049,43,12,32,105,35,25,66,096,40*7E
$GPGSV,2,2,07,29,82,274,39,30,63,305,42,31,49,293,39,,,,*4F
$GPGSA,M,3,02,25,29,30,31,,,,,,,,10.4,6.5,8.1*0E
Trace #93 at position 23.000000
$GPZDA,100641.03,08,10,2011,00,00*6C
$GPRMC,100641.00,A,4611.962415,N,01258.213785,E,001.5,153.6,081011,0.2,E,A*32
$GPGGA,100642.00,4611.961803,N,01258.213954,E,1,05,6.5,130.15,M,46.25,M,,*69
$GPGLL,4611.961803,N,01258.213954,E,100642.00,A,A*69
$GPVTG,171.2,T,171.4,M,001.3,N,002.4,K,A*21
$GPGSV,2,1,07,21,19,186,34,02,26,049,43,12,32,105,35,25,66,096,40*7E
$GPGSV,2,2,07,29,82,274,39,30,63,305,42,31,49,293,39,,,,*4F
$GPGSA,M,3,02,25,29,30,31,,,,,,,,10.4,6.5,8.1*0E
Trace #94 at position 23.250000
$GPZDA,100641.03,08,10,2011,00,00*6C
$GPRMC,100641.00,A,4611.962415,N,01258.213785,E,001.5,153.6,081011,0.2,E,A*32
$GPGGA,100642.00,4611.961803,N,01258.213954,E,1,05,6.5,130.15,M,46.25,M,,*69
$GPGLL,4611.961803,N,01258.213954,E,100642.00,A,A*69
$GPVTG,171.2,T,171.4,M,001.3,N,002.4,K,A*21
$GPGSV,2,1,07,21,19,186,34,02,26,049,43,12,32,105,35,25,66,096,40*7E
$GPGSV,2,2,07,29,82,274,39,30,63,305,42,31,49,293,39,,,,*4F
$GPGSA,M,3,02,25,29,30,31,,,,,,,,10.4,6.5,8.1*0E
Trace #95 at position 23.500000
$GPZDA,100642.03,08,10,2011,00,00*6F
$GPRMC,100642.00,A,4611.961803,N,01258.213954,E,001.3,171.2,081011,0.2,E,A*39
$GPGGA,100643.00,4611.961193,N,01258.214014,E,1,05,6.5,129.51,M,46.25,M,,*6A
$GPGLL,4611.961193,N,01258.214014,E,100643.00,A,A*62
$GPVTG,176.7,T,176.9,M,001.5,N,002.8,K,A*23
$GPGSV,2,1,07,21,19,186,37,02,26,049,41,12,32,105,34,25,66,096,43*7D
$GPGSV,2,2,07,29,82,274,42,30,63,305,43,31,49,293,39,,,,*42
$GPGSA,M,3,02,25,29,30,31,,,,,,,,10.4,6.5,8.1*0E
Trace #96 at position 23.750000
$GPZDA,100642.03,08,10,2011,00,00*6F
$GPRMC,100642.00,A,4611.961803,N,01258.213954,E,001.3,171.2,081011,0.2,E,A*39
$GPGGA,100643.00,4611.961193,N,01258.214014,E,1,05,6.5,129.51,M,46.25,M,,*6A
$GPGLL,4611.961193,N,01258.214014,E,100643.00,A,A*62
$GPVTG,176.7,T,176.9,M,001.5,N,002.8,K,A*23
$GPGSV,2,1,07,21,19,186,37,02,26,049,41,12,32,105,34,25,66,096,43*7D
$GPGSV,2,2,07,29,82,274,42,30,63,305,43,31,49,293,39,,,,*42
$GPGSA,M,3,02,25,29,30,31,,,,,,,,10.4,6.5,8.1*0E
Trace #97 at position 24.000000
$GPZDA,100642.03,08,10,2011,00,00*6F
$GPRMC,100642.00,A,4611.961803,N,01258.213954,E,001.3,171.2,081011,0.2,E,A*39
$GPGGA,100643.00,4611.961193,N,01258.214014,E,1,05,6.5,129.51,M,46.25,M,,*6A
$GPGLL,4611.961193,N,01258.214014,E,100643.00,A,A*62
$GPVTG,176.7,T,176.9,M,001.5,N,002.8,K,A*23
$GPGSV,2,1,07,21,19,186,37,02,26,049,41,12,32,105,34,25,66,096,43*7D
$GPGSV,2,2,07,29,82,274,42,30,63,305,43,31,49,293,39,,,,*42
$GPGSA,M,3,02,25,29,30,31,,,,,,,,10.4,6.5,8.1*0E
Trace #98 at position 24.250000
$GPZDA,100643.03,08,10,2011,00,00*6E
$GPRMC,100643.00,A,4611.961193,N,01258.214014,E,001.5,176.7,081011,0.2,E,A*36
$GPGGA,100644.00,4611.960648,N,01258.214047,E,1,05,6.5,129.19,M,46.25,M,,*67
$GPGLL,4611.960648,N,01258.214047,E,100644.00,A,A*63
$GPVTG,181.2,T,181.4,M,001.0,N,001.9,K,A*2C
$GPGSV,2,1,07,21,19,186,33,02,26,049,41,12,32,105,37,25,66,096,40*79
$GPGSV,2,2,07,29,82,274,39,30,63,305,42,31,49,293,38,,,,*4E
$GPGSA,M,3,02,25,29,30,31,,,,,,,,10.4,6.5,8.1*0E
Trace #99 at position 24.500000
$GPZDA,100644.03,08,10,2011,00,00*69
$GPRMC,100644.00,A,4611.960648,N,01258.214047,E,001.0,181.2,081011,0.2,E,A*3F
$GPGGA,100645.00,4611.960196,N,01258.214176,E,1,05,6.5,128.91,M,46.25,M,,*60
$GPGLL,4611.960196,N,01258.214176,E,100645.00,A,A*65
$GPVTG,147.3,T,147.5,M,001.0,N,001.9,K,A*2C
$GPGSV,2,1,07,21,19,186,33,02,26,049,42,12,32,105,34,25,66,096,40*79
$GPGSV,2,2,07,29,82,274,39,30,63,305,41,31,49,293,39,,,,*4C
$GPGSA,M,3,02,25,29,30,31,,,,,,,,10.4,6.5,8.1*0E
Trace #100 at position 24.750000
$GPZDA,100650.03,08,10,2011,00,00*6C
$GPRMC,100650.00,A,4611.957423,N,01258.214775,E,000.2,351.0,081011,0.2,E,A*39
$GPGGA,,,,,,0,03,,,M,,M,,*65
$GPGLL,,,,,,V,N*64
$GPVTG,,T,,,,N,,K,N*61
$GPGSV,2,1,07,21,19,186,34,02,26,049,41,12,32,105,31,25,66,096,*7C
$GPGSV,2,2,07,29,82,275,35,30,63,305,41,31,49,293,39,,,,*41
$GPGSA,M,1,,,,,,,,,,,,,12.4,8.6,9.0*0C
Trace #101 at position 25.000000
$GPZDA,100650.03,08,10,2011,00,00*6C
$GPRMC,100650.00,A,4611.957423,N,01258.214775,E,000.2,351.0,081011,0.2,E,A*39
$GPGGA,,,,,,0,03,,,M,,M,,*65
$GPGLL,,,,,,V,N*64
$GPVTG,,T,,,,N,,K,N*61
$GPGSV,2,1,07,21,19,186,34,02,26,049,41,12,32,105,31,25,66,096,*7C
$GPGSV,2,2,07,29,82,275,35,30,63,305,41,31,49,293,39,,,,*41
$GPGSA,M,1,,,,,,,,,,,,,12.4,8.6,9.0*0C
Trace #102 at position 25.250000
$GPZDA,100651.02,08,10,2011,00,00*6C
$GPRMC,100650.00,V,,,,,,,,,,N*7F
$GPGGA,100652.00,4611.957178,N,01258.214830,E,1,04,8.6,124.54,M,46.25,M,,*60
$GPGLL,4611.957178,N,01258.214830,E,100652.00,A,A*6C
$GPVTG,20.0,T,20.2,M,000.3,N,000.6,K,A*24
$GPGSV,2,1,07,21,19,186,37,02,26,049,44,12,32,105,37,25,66,096,*7C
$GPGSV,2,2,07,29,82,275,40,30,63,305,41,31,49,293,39,,,,*43
$GPGSA,M,3,02,29,30,31,,,,,,,,,12.4,8.6,9.0*06
Trace #103 at position 25.500000
$GPZDA,100651.02,08,10,2011,00,00*6C
$GPRMC,100650.00,V,,,,,,,,,,N*7F
$GPGGA,100652.00,4611.957178,N,01258.214830,E,1,04,8.6,124.54,M,46.25,M,,*60
$GPGLL,4611.957178,N,01258.214830,E,100652.00,A,A*6C
$GPVTG,20.0,T,20.2,M,000.3,N,000.6,K,A*24
$GPGSV,2,1,07,21,19,186,37,02,26,049,44,12,32,105,37,25,66,096,*7C
$GPGSV,2,2,07,29,82,275,40,30,63,305,41,31,49,293,39,,,,*43
$GPGSA,M,3,02,29,30,31,,,,,,,,,12.4,8.6,9.0*06
Trace #104 at position 25.750000
$GPZDA,100651.02,08,10,2011,00,00*6C
$GPRMC,100650.00,V,,,,,,,,,,N*7F
$GPGGA,100652.00,4611.957178,N,01258.214830,E,1,04,8.6,124.54,M,46.25,M,,*60
$GPGLL,4611.957178,N,01258.214830,E,100652.00,A,A*6C
$GPVTG,20.0,T,20.2,M,000.3,N,000.6,K,A*24
$GPGSV,2,1,07,21,19,186,37,02,26,049,44,12,32,105,37,25,66,096,*7C
$GPGSV,2,2,07,29,82,275,40,30,63,305,41,31,49,293,39,,,,*43
$GPGSA,M,3,02,29,30,31,,,,,,,,,12.4,8.6,9.0*06
Trace #105 at position 26.000000
$GPZDA,100652.03,08,10,2011,00,00*6E
$GPRMC,100652.00,A,4611.957178,N,01258.214830,E,000.3,20.0,081011,0.2,E,A*0A
$GPGGA,100653.00,4611.956613,N,01258.215028,E,1,04,8.6,124.01,M,46.25,M,,*6A
$GPGLL,4611.956613,N,01258.215028,E,100653.00,A,A*66
$GPVTG,156.4,T,156.5,M,002.0,N,003.7,K,A*24
$GPGSV,2,1,07,21,19,186,37,02,26,049,44,12,32,105,37,25,66,096,*7C
$GPGSV,2,2,07,29,82,275,42,30,63,305,42,31,49,293,40,,,,*4C
$GPGSA,M,3,02,29,30,31,,,,,,,,,12.4,8.6,9.0*06
Trace #106 at position 26.250000
$GPZDA,100652.03,08,10,2011,00,00*6E
$GPRMC,100652.00,A,4611.957178,N,01258.214830,E,000.3,20.0,081011,0.2,E,A*0A
$GPGGA,100653.00,4611.956613,N,01258.215028,E,1,04,8.6,124.01,M,46.25,M,,*6A
$GPGLL,4611.956613,N,01258.215028,E,100653.00,A,A*66
$GPVTG,156.4,T,156.5,M,002.0,N,003.7,K,A*24
$GPGSV,2,1,07,21,19,186,37,02,26,049,44,12,32,105,37,25,66,096,*7C
$GPGSV,2,2,07,29,82,275,42,30,63,305,42,31,49,293,40,,,,*4C
$GPGSA,M,3,02,29,30,31,,,,,,,,,12.4,8.6,9.0*06
Trace #107 at position 26.500000
$GPZDA,100652.03,08,10,2011,00,00*6E
$GPRMC,100652.00,A,4611.957178,N,01258.214830,E,000.3,20.0,081011,0.2,E,A*0A
$GPGGA,100653.00,4611.956613,N,01258.215028,E,1,04,8.6,124.01,M,46.25,M,,*6A
$GPGLL,4611.956613,N,01258.215028,E,100653.00,A,A*66
$GPVTG,156.4,T,156.5,M,002.0,N,003.7,K,A*24
$GPGSV,2,1,07,21,19,186,37,02,26,049,44,12,32,105,37,25,66,096,*7C
$GPGSV,2,2,07,29,82,275,42,30,63,305,42,31,49,293,40,,,,*4C
$GPGSA,M,3,02,29,30,31,,,,,,,,,12.4,8.6,9.0*06
Trace #108 at position 26.750000
$GPZDA,100652.03,08,10,2011,00,00*6E
$GPRMC,100652.00,A,4611.957178,N,01258.214830,E,000.3,20.0,081011,0.2,E,A*0A
$GPGGA,100653.00,4611.956613,N,01258.215028,E,1,04,8.6,124.01,M,46.25,M,,*6A
$GPGLL,4611.956613,N,01258.215028,E,100653.00,A,A*66
$GPVTG,156.4,T,156.5,M,002.0,N,003.7,K,A*24
$GPGSV,2,1,07,21,19,186,37,02,26,049,44,12,32,105,37,25,66,096,*7C
$GPGSV,2,2,07,29,82,275,42,30,63,305,42,31,49,293,40,,,,*4C
$GPGSA,M,3,02,29,30,31,,,,,,,,,12.4,8.6,9.0*06
Trace #109 at position 27.000000
$GPZDA,100652.03,08,10,2011,00,00*6E
$GPRMC,100652.00,A,4611.957178,N,01258.214830,E,000.3,20.0,081011,0.2,E,A*0A
$GPGGA,100653.00,4611.956613,N,01258.215028,E,1,04,8.6,124.01,M,46.25,M,,*6A
$GPGLL,4611.956613,N,01258.215028,E,100653.00,A,A*66
$GPVTG,156.4,T,156.5,M,002.0,N,003.7,K,A*24
$GPGSV,2,1,07,21,19,186,37,02,26,049,44,12,32,105,37,25,66,096,*7C
$GPGSV,2,2,07,29,82,275,42,30,63,305,42,31,49,293,40,,,,*4C
$GPGSA,M,3,02,29,30,31,,,,,,,,,12.4,8.6,9.0*06
Trace #110 at position 27.250000
$GPZDA,100653.03,08,10,2011,00,00*6F
$GPRMC,100653.00,A,4611.956613,N,01258.215028,E,002.0,156.4,081011,0.2,E,A*35
$GPGGA,100654.00,4611.956850,N,01258.215370,E,1,06,2.3,125.42,M,46.25,M,,*61
$GPGLL,4611.956850,N,01258.215370,E,100654.00,A,A*66
$GPVTG,159.8,T,160.0,M,002.2,N,004.1,K,A*24
$GPGSV,2,1,07,21,19,186,36,02,26,049,43,12,32,105,40,25,66,096,41*7F
$GPGSV,2,2,07,29,82,275,41,30,63,305,42,31,49,293,38,,,,*40
$GPGSA,M,3,02,12,25,29,30,31,,,,,,,4.0,2.3,3.2*36
Trace #111 at position 27.500000
$GPZDA,100653.03,08,10,2011,00,00*6F
$GPRMC,100653.00,A,4611.956613,N,01258.215028,E,002.0,156.4,081011,0.2,E,A*35
$GPGGA,100654.00,4611.956850,N,01258.215370,E,1,06,2.3,125.42,M,46.25,M,,*61
$GPGLL,4611.956850,N,01258.215370,E,100654.00,A,A*66
$GPVTG,159.8,T,160.0,M,002.2,N,004.1,K,A*24
$GPGSV,2,1,07,21,19,186,36,02,26,049,43,12,32,105,40,25,66,096,41*7F
$GPGSV,2,2,07,29,82,275,41,30,63,305,42,31,49,293,38,,,,*40
$GPGSA,M,3,02,12,25,29,30,31,,,,,,,4.0,2.3,3.2*36
Trace #112 at position 27.750000
$GPZDA,100653.03,08,10,2011,00,00*6F
$GPRMC,100653.00,A,4611.956613,N,01258.215028,E,002.0,156.4,081011,0.2,E,A*35
$GPGGA,100654.00,4611.956850,N,01258.215370,E,1,06,2.3,125.42,M,46.25,M,,*61
$GPGLL,4611.956850,N,01258.215370,E,100654.00,A,A*66
$GPVTG,159.8,T,160.0,M,002.2,N,004.1,K,A*24
$GPGSV,2,1,07,21,19,186,36,02,26,049,43,12,32,105,40,25,66,096,41*7F
$GPGSV,2,2,07,29,82,275,41,30,63,305,42,31,49,293,38,,,,*40
$GPGSA,M,3,02,12,25,29,30,31,,,,,,,4.0,2.3,3.2*36
Trace #113 at position 28.000000
$GPZDA,100653.03,08,10,2011,00,00*6F
$GPRMC,100653.00,A,4611.956613,N,01258.215028,E,002.0,156.4,081011,0.2,E,A*35
$GPGGA,100654.00,4611.956850,N,01258.215370,E,1,06,2.3,125.42,M,46.25,M,,*61
$GPGLL,4611.956850,N,01258.215370,E,100654.00,A,A*66
$GPVTG,159.8,T,160.0,M,002.2,N,004.1,K,A*24
$GPGSV,2,1,07,21,19,186,36,02,26,049,43,12,32,105,40,25,66,096,41*7F
$GPGSV,2,2,07,29,82,275,41,30,63,305,42,31,49,293,38,,,,*40
$GPGSA,M,3,02,12,25,29,30,31,,,,,,,4.0,2.3,3.2*36
Trace #114 at position 28.250000
$GPZDA,100654.04,08,10,2011,00,00*6F
$GPRMC,100654.00,A,4611.956850,N,01258.215370,E,002.2,159.8,081011,0.2,E,A*34
$GPGGA,100655.00,4611.956905,N,01258.215617,E,1,06,2.3,126.42,M,46.25,M,,*66
$GPGLL,4611.956905,N,01258.215617,E,100655.00,A,A*62
$GPVTG,166.4,T,166.5,M,001.7,N,003.2,K,A*25
$GPGSV,2,1,07,21,19,186,36,02,26,049,42,12,32,105,39,25,66,096,41*70
$GPGSV,2,2,07,29,82,275,40,30,63,305,42,31,49,293,38,,,,*41
$GPGSA,M,3,02,12,25,29,30,31,,,,,,,4.0,2.3,3.2*36
Trace #115 at position 28.500000
$GPZDA,100654.04,08,10,2011,00,00*6F
$GPRMC,100654.00,A,4611.956850,N,01258.215370,E,002.2,159.8,081011,0.2,E,A*34
$GPGGA,100655.00,4611.956905,N,01258.215617,E,1,06,2.3,126.42,M,46.25,M,,*66
$GPGLL,4611.956905,N,01258.215617,E,100655.00,A,A*62
$GPVTG,166.4,T,166.5,M,001.7,N,003.2,K,A*25
$GPGSV,2,1,07,21,19,186,36,02,26,049,42,12,32,105,39,25,66,096,41*70
$GPGSV,2,2,07,29,82,275,40,30,63,305,42,31,49,293,38,,,,*41
$GPGSA,M,3,02,12,25,29,30,31,,,,,,,4.0,2.3,3.2*36
Trace #116 at position 28.750000
$GPZDA,100654.04,08,10,2011,00,00*6F
$GPRMC,100654.00,A,4611.956850,N,01258.215370,E,002.2,159.8,081011,0.2,E,A*34
$GPGGA,100655.00,4611.956905,N,01258.215617,E,1,06,2.3,126.42,M,46.25,M,,*66
$GPGLL,4611.956905,N,01258.215617,E,100655.00,A,A*62
$GPVTG,166.4,T,166.5,M,001.7,N,003.2,K,A*25
$GPGSV,2,1,07,21,19,186,36,02,26,049,42,12,32,105,39,25,66,096,41*70
$GPGSV,2,2,07,29,82,275,40,30,63,305,42,31,49,293,38,,,,*41
$GPGSA,M,3,02,12,25,29,30,31,,,,,,,4.0,2.3,3.2*36
Trace #117 at position 29.000000
$GPZDA,100655.03,08,10,2011,00,00*69
$GPRMC,100655.00,A,4611.956905,N,01258.215617,E,001.7,166.4,081011,0.2,E,A*36
$GPGGA,100656.00,4611.956889,N,01258.215835,E,1,06,2.3,127.38,M,46.25,M,,*62
$GPGLL,4611.956889,N,01258.215835,E,100656.00,A,A*6A
$GPVTG,164.1,T,164.2,M,002.3,N,004.2,K,A*27
$GPGSV,2,1,07,21,19,186,37,02,26,049,42,12,32,105,38,25,66,096,41*70
$GPGSV,2,2,07,29,82,275,40,30,63,305,43,31,49,293,38,,,,*40
$GPGSA,M,3,02,12,25,29,30,31,,,,,,,4.0,2.3,3.2*36
Trace #118 at position 29.250000
$GPZDA,100655.03,08,10,2011,00,00*69
