Trace #1 at position 0.000000
$GPZDA,104634.03,08,10,2011,00,00*6A
$GPRMC,104634.00,A,4611.953472,N,01258.224320,E,000.0,341.0,081011,0.2,E,A*3B
$GPGGA,104635.00,4611.953457,N,01258.224312,E,1,04,2.9,137.49,M,46.25,M,,*6A
$GPGLL,4611.953457,N,01258.224312,E,104635.00,A,A*6D
$GPVTG,9.4,T,9.5,M,000.0,N,000.0,K,A*22
$GPGSV,2,1,07,21,36,185,43,05,16,073,43,25,50,116,48,29,76,036,43*71
$GPGSV,2,2,07,30,82,302,33,31,52,264,,12,17,117,,,,,*41
$GPGSA,M,3,21,05,25,29,,,,,,,,,4.0,2.9,2.8*31
Trace #2 at position 0.250000
$GPZDA,104637.03,08,10,2011,00,00*69
$GPRMC,104637.00,A,4611.953417,N,01258.224310,E,000.0,172.3,081011,0.2,E,A*39
$GPGGA,104638.00,4611.953404,N,01258.224252,E,1,04,2.9,137.82,M,46.25,M,,*63
$GPGLL,4611.953404,N,01258.224252,E,104638.00,A,A*63
$GPVTG,282.5,T,282.6,M,000.3,N,000.5,K,A*26
$GPGSV,2,1,07,21,36,185,43,05,16,073,44,25,50,116,49,29,76,036,44*70
$GPGSV,2,2,07,30,82,302,35,31,52,264,,12,17,117,,,,,*47
$GPGSA,M,3,21,05,25,29,,,,,,,,,4.0,2.9,2.8*31
Trace #3 at position 0.500000
$GPZDA,104638.03,08,10,2011,00,00*66
$GPRMC,104638.00,A,4611.953404,N,01258.224252,E,000.3,282.5,081011,0.2,E,A*3A
$GPGGA,104639.00,4611.953340,N,01258.224356,E,1,05,2.5,137.92,M,46.25,M,,*6C
$GPGLL,4611.953340,N,01258.224356,E,104639.00,A,A*60
$GPVTG,110.8,T,110.9,M,000.2,N,000.3,K,A*23
$GPGSV,2,1,07,21,36,185,43,05,16,073,38,25,50,116,47,29,76,036,46*77
$GPGSV,2,2,07,30,82,302,40,31,52,264,,12,17,117,,,,,*45
$GPGSA,M,3,21,05,25,29,30,,,,,,,,3.8,2.5,2.8*31
Trace #4 at position 0.750000
$GPZDA,104639.03,08,10,2011,00,00*67
$GPRMC,104639.00,A,4611.953340,N,01258.224356,E,000.2,110.8,081011,0.2,E,A*3D
$GPGGA,104640.00,4611.953377,N,01258.224393,E,1,05,2.5,137.96,M,46.25,M,,*6B
$GPGLL,4611.953377,N,01258.224393,E,104640.00,A,A*63
$GPVTG,320.9,T,321.0,M,000.9,N,001.6,K,A*25
$GPGSV,2,1,07,21,36,185,45,05,16,073,39,25,50,116,46,29,76,036,45*72
$GPGSV,2,2,07,30,82,302,41,31,52,264,,12,17,117,,,,,*44
$GPGSA,M,3,21,05,25,29,30,,,,,,,,3.8,2.5,2.8*31
Trace #5 at position 1.000000
$GPZDA,104640.03,08,10,2011,00,00*69
$GPRMC,104640.00,A,4611.953377,N,01258.224393,E,000.9,320.9,081011,0.2,E,A*35
$GPGGA,104641.00,4611.953496,N,01258.224399,E,1,05,2.5,138.05,M,46.25,M,,*6D
$GPGLL,4611.953496,N,01258.224399,E,104641.00,A,A*60
$GPVTG,7.2,T,7.3,M,000.5,N,001.0,K,A*26
$GPGSV,2,1,07,21,36,185,45,05,16,073,38,25,50,116,46,29,76,036,43*75
$GPGSV,2,2,07,30,82,302,42,31,52,264,38,12,17,117,,,,,*4C
$GPGSA,M,3,21,05,25,29,30,,,,,,,,3.8,2.5,2.8*31
Trace #6 at position 1.250000
$GPZDA,104640.03,08,10,2011,00,00*69
$GPRMC,104640.00,A,4611.953377,N,01258.224393,E,000.9,320.9,081011,0.2,E,A*35
$GPGGA,104641.00,4611.953496,N,01258.224399,E,1,05,2.5,138.05,M,46.25,M,,*6D
$GPGLL,4611.953496,N,01258.224399,E,104641.00,A,A*60
$GPVTG,7.2,T,7.3,M,000.5,N,001.0,K,A*26
$GPGSV,2,1,07,21,36,185,45,05,16,073,38,25,50,116,46,29,76,036,43*75
$GPGSV,2,2,07,30,82,302,42,31,52,264,38,12,17,117,,,,,*4C
$GPGSA,M,3,21,05,25,29,30,,,,,,,,3.8,2.5,2.8*31
Trace #7 at position 1.500000
$GPZDA,104641.03,08,10,2011,00,00*68
$GPRMC,104641.00,A,4611.953496,N,01258.224399,E,000.5,7.2,081011,0.2,E,A*37
$GPGGA,104642.00,4611.953578,N,01258.224458,E,1,05,2.5,138.19,M,46.25,M,,*68
$GPGLL,4611.953578,N,01258.224458,E,104642.00,A,A*68
$GPVTG,326.4,T,326.5,M,000.4,N,000.8,K,A*2E
$GPGSV,2,1,07,21,36,185,44,05,16,073,39,25,49,116,46,29,76,036,41*7F
$GPGSV,2,2,07,30,82,302,42,31,52,264,42,12,17,117,,,,,*41
$GPGSA,M,3,21,05,25,29,30,,,,,,,,3.8,2.5,2.8*31
Trace #8 at position 1.750000
$GPZDA,104642.03,08,10,2011,00,00*6B
$GPRMC,104642.00,A,4611.953578,N,01258.224458,E,000.4,326.4,081011,0.2,E,A*38
$GPGGA,104643.00,4611.953734,N,01258.224443,E,1,05,2.5,138.27,M,46.25,M,,*64
$GPGLL,4611.953734,N,01258.224443,E,104643.00,A,A*69
$GPVTG,343.6,T,343.7,M,001.0,N,001.9,K,A*2B
$GPGSV,2,1,07,21,36,185,45,05,16,073,39,25,49,116,47,29,76,036,42*7C
$GPGSV,2,2,07,30,82,302,42,31,52,264,42,12,17,117,,,,,*41
$GPGSA,M,3,21,05,25,29,30,,,,,,,,3.8,2.5,2.8*31
Trace #9 at position 2.000000
$GPZDA,104643.03,08,10,2011,00,00*6A
$GPRMC,104643.00,A,4611.953734,N,01258.224443,E,001.0,343.6,081011,0.2,E,A*3D
$GPGGA,104644.00,4611.954007,N,01258.224230,E,1,06,1.7,137.97,M,46.25,M,,*67
$GPGLL,4611.954007,N,01258.224230,E,104644.00,A,A*6C
$GPVTG,348.0,T,348.1,M,000.7,N,001.4,K,A*20
$GPGSV,2,1,07,21,36,185,43,05,16,073,38,25,49,116,47,29,76,036,42*7B
$GPGSV,2,2,07,30,82,302,43,31,52,264,43,12,17,117,,,,,*41
$GPGSA,M,3,21,05,25,29,30,31,,,,,,,2.7,1.7,2.2*36
Trace #10 at position 2.250000
$GPZDA,104644.03,08,10,2011,00,00*6D
$GPRMC,104644.00,A,4611.954007,N,01258.224230,E,000.7,348.0,081011,0.2,E,A*33
$GPGGA,104645.00,4611.954095,N,01258.224330,E,1,05,2.5,138.04,M,46.25,M,,*6B
$GPGLL,4611.954095,N,01258.224330,E,104645.00,A,A*67
$GPVTG,35.9,T,36.1,M,000.3,N,000.5,K,A*2E
$GPGSV,2,1,07,21,36,185,44,05,16,073,38,25,49,116,47,29,76,036,41*7F
$GPGSV,2,2,07,30,82,302,43,31,52,264,43,12,17,117,,,,,*41
$GPGSA,M,3,21,05,25,29,30,,,,,,,,3.8,2.5,2.8*31
Trace #11 at position 2.500000
$GPZDA,104644.03,08,10,2011,00,00*6D
$GPRMC,104644.00,A,4611.954007,N,01258.224230,E,000.7,348.0,081011,0.2,E,A*33
$GPGGA,104645.00,4611.954095,N,01258.224330,E,1,05,2.5,138.04,M,46.25,M,,*6B
$GPGLL,4611.954095,N,01258.224330,E,104645.00,A,A*67
$GPVTG,35.9,T,36.1,M,000.3,N,000.5,K,A*2E
$GPGSV,2,1,07,21,36,185,44,05,16,073,38,25,49,116,47,29,76,036,41*7F
$GPGSV,2,2,07,30,82,302,43,31,52,264,43,12,17,117,,,,,*41
$GPGSA,M,3,21,05,25,29,30,,,,,,,,3.8,2.5,2.8*31
Trace #12 at position 2.750000
$GPZDA,104645.03,08,10,2011,00,00*6C
$GPRMC,104645.00,A,4611.954095,N,01258.224330,E,000.3,35.9,081011,0.2,E,A*0C
$GPGGA,104646.00,4611.954224,N,01258.224119,E,1,06,1.7,137.89,M,46.25,M,,*61
$GPGLL,4611.954224,N,01258.224119,E,104646.00,A,A*65
$GPVTG,307.7,T,307.8,M,000.7,N,001.3,K,A*29
$GPGSV,2,1,07,21,36,185,44,05,16,073,39,25,49,116,48,29,76,036,43*73
$GPGSV,2,2,07,30,82,302,42,31,52,264,41,12,17,117,,,,,*42
$GPGSA,M,3,21,05,25,29,30,31,,,,,,,2.7,1.7,2.2*36
Trace #13 at position 3.000000
$GPZDA,104646.03,08,10,2011,00,00*6F
$GPRMC,104646.00,A,4611.954224,N,01258.224119,E,000.7,307.7,081011,0.2,E,A*36
$GPGGA,104647.00,4611.954427,N,01258.223705,E,1,06,1.7,137.76,M,46.25,M,,*69
$GPGLL,4611.954427,N,01258.223705,E,104647.00,A,A*6D
$GPVTG,306.1,T,306.3,M,001.3,N,002.4,K,A*25
$GPGSV,2,1,07,21,36,185,43,05,16,073,40,25,49,116,47,29,76,036,43*75
$GPGSV,2,2,07,30,82,302,42,31,52,264,40,12,17,117,,,,,*43
$GPGSA,M,3,21,05,25,29,30,31,,,,,,,2.7,1.7,2.2*36
Trace #14 at position 3.250000
$GPZDA,104646.03,08,10,2011,00,00*6F
$GPRMC,104646.00,A,4611.954224,N,01258.224119,E,000.7,307.7,081011,0.2,E,A*36
$GPGGA,104647.00,4611.954427,N,01258.223705,E,1,06,1.7,137.76,M,46.25,M,,*69
$GPGLL,4611.954427,N,01258.223705,E,104647.00,A,A*6D
$GPVTG,306.1,T,306.3,M,001.3,N,002.4,K,A*25
$GPGSV,2,1,07,21,36,185,43,05,16,073,40,25,49,116,47,29,76,036,43*75
$GPGSV,2,2,07,30,82,302,42,31,52,264,40,12,17,117,,,,,*43
$GPGSA,M,3,21,05,25,29,30,31,,,,,,,2.7,1.7,2.2*36
Trace #15 at position 3.500000
$GPZDA,104647.03,08,10,2011,00,00*6E
$GPRMC,104647.00,A,4611.954427,N,01258.223705,E,001.3,306.1,081011,0.2,E,A*3C
$GPGGA,104648.00,4611.954683,N,01258.223394,E,1,06,1.7,137.61,M,46.25,M,,*60
$GPGLL,4611.954683,N,01258.223394,E,104648.00,A,A*62
$GPVTG,346.7,T,346.8,M,000.9,N,001.7,K,A*23
$GPGSV,2,1,07,21,36,185,41,05,16,073,39,25,49,116,47,29,76,036,44*7E
$GPGSV,2,2,07,30,82,302,40,31,52,264,40,12,17,117,,,,,*41
$GPGSA,M,3,21,05,25,29,30,31,,,,,,,2.7,1.7,2.2*36
Trace #16 at position 3.750000
$GPZDA,104647.03,08,10,2011,00,00*6E
$GPRMC,104647.00,A,4611.954427,N,01258.223705,E,001.3,306.1,081011,0.2,E,A*3C
$GPGGA,104648.00,4611.954683,N,01258.223394,E,1,06,1.7,137.61,M,46.25,M,,*60
$GPGLL,4611.954683,N,01258.223394,E,104648.00,A,A*62
$GPVTG,346.7,T,346.8,M,000.9,N,001.7,K,A*23
$GPGSV,2,1,07,21,36,185,41,05,16,073,39,25,49,116,47,29,76,036,44*7E
$GPGSV,2,2,07,30,82,302,40,31,52,264,40,12,17,117,,,,,*41
$GPGSA,M,3,21,05,25,29,30,31,,,,,,,2.7,1.7,2.2*36
Trace #17 at position 4.000000
$GPZDA,104647.03,08,10,2011,00,00*6E
$GPRMC,104647.00,A,4611.954427,N,01258.223705,E,001.3,306.1,081011,0.2,E,A*3C
$GPGGA,104648.00,4611.954683,N,01258.223394,E,1,06,1.7,137.61,M,46.25,M,,*60
$GPGLL,4611.954683,N,01258.223394,E,104648.00,A,A*62
$GPVTG,346.7,T,346.8,M,000.9,N,001.7,K,A*23
$GPGSV,2,1,07,21,36,185,41,05,16,073,39,25,49,116,47,29,76,036,44*7E
$GPGSV,2,2,07,30,82,302,40,31,52,264,40,12,17,117,,,,,*41
$GPGSA,M,3,21,05,25,29,30,31,,,,,,,2.7,1.7,2.2*36
Trace #18 at position 4.250000
$GPZDA,104648.03,08,10,2011,00,00*61
$GPRMC,104648.00,A,4611.954683,N,01258.223394,E,000.9,346.7,081011,0.2,E,A*3A
$GPGGA,104649.00,4611.955014,N,01258.223326,E,1,06,1.7,137.40,M,46.25,M,,*62
$GPGLL,4611.955014,N,01258.223326,E,104649.00,A,A*63
$GPVTG,8.8,T,8.9,M,001.4,N,002.6,K,A*23
$GPGSV,2,1,07,21,36,185,43,05,16,073,38,25,49,116,47,29,76,036,43*7A
$GPGSV,2,2,07,30,82,302,41,31,52,264,41,12,17,117,,,,,*41
$GPGSA,M,3,21,05,25,29,30,31,,,,,,,2.7,1.7,2.2*36
Trace #19 at position 4.500000
$GPZDA,104648.03,08,10,2011,00,00*61
$GPRMC,104648.00,A,4611.954683,N,01258.223394,E,000.9,346.7,081011,0.2,E,A*3A
$GPGGA,104649.00,4611.955014,N,01258.223326,E,1,06,1.7,137.40,M,46.25,M,,*62
$GPGLL,4611.955014,N,01258.223326,E,104649.00,A,A*63
$GPVTG,8.8,T,8.9,M,001.4,N,002.6,K,A*23
$GPGSV,2,1,07,21,36,185,43,05,16,073,38,25,49,116,47,29,76,036,43*7A
$GPGSV,2,2,07,30,82,302,41,31,52,264,41,12,17,117,,,,,*41
$GPGSA,M,3,21,05,25,29,30,31,,,,,,,2.7,1.7,2.2*36
Trace #20 at position 4.750000
$GPZDA,104649.03,08,10,2011,00,00*60
$GPRMC,104649.00,A,4611.955014,N,01258.223326,E,001.4,8.8,081011,0.2,E,A*31
$GPGGA,104650.00,4611.955382,N,01258.223328,E,1,06,1.7,137.21,M,46.25,M,,*6F
$GPGLL,4611.955382,N,01258.223328,E,104650.00,A,A*69
$GPVTG,12.2,T,12.4,M,001.3,N,002.4,K,A*21
$GPGSV,2,1,07,21,36,185,43,05,16,073,38,25,49,117,47,29,75,036,43*78
$GPGSV,2,2,07,30,82,302,43,31,52,264,39,12,17,117,,,,,*4C
$GPGSA,M,3,21,05,25,29,30,31,,,,,,,2.7,1.7,2.2*36
Trace #21 at position 5.000000
$GPZDA,104649.03,08,10,2011,00,00*60
$GPRMC,104649.00,A,4611.955014,N,01258.223326,E,001.4,8.8,081011,0.2,E,A*31
$GPGGA,104650.00,4611.955382,N,01258.223328,E,1,06,1.7,137.21,M,46.25,M,,*6F
$GPGLL,4611.955382,N,01258.223328,E,104650.00,A,A*69
$GPVTG,12.2,T,12.4,M,001.3,N,002.4,K,A*21
$GPGSV,2,1,07,21,36,185,43,05,16,073,38,25,49,117,47,29,75,036,43*78
$GPGSV,2,2,07,30,82,302,43,31,52,264,39,12,17,117,,,,,*4C
$GPGSA,M,3,21,05,25,29,30,31,,,,,,,2.7,1.7,2.2*36
Trace #22 at position 5.250000
$GPZDA,104650.03,08,10,2011,00,00*68
$GPRMC,104650.00,A,4611.955382,N,01258.223328,E,001.3,12.2,081011,0.2,E,A*0D
$GPGGA,104651.00,4611.955671,N,01258.223230,E,1,06,1.7,137.11,M,46.25,M,,*6C
$GPGLL,4611.955671,N,01258.223230,E,104651.00,A,A*69
$GPVTG,342.5,T,342.6,M,000.9,N,001.6,K,A*2E
$GPGSV,2,1,07,21,36,185,43,05,16,073,37,25,49,117,47,29,75,036,43*77
$GPGSV,2,2,07,30,82,302,43,31,52,264,41,12,17,117,,,,,*43
$GPGSA,M,3,21,05,25,29,30,31,,,,,,,2.7,1.7,2.2*36
Trace #23 at position 5.500000
$GPZDA,104650.03,08,10,2011,00,00*68
$GPRMC,104650.00,A,4611.955382,N,01258.223328,E,001.3,12.2,081011,0.2,E,A*0D
$GPGGA,104651.00,4611.955671,N,01258.223230,E,1,06,1.7,137.11,M,46.25,M,,*6C
$GPGLL,4611.955671,N,01258.223230,E,104651.00,A,A*69
$GPVTG,342.5,T,342.6,M,000.9,N,001.6,K,A*2E
$GPGSV,2,1,07,21,36,185,43,05,16,073,37,25,49,117,47,29,75,036,43*77
$GPGSV,2,2,07,30,82,302,43,31,52,264,41,12,17,117,,,,,*43
$GPGSA,M,3,21,05,25,29,30,31,,,,,,,2.7,1.7,2.2*36
Trace #24 at position 5.750000
$GPZDA,104651.03,08,10,2011,00,00*69
$GPRMC,104651.00,A,4611.955671,N,01258.223230,E,000.9,342.5,081011,0.2,E,A*37
$GPGGA,104652.00,4611.955953,N,01258.223036,E,1,06,1.7,137.04,M,46.25,M,,*60
$GPGLL,4611.955953,N,01258.223036,E,104652.00,A,A*61
$GPVTG,348.4,T,348.5,M,001.2,N,002.3,K,A*20
$GPGSV,2,1,07,21,36,185,43,05,16,073,40,25,49,117,47,29,75,036,44*70
$GPGSV,2,2,07,30,82,302,43,31,52,264,42,12,17,117,,,,,*40
$GPGSA,M,3,21,05,25,29,30,31,,,,,,,2.7,1.7,2.2*36
Trace #25 at position 6.000000
$GPZDA,104651.03,08,10,2011,00,00*69
$GPRMC,104651.00,A,4611.955671,N,01258.223230,E,000.9,342.5,081011,0.2,E,A*37
$GPGGA,104652.00,4611.955953,N,01258.223036,E,1,06,1.7,137.04,M,46.25,M,,*60
$GPGLL,4611.955953,N,01258.223036,E,104652.00,A,A*61
$GPVTG,348.4,T,348.5,M,001.2,N,002.3,K,A*20
$GPGSV,2,1,07,21,36,185,43,05,16,073,40,25,49,117,47,29,75,036,44*70
$GPGSV,2,2,07,30,82,302,43,31,52,264,42,12,17,117,,,,,*40
$GPGSA,M,3,21,05,25,29,30,31,,,,,,,2.7,1.7,2.2*36
Trace #26 at position 6.250000
$GPZDA,104652.03,08,10,2011,00,00*6A
$GPRMC,104652.00,A,4611.955953,N,01258.223036,E,001.2,348.4,081011,0.2,E,A*3E
$GPGGA,104653.00,4611.956213,N,01258.222820,E,1,06,1.7,136.95,M,46.25,M,,*6A
$GPGLL,4611.956213,N,01258.222820,E,104653.00,A,A*62
$GPVTG,328.7,T,328.9,M,000.8,N,001.5,K,A*21
$GPGSV,2,1,07,21,36,185,43,05,16,073,39,25,49,117,48,29,75,036,44*71
$GPGSV,2,2,07,30,82,302,42,31,52,264,43,12,17,117,,,,,*40
$GPGSA,M,3,21,05,25,29,30,31,,,,,,,2.7,1.7,2.2*36
Trace #27 at position 6.500000
$GPZDA,104652.03,08,10,2011,00,00*6A
$GPRMC,104652.00,A,4611.955953,N,01258.223036,E,001.2,348.4,081011,0.2,E,A*3E
$GPGGA,104653.00,4611.956213,N,01258.222820,E,1,06,1.7,136.95,M,46.25,M,,*6A
$GPGLL,4611.956213,N,01258.222820,E,104653.00,A,A*62
$GPVTG,328.7,T,328.9,M,000.8,N,001.5,K,A*21
$GPGSV,2,1,07,21,36,185,43,05,16,073,39,25,49,117,48,29,75,036,44*71
$GPGSV,2,2,07,30,82,302,42,31,52,264,43,12,17,117,,,,,*40
$GPGSA,M,3,21,05,25,29,30,31,,,,,,,2.7,1.7,2.2*36
Trace #28 at position 6.750000
$GPZDA,104653.04,08,10,2011,00,00*6C
$GPRMC,104653.00,A,4611.956213,N,01258.222820,E,000.8,328.7,081011,0.2,E,A*33
$GPGGA,104654.00,4611.956420,N,01258.222641,E,1,06,1.7,136.86,M,46.25,M,,*60
$GPGLL,4611.956420,N,01258.222641,E,104654.00,A,A*6A
$GPVTG,350.9,T,351.0,M,000.8,N,001.5,K,A*27
$GPGSV,2,1,07,21,37,185,43,05,16,073,39,25,49,117,46,29,75,036,45*7F
$GPGSV,2,2,07,30,82,302,42,31,52,264,42,12,17,117,,,,,*41
$GPGSA,M,3,21,05,25,29,30,31,,,,,,,2.7,1.7,2.2*36
Trace #29 at position 7.000000
$GPZDA,104653.04,08,10,2011,00,00*6C
$GPRMC,104653.00,A,4611.956213,N,01258.222820,E,000.8,328.7,081011,0.2,E,A*33
$GPGGA,104654.00,4611.956420,N,01258.222641,E,1,06,1.7,136.86,M,46.25,M,,*60
$GPGLL,4611.956420,N,01258.222641,E,104654.00,A,A*6A
$GPVTG,350.9,T,351.0,M,000.8,N,001.5,K,A*27
$GPGSV,2,1,07,21,37,185,43,05,16,073,39,25,49,117,46,29,75,036,45*7F
$GPGSV,2,2,07,30,82,302,42,31,52,264,42,12,17,117,,,,,*41
$GPGSA,M,3,21,05,25,29,30,31,,,,,,,2.7,1.7,2.2*36
Trace #30 at position 7.250000
$GPZDA,104654.03,08,10,2011,00,00*6C
$GPRMC,104654.00,A,4611.956420,N,01258.222641,E,000.8,350.9,081011,0.2,E,A*3A
$GPGGA,104655.00,4611.956694,N,01258.222446,E,1,06,1.7,136.78,M,46.25,M,,*68
$GPGLL,4611.956694,N,01258.222446,E,104655.00,A,A*63
$GPVTG,334.8,T,334.9,M,001.3,N,002.4,K,A*26
$GPGSV,2,1,07,21,37,185,43,05,16,073,39,25,49,117,48,29,75,036,45*71
$GPGSV,2,2,07,30,82,302,42,31,52,264,42,12,17,117,,,,,*41
$GPGSA,M,3,21,05,25,29,30,31,,,,,,,2.7,1.7,2.2*36
Trace #31 at position 7.500000
$GPZDA,104654.03,08,10,2011,00,00*6C
$GPRMC,104654.00,A,4611.956420,N,01258.222641,E,000.8,350.9,081011,0.2,E,A*3A
$GPGGA,104655.00,4611.956694,N,01258.222446,E,1,06,1.7,136.78,M,46.25,M,,*68
$GPGLL,4611.956694,N,01258.222446,E,104655.00,A,A*63
$GPVTG,334.8,T,334.9,M,001.3,N,002.4,K,A*26
$GPGSV,2,1,07,21,37,185,43,05,16,073,39,25,49,117,48,29,75,036,45*71
$GPGSV,2,2,07,30,82,302,42,31,52,264,42,12,17,117,,,,,*41
$GPGSA,M,3,21,05,25,29,30,31,,,,,,,2.7,1.7,2.2*36
Trace #32 at position 7.750000
$GPZDA,104655.03,08,10,2011,00,00*6D
$GPRMC,104655.00,A,4611.956694,N,01258.222446,E,001.3,334.8,081011,0.2,E,A*3A
$GPGGA,104656.00,4611.956977,N,01258.222200,E,1,06,1.7,136.70,M,46.25,M,,*65
$GPGLL,4611.956977,N,01258.222200,E,104656.00,A,A*66
$GPVTG,332.7,T,332.8,M,001.0,N,001.8,K,A*24
$GPGSV,2,1,07,21,37,185,42,05,16,073,39,25,49,117,47,29,75,036,44*7E
$GPGSV,2,2,07,30,82,302,43,31,52,264,43,12,17,117,,,,,*41
$GPGSA,M,3,21,05,25,29,30,31,,,,,,,2.7,1.7,2.2*36
Trace #33 at position 8.000000
$GPZDA,104655.03,08,10,2011,00,00*6D
$GPRMC,104655.00,A,4611.956694,N,01258.222446,E,001.3,334.8,081011,0.2,E,A*3A
$GPGGA,104656.00,4611.956977,N,01258.222200,E,1,06,1.7,136.70,M,46.25,M,,*65
$GPGLL,4611.956977,N,01258.222200,E,104656.00,A,A*66
$GPVTG,332.7,T,332.8,M,001.0,N,001.8,K,A*24
$GPGSV,2,1,07,21,37,185,42,05,16,073,39,25,49,117,47,29,75,036,44*7E
$GPGSV,2,2,07,30,82,302,43,31,52,264,43,12,17,117,,,,,*41
$GPGSA,M,3,21,05,25,29,30,31,,,,,,,2.7,1.7,2.2*36
Trace #34 at position 8.250000
$GPZDA,104656.03,08,10,2011,00,00*6E
$GPRMC,104656.00,A,4611.956977,N,01258.222200,E,001.0,332.7,081011,0.2,E,A*35
$GPGGA,104657.00,4611.957188,N,01258.221924,E,1,06,1.7,136.65,M,46.25,M,,*67
$GPGLL,4611.957188,N,01258.221924,E,104657.00,A,A*60
$GPVTG,306.8,T,306.9,M,001.0,N,001.9,K,A*2B
$GPGSV,2,1,07,21,37,185,44,05,16,073,39,25,49,117,47,29,75,036,44*78
$GPGSV,2,2,07,30,82,302,42,31,52,264,41,12,17,117,,,,,*42
$GPGSA,M,3,21,05,25,29,30,31,,,,,,,2.7,1.7,2.2*36
Trace #35 at position 8.500000
$GPZDA,104657.03,08,10,2011,00,00*6F
$GPRMC,104657.00,A,4611.957188,N,01258.221924,E,001.0,306.8,081011,0.2,E,A*3B
$GPGGA,104658.00,4611.957439,N,01258.221810,E,1,06,1.7,136.59,M,46.25,M,,*6E
$GPGLL,4611.957439,N,01258.221810,E,104658.00,A,A*66
$GPVTG,15.8,T,15.9,M,001.2,N,002.2,K,A*21
$GPGSV,2,1,07,21,37,185,43,05,16,073,39,25,49,117,48,29,75,036,44*70
$GPGSV,2,2,07,30,82,302,43,31,52,264,40,12,17,117,,,,,*42
$GPGSA,M,3,21,05,25,29,30,31,,,,,,,2.7,1.7,2.2*36
Trace #36 at position 8.750000
$GPZDA,104657.03,08,10,2011,00,00*6F
$GPRMC,104657.00,A,4611.957188,N,01258.221924,E,001.0,306.8,081011,0.2,E,A*3B
$GPGGA,104658.00,4611.957439,N,01258.221810,E,1,06,1.7,136.59,M,46.25,M,,*6E
$GPGLL,4611.957439,N,01258.221810,E,104658.00,A,A*66
$GPVTG,15.8,T,15.9,M,001.2,N,002.2,K,A*21
$GPGSV,2,1,07,21,37,185,43,05,16,073,39,25,49,117,48,29,75,036,44*70
$GPGSV,2,2,07,30,82,302,43,31,52,264,40,12,17,117,,,,,*42
$GPGSA,M,3,21,05,25,29,30,31,,,,,,,2.7,1.7,2.2*36
Trace #37 at position 9.000000
$GPZDA,104658.03,08,10,2011,00,00*60
$GPRMC,104658.00,A,4611.957439,N,01258.221810,E,001.2,15.8,081011,0.2,E,A*0E
$GPGGA,104659.00,4611.957674,N,01258.221700,E,1,06,1.7,136.58,M,46.25,M,,*6B
$GPGLL,4611.957674,N,01258.221700,E,104659.00,A,A*62
$GPVTG,303.8,T,303.9,M,000.9,N,001.7,K,A*2D
$GPGSV,2,1,07,21,37,185,43,05,16,073,39,25,49,117,47,29,75,036,44*7F
$GPGSV,2,2,07,30,82,302,43,31,52,264,42,12,17,117,,,,,*40
$GPGSA,M,3,21,05,25,29,30,31,,,,,,,2.7,1.7,2.2*36
Trace #38 at position 9.250000
$GPZDA,104658.03,08,10,2011,00,00*60
$GPRMC,104658.00,A,4611.957439,N,01258.221810,E,001.2,15.8,081011,0.2,E,A*0E
$GPGGA,104659.00,4611.957674,N,01258.221700,E,1,06,1.7,136.58,M,46.25,M,,*6B
$GPGLL,4611.957674,N,01258.221700,E,104659.00,A,A*62
$GPVTG,303.8,T,303.9,M,000.9,N,001.7,K,A*2D
$GPGSV,2,1,07,21,37,185,43,05,16,073,39,25,49,117,47,29,75,036,44*7F
$GPGSV,2,2,07,30,82,302,43,31,52,264,42,12,17,117,,,,,*40
$GPGSA,M,3,21,05,25,29,30,31,,,,,,,2.7,1.7,2.2*36
Trace #39 at position 9.500000
$GPZDA,104659.03,08,10,2011,00,00*61
$GPRMC,104659.00,A,4611.957674,N,01258.221700,E,000.9,303.8,081011,0.2,E,A*34
$GPGGA,104700.00,4611.957898,N,01258.221483,E,1,06,1.7,136.59,M,46.25,M,,*63
$GPGLL,4611.957898,N,01258.221483,E,104700.00,A,A*6B
$GPVTG,344.2,T,344.3,M,001.1,N,002.0,K,A*20
$GPGSV,2,1,07,21,37,185,43,05,16,073,38,25,49,117,47,29,75,036,44*7E
$GPGSV,2,2,07,30,82,302,43,31,52,264,41,12,17,117,,,,,*43
$GPGSA,M,3,21,05,25,29,30,31,,,,,,,2.8,1.7,2.2*39
Trace #40 at position 9.750000
$GPZDA,104659.03,08,10,2011,00,00*61
$GPRMC,104659.00,A,4611.957674,N,01258.221700,E,000.9,303.8,081011,0.2,E,A*34
$GPGGA,104700.00,4611.957898,N,01258.221483,E,1,06,1.7,136.59,M,46.25,M,,*63
$GPGLL,4611.957898,N,01258.221483,E,104700.00,A,A*6B
$GPVTG,344.2,T,344.3,M,001.1,N,002.0,K,A*20
$GPGSV,2,1,07,21,37,185,43,05,16,073,38,25,49,117,47,29,75,036,44*7E
$GPGSV,2,2,07,30,82,302,43,31,52,264,41,12,17,117,,,,,*43
$GPGSA,M,3,21,05,25,29,30,31,,,,,,,2.8,1.7,2.2*39
Trace #41 at position 10.000000
$GPZDA,104700.03,08,10,2011,00,00*6C
$GPRMC,104700.00,A,4611.957898,N,01258.221483,E,001.1,344.2,081011,0.2,E,A*3D
$GPGGA,104701.00,4611.958124,N,01258.221384,E,1,06,1.7,136.55,M,46.25,M,,*6F
$GPGLL,4611.958124,N,01258.221384,E,104701.00,A,A*6B
$GPVTG,343.3,T,343.5,M,000.5,N,001.0,K,A*21
$GPGSV,2,1,07,21,37,185,43,05,16,073,39,25,49,117,47,29,75,036,44*7F
$GPGSV,2,2,07,30,82,302,43,31,52,264,41,12,17,117,,,,,*43
$GPGSA,M,3,21,05,25,29,30,31,,,,,,,2.8,1.7,2.2*39
Trace #42 at position 10.250000
$GPZDA,104700.03,08,10,2011,00,00*6C
$GPRMC,104700.00,A,4611.957898,N,01258.221483,E,001.1,344.2,081011,0.2,E,A*3D
$GPGGA,104701.00,4611.958124,N,01258.221384,E,1,06,1.7,136.55,M,46.25,M,,*6F
$GPGLL,4611.958124,N,01258.221384,E,104701.00,A,A*6B
$GPVTG,343.3,T,343.5,M,000.5,N,001.0,K,A*21
$GPGSV,2,1,07,21,37,185,43,05,16,073,39,25,49,117,47,29,75,036,44*7F
$GPGSV,2,2,07,30,82,302,43,31,52,264,41,12,17,117,,,,,*43
$GPGSA,M,3,21,05,25,29,30,31,,,,,,,2.8,1.7,2.2*39
Trace #43 at position 10.500000
$GPZDA,104700.03,08,10,2011,00,00*6C
$GPRMC,104700.00,A,4611.957898,N,01258.221483,E,001.1,344.2,081011,0.2,E,A*3D
$GPGGA,104701.00,4611.958124,N,01258.221384,E,1,06,1.7,136.55,M,46.25,M,,*6F
$GPGLL,4611.958124,N,01258.221384,E,104701.00,A,A*6B
$GPVTG,343.3,T,343.5,M,000.5,N,001.0,K,A*21
$GPGSV,2,1,07,21,37,185,43,05,16,073,39,25,49,117,47,29,75,036,44*7F
$GPGSV,2,2,07,30,82,302,43,31,52,264,41,12,17,117,,,,,*43
$GPGSA,M,3,21,05,25,29,30,31,,,,,,,2.8,1.7,2.2*39
Trace #44 at position 10.750000
$GPZDA,104701.03,08,10,2011,00,00*6D
$GPRMC,104701.00,A,4611.958124,N,01258.221384,E,000.5,343.3,081011,0.2,E,A*3E
$GPGGA,104702.00,4611.958301,N,01258.221305,E,1,06,1.7,136.50,M,46.25,M,,*65
$GPGLL,4611.958301,N,01258.221305,E,104702.00,A,A*64
$GPVTG,343.4,T,343.6,M,000.7,N,001.3,K,A*24
$GPGSV,2,1,07,21,37,185,43,05,16,073,39,25,49,117,48,29,75,036,45*71
$GPGSV,2,2,07,30,82,301,42,31,52,264,42,12,17,117,,,,,*42
$GPGSA,M,3,21,05,25,29,30,31,,,,,,,2.8,1.7,2.2*39
Trace #45 at position 11.000000
$GPZDA,104701.03,08,10,2011,00,00*6D
$GPRMC,104701.00,A,4611.958124,N,01258.221384,E,000.5,343.3,081011,0.2,E,A*3E
$GPGGA,104702.00,4611.958301,N,01258.221305,E,1,06,1.7,136.50,M,46.25,M,,*65
$GPGLL,4611.958301,N,01258.221305,E,104702.00,A,A*64
$GPVTG,343.4,T,343.6,M,000.7,N,001.3,K,A*24
$GPGSV,2,1,07,21,37,185,43,05,16,073,39,25,49,117,48,29,75,036,45*71
$GPGSV,2,2,07,30,82,301,42,31,52,264,42,12,17,117,,,,,*42
$GPGSA,M,3,21,05,25,29,30,31,,,,,,,2.8,1.7,2.2*39
Trace #46 at position 11.250000
$GPZDA,104702.03,08,10,2011,00,00*6E
$GPRMC,104702.00,A,4611.958301,N,01258.221305,E,000.7,343.4,081011,0.2,E,A*34
$GPGGA,104703.00,4611.958543,N,01258.221158,E,1,06,1.7,136.47,M,46.25,M,,*68
$GPGLL,4611.958543,N,01258.221158,E,104703.00,A,A*6F
$GPVTG,331.9,T,332.1,M,001.0,N,001.9,K,A*21
$GPGSV,2,1,07,21,37,185,44,05,16,073,39,25,49,117,47,29,75,036,45*79
$GPGSV,2,2,07,30,82,301,43,31,52,264,41,12,17,117,,,,,*40
$GPGSA,M,3,21,05,25,29,30,31,,,,,,,2.8,1.7,2.2*39
Trace #47 at position 11.500000
$GPZDA,104702.03,08,10,2011,00,00*6E
$GPRMC,104702.00,A,4611.958301,N,01258.221305,E,000.7,343.4,081011,0.2,E,A*34
$GPGGA,104703.00,4611.958543,N,01258.221158,E,1,06,1.7,136.47,M,46.25,M,,*68
$GPGLL,4611.958543,N,01258.221158,E,104703.00,A,A*6F
$GPVTG,331.9,T,332.1,M,001.0,N,001.9,K,A*21
$GPGSV,2,1,07,21,37,185,44,05,16,073,39,25,49,117,47,29,75,036,45*79
$GPGSV,2,2,07,30,82,301,43,31,52,264,41,12,17,117,,,,,*40
$GPGSA,M,3,21,05,25,29,30,31,,,,,,,2.8,1.7,2.2*39
Trace #48 at position 11.750000
$GPZDA,104703.03,08,10,2011,00,00*6F
$GPRMC,104703.00,A,4611.958543,N,01258.221158,E,001.0,331.9,081011,0.2,E,A*31
$GPGGA,104704.00,4611.958898,N,01258.221048,E,1,06,1.7,136.45,M,46.25,M,,*66
$GPGLL,4611.958898,N,01258.221048,E,104704.00,A,A*63
$GPVTG,0.0,T,0.2,M,001.5,N,002.8,K,A*2F
$GPGSV,2,1,07,21,37,185,44,05,16,073,40,25,49,117,48,29,75,036,43*7E
$GPGSV,2,2,07,30,82,301,43,31,52,264,41,12,17,117,,,,,*40
$GPGSA,M,3,21,05,25,29,30,31,,,,,,,2.8,1.7,2.2*39
Trace #49 at position 12.000000
$GPZDA,104703.03,08,10,2011,00,00*6F
$GPRMC,104703.00,A,4611.958543,N,01258.221158,E,001.0,331.9,081011,0.2,E,A*31
$GPGGA,104704.00,4611.958898,N,01258.221048,E,1,06,1.7,136.45,M,46.25,M,,*66
$GPGLL,4611.958898,N,01258.221048,E,104704.00,A,A*63
$GPVTG,0.0,T,0.2,M,001.5,N,002.8,K,A*2F
$GPGSV,2,1,07,21,37,185,44,05,16,073,40,25,49,117,48,29,75,036,43*7E
$GPGSV,2,2,07,30,82,301,43,31,52,264,41,12,17,117,,,,,*40
$GPGSA,M,3,21,05,25,29,30,31,,,,,,,2.8,1.7,2.2*39
Trace #50 at position 12.250000
$GPZDA,104704.03,08,10,2011,00,00*68
$GPRMC,104704.00,A,4611.958898,N,01258.221048,E,001.5,0.0,081011,0.2,E,A*30
$GPGGA,104705.00,4611.959274,N,01258.221051,E,1,06,1.7,136.38,M,46.25,M,,*6C
$GPGLL,4611.959274,N,01258.221051,E,104705.00,A,A*63
$GPVTG,7.7,T,7.9,M,001.2,N,002.2,K,A*2E
$GPGSV,2,1,07,21,37,185,42,05,16,073,39,25,49,117,48,29,75,036,44*71
$GPGSV,2,2,07,30,82,301,43,31,52,264,42,12,17,117,,,,,*43
$GPGSA,M,3,21,05,25,29,30,31,,,,,,,2.8,1.7,2.2*39
Trace #51 at position 12.500000
$GPZDA,104704.03,08,10,2011,00,00*68
$GPRMC,104704.00,A,4611.958898,N,01258.221048,E,001.5,0.0,081011,0.2,E,A*30
$GPGGA,104705.00,4611.959274,N,01258.221051,E,1,06,1.7,136.38,M,46.25,M,,*6C
$GPGLL,4611.959274,N,01258.221051,E,104705.00,A,A*63
$GPVTG,7.7,T,7.9,M,001.2,N,002.2,K,A*2E
$GPGSV,2,1,07,21,37,185,42,05,16,073,39,25,49,117,48,29,75,036,44*71
$GPGSV,2,2,07,30,82,301,43,31,52,264,42,12,17,117,,,,,*43
$GPGSA,M,3,21,05,25,29,30,31,,,,,,,2.8,1.7,2.2*39
Trace #52 at position 12.750000
$GPZDA,104705.03,08,10,2011,00,00*69
$GPRMC,104705.00,A,4611.959274,N,01258.221051,E,001.2,7.7,081011,0.2,E,A*37
$GPGGA,104706.00,4611.959523,N,01258.220870,E,1,06,1.7,136.36,M,46.25,M,,*6E
$GPGLL,4611.959523,N,01258.220870,E,104706.00,A,A*6F
$GPVTG,302.4,T,302.6,M,001.1,N,002.1,K,A*22
$GPGSV,2,1,07,21,37,185,43,05,16,073,39,25,49,117,48,29,75,036,44*70
$GPGSV,2,2,07,30,82,301,43,31,52,264,42,12,17,117,,,,,*43
$GPGSA,M,3,21,05,25,29,30,31,,,,,,,2.8,1.7,2.2*39
Trace #53 at position 13.000000
$GPZDA,104705.03,08,10,2011,00,00*69
$GPRMC,104705.00,A,4611.959274,N,01258.221051,E,001.2,7.7,081011,0.2,E,A*37
$GPGGA,104706.00,4611.959523,N,01258.220870,E,1,06,1.7,136.36,M,46.25,M,,*6E
$GPGLL,4611.959523,N,01258.220870,E,104706.00,A,A*6F
$GPVTG,302.4,T,302.6,M,001.1,N,002.1,K,A*22
$GPGSV,2,1,07,21,37,185,43,05,16,073,39,25,49,117,48,29,75,036,44*70
$GPGSV,2,2,07,30,82,301,43,31,52,264,42,12,17,117,,,,,*43
$GPGSA,M,3,21,05,25,29,30,31,,,,,,,2.8,1.7,2.2*39
Trace #54 at position 13.250000
$GPZDA,104706.03,08,10,2011,00,00*6A
$GPRMC,104706.00,A,4611.959523,N,01258.220870,E,001.1,302.4,081011,0.2,E,A*3D
$GPGGA,104707.00,4611.959742,N,01258.220702,E,1,06,1.7,136.40,M,46.25,M,,*61
$GPGLL,4611.959742,N,01258.220702,E,104707.00,A,A*61
$GPVTG,10.0,T,10.1,M,000.9,N,001.7,K,A*2D
$GPGSV,2,1,07,21,37,185,42,05,16,073,39,25,49,117,48,29,75,036,43*76
$GPGSV,2,2,07,30,82,301,42,31,52,264,40,12,17,117,,,,,*40
$GPGSA,M,3,21,05,25,29,30,31,,,,,,,2.8,1.7,2.2*39
Trace #55 at position 13.500000
$GPZDA,104707.03,08,10,2011,00,00*6B
$GPRMC,104707.00,A,4611.959742,N,01258.220702,E,000.9,10.0,081011,0.2,E,A*0E
$GPGGA,104708.00,4611.959962,N,01258.220721,E,1,06,1.7,136.42,M,46.25,M,,*61
$GPGLL,4611.959962,N,01258.220721,E,104708.00,A,A*63
$GPVTG,7.0,T,7.1,M,000.6,N,001.1,K,A*24
$GPGSV,2,1,07,21,37,185,43,05,16,073,38,25,49,117,48,29,75,036,42*77
$GPGSV,2,2,07,30,82,301,42,31,52,264,40,12,17,117,,,,,*40
$GPGSA,M,3,21,05,25,29,30,31,,,,,,,2.8,1.7,2.2*39
Trace #56 at position 13.750000
$GPZDA,104707.03,08,10,2011,00,00*6B
$GPRMC,104707.00,A,4611.959742,N,01258.220702,E,000.9,10.0,081011,0.2,E,A*0E
$GPGGA,104708.00,4611.959962,N,01258.220721,E,1,06,1.7,136.42,M,46.25,M,,*61
$GPGLL,4611.959962,N,01258.220721,E,104708.00,A,A*63
$GPVTG,7.0,T,7.1,M,000.6,N,001.1,K,A*24
$GPGSV,2,1,07,21,37,185,43,05,16,073,38,25,49,117,48,29,75,036,42*77
$GPGSV,2,2,07,30,82,301,42,31,52,264,40,12,17,117,,,,,*40
$GPGSA,M,3,21,05,25,29,30,31,,,,,,,2.8,1.7,2.2*39
Trace #57 at position 14.000000
$GPZDA,104708.04,08,10,2011,00,00*63
$GPRMC,104708.00,A,4611.959962,N,01258.220721,E,000.6,7.0,081011,0.2,E,A*35
$GPGGA,104709.00,4611.960213,N,01258.220711,E,1,06,1.7,136.39,M,46.25,M,,*68
$GPGLL,4611.960213,N,01258.220711,E,104709.00,A,A*66
$GPVTG,2.5,T,2.6,M,001.2,N,002.2,K,A*23
$GPGSV,2,1,07,21,37,185,43,05,16,073,39,25,49,117,48,29,75,036,42*76
$GPGSV,2,2,07,30,82,301,41,31,52,264,39,12,17,117,,,,,*4D
$GPGSA,M,3,21,05,25,29,30,31,,,,,,,2.8,1.7,2.2*39
Trace #58 at position 14.250000
$GPZDA,104708.04,08,10,2011,00,00*63
$GPRMC,104708.00,A,4611.959962,N,01258.220721,E,000.6,7.0,081011,0.2,E,A*35
$GPGGA,104709.00,4611.960213,N,01258.220711,E,1,06,1.7,136.39,M,46.25,M,,*68
$GPGLL,4611.960213,N,01258.220711,E,104709.00,A,A*66
$GPVTG,2.5,T,2.6,M,001.2,N,002.2,K,A*23
$GPGSV,2,1,07,21,37,185,43,05,16,073,39,25,49,117,48,29,75,036,42*76
$GPGSV,2,2,07,30,82,301,41,31,52,264,39,12,17,117,,,,,*4D
$GPGSA,M,3,21,05,25,29,30,31,,,,,,,2.8,1.7,2.2*39
Trace #59 at position 14.500000
$GPZDA,104709.03,08,10,2011,00,00*65
$GPRMC,104709.00,A,4611.960213,N,01258.220711,E,001.2,2.5,081011,0.2,E,A*35
$GPGGA,104710.00,4611.960449,N,01258.220585,E,1,06,1.7,136.40,M,46.25,M,,*68
$GPGLL,4611.960449,N,01258.220585,E,104710.00,A,A*68
$GPVTG,317.4,T,317.6,M,000.7,N,001.3,K,A*24
$GPGSV,2,1,07,21,37,185,44,05,16,073,38,25,49,117,48,29,75,036,43*71
$GPGSV,2,2,07,30,83,301,42,31,52,264,41,12,17,117,,,,,*40
$GPGSA,M,3,21,05,25,29,30,31,,,,,,,2.8,1.7,2.2*39
Trace #60 at position 14.750000
$GPZDA,104709.03,08,10,2011,00,00*65
$GPRMC,104709.00,A,4611.960213,N,01258.220711,E,001.2,2.5,081011,0.2,E,A*35
$GPGGA,104710.00,4611.960449,N,01258.220585,E,1,06,1.7,136.40,M,46.25,M,,*68
$GPGLL,4611.960449,N,01258.220585,E,104710.00,A,A*68
$GPVTG,317.4,T,317.6,M,000.7,N,001.3,K,A*24
$GPGSV,2,1,07,21,37,185,44,05,16,073,38,25,49,117,48,29,75,036,43*71
$GPGSV,2,2,07,30,83,301,42,31,52,264,41,12,17,117,,,,,*40
$GPGSA,M,3,21,05,25,29,30,31,,,,,,,2.8,1.7,2.2*39
Trace #61 at position 15.000000
$GPZDA,104710.03,08,10,2011,00,00*6D
$GPRMC,104710.00,A,4611.960449,N,01258.220585,E,000.7,317.4,081011,0.2,E,A*39
$GPGGA,104711.00,4611.960682,N,01258.220383,E,1,06,1.7,136.44,M,46.25,M,,*68
$GPGLL,4611.960682,N,01258.220383,E,104711.00,A,A*6C
$GPVTG,339.9,T,340.0,M,001.2,N,002.3,K,A*26
$GPGSV,2,1,07,21,37,185,44,05,16,073,38,25,49,117,48,29,75,036,44*76
$GPGSV,2,2,07,30,83,301,42,31,52,264,42,12,17,117,,,,,*43
$GPGSA,M,3,21,05,25,29,30,31,,,,,,,2.8,1.7,2.2*39
Trace #62 at position 15.250000
$GPZDA,104711.03,08,10,2011,00,00*6C
$GPRMC,104711.00,A,4611.960682,N,01258.220383,E,001.2,339.9,081011,0.2,E,A*38
$GPGGA,104712.00,4611.960915,N,01258.220247,E,1,06,1.7,136.42,M,46.25,M,,*65
$GPGLL,4611.960915,N,01258.220247,E,104712.00,A,A*67
$GPVTG,341.8,T,341.9,M,000.6,N,001.1,K,A*24
$GPGSV,2,1,07,21,37,185,45,05,16,073,38,25,49,117,48,29,75,036,45*76
$GPGSV,2,2,07,30,83,301,43,31,52,264,42,12,17,117,,,,,*42
$GPGSA,M,3,21,05,25,29,30,31,,,,,,,2.8,1.7,2.2*39
Trace #63 at position 15.500000
$GPZDA,104711.03,08,10,2011,00,00*6C
$GPRMC,104711.00,A,4611.960682,N,01258.220383,E,001.2,339.9,081011,0.2,E,A*38
$GPGGA,104712.00,4611.960915,N,01258.220247,E,1,06,1.7,136.42,M,46.25,M,,*65
$GPGLL,4611.960915,N,01258.220247,E,104712.00,A,A*67
$GPVTG,341.8,T,341.9,M,000.6,N,001.1,K,A*24
$GPGSV,2,1,07,21,37,185,45,05,16,073,38,25,49,117,48,29,75,036,45*76
$GPGSV,2,2,07,30,83,301,43,31,52,264,42,12,17,117,,,,,*42
$GPGSA,M,3,21,05,25,29,30,31,,,,,,,2.8,1.7,2.2*39
Trace #64 at position 15.750000
$GPZDA,104712.03,08,10,2011,00,00*6F
$GPRMC,104712.00,A,4611.960915,N,01258.220247,E,000.6,341.8,081011,0.2,E,A*38
$GPGGA,104713.00,4611.961134,N,01258.220156,E,1,06,1.7,136.41,M,46.25,M,,*6E
$GPGLL,4611.961134,N,01258.220156,E,104713.00,A,A*6F
$GPVTG,348.5,T,348.7,M,001.1,N,002.0,K,A*23
$GPGSV,2,1,07,21,37,185,45,05,16,073,39,25,49,117,48,29,75,036,45*77
$GPGSV,2,2,07,30,83,301,42,31,52,264,42,12,17,117,,,,,*43
$GPGSA,M,3,21,05,25,29,30,31,,,,,,,2.8,1.7,2.2*39
Trace #65 at position 16.000000
$GPZDA,104713.03,08,10,2011,00,00*6E
$GPRMC,104713.00,A,4611.961134,N,01258.220156,E,001.1,348.5,081011,0.2,E,A*32
$GPGGA,104714.00,4611.961363,N,01258.220086,E,1,06,1.7,136.41,M,46.25,M,,*65
$GPGLL,4611.961363,N,01258.220086,E,104714.00,A,A*64
$GPVTG,354.4,T,354.5,M,000.7,N,001.2,K,A*26
$GPGSV,2,1,07,21,37,185,44,05,16,073,37,25,49,117,48,29,75,036,44*79
$GPGSV,2,2,07,30,83,301,42,31,52,264,42,12,17,117,,,,,*43
$GPGSA,M,3,21,05,25,29,30,31,,,,,,,2.8,1.7,2.2*39
Trace #66 at position 16.250000
$GPZDA,104713.03,08,10,2011,00,00*6E
$GPRMC,104713.00,A,4611.961134,N,01258.220156,E,001.1,348.5,081011,0.2,E,A*32
$GPGGA,104714.00,4611.961363,N,01258.220086,E,1,06,1.7,136.41,M,46.25,M,,*65
$GPGLL,4611.961363,N,01258.220086,E,104714.00,A,A*64
$GPVTG,354.4,T,354.5,M,000.7,N,001.2,K,A*26
$GPGSV,2,1,07,21,37,185,44,05,16,073,37,25,49,117,48,29,75,036,44*79
$GPGSV,2,2,07,30,83,301,42,31,52,264,42,12,17,117,,,,,*43
$GPGSA,M,3,21,05,25,29,30,31,,,,,,,2.8,1.7,2.2*39
Trace #67 at position 16.500000
$GPZDA,104713.03,08,10,2011,00,00*6E
$GPRMC,104713.00,A,4611.961134,N,01258.220156,E,001.1,348.5,081011,0.2,E,A*32
$GPGGA,104714.00,4611.961363,N,01258.220086,E,1,06,1.7,136.41,M,46.25,M,,*65
$GPGLL,4611.961363,N,01258.220086,E,104714.00,A,A*64
$GPVTG,354.4,T,354.5,M,000.7,N,001.2,K,A*26
$GPGSV,2,1,07,21,37,185,44,05,16,073,37,25,49,117,48,29,75,036,44*79
$GPGSV,2,2,07,30,83,301,42,31,52,264,42,12,17,117,,,,,*43
$GPGSA,M,3,21,05,25,29,30,31,,,,,,,2.8,1.7,2.2*39
Trace #68 at position 16.750000
$GPZDA,104714.03,08,10,2011,00,00*69
$GPRMC,104714.00,A,4611.961363,N,01258.220086,E,000.7,354.4,081011,0.2,E,A*32
$GPGGA,104715.00,4611.961512,N,01258.220003,E,1,06,1.7,136.45,M,46.25,M,,*6D
$GPGLL,4611.961512,N,01258.220003,E,104715.00,A,A*68
$GPVTG,325.1,T,325.2,M,000.5,N,000.9,K,A*2C
$GPGSV,2,1,07,21,37,185,44,05,16,073,38,25,49,117,48,29,75,036,44*76
$GPGSV,2,2,07,30,83,301,42,31,52,264,42,12,17,117,,,,,*43
$GPGSA,M,3,21,05,25,29,30,31,,,,,,,2.8,1.7,2.2*39
Trace #69 at position 17.000000
$GPZDA,104714.03,08,10,2011,00,00*69
$GPRMC,104714.00,A,4611.961363,N,01258.220086,E,000.7,354.4,081011,0.2,E,A*32
$GPGGA,104715.00,4611.961512,N,01258.220003,E,1,06,1.7,136.45,M,46.25,M,,*6D
$GPGLL,4611.961512,N,01258.220003,E,104715.00,A,A*68
$GPVTG,325.1,T,325.2,M,000.5,N,000.9,K,A*2C
$GPGSV,2,1,07,21,37,185,44,05,16,073,38,25,49,117,48,29,75,036,44*76
$GPGSV,2,2,07,30,83,301,42,31,52,264,42,12,17,117,,,,,*43
$GPGSA,M,3,21,05,25,29,30,31,,,,,,,2.8,1.7,2.2*39
Trace #70 at position 17.250000
$GPZDA,104715.03,08,10,2011,00,00*68
$GPRMC,104715.00,A,4611.961512,N,01258.220003,E,000.5,325.1,081011,0.2,E,A*3F
$GPGGA,104716.00,4611.961679,N,01258.219893,E,1,06,1.7,136.50,M,46.25,M,,*6F
$GPGLL,4611.961679,N,01258.219893,E,104716.00,A,A*6E
$GPVTG,344.4,T,344.6,M,000.7,N,001.4,K,A*23
$GPGSV,2,1,07,21,37,185,44,05,16,073,37,25,49,117,47,29,75,036,44*76
$GPGSV,2,2,07,30,83,301,42,31,52,264,42,12,17,117,,,,,*43
$GPGSA,M,3,21,05,25,29,30,31,,,,,,,2.8,1.7,2.2*39
Trace #71 at position 17.500000
$GPZDA,104715.03,08,10,2011,00,00*68
$GPRMC,104715.00,A,4611.961512,N,01258.220003,E,000.5,325.1,081011,0.2,E,A*3F
$GPGGA,104716.00,4611.961679,N,01258.219893,E,1,06,1.7,136.50,M,46.25,M,,*6F
$GPGLL,4611.961679,N,01258.219893,E,104716.00,A,A*6E
$GPVTG,344.4,T,344.6,M,000.7,N,001.4,K,A*23
$GPGSV,2,1,07,21,37,185,44,05,16,073,37,25,49,117,47,29,75,036,44*76
$GPGSV,2,2,07,30,83,301,42,31,52,264,42,12,17,117,,,,,*43
$GPGSA,M,3,21,05,25,29,30,31,,,,,,,2.8,1.7,2.2*39
Trace #72 at position 17.750000
$GPZDA,104715.03,08,10,2011,00,00*68
$GPRMC,104715.00,A,4611.961512,N,01258.220003,E,000.5,325.1,081011,0.2,E,A*3F
$GPGGA,104716.00,4611.961679,N,01258.219893,E,1,06,1.7,136.50,M,46.25,M,,*6F
$GPGLL,4611.961679,N,01258.219893,E,104716.00,A,A*6E
$GPVTG,344.4,T,344.6,M,000.7,N,001.4,K,A*23
$GPGSV,2,1,07,21,37,185,44,05,16,073,37,25,49,117,47,29,75,036,44*76
$GPGSV,2,2,07,30,83,301,42,31,52,264,42,12,17,117,,,,,*43
$GPGSA,M,3,21,05,25,29,30,31,,,,,,,2.8,1.7,2.2*39
Trace #73 at position 18.000000
$GPZDA,104716.03,08,10,2011,00,00*6B
$GPRMC,104716.00,A,4611.961679,N,01258.219893,E,000.7,344.4,081011,0.2,E,A*39
$GPGGA,104717.00,4611.962034,N,01258.219761,E,1,06,1.7,136.50,M,46.25,M,,*60
$GPGLL,4611.962034,N,01258.219761,E,104717.00,A,A*61
$GPVTG,347.5,T,347.6,M,001.8,N,003.4,K,A*2E
$GPGSV,2,1,07,21,37,185,44,05,16,073,39,25,49,117,48,29,75,036,43*70
$GPGSV,2,2,07,30,83,301,42,31,52,264,41,12,17,117,,,,,*40
$GPGSA,M,3,21,05,25,29,30,31,,,,,,,2.8,1.7,2.2*39
Trace #74 at position 18.250000
$GPZDA,104716.03,08,10,2011,00,00*6B
$GPRMC,104716.00,A,4611.961679,N,01258.219893,E,000.7,344.4,081011,0.2,E,A*39
$GPGGA,104717.00,4611.962034,N,01258.219761,E,1,06,1.7,136.50,M,46.25,M,,*60
$GPGLL,4611.962034,N,01258.219761,E,104717.00,A,A*61
$GPVTG,347.5,T,347.6,M,001.8,N,003.4,K,A*2E
$GPGSV,2,1,07,21,37,185,44,05,16,073,39,25,49,117,48,29,75,036,43*70
$GPGSV,2,2,07,30,83,301,42,31,52,264,41,12,17,117,,,,,*40
$GPGSA,M,3,21,05,25,29,30,31,,,,,,,2.8,1.7,2.2*39
Trace #75 at position 18.500000
$GPZDA,104717.03,08,10,2011,00,00*6A
$GPRMC,104717.00,A,4611.962034,N,01258.219761,E,001.8,347.5,081011,0.2,E,A*3A
$GPGGA,104718.00,4611.962432,N,01258.219623,E,1,06,1.7,136.53,M,46.25,M,,*69
$GPGLL,4611.962432,N,01258.219623,E,104718.00,A,A*6B
$GPVTG,349.3,T,349.5,M,001.2,N,002.1,K,A*25
$GPGSV,2,1,07,21,37,185,42,05,16,073,39,25,49,117,47,29,75,036,42*78
$GPGSV,2,2,07,30,83,301,42,31,52,264,40,12,17,117,,,,,*41
$GPGSA,M,3,21,05,25,29,30,31,,,,,,,2.8,1.7,2.2*39
Trace #76 at position 18.750000
$GPZDA,104717.03,08,10,2011,00,00*6A
$GPRMC,104717.00,A,4611.962034,N,01258.219761,E,001.8,347.5,081011,0.2,E,A*3A
$GPGGA,104718.00,4611.962432,N,01258.219623,E,1,06,1.7,136.53,M,46.25,M,,*69
$GPGLL,4611.962432,N,01258.219623,E,104718.00,A,A*6B
$GPVTG,349.3,T,349.5,M,001.2,N,002.1,K,A*25
$GPGSV,2,1,07,21,37,185,42,05,16,073,39,25,49,117,47,29,75,036,42*78
$GPGSV,2,2,07,30,83,301,42,31,52,264,40,12,17,117,,,,,*41
$GPGSA,M,3,21,05,25,29,30,31,,,,,,,2.8,1.7,2.2*39
Trace #77 at position 19.000000
$GPZDA,104718.03,08,10,2011,00,00*65
$GPRMC,104718.00,A,4611.962432,N,01258.219623,E,001.2,349.3,081011,0.2,E,A*32
$GPGGA,104719.00,4611.962720,N,01258.219509,E,1,06,1.7,136.63,M,46.25,M,,*60
$GPGLL,4611.962720,N,01258.219509,E,104719.00,A,A*61
$GPVTG,344.3,T,344.5,M,001.0,N,001.8,K,A*2D
$GPGSV,2,1,07,21,37,185,42,05,16,073,39,25,49,117,46,29,75,036,42*79
$GPGSV,2,2,07,30,83,301,41,31,52,264,39,12,17,117,,,,,*4C
$GPGSA,M,3,21,05,25,29,30,31,,,,,,,2.8,1.7,2.2*39
Trace #78 at position 19.250000
$GPZDA,104718.03,08,10,2011,00,00*65
$GPRMC,104718.00,A,4611.962432,N,01258.219623,E,001.2,349.3,081011,0.2,E,A*32
$GPGGA,104719.00,4611.962720,N,01258.219509,E,1,06,1.7,136.63,M,46.25,M,,*60
$GPGLL,4611.962720,N,01258.219509,E,104719.00,A,A*61
$GPVTG,344.3,T,344.5,M,001.0,N,001.8,K,A*2D
$GPGSV,2,1,07,21,37,185,42,05,16,073,39,25,49,117,46,29,75,036,42*79
$GPGSV,2,2,07,30,83,301,41,31,52,264,39,12,17,117,,,,,*4C
$GPGSA,M,3,21,05,25,29,30,31,,,,,,,2.8,1.7,2.2*39
Trace #79 at position 19.500000
$GPZDA,104719.03,08,10,2011,00,00*64
$GPRMC,104719.00,A,4611.962720,N,01258.219509,E,001.0,344.3,081011,0.2,E,A*37
$GPGGA,104720.00,4611.962965,N,01258.219368,E,1,06,1.7,136.66,M,46.25,M,,*61
$GPGLL,4611.962965,N,01258.219368,E,104720.00,A,A*65
$GPVTG,338.1,T,338.2,M,000.9,N,001.7,K,A*2F
$GPGSV,2,1,07,21,37,185,43,05,16,073,40,25,49,117,47,29,75,036,43*76
$GPGSV,2,2,07,30,83,301,42,31,52,264,40,12,17,117,,,,,*41
$GPGSA,M,3,21,05,25,29,30,31,,,,,,,2.8,1.7,2.2*39
Trace #80 at position 19.750000
$GPZDA,104719.03,08,10,2011,00,00*64
$GPRMC,104719.00,A,4611.962720,N,01258.219509,E,001.0,344.3,081011,0.2,E,A*37
$GPGGA,104720.00,4611.962965,N,01258.219368,E,1,06,1.7,136.66,M,46.25,M,,*61
$GPGLL,4611.962965,N,01258.219368,E,104720.00,A,A*65
$GPVTG,338.1,T,338.2,M,000.9,N,001.7,K,A*2F
$GPGSV,2,1,07,21,37,185,43,05,16,073,40,25,49,117,47,29,75,036,43*76
$GPGSV,2,2,07,30,83,301,42,31,52,264,40,12,17,117,,,,,*41
$GPGSA,M,3,21,05,25,29,30,31,,,,,,,2.8,1.7,2.2*39
Trace #81 at position 20.000000
$GPZDA,104720.03,08,10,2011,00,00*6E
$GPRMC,104720.00,A,4611.962965,N,01258.219368,E,000.9,338.1,081011,0.2,E,A*32
$GPGGA,104721.00,4611.963295,N,01258.219223,E,1,06,1.7,136.68,M,46.25,M,,*65
$GPGLL,4611.963295,N,01258.219223,E,104721.00,A,A*6F
$GPVTG,349.8,T,349.9,M,001.6,N,003.0,K,A*26
$GPGSV,2,1,07,21,37,185,43,05,16,073,39,25,49,117,47,29,75,036,43*78
$GPGSV,2,2,07,30,83,301,44,31,52,264,40,12,17,117,,,,,*47
$GPGSA,M,3,21,05,25,29,30,31,,,,,,,2.8,1.7,2.2*39
Trace #82 at position 20.250000
$GPZDA,104720.03,08,10,2011,00,00*6E
$GPRMC,104720.00,A,4611.962965,N,01258.219368,E,000.9,338.1,081011,0.2,E,A*32
$GPGGA,104721.00,4611.963295,N,01258.219223,E,1,06,1.7,136.68,M,46.25,M,,*65
$GPGLL,4611.963295,N,01258.219223,E,104721.00,A,A*6F
$GPVTG,349.8,T,349.9,M,001.6,N,003.0,K,A*26
$GPGSV,2,1,07,21,37,185,43,05,16,073,39,25,49,117,47,29,75,036,43*78
$GPGSV,2,2,07,30,83,301,44,31,52,264,40,12,17,117,,,,,*47
$GPGSA,M,3,21,05,25,29,30,31,,,,,,,2.8,1.7,2.2*39
Trace #83 at position 20.500000
$GPZDA,104721.03,08,10,2011,00,00*6F
$GPRMC,104721.00,A,4611.963295,N,01258.219223,E,001.6,349.8,081011,0.2,E,A*39
$GPGGA,104722.00,4611.963668,N,01258.219019,E,1,06,1.7,136.64,M,46.25,M,,*67
$GPGLL,4611.963668,N,01258.219019,E,104722.00,A,A*61
$GPVTG,330.6,T,330.7,M,001.4,N,002.6,K,A*23
$GPGSV,2,1,07,21,37,185,42,05,16,073,40,25,49,117,47,29,75,036,42*76
$GPGSV,2,2,07,30,83,301,44,31,52,264,40,12,17,117,,,,,*47
$GPGSA,M,3,21,05,25,29,30,31,,,,,,,2.8,1.7,2.2*39
Trace #84 at position 20.750000
$GPZDA,104721.03,08,10,2011,00,00*6F
$GPRMC,104721.00,A,4611.963295,N,01258.219223,E,001.6,349.8,081011,0.2,E,A*39
$GPGGA,104722.00,4611.963668,N,01258.219019,E,1,06,1.7,136.64,M,46.25,M,,*67
$GPGLL,4611.963668,N,01258.219019,E,104722.00,A,A*61
$GPVTG,330.6,T,330.7,M,001.4,N,002.6,K,A*23
$GPGSV,2,1,07,21,37,185,42,05,16,073,40,25,49,117,47,29,75,036,42*76
$GPGSV,2,2,07,30,83,301,44,31,52,264,40,12,17,117,,,,,*47
$GPGSA,M,3,21,05,25,29,30,31,,,,,,,2.8,1.7,2.2*39
Trace #85 at position 21.000000
$GPZDA,104722.03,08,10,2011,00,00*6C
$GPRMC,104722.00,A,4611.963668,N,01258.219019,E,001.4,330.6,081011,0.2,E,A*35
$GPGGA,104723.00,4611.964005,N,01258.218900,E,1,06,1.7,136.60,M,46.25,M,,*68
$GPGLL,4611.964005,N,01258.218900,E,104723.00,A,A*6A
$GPVTG,5.1,T,5.3,M,001.4,N,002.6,K,A*20
$GPGSV,2,1,07,21,37,185,42,05,16,073,38,25,49,117,47,29,75,036,42*79
$GPGSV,2,2,07,30,83,301,44,31,52,264,40,12,17,117,,,,,*47
$GPGSA,M,3,21,05,25,29,30,31,,,,,,,2.8,1.7,2.2*39
Trace #86 at position 21.250000
$GPZDA,104722.03,08,10,2011,00,00*6C
$GPRMC,104722.00,A,4611.963668,N,01258.219019,E,001.4,330.6,081011,0.2,E,A*35
$GPGGA,104723.00,4611.964005,N,01258.218900,E,1,06,1.7,136.60,M,46.25,M,,*68
$GPGLL,4611.964005,N,01258.218900,E,104723.00,A,A*6A
$GPVTG,5.1,T,5.3,M,001.4,N,002.6,K,A*20
$GPGSV,2,1,07,21,37,185,42,05,16,073,38,25,49,117,47,29,75,036,42*79
$GPGSV,2,2,07,30,83,301,44,31,52,264,40,12,17,117,,,,,*47
$GPGSA,M,3,21,05,25,29,30,31,,,,,,,2.8,1.7,2.2*39
Trace #87 at position 21.500000
$GPZDA,104722.03,08,10,2011,00,00*6C
$GPRMC,104722.00,A,4611.963668,N,01258.219019,E,001.4,330.6,081011,0.2,E,A*35
$GPGGA,104723.00,4611.964005,N,01258.218900,E,1,06,1.7,136.60,M,46.25,M,,*68
$GPGLL,4611.964005,N,01258.218900,E,104723.00,A,A*6A
$GPVTG,5.1,T,5.3,M,001.4,N,002.6,K,A*20
$GPGSV,2,1,07,21,37,185,42,05,16,073,38,25,49,117,47,29,75,036,42*79
$GPGSV,2,2,07,30,83,301,44,31,52,264,40,12,17,117,,,,,*47
$GPGSA,M,3,21,05,25,29,30,31,,,,,,,2.8,1.7,2.2*39
Trace #88 at position 21.750000
$GPZDA,104723.04,08,10,2011,00,00*6A
$GPRMC,104723.00,A,4611.964005,N,01258.218900,E,001.4,5.1,081011,0.2,E,A*3C
$GPGGA,104724.00,4611.964328,N,01258.218787,E,1,06,1.7,136.63,M,46.25,M,,*61
$GPGLL,4611.964328,N,01258.218787,E,104724.00,A,A*60
$GPVTG,332.1,T,332.3,M,001.3,N,002.5,K,A*24
$GPGSV,2,1,07,21,37,185,42,05,16,073,40,25,49,117,47,29,75,036,42*76
$GPGSV,2,2,07,30,83,301,44,31,52,264,40,12,17,117,,,,,*47
$GPGSA,M,3,21,05,25,29,30,31,,,,,,,2.8,1.7,2.2*39
Trace #89 at position 22.000000
$GPZDA,104723.04,08,10,2011,00,00*6A
$GPRMC,104723.00,A,4611.964005,N,01258.218900,E,001.4,5.1,081011,0.2,E,A*3C
$GPGGA,104724.00,4611.964328,N,01258.218787,E,1,06,1.7,136.63,M,46.25,M,,*61
$GPGLL,4611.964328,N,01258.218787,E,104724.00,A,A*60
$GPVTG,332.1,T,332.3,M,001.3,N,002.5,K,A*24
$GPGSV,2,1,07,21,37,185,42,05,16,073,40,25,49,117,47,29,75,036,42*76
$GPGSV,2,2,07,30,83,301,44,31,52,264,40,12,17,117,,,,,*47
$GPGSA,M,3,21,05,25,29,30,31,,,,,,,2.8,1.7,2.2*39
Trace #90 at position 22.250000
$GPZDA,104723.04,08,10,2011,00,00*6A
$GPRMC,104723.00,A,4611.964005,N,01258.218900,E,001.4,5.1,081011,0.2,E,A*3C
$GPGGA,104724.00,4611.964328,N,01258.218787,E,1,06,1.7,136.63,M,46.25,M,,*61
$GPGLL,4611.964328,N,01258.218787,E,104724.00,A,A*60
$GPVTG,332.1,T,332.3,M,001.3,N,002.5,K,A*24
$GPGSV,2,1,07,21,37,185,42,05,16,073,40,25,49,117,47,29,75,036,42*76
$GPGSV,2,2,07,30,83,301,44,31,52,264,40,12,17,117,,,,,*47
$GPGSA,M,3,21,05,25,29,30,31,,,,,,,2.8,1.7,2.2*39
Trace #91 at position 22.500000
$GPZDA,104724.03,08,10,2011,00,00*6A
$GPRMC,104724.00,A,4611.964328,N,01258.218787,E,001.3,332.1,081011,0.2,E,A*36
$GPGGA,104725.00,4611.964631,N,01258.218576,E,1,06,1.7,136.71,M,46.25,M,,*62
$GPGLL,4611.964631,N,01258.218576,E,104725.00,A,A*60
$GPVTG,341.1,T,341.3,M,001.3,N,002.4,K,A*25
$GPGSV,2,1,07,21,37,185,43,05,16,073,39,25,49,117,47,29,75,036,42*79
$GPGSV,2,2,07,30,83,301,44,31,52,264,40,12,17,117,,,,,*47
$GPGSA,M,3,21,05,25,29,30,31,,,,,,,2.8,1.7,2.2*39
Trace #92 at position 22.750000
$GPZDA,104724.03,08,10,2011,00,00*6A
$GPRMC,104724.00,A,4611.964328,N,01258.218787,E,001.3,332.1,081011,0.2,E,A*36
$GPGGA,104725.00,4611.964631,N,01258.218576,E,1,06,1.7,136.71,M,46.25,M,,*62
$GPGLL,4611.964631,N,01258.218576,E,104725.00,A,A*60
$GPVTG,341.1,T,341.3,M,001.3,N,002.4,K,A*25
$GPGSV,2,1,07,21,37,185,43,05,16,073,39,25,49,117,47,29,75,036,42*79
$GPGSV,2,2,07,30,83,301,44,31,52,264,40,12,17,117,,,,,*47
$GPGSA,M,3,21,05,25,29,30,31,,,,,,,2.8,1.7,2.2*39
Trace #93 at position 23.000000
$GPZDA,104725.03,08,10,2011,00,00*6B
$GPRMC,104725.00,A,4611.964631,N,01258.218576,E,001.3,341.1,081011,0.2,E,A*32
$GPGGA,104726.00,4611.964920,N,01258.218449,E,1,06,1.7,136.76,M,46.25,M,,*64
$GPGLL,4611.964920,N,01258.218449,E,104726.00,A,A*61
$GPVTG,348.8,T,349.0,M,001.1,N,002.0,K,A*28
$GPGSV,2,1,07,21,37,185,44,05,16,073,39,25,49,117,47,29,75,036,44*78
$GPGSV,2,2,07,30,83,301,43,31,52,263,41,12,17,117,,,,,*46
$GPGSA,M,3,21,05,25,29,30,31,,,,,,,2.8,1.7,2.2*39
Trace #94 at position 23.250000
$GPZDA,104725.03,08,10,2011,00,00*6B
$GPRMC,104725.00,A,4611.964631,N,01258.218576,E,001.3,341.1,081011,0.2,E,A*32
$GPGGA,104726.00,4611.964920,N,01258.218449,E,1,06,1.7,136.76,M,46.25,M,,*64
$GPGLL,4611.964920,N,01258.218449,E,104726.00,A,A*61
$GPVTG,348.8,T,349.0,M,001.1,N,002.0,K,A*28
$GPGSV,2,1,07,21,37,185,44,05,16,073,39,25,49,117,47,29,75,036,44*78
$GPGSV,2,2,07,30,83,301,43,31,52,263,41,12,17,117,,,,,*46
$GPGSA,M,3,21,05,25,29,30,31,,,,,,,2.8,1.7,2.2*39
Trace #95 at position 23.500000
$GPZDA,104726.03,08,10,2011,00,00*68
$GPRMC,104726.00,A,4611.964920,N,01258.218449,E,001.1,348.8,081011,0.2,E,A*31
$GPGGA,104727.00,4611.965190,N,01258.218375,E,1,06,1.7,136.74,M,46.25,M,,*6D
$GPGLL,4611.965190,N,01258.218375,E,104727.00,A,A*6A
$GPVTG,352.6,T,352.8,M,001.0,N,001.9,K,A*24
$GPGSV,2,1,07,21,37,185,43,05,16,073,39,25,49,117,47,29,75,036,44*7F
$GPGSV,2,2,07,30,83,301,43,31,52,263,39,12,17,117,,,,,*49
$GPGSA,M,3,21,05,25,29,30,31,,,,,,,2.8,1.7,2.2*39
Trace #96 at position 23.750000
$GPZDA,104726.03,08,10,2011,00,00*68
$GPRMC,104726.00,A,4611.964920,N,01258.218449,E,001.1,348.8,081011,0.2,E,A*31
$GPGGA,104727.00,4611.965190,N,01258.218375,E,1,06,1.7,136.74,M,46.25,M,,*6D
$GPGLL,4611.965190,N,01258.218375,E,104727.00,A,A*6A
$GPVTG,352.6,T,352.8,M,001.0,N,001.9,K,A*24
$GPGSV,2,1,07,21,37,185,43,05,16,073,39,25,49,117,47,29,75,036,44*7F
$GPGSV,2,2,07,30,83,301,43,31,52,263,39,12,17,117,,,,,*49
$GPGSA,M,3,21,05,25,29,30,31,,,,,,,2.8,1.7,2.2*39
Trace #97 at position 24.000000
$GPZDA,104727.03,08,10,2011,00,00*69
$GPRMC,104727.00,A,4611.965190,N,01258.218375,E,001.0,352.6,081011,0.2,E,A*3E
$GPGGA,104728.00,4611.965480,N,01258.218272,E,1,06,1.7,136.69,M,46.25,M,,*6C
$GPGLL,4611.965480,N,01258.218272,E,104728.00,A,A*67
$GPVTG,343.6,T,343.8,M,001.3,N,002.4,K,A*29
$GPGSV,2,1,07,21,37,185,43,05,16,073,37,25,49,117,47,29,75,036,44*71
$GPGSV,2,2,07,30,83,301,41,31,52,263,40,12,17,117,,,,,*45
$GPGSA,M,3,21,05,25,29,30,31,,,,,,,2.8,1.7,2.2*39
Trace #98 at position 24.250000
$GPZDA,104727.03,08,10,2011,00,00*69
$GPRMC,104727.00,A,4611.965190,N,01258.218375,E,001.0,352.6,081011,0.2,E,A*3E
$GPGGA,104728.00,4611.965480,N,01258.218272,E,1,06,1.7,136.69,M,46.25,M,,*6C
$GPGLL,4611.965480,N,01258.218272,E,104728.00,A,A*67
$GPVTG,343.6,T,343.8,M,001.3,N,002.4,K,A*29
$GPGSV,2,1,07,21,37,185,43,05,16,073,37,25,49,117,47,29,75,036,44*71
$GPGSV,2,2,07,30,83,301,41,31,52,263,40,12,17,117,,,,,*45
$GPGSA,M,3,21,05,25,29,30,31,,,,,,,2.8,1.7,2.2*39
Trace #99 at position 24.500000
$GPZDA,104728.03,08,10,2011,00,00*66
$GPRMC,104728.00,A,4611.965480,N,01258.218272,E,001.3,343.6,081011,0.2,E,A*30
$GPGGA,104729.00,4611.965779,N,01258.218193,E,1,06,1.7,136.64,M,46.25,M,,*69
$GPGLL,4611.965779,N,01258.218193,E,104729.00,A,A*6F
$GPVTG,1.4,T,1.5,M,001.2,N,002.2,K,A*21
$GPGSV,2,1,07,21,37,185,44,05,16,073,38,25,49,117,47,29,75,036,44*79
$GPGSV,2,2,07,30,83,301,43,31,52,263,41,12,17,117,,,,,*46
$GPGSA,M,3,21,05,25,29,30,31,,,,,,,2.8,1.7,2.2*39
Trace #100 at position 24.750000
$GPZDA,104728.03,08,10,2011,00,00*66
$GPRMC,104728.00,A,4611.965480,N,01258.218272,E,001.3,343.6,081011,0.2,E,A*30
$GPGGA,104729.00,4611.965779,N,01258.218193,E,1,06,1.7,136.64,M,46.25,M,,*69
$GPGLL,4611.965779,N,01258.218193,E,104729.00,A,A*6F
$GPVTG,1.4,T,1.5,M,001.2,N,002.2,K,A*21
$GPGSV,2,1,07,21,37,185,44,05,16,073,38,25,49,117,47,29,75,036,44*79
$GPGSV,2,2,07,30,83,301,43,31,52,263,41,12,17,117,,,,,*46
$GPGSA,M,3,21,05,25,29,30,31,,,,,,,2.8,1.7,2.2*39
Trace #101 at position 25.000000
$GPZDA,104729.03,08,10,2011,00,00*67
$GPRMC,104729.00,A,4611.965779,N,01258.218193,E,001.2,1.4,081011,0.2,E,A*3E
$GPGGA,104730.00,4611.966070,N,01258.218057,E,1,06,1.7,136.57,M,46.25,M,,*65
$GPGLL,4611.966070,N,01258.218057,E,104730.00,A,A*63
$GPVTG,331.5,T,331.6,M,001.4,N,002.6,K,A*21
$GPGSV,2,1,07,21,37,185,43,05,16,073,39,25,49,117,47,29,75,036,44*7F
$GPGSV,2,2,07,30,83,301,43,31,52,263,40,12,17,117,,,,,*47
$GPGSA,M,3,21,05,25,29,30,31,,,,,,,2.8,1.7,2.2*39
Trace #102 at position 25.250000
$GPZDA,104734.03,08,10,2011,00,00*6B
$GPRMC,104734.00,A,4611.966388,N,01258.218066,E,000.1,149.1,081011,0.2,E,A*3A
$GPGGA,104735.00,4611.966288,N,01258.218261,E,1,05,2.5,137.36,M,46.25,M,,*66
$GPGLL,4611.966288,N,01258.218261,E,104735.00,A,A*64
$GPVTG,180.2,T,180.4,M,000.0,N,000.1,K,A*24
$GPGSV,2,1,07,21,37,185,44,05,16,073,40,25,49,117,45,29,75,037,43*72
$GPGSV,2,2,07,30,83,301,40,31,52,263,35,12,17,117,,,,,*46
$GPGSA,M,3,21,05,25,29,30,,,,,,,,3.8,2.5,2.8*31
Trace #103 at position 25.500000
$GPZDA,104734.03,08,10,2011,00,00*6B
$GPRMC,104734.00,A,4611.966388,N,01258.218066,E,000.1,149.1,081011,0.2,E,A*3A
$GPGGA,104735.00,4611.966288,N,01258.218261,E,1,05,2.5,137.36,M,46.25,M,,*66
$GPGLL,4611.966288,N,01258.218261,E,104735.00,A,A*64
$GPVTG,180.2,T,180.4,M,000.0,N,000.1,K,A*24
$GPGSV,2,1,07,21,37,185,44,05,16,073,40,25,49,117,45,29,75,037,43*72
$GPGSV,2,2,07,30,83,301,40,31,52,263,35,12,17,117,,,,,*46
$GPGSA,M,3,21,05,25,29,30,,,,,,,,3.8,2.5,2.8*31
Trace #104 at position 25.750000
$GPZDA,104735.03,08,10,2011,00,00*6A
$GPRMC,104735.00,A,4611.966288,N,01258.218261,E,000.0,180.2,081011,0.2,E,A*38
$GPGGA,104736.00,4611.966278,N,01258.218189,E,1,06,1.7,137.27,M,46.25,M,,*6D
$GPGLL,4611.966278,N,01258.218189,E,104736.00,A,A*6D
$GPVTG,233.0,T,233.2,M,000.1,N,000.1,K,A*21
$GPGSV,2,1,07,21,37,185,44,05,16,073,40,25,49,117,46,29,75,037,44*76
$GPGSV,2,2,07,30,83,301,42,31,52,263,40,12,17,117,,,,,*46
$GPGSA,M,3,21,05,25,29,30,31,,,,,,,2.8,1.7,2.2*39
Trace #105 at position 26.000000
$GPZDA,104735.03,08,10,2011,00,00*6A
$GPRMC,104735.00,A,4611.966288,N,01258.218261,E,000.0,180.2,081011,0.2,E,A*38
$GPGGA,104736.00,4611.966278,N,01258.218189,E,1,06,1.7,137.27,M,46.25,M,,*6D
$GPGLL,4611.966278,N,01258.218189,E,104736.00,A,A*6D
$GPVTG,233.0,T,233.2,M,000.1,N,000.1,K,A*21
$GPGSV,2,1,07,21,37,185,44,05,16,073,40,25,49,117,46,29,75,037,44*76
$GPGSV,2,2,07,30,83,301,42,31,52,263,40,12,17,117,,,,,*46
$GPGSA,M,3,21,05,25,29,30,31,,,,,,,2.8,1.7,2.2*39
Trace #106 at position 26.250000
$GPZDA,104736.03,08,10,2011,00,00*69
$GPRMC,104736.00,A,4611.966278,N,01258.218189,E,000.1,233.0,081011,0.2,E,A*39
$GPGGA,104737.00,4611.966445,N,01258.218254,E,1,06,1.7,137.17,M,46.25,M,,*64
$GPGLL,4611.966445,N,01258.218254,E,104737.00,A,A*67
$GPVTG,31.0,T,31.2,M,001.5,N,002.7,K,A*20
$GPGSV,2,1,07,21,37,185,44,05,16,073,39,25,49,117,46,29,75,037,40*7C
$GPGSV,2,2,07,30,83,301,42,31,52,263,41,12,17,117,,,,,*47
$GPGSA,M,3,21,05,25,29,30,31,,,,,,,2.8,1.7,2.2*39
Trace #107 at position 26.500000
$GPZDA,104736.03,08,10,2011,00,00*69
$GPRMC,104736.00,A,4611.966278,N,01258.218189,E,000.1,233.0,081011,0.2,E,A*39
$GPGGA,104737.00,4611.966445,N,01258.218254,E,1,06,1.7,137.17,M,46.25,M,,*64
$GPGLL,4611.966445,N,01258.218254,E,104737.00,A,A*67
$GPVTG,31.0,T,31.2,M,001.5,N,002.7,K,A*20
$GPGSV,2,1,07,21,37,185,44,05,16,073,39,25,49,117,46,29,75,037,40*7C
$GPGSV,2,2,07,30,83,301,42,31,52,263,41,12,17,117,,,,,*47
$GPGSA,M,3,21,05,25,29,30,31,,,,,,,2.8,1.7,2.2*39
Trace #108 at position 26.750000
$GPZDA,104737.03,08,10,2011,00,00*68
$GPRMC,104737.00,A,4611.966445,N,01258.218254,E,001.5,31.0,081011,0.2,E,A*06
$GPGGA,104738.00,4611.966747,N,01258.218340,E,1,06,1.7,137.10,M,46.25,M,,*69
$GPGLL,4611.966747,N,01258.218340,E,104738.00,A,A*6D
$GPVTG,9.0,T,9.2,M,001.0,N,001.8,K,A*29
$GPGSV,2,1,07,21,37,185,43,05,16,073,39,25,49,117,46,29,75,037,43*78
$GPGSV,2,2,07,30,83,301,42,31,52,263,41,12,17,117,,,,,*47
$GPGSA,M,3,21,05,25,29,30,31,,,,,,,2.8,1.7,2.2*39
Trace #109 at position 27.000000
$GPZDA,104737.03,08,10,2011,00,00*68
$GPRMC,104737.00,A,4611.966445,N,01258.218254,E,001.5,31.0,081011,0.2,E,A*06
$GPGGA,104738.00,4611.966747,N,01258.218340,E,1,06,1.7,137.10,M,46.25,M,,*69
$GPGLL,4611.966747,N,01258.218340,E,104738.00,A,A*6D
$GPVTG,9.0,T,9.2,M,001.0,N,001.8,K,A*29
$GPGSV,2,1,07,21,37,185,43,05,16,073,39,25,49,117,46,29,75,037,43*78
$GPGSV,2,2,07,30,83,301,42,31,52,263,41,12,17,117,,,,,*47
$GPGSA,M,3,21,05,25,29,30,31,,,,,,,2.8,1.7,2.2*39
Trace #110 at position 27.250000
$GPZDA,104738.04,08,10,2011,00,00*60
$GPRMC,104738.00,A,4611.966747,N,01258.218340,E,001.0,9.0,081011,0.2,E,A*32
$GPGGA,104739.00,4611.967009,N,01258.218267,E,1,06,1.7,137.06,M,46.25,M,,*67
$GPGLL,4611.967009,N,01258.218267,E,104739.00,A,A*64
$GPVTG,1.1,T,1.3,M,001.0,N,001.8,K,A*29
$GPGSV,2,1,07,21,37,185,44,05,16,073,38,25,49,117,47,29,75,037,43*7F
$GPGSV,2,2,07,30,83,301,42,31,52,263,41,12,17,117,,,,,*47
$GPGSA,M,3,21,05,25,29,30,31,,,,,,,2.8,1.7,2.2*39
Trace #111 at position 27.500000
$GPZDA,104738.04,08,10,2011,00,00*60
$GPRMC,104738.00,A,4611.966747,N,01258.218340,E,001.0,9.0,081011,0.2,E,A*32
$GPGGA,104739.00,4611.967009,N,01258.218267,E,1,06,1.7,137.06,M,46.25,M,,*67
$GPGLL,4611.967009,N,01258.218267,E,104739.00,A,A*64
$GPVTG,1.1,T,1.3,M,001.0,N,001.8,K,A*29
$GPGSV,2,1,07,21,37,185,44,05,16,073,38,25,49,117,47,29,75,037,43*7F
$GPGSV,2,2,07,30,83,301,42,31,52,263,41,12,17,117,,,,,*47
$GPGSA,M,3,21,05,25,29,30,31,,,,,,,2.8,1.7,2.2*39
Trace #112 at position 27.750000
$GPZDA,104739.03,08,10,2011,00,00*66
$GPRMC,104739.00,A,4611.967009,N,01258.218267,E,001.0,1.1,081011,0.2,E,A*32
$GPGGA,104740.00,4611.967269,N,01258.218167,E,1,06,1.7,137.06,M,46.25,M,,*6E
$GPGLL,4611.967269,N,01258.218167,E,104740.00,A,A*6D
$GPVTG,1.5,T,1.6,M,001.0,N,001.8,K,A*28
$GPGSV,2,1,07,21,37,185,43,05,16,073,40,25,49,117,47,29,75,037,41*75
$GPGSV,2,2,07,30,83,301,43,31,52,263,41,12,16,117,,,,,*47
$GPGSA,M,3,21,05,25,29,30,31,,,,,,,2.8,1.7,2.2*39
Trace #113 at position 28.000000
$GPZDA,104739.03,08,10,2011,00,00*66
$GPRMC,104739.00,A,4611.967009,N,01258.218267,E,001.0,1.1,081011,0.2,E,A*32
$GPGGA,104740.00,4611.967269,N,01258.218167,E,1,06,1.7,137.06,M,46.25,M,,*6E
$GPGLL,4611.967269,N,01258.218167,E,104740.00,A,A*6D
$GPVTG,1.5,T,1.6,M,001.0,N,001.8,K,A*28
$GPGSV,2,1,07,21,37,185,43,05,16,073,40,25,49,117,47,29,75,037,41*75
$GPGSV,2,2,07,30,83,301,43,31,52,263,41,12,16,117,,,,,*47
$GPGSA,M,3,21,05,25,29,30,31,,,,,,,2.8,1.7,2.2*39
Trace #114 at position 28.250000
$GPZDA,104740.03,08,10,2011,00,00*68
$GPRMC,104740.00,A,4611.967269,N,01258.218167,E,001.0,1.5,081011,0.2,E,A*3F
$GPGGA,104741.00,4611.967534,N,01258.218008,E,1,06,1.7,137.11,M,46.25,M,,*6E
$GPGLL,4611.967534,N,01258.218008,E,104741.00,A,A*6B
$GPVTG,345.0,T,345.1,M,001.0,N,001.9,K,A*2B
$GPGSV,2,1,07,21,37,185,43,05,16,073,38,25,49,117,47,29,75,037,42*79
$GPGSV,2,2,07,30,83,301,43,31,52,263,41,12,16,117,,,,,*47
$GPGSA,M,3,21,05,25,29,30,31,,,,,,,2.8,1.7,2.2*39
Trace #115 at position 28.500000
$GPZDA,104740.03,08,10,2011,00,00*68
$GPRMC,104740.00,A,4611.967269,N,01258.218167,E,001.0,1.5,081011,0.2,E,A*3F
$GPGGA,104741.00,4611.967534,N,01258.218008,E,1,06,1.7,137.11,M,46.25,M,,*6E
$GPGLL,4611.967534,N,01258.218008,E,104741.00,A,A*6B
$GPVTG,345.0,T,345.1,M,001.0,N,001.9,K,A*2B
$GPGSV,2,1,07,21,37,185,43,05,16,073,38,25,49,117,47,29,75,037,42*79
$GPGSV,2,2,07,30,83,301,43,31,52,263,41,12,16,117,,,,,*47
$GPGSA,M,3,21,05,25,29,30,31,,,,,,,2.8,1.7,2.2*39
Trace #116 at position 28.750000
$GPZDA,104741.03,08,10,2011,00,00*69
$GPRMC,104741.00,A,4611.967534,N,01258.218008,E,001.0,345.0,081011,0.2,E,A*3F
$GPGGA,104742.00,4611.967831,N,01258.217923,E,1,06,1.7,137.14,M,46.25,M,,*6F
$GPGLL,4611.967831,N,01258.217923,E,104742.00,A,A*6F
$GPVTG,17.7,T,17.9,M,001.3,N,002.4,K,A*29
$GPGSV,2,1,07,21,37,185,44,05,16,073,39,25,49,117,47,29,75,037,42*7F
$GPGSV,2,2,07,30,83,301,43,31,52,263,41,12,16,117,,,,,*47
$GPGSA,M,3,21,05,25,29,30,31,,,,,,,2.8,1.7,2.2*39
Trace #117 at position 29.000000
$GPZDA,104742.04,08,10,2011,00,00*6D
$GPRMC,104742.00,A,4611.967831,N,01258.217923,E,001.3,17.7,081011,0.2,E,A*0B
$GPGGA,104743.00,4611.968045,N,01258.217822,E,1,06,1.7,137.20,M,46.25,M,,*6D
$GPGLL,4611.968045,N,01258.217822,E,104743.00,A,A*6A
$GPVTG,319.3,T,319.5,M,000.5,N,001.0,K,A*21
$GPGSV,2,1,07,21,37,185,44,05,16,073,38,25,49,117,47,29,75,037,43*7F
$GPGSV,2,2,07,30,83,301,43,31,52,263,42,12,16,117,,,,,*44
