Trace #1 at position 0.000000
$GPZDA,084449.04,09,10,2011,00,00*6D
$GPRMC,084449.00,A,4611.954039,N,01258.228492,E,000.0,84.1,091011,0$GPGGA,084450.00,4611.954037,N,01258.228491,E,1,07,1.1,139.83,M,46.25,M,,*67
$GPGLL,4611.954037,N,01258.228491,E,084450.00,A,A*60
$GPVTG,185.8,T,186.0,M,000.1,N,000.1,K,A*28
$GPGSV,3,1,09,02,38,084,43,04,15,041,39,09,23,150,43,12,61,071,45*77
$GPGSV,3,2,09,14,31,258,38,25,73,322,43,29,47,220,47,30,29,288,*74
$GPGSV,3,3,09,31,21,313,,,,,,,,,,,,,*40
$GPGSA,M,3,02,04,09,12,14,25,29,,,,,,2.0,1.1,1.7*3F
Trace #2 at position 0.250000
$GPZDA,084451.04,09,10,2011,00,00*64
$GPRMC,084451.00,A,4611.954042,N,01258.228504,E,000.2,84.1,091011,0.2$GPGGA,084452.00,4611.954048,N,01258.228490,E,1,06,1.5,139.84,M,46.25,M,,*6E
$GPGLL,4611.954048,N,01258.228490,E,084452.00,A,A*6B
$GPVTG,254.8,T,255.0,M,000.1,N,000.3,K,A*28
$GPGSV,3,1,09,02,38,084,43,04,15,041,44,09,23,150,43,12,61,071,44*7C
$GPGSV,3,2,09,14,31,258,30,25,73,322,41,29,47,220,45,30,29,288,*7C
$GPGSV,3,3,09,31,21,313,,,,,,,,,,,,,*40
$GPGSA,M,3,02,04,09,12,25,29,,,,,,,2.5,1.5,2.0*3F
Trace #3 at position 0.500000
$GPZDA,084452.04,09,10,2011,00,00*67
$GPRMC,084452.00,A,4611.954048,N,01258.228490,E,000.1,254.8,091011,$GPGGA,084453.00,4611.954051,N,01258.228444,E,1,06,1.5,139.75,M,46.25,M,,*60
$GPGLL,4611.954051,N,01258.228444,E,084453.00,A,A*6B
$GPVTG,276.7,T,276.9,M,000.0,N,000.1,K,A*2C
$GPGSV,3,1,09,02,38,084,44,04,15,041,45,09,23,150,43,12,61,071,45*7B
$GPGSV,3,2,09,14,31,258,25,25,73,322,41,29,47,220,46,30,29,288,*7B
$GPGSV,3,3,09,31,21,313,,,,,,,,,,,,,*40
$GPGSA,M,3,02,04,09,12,25,29,,,,,,,2.5,1.5,2.0*3F
Trace #4 at position 0.750000
$GPZDA,084452.04,09,10,2011,00,00*67
$GPRMC,084452.00,A,4611.954048,N,01258.228490,E,000.1,254.8,091011,$GPGGA,084453.00,4611.954051,N,01258.228444,E,1,06,1.5,139.75,M,46.25,M,,*60
$GPGLL,4611.954051,N,01258.228444,E,084453.00,A,A*6B
$GPVTG,276.7,T,276.9,M,000.0,N,000.1,K,A*2C
$GPGSV,3,1,09,02,38,084,44,04,15,041,45,09,23,150,43,12,61,071,45*7B
$GPGSV,3,2,09,14,31,258,25,25,73,322,41,29,47,220,46,30,29,288,*7B
$GPGSV,3,3,09,31,21,313,,,,,,,,,,,,,*40
$GPGSA,M,3,02,04,09,12,25,29,,,,,,,2.5,1.5,2.0*3F
Trace #5 at position 1.000000
$GPZDA,084452.04,09,10,2011,00,00*67
$GPRMC,084452.00,A,4611.954048,N,01258.228490,E,000.1,254.8,091011,$GPGGA,084453.00,4611.954051,N,01258.228444,E,1,06,1.5,139.75,M,46.25,M,,*60
$GPGLL,4611.954051,N,01258.228444,E,084453.00,A,A*6B
$GPVTG,276.7,T,276.9,M,000.0,N,000.1,K,A*2C
$GPGSV,3,1,09,02,38,084,44,04,15,041,45,09,23,150,43,12,61,071,45*7B
$GPGSV,3,2,09,14,31,258,25,25,73,322,41,29,47,220,46,30,29,288,*7B
$GPGSV,3,3,09,31,21,313,,,,,,,,,,,,,*40
$GPGSA,M,3,02,04,09,12,25,29,,,,,,,2.5,1.5,2.0*3F
Trace #6 at position 1.250000
$GPZDA,084453.04,09,10,2011,00,00*66
$GPRMC,084453.00,A,4611.954051,N,01258.228444,E,000.0,276.7,091011,$GPGGA,084454.00,4611.954052,N,01258.228429,E,1,06,1.5,139.68,M,46.25,M,,*63
$GPGLL,4611.954052,N,01258.228429,E,084454.00,A,A*64
$GPVTG,160.0,T,160.1,M,000.1,N,000.1,K,A*22
$GPGSV,3,1,09,02,38,084,42,04,15,041,44,09,23,150,43,12,61,071,44*7D
$GPGSV,3,2,09,14,31,257,36,25,73,322,44,29,47,220,48,30,29,288,30*7E
$GPGSV,3,3,09,31,21,313,,,,,,,,,,,,,*40
$GPGSA,M,3,02,04,09,12,25,29,,,,,,,2.5,1.5,2.0*3F
Trace #7 at position 1.500000
$GPZDA,084453.04,09,10,2011,00,00*66
$GPRMC,084453.00,A,4611.954051,N,01258.228444,E,000.0,276.7,091011,$GPGGA,084454.00,4611.954052,N,01258.228429,E,1,06,1.5,139.68,M,46.25,M,,*63
$GPGLL,4611.954052,N,01258.228429,E,084454.00,A,A*64
$GPVTG,160.0,T,160.1,M,000.1,N,000.1,K,A*22
$GPGSV,3,1,09,02,38,084,42,04,15,041,44,09,23,150,43,12,61,071,44*7D
$GPGSV,3,2,09,14,31,257,36,25,73,322,44,29,47,220,48,30,29,288,30*7E
$GPGSV,3,3,09,31,21,313,,,,,,,,,,,,,*40
$GPGSA,M,3,02,04,09,12,25,29,,,,,,,2.5,1.5,2.0*3F
Trace #8 at position 1.750000
$GPZDA,084454.04,09,10,2011,00,00*61
$GPRMC,084454.00,A,4611.954052,N,01258.228429,E,000.1,160.0,0910146.25,M,,*61
$GPGLL,4611.954050,N,01258.228422,E,084455.00,A,A*6C
$GPVTG,193.2,T,193.3,M,000.0,N,000.0,K,A*22
$GPGSV,3,1,09,02,38,084,42,04,15,041,44,09,23,150,43,12,61,071,43*7A
$GPGSV,3,2,09,14,31,257,37,25,73,322,44,29,47,220,47,30,29,288,31*71
$GPGSV,3,3,09,31,21,313,,,,,,,,,,,,,*40
$GPGSA,M,3,02,04,09,12,25,29,,,,,,,2.5,1.5,2.0*3F
Trace #9 at position 2.000000
$GPZDA,084454.04,09,10,2011,00,00*61
$GPRMC,084454.00,A,4611.954052,N,01258.228429,E,000.1,160.0,0910146.25,M,,*61
$GPGLL,4611.954050,N,01258.228422,E,084455.00,A,A*6C
$GPVTG,193.2,T,193.3,M,000.0,N,000.0,K,A*22
$GPGSV,3,1,09,02,38,084,42,04,15,041,44,09,23,150,43,12,61,071,43*7A
$GPGSV,3,2,09,14,31,257,37,25,73,322,44,29,47,220,47,30,29,288,31*71
$GPGSV,3,3,09,31,21,313,,,,,,,,,,,,,*40
$GPGSA,M,3,02,04,09,12,25,29,,,,,,,2.5,1.5,2.0*3F
Trace #10 at position 2.250000
$GPZDA,084455.04,09,10,2011,00,00*60
$GPRMC,084455.00,A,4611.954050,N,01258.228422,E,000.0,193.2,091011,0.2,E,A*33
$GPGGA,084456.00,4611.954057,N,01258.228412,E,1,06,348.6,M,000.0,N,000.0,K,A*20
$GPGSV,3,1,09,02,38,084,42,04,15,041,44,09,23,150,44,12,61,071,43*7D
$GPGSV,3,2,09,14,31,257,38,25,73,322,45,29,47,220,47,30,29,288,32*7C
$GPGSV,3,3,09,31,21,313,,,,,,,,,,,,,*40
$GPGSA,M,3,02,04,09,12,25,29,,,,,,,2.5,1.5,2.0*3F
Trace #11 at position 2.500000
$GPZDA,084455.04,09,10,2011,00,00*60
$GPRMC,084455.00,A,4611.954050,N,01258.228422,E,000.0,193.2,091011,0.2,E,A*33
$GPGGA,084456.00,4611.954057,N,01258.228412,E,1,06,348.6,M,000.0,N,000.0,K,A*20
$GPGSV,3,1,09,02,38,084,42,04,15,041,44,09,23,150,44,12,61,071,43*7D
$GPGSV,3,2,09,14,31,257,38,25,73,322,45,29,47,220,47,30,29,288,32*7C
$GPGSV,3,3,09,31,21,313,,,,,,,,,,,,,*40
$GPGSA,M,3,02,04,09,12,25,29,,,,,,,2.5,1.5,2.0*3F
Trace #12 at position 2.750000
$GPZDA,084456.04,09,10,2011,00,00*63
$GPRMC,084456.00,A,4611.954057,N,01258.228412,E,000.0,348.5,091011,0.2,E,A*37
$GPGGA,084457.00,4611.954061,N,01258.228413,E,1,06,1.5,139.59,M,46.25,M,,*6B
$GPGLL,4611.954061,N,01258.228413,E,084457.00,A,A*6E
1,44,09,23,150,44,12,61,071,43*7D
$GPGSV,3,2,09,14,31,257,38,25,73,322,45,29,47,220,47,30,29,288,32*7C
$GPGSV,3,3,09,31,21,313,,,,,,,,,,,,,*40
$GPGSA,M,3,02,04,09,12,25,29,,,,,,,2.5,1.5,2.0*3F
Trace #13 at position 3.000000
$GPZDA,084456.04,09,10,2011,00,00*63
$GPRMC,084456.00,A,4611.954057,N,01258.228412,E,000.0,348.5,091011,0.2,E,A*37
$GPGGA,084457.00,4611.954061,N,01258.228413,E,1,06,1.5,139.59,M,46.25,M,,*6B
$GPGLL,4611.954061,N,01258.228413,E,084457.00,A,A*6E
1,44,09,23,150,44,12,61,071,43*7D
$GPGSV,3,2,09,14,31,257,38,25,73,322,45,29,47,220,47,30,29,288,32*7C
$GPGSV,3,3,09,31,21,313,,,,,,,,,,,,,*40
$GPGSA,M,3,02,04,09,12,25,29,,,,,,,2.5,1.5,2.0*3F
Trace #14 at position 3.250000
$GPZDA,084456.04,09,10,2011,00,00*63
$GPRMC,084456.00,A,4611.954057,N,01258.228412,E,000.0,348.5,091011,0.2,E,A*37
$GPGGA,084457.00,4611.954061,N,01258.228413,E,1,06,1.5,139.59,M,46.25,M,,*6B
$GPGLL,4611.954061,N,01258.228413,E,084457.00,A,A*6E
1,44,09,23,150,44,12,61,071,43*7D
$GPGSV,3,2,09,14,31,257,38,25,73,322,45,29,47,220,47,30,29,288,32*7C
$GPGSV,3,3,09,31,21,313,,,,,,,,,,,,,*40
$GPGSA,M,3,02,04,09,12,25,29,,,,,,,2.5,1.5,2.0*3F
Trace #15 at position 3.500000
$GPZDA,084457.04,09,10,2011,00,00*62
$GPRMC,084457.00,A,4611.954061,N,01258.228413,E,000.0,122.4,091011,0.2,E,A*3D
$GPGGA,084458.00,4611.954062,N,01258.228419,E,1,06,1.5,139.59,M,46.25,M,,*6D
$GPGLL,4611.954062,N,01258.228419,E,084458.00,A,A*68
$GPVTG,95.9,T,96.1,M,000.0,N,000.0,K,A*28
$GPGSV,3,1,09,02,38,084,,,,,,,,,*40
$GPGSA,M,3,02,04,09,12,25,29,,,,,,,2.5,1.5,2.0*3F
Trace #16 at position 3.750000
$GPZDA,084457.04,09,10,2011,00,00*62
$GPRMC,084457.00,A,4611.954061,N,01258.228413,E,000.0,122.4,091011,0.2,E,A*3D
$GPGGA,084458.00,4611.954062,N,01258.228419,E,1,06,1.5,139.59,M,46.25,M,,*6D
$GPGLL,4611.954062,N,01258.228419,E,084458.00,A,A*68
$GPVTG,95.9,T,96.1,M,000.0,N,000.0,K,A*28
$GPGSV,3,1,09,02,38,084,,,,,,,,,*40
$GPGSA,M,3,02,04,09,12,25,29,,,,,,,2.5,1.5,2.0*3F
Trace #17 at position 4.000000
$GPZDA,084457.04,09,10,2011,00,00*62
$GPRMC,084457.00,A,4611.954061,N,01258.228413,E,000.0,122.4,091011,0.2,E,A*3D
$GPGGA,084458.00,4611.954062,N,01258.228419,E,1,06,1.5,139.59,M,46.25,M,,*6D
$GPGLL,4611.954062,N,01258.228419,E,084458.00,A,A*68
$GPVTG,95.9,T,96.1,M,000.0,N,000.0,K,A*28
$GPGSV,3,1,09,02,38,084,,,,,,,,,*40
$GPGSA,M,3,02,04,09,12,25,29,,,,,,,2.5,1.5,2.0*3F
Trace #18 at position 4.250000
$GPZDA,084457.04,09,10,2011,00,00*62
$GPRMC,084457.00,A,4611.954061,N,01258.228413,E,000.0,122.4,091011,0.2,E,A*3D
$GPGGA,084458.00,4611.954062,N,01258.228419,E,1,06,1.5,139.59,M,46.25,M,,*6D
$GPGLL,4611.954062,N,01258.228419,E,084458.00,A,A*68
$GPVTG,95.9,T,96.1,M,000.0,N,000.0,K,A*28
$GPGSV,3,1,09,02,38,084,,,,,,,,,*40
$GPGSA,M,3,02,04,09,12,25,29,,,,,,,2.5,1.5,2.0*3F
Trace #19 at position 4.500000
$GPZDA,084457.04,09,10,2011,00,00*62
$GPRMC,084457.00,A,4611.954061,N,01258.228413,E,000.0,122.4,091011,0.2,E,A*3D
$GPGGA,084458.00,4611.954062,N,01258.228419,E,1,06,1.5,139.59,M,46.25,M,,*6D
$GPGLL,4611.954062,N,01258.228419,E,084458.00,A,A*68
$GPVTG,95.9,T,96.1,M,000.0,N,000.0,K,A*28
$GPGSV,3,1,09,02,38,084,,,,,,,,,*40
$GPGSA,M,3,02,04,09,12,25,29,,,,,,,2.5,1.5,2.0*3F
Trace #20 at position 4.750000
$GPZDA,084458.04,09,10,2011,00,00*6D
$GPRMC,084458.00,A,4611.954062,N,01258.228419,E,000.0,95.9,091011,0.2,E,A*0B
$GPGGA,084459.00,4611.954215,N,01258.228299,E,1,06,1.5,139.60,M,46.25,M,,*6A
$GPGLL,4611.954215,N,01258.228299,E,084459.00,A,A*65
$GPVTG,329.5,T,329.7,M,001.2,N,002.2,K,A*22
$GPGSV,3,1,09,02,38,084,44,04,15,041,44,09,23,150,44,12,61,071,42*7A
$GPGSV,3,2,09,14,31,257,38,25,73,322,44,29,47,220,46,30,29,288,30*7E
$GPGSV,3,3,09,15,N,01258.228299,E,001.2,329.5,091011,0.2,E,A*3D
$GPGGA,084500.00,4611.954540,N,01258.228071,E,1,06,1.5,139.51,M,46.25,M,,*66
$GPGLL,4611.954540,N,01258.228071,E,084500.00,A,A*6B
$GPVTG,335.7,T,335.8,M,001.5,N,002.7,K,A*2D
$GPGSV,3,1,09,02,38,084,45,04,15,041,42,09,23,150,44,12,61,071,41*7E
$GPGSV,3,2,09,14,31,257,39,25,73,322,43,29,47,220,47,30,29,288,30*79
$GPGSV,3,3,09,31,21,313,,,,,,,,,,,,,*40
$GPGSA,M,3,02,04,09,12,25,29,,,,,,,2.5,1.5,2.0*3F
Trace #21 at position 5.000000
$GPZDA,084458.04,09,10,2011,00,00*6D
$GPRMC,084458.00,A,4611.954062,N,01258.228419,E,000.0,95.9,091011,0.2,E,A*0B
$GPGGA,084459.00,4611.954215,N,01258.228299,E,1,06,1.5,139.60,M,46.25,M,,*6A
$GPGLL,4611.954215,N,01258.228299,E,084459.00,A,A*65
$GPVTG,329.5,T,329.7,M,001.2,N,002.2,K,A*22
$GPGSV,3,1,09,02,38,084,44,04,15,041,44,09,23,150,44,12,61,071,42*7A
$GPGSV,3,2,09,14,31,257,38,25,73,322,44,29,47,220,46,30,29,288,30*7E
$GPGSV,3,3,09,15,N,01258.228299,E,001.2,329.5,091011,0.2,E,A*3D
$GPGGA,084500.00,4611.954540,N,01258.228071,E,1,06,1.5,139.51,M,46.25,M,,*66
$GPGLL,4611.954540,N,01258.228071,E,084500.00,A,A*6B
$GPVTG,335.7,T,335.8,M,001.5,N,002.7,K,A*2D
$GPGSV,3,1,09,02,38,084,45,04,15,041,42,09,23,150,44,12,61,071,41*7E
$GPGSV,3,2,09,14,31,257,39,25,73,322,43,29,47,220,47,30,29,288,30*79
$GPGSV,3,3,09,31,21,313,,,,,,,,,,,,,*40
$GPGSA,M,3,02,04,09,12,25,29,,,,,,,2.5,1.5,2.0*3F
Trace #22 at position 5.250000
$GPZDA,084500.04,09,10,2011,00,00*61
$GPRMC,084500.$GPGGA,084501.00,4611.954861,N,01258.227866,E,1,07,1.1,139.44,M,46.25,M,,*69
$GPGLL,4611.954861,N,01258.227866,E,084501.00,A,A*65
$GPVTG,334.7,T,334.8,M,001.1,N,002.1,K,A*2F
$GPGSV,3,1,09,02,38,084,46,04,15,041,43,09,23,150,41,12,61,071,41*79
$GPGSV,3,2,09,14,31,257,40,25,73,322,41,29,47,220,47,30,29,288,35*70
$GPGSV,3,3,09,31,21,313,,,,,,,,,,,,,*40
$GPGSA,M,3,02,04,09,12,14,25,29,,,,,,2.0,1.1,1.7*3F
Trace #23 at position 5.500000
$GPZDA,084500.04,09,10,2011,00,00*61
$GPRMC,084500.$GPGGA,084501.00,4611.954861,N,01258.227866,E,1,07,1.1,139.44,M,46.25,M,,*69
$GPGLL,4611.954861,N,01258.227866,E,084501.00,A,A*65
$GPVTG,334.7,T,334.8,M,001.1,N,002.1,K,A*2F
$GPGSV,3,1,09,02,38,084,46,04,15,041,43,09,23,150,41,12,61,071,41*79
$GPGSV,3,2,09,14,31,257,40,25,73,322,41,29,47,220,47,30,29,288,35*70
$GPGSV,3,3,09,31,21,313,,,,,,,,,,,,,*40
$GPGSA,M,3,02,04,09,12,14,25,29,,,,,,2.0,1.1,1.7*3F
Trace #24 at position 5.750000
$GPZDA,084500.04,09,10,2011,00,00*61
$GPRMC,084500.$GPGGA,084501.00,4611.954861,N,01258.227866,E,1,07,1.1,139.44,M,46.25,M,,*69
$GPGLL,4611.954861,N,01258.227866,E,084501.00,A,A*65
$GPVTG,334.7,T,334.8,M,001.1,N,002.1,K,A*2F
$GPGSV,3,1,09,02,38,084,46,04,15,041,43,09,23,150,41,12,61,071,41*79
$GPGSV,3,2,09,14,31,257,40,25,73,322,41,29,47,220,47,30,29,288,35*70
$GPGSV,3,3,09,31,21,313,,,,,,,,,,,,,*40
$GPGSA,M,3,02,04,09,12,14,25,29,,,,,,2.0,1.1,1.7*3F
Trace #25 at position 6.000000
$GPZDA,084500.04,09,10,2011,00,00*61
$GPRMC,084500.$GPGGA,084501.00,4611.954861,N,01258.227866,E,1,07,1.1,139.44,M,46.25,M,,*69
$GPGLL,4611.954861,N,01258.227866,E,084501.00,A,A*65
$GPVTG,334.7,T,334.8,M,001.1,N,002.1,K,A*2F
$GPGSV,3,1,09,02,38,084,46,04,15,041,43,09,23,150,41,12,61,071,41*79
$GPGSV,3,2,09,14,31,257,40,25,73,322,41,29,47,220,47,30,29,288,35*70
$GPGSV,3,3,09,31,21,313,,,,,,,,,,,,,*40
$GPGSA,M,3,02,04,09,12,14,25,29,,,,,,2.0,1.1,1.7*3F
Trace #26 at position 6.250000
$GPZDA,084501.04,09,10,2011,00,00*60
$GPRMC,084501.00,A,4611.954861,N,01258.227866,E,001.1,334.7,091$GPGGA,084502.00,4611.955192,N,01258.227761,E,1,07,1.1,139.38,M,46.25,M,,*6D
$GPGLL,4611.955192,N,01258.227761,E,084502.00,A,A*6A
$GPVTG,356.5,T,356.7,M,001.4,N,002.7,K,A*21
$GPGSV,3,1,09,02,38,084,45,04,15,041,43,09,23,150,42,12,61,071,43*7B
$GPGSV,3,2,09,14,31,257,39,25,73,322,40,29,47,220,47,30,29,288,36*7C
$GPGSV,3,3,09,31,21,313,,,,,,,,,,,,,*40
$GPGSA,M,3,02,04,09,12,14,25,29,,,,,,2.0,1.1,1.7*3F
Trace #27 at position 6.500000
$GPZDA,084501.04,09,10,2011,00,00*60
$GPRMC,084501.00,A,4611.954861,N,01258.227866,E,001.1,334.7,091$GPGGA,084502.00,4611.955192,N,01258.227761,E,1,07,1.1,139.38,M,46.25,M,,*6D
$GPGLL,4611.955192,N,01258.227761,E,084502.00,A,A*6A
$GPVTG,356.5,T,356.7,M,001.4,N,002.7,K,A*21
$GPGSV,3,1,09,02,38,084,45,04,15,041,43,09,23,150,42,12,61,071,43*7B
$GPGSV,3,2,09,14,31,257,39,25,73,322,40,29,47,220,47,30,29,288,36*7C
$GPGSV,3,3,09,31,21,313,,,,,,,,,,,,,*40
$GPGSA,M,3,02,04,09,12,14,25,29,,,,,,2.0,1.1,1.7*3F
Trace #28 at position 6.750000
$GPZDA,084501.04,09,10,2011,00,00*60
$GPRMC,084501.00,A,4611.954861,N,01258.227866,E,001.1,334.7,091$GPGGA,084502.00,4611.955192,N,01258.227761,E,1,07,1.1,139.38,M,46.25,M,,*6D
$GPGLL,4611.955192,N,01258.227761,E,084502.00,A,A*6A
$GPVTG,356.5,T,356.7,M,001.4,N,002.7,K,A*21
$GPGSV,3,1,09,02,38,084,45,04,15,041,43,09,23,150,42,12,61,071,43*7B
$GPGSV,3,2,09,14,31,257,39,25,73,322,40,29,47,220,47,30,29,288,36*7C
$GPGSV,3,3,09,31,21,313,,,,,,,,,,,,,*40
$GPGSA,M,3,02,04,09,12,14,25,29,,,,,,2.0,1.1,1.7*3F
Trace #29 at position 7.000000
$GPZDA,084502.04,09,10,2011,00,00*63
$GPRMC,084502.00,A,4611.955192,N,01258.227761,E,001.4,356.5,091$GPGGA,084503.00,4611.955624,N,01258.227683,E,1,07,1.1,139.28,M,46.25,M,,*6A
$GPGLL,4611.955624,N,01258.227683,E,084503.00,A,A*6C
$GPVTG,351.6,T,351.8,M,001.9,N,003.5,K,A*23
$GPGSV,3,1,09,02,38,084,45,04,15,041,43,09,23,150,40,12,61,071,43*79
$GPGSV,3,2,09,14,31,257,41,25,73,322,45,29,47,220,47,30,29,288,36*76
$GPGSV,3,3,09,31,21,313,,,,,,,,,,,,,*40
$GPGSA,M,3,02,04,09,12,14,25,29,,,,,,2.0,1.1,1.7*3F
Trace #30 at position 7.250000
$GPZDA,084502.04,09,10,2011,00,00*63
$GPRMC,084502.00,A,4611.955192,N,01258.227761,E,001.4,356.5,091$GPGGA,084503.00,4611.955624,N,01258.227683,E,1,07,1.1,139.28,M,46.25,M,,*6A
$GPGLL,4611.955624,N,01258.227683,E,084503.00,A,A*6C
$GPVTG,351.6,T,351.8,M,001.9,N,003.5,K,A*23
$GPGSV,3,1,09,02,38,084,45,04,15,041,43,09,23,150,40,12,61,071,43*79
$GPGSV,3,2,09,14,31,257,41,25,73,322,45,29,47,220,47,30,29,288,36*76
$GPGSV,3,3,09,31,21,313,,,,,,,,,,,,,*40
$GPGSA,M,3,02,04,09,12,14,25,29,,,,,,2.0,1.1,1.7*3F
Trace #31 at position 7.500000
$GPZDA,084502.04,09,10,2011,00,00*63
$GPRMC,084502.00,A,4611.955192,N,01258.227761,E,001.4,356.5,091$GPGGA,084503.00,4611.955624,N,01258.227683,E,1,07,1.1,139.28,M,46.25,M,,*6A
$GPGLL,4611.955624,N,01258.227683,E,084503.00,A,A*6C
$GPVTG,351.6,T,351.8,M,001.9,N,003.5,K,A*23
$GPGSV,3,1,09,02,38,084,45,04,15,041,43,09,23,150,40,12,61,071,43*79
$GPGSV,3,2,09,14,31,257,41,25,73,322,45,29,47,220,47,30,29,288,36*76
$GPGSV,3,3,09,31,21,313,,,,,,,,,,,,,*40
$GPGSA,M,3,02,04,09,12,14,25,29,,,,,,2.0,1.1,1.7*3F
Trace #32 at position 7.750000
$GPZDA,084503.04,09,10,2011,00,00*62
$GPRMC,084503.00,A,4611.955624,N,01258.227683,E,001.9,351.6,091$GPGGA,084504.00,4611.956005,N,01258.227561,E,1,07,1.1,139.26,M,46.25,M,,*6A
$GPGLL,4611.956005,N,01258.227561,E,084504.00,A,A*62
$GPVTG,345.5,T,345.6,M,001.2,N,002.1,K,A*20
$GPGSV,3,1,09,02,38,084,44,04,15,041,42,09,23,150,41,12,61,071,44*7F
$GPGSV,3,2,09,14,31,257,40,25,73,322,43,29,47,220,47,30,29,288,37*70
$GPGSV,3,3,09,31,21,313,,,,,,,,,,,,,*40
$GPGSA,M,3,02,04,09,12,14,25,29,,,,,,2.0,1.1,1.7*3F
Trace #33 at position 8.000000
$GPZDA,084503.04,09,10,2011,00,00*62
$GPRMC,084503.00,A,4611.955624,N,01258.227683,E,001.9,351.6,091$GPGGA,084504.00,4611.956005,N,01258.227561,E,1,07,1.1,139.26,M,46.25,M,,*6A
$GPGLL,4611.956005,N,01258.227561,E,084504.00,A,A*62
$GPVTG,345.5,T,345.6,M,001.2,N,002.1,K,A*20
$GPGSV,3,1,09,02,38,084,44,04,15,041,42,09,23,150,41,12,61,071,44*7F
$GPGSV,3,2,09,14,31,257,40,25,73,322,43,29,47,220,47,30,29,288,37*70
$GPGSV,3,3,09,31,21,313,,,,,,,,,,,,,*40
$GPGSA,M,3,02,04,09,12,14,25,29,,,,,,2.0,1.1,1.7*3F
Trace #34 at position 8.250000
$GPZDA,084503.04,09,10,2011,00,00*62
$GPRMC,084503.00,A,4611.955624,N,01258.227683,E,001.9,351.6,091$GPGGA,084504.00,4611.956005,N,01258.227561,E,1,07,1.1,139.26,M,46.25,M,,*6A
$GPGLL,4611.956005,N,01258.227561,E,084504.00,A,A*62
$GPVTG,345.5,T,345.6,M,001.2,N,002.1,K,A*20
$GPGSV,3,1,09,02,38,084,44,04,15,041,42,09,23,150,41,12,61,071,44*7F
$GPGSV,3,2,09,14,31,257,40,25,73,322,43,29,47,220,47,30,29,288,37*70
$GPGSV,3,3,09,31,21,313,,,,,,,,,,,,,*40
$GPGSA,M,3,02,04,09,12,14,25,29,,,,,,2.0,1.1,1.7*3F
Trace #35 at position 8.500000
$GPZDA,084504.04,09,10,2011,00,00*65
$GPRMC,084504.00,A,4611.956005,N,01258.227561,E,001.2,345.5,091$GPGGA,084505.00,4611.956276,N,01258.227442,E,1,07,1.1,139.32,M,46.25,M,,*68
$GPGLL,4611.956276,N,01258.227442,E,084505.00,A,A*65
$GPVTG,344.5,T,344.6,M,001.0,N,001.9,K,A*29
$GPGSV,3,1,09,02,38,084,44,04,15,041,42,09,23,150,43,12,61,071,43*7A
$GPGSV,3,2,09,14,31,257,40,25,73,322,46,29,47,220,48,30,29,288,35*78
$GPGSV,3,3,09,31,21,313,,,,,,,,,,,,,*40
$GPGSA,M,3,02,04,09,12,14,25,29,,,,,,2.0,1.1,1.7*3F
Trace #36 at position 8.750000
$GPZDA,084504.04,09,10,2011,00,00*65
$GPRMC,084504.00,A,4611.956005,N,01258.227561,E,001.2,345.5,091$GPGGA,084505.00,4611.956276,N,01258.227442,E,1,07,1.1,139.32,M,46.25,M,,*68
$GPGLL,4611.956276,N,01258.227442,E,084505.00,A,A*65
$GPVTG,344.5,T,344.6,M,001.0,N,001.9,K,A*29
$GPGSV,3,1,09,02,38,084,44,04,15,041,42,09,23,150,43,12,61,071,43*7A
$GPGSV,3,2,09,14,31,257,40,25,73,322,46,29,47,220,48,30,29,288,35*78
$GPGSV,3,3,09,31,21,313,,,,,,,,,,,,,*40
$GPGSA,M,3,02,04,09,12,14,25,29,,,,,,2.0,1.1,1.7*3F
Trace #37 at position 9.000000
$GPZDA,084504.04,09,10,2011,00,00*65
$GPRMC,084504.00,A,4611.956005,N,01258.227561,E,001.2,345.5,091$GPGGA,084505.00,4611.956276,N,01258.227442,E,1,07,1.1,139.32,M,46.25,M,,*68
$GPGLL,4611.956276,N,01258.227442,E,084505.00,A,A*65
$GPVTG,344.5,T,344.6,M,001.0,N,001.9,K,A*29
$GPGSV,3,1,09,02,38,084,44,04,15,041,42,09,23,150,43,12,61,071,43*7A
$GPGSV,3,2,09,14,31,257,40,25,73,322,46,29,47,220,48,30,29,288,35*78
$GPGSV,3,3,09,31,21,313,,,,,,,,,,,,,*40
$GPGSA,M,3,02,04,09,12,14,25,29,,,,,,2.0,1.1,1.7*3F
Trace #38 at position 9.250000
$GPZDA,084505.04,09,10,2011,00,00*64
$GPRMC,084505.00,A,4611.956276,N,01258.227442,E,001.0,344.5,0911258.227358,E,1,07,1.1,139.37,M,46.25,M,,*61
$GPGLL,4611.956624,N,01258.227358,E,084506.00,A,A*69
$GPVTG,357.7,T,357.9,M,001.7,N,003.1,K,A*29
$GPGSV,3,1,09,02,38,084,45,04,15,041,43,09,23,150,42,12,60,071,45*7C
$GPGSV,3,2,09,14,31,257,41,25,73,322,44,29,47,220,47,30,29,288,38*79
$GPGSV,3,3,09,31,21,313,,,,,,,,,,,,,*40
$GPGSA,M,3,02,04,09,12,14,25,29,,,,,,2.0,1.1,1.7*3F
Trace #39 at position 9.500000
$GPZDA,084505.04,09,10,2011,00,00*64
$GPRMC,084505.00,A,4611.956276,N,01258.227442,E,001.0,344.5,0911258.227358,E,1,07,1.1,139.37,M,46.25,M,,*61
$GPGLL,4611.956624,N,01258.227358,E,084506.00,A,A*69
$GPVTG,357.7,T,357.9,M,001.7,N,003.1,K,A*29
$GPGSV,3,1,09,02,38,084,45,04,15,041,43,09,23,150,42,12,60,071,45*7C
$GPGSV,3,2,09,14,31,257,41,25,73,322,44,29,47,220,47,30,29,288,38*79
$GPGSV,3,3,09,31,21,313,,,,,,,,,,,,,*40
$GPGSA,M,3,02,04,09,12,14,25,29,,,,,,2.0,1.1,1.7*3F
Trace #40 at position 9.750000
$GPZDA,084506.04,09,10,2011,00,00*67
$GPRMC,084506.00,A,4611.956624,N,01258.227358,E,001.7,357.7,091011,0.2,E,A*3F
$GPGGA,084507.00PGLL,4611.956959,N,01258.227248,E,084507.00,A,A*6D
$GPVTG,337.3,T,337.5,M,001.0,N,001.8,K,A*2D
$GPGSV,3,1,09,02,38,084,44,04,15,041,43,09,23,150,42,12,60,071,45*7D
$GPGSV,3,2,09,14,31,257,41,25,73,322,43,29,47,220,47,30,29,288,37*71
$GPGSV,3,3,09,31,21,313,,,,,,,,,,,,,*40
$GPGSA,M,3,02,04,09,12,14,25,29,,,,,,2.0,1.1,1.7*3F
Trace #41 at position 10.000000
$GPZDA,084506.04,09,10,2011,00,00*67
$GPRMC,084506.00,A,4611.956624,N,01258.227358,E,001.7,357.7,091011,0.2,E,A*3F
$GPGGA,084507.00PGLL,4611.956959,N,01258.227248,E,084507.00,A,A*6D
$GPVTG,337.3,T,337.5,M,001.0,N,001.8,K,A*2D
$GPGSV,3,1,09,02,38,084,44,04,15,041,43,09,23,150,42,12,60,071,45*7D
$GPGSV,3,2,09,14,31,257,41,25,73,322,43,29,47,220,47,30,29,288,37*71
$GPGSV,3,3,09,31,21,313,,,,,,,,,,,,,*40
$GPGSA,M,3,02,04,09,12,14,25,29,,,,,,2.0,1.1,1.7*3F
Trace #42 at position 10.250000
$GPZDA,084507.04,09,10,2011,00,00*66
$GPRMC,084507.00,A,4611.956959,N,01258.227248,E,001.0,337.3,091011,0.2,E,A*3E
$GPGGA,084508.00,4611.957215,N,01258.227079,E,1,07,1.1,139.60,M,
$GPGSV,3,1,09,02,38,084,44,04,15,041,43,09,23,150,43,12,60,071,45*7C
$GPGSV,3,2,09,14,31,257,40,25,73,322,43,29,47,220,47,30,29,288,37*70
$GPGSV,3,3,09,31,21,313,,,,,,,,,,,,,*40
$GPGSA,M,3,02,04,09,12,14,25,29,,,,,,2.0,1.1,1.7*3F
Trace #43 at position 10.500000
$GPZDA,084508.04,09,10,2011,00,00*69
$GPRMC,084508.00,A,4611.957215,N,01258.227079,E,001.0,338.4,091011,0.2,E,A*3B
$GPGGA,084509.00,4611.957592,N,01258.226872,E,1,07,1.1,139.68,M,46.25,M,,*69
$GPGLL,4611.957592,N,01258.226872,E,084509.00,A,A*6B
$GPVTG,341.2,T,341.4,M,001.8,*40
$GPGSA,M,3,02,04,09,12,14,25,29,,,,,,2.0,1.1,1.7*3F
Trace #44 at position 10.750000
$GPZDA,084508.04,09,10,2011,00,00*69
$GPRMC,084508.00,A,4611.957215,N,01258.227079,E,001.0,338.4,091011,0.2,E,A*3B
$GPGGA,084509.00,4611.957592,N,01258.226872,E,1,07,1.1,139.68,M,46.25,M,,*69
$GPGLL,4611.957592,N,01258.226872,E,084509.00,A,A*6B
$GPVTG,341.2,T,341.4,M,001.8,*40
$GPGSA,M,3,02,04,09,12,14,25,29,,,,,,2.0,1.1,1.7*3F
Trace #45 at position 11.000000
$GPZDA,084508.04,09,10,2011,00,00*69
$GPRMC,084508.00,A,4611.957215,N,01258.227079,E,001.0,338.4,091011,0.2,E,A*3B
$GPGGA,084509.00,4611.957592,N,01258.226872,E,1,07,1.1,139.68,M,46.25,M,,*69
$GPGLL,4611.957592,N,01258.226872,E,084509.00,A,A*6B
$GPVTG,341.2,T,341.4,M,001.8,*40
$GPGSA,M,3,02,04,09,12,14,25,29,,,,,,2.0,1.1,1.7*3F
Trace #46 at position 11.250000
$GPZDA,084508.04,09,10,2011,00,00*69
$GPRMC,084508.00,A,4611.957215,N,01258.227079,E,001.0,338.4,091011,0.2,E,A*3B
$GPGGA,084509.00,4611.957592,N,01258.226872,E,1,07,1.1,139.68,M,46.25,M,,*69
$GPGLL,4611.957592,N,01258.226872,E,084509.00,A,A*6B
$GPVTG,341.2,T,341.4,M,001.8,*40
$GPGSA,M,3,02,04,09,12,14,25,29,,,,,,2.0,1.1,1.7*3F
Trace #47 at position 11.500000
$GPZDA,084508.04,09,10,2011,00,00*69
$GPRMC,084508.00,A,4611.957215,N,01258.227079,E,001.0,338.4,091011,0.2,E,A*3B
$GPGGA,084509.00,4611.957592,N,01258.226872,E,1,07,1.1,139.68,M,46.25,M,,*69
$GPGLL,4611.957592,N,01258.226872,E,084509.00,A,A*6B
$GPVTG,341.2,T,341.4,M,001.8,*40
$GPGSA,M,3,02,04,09,12,14,25,29,,,,,,2.0,1.1,1.7*3F
Trace #48 at position 11.750000
$GPZDA,084508.04,09,10,2011,00,00*69
$GPRMC,084508.00,A,4611.957215,N,01258.227079,E,001.0,338.4,091011,0.2,E,A*3B
$GPGGA,084509.00,4611.957592,N,01258.226872,E,1,07,1.1,139.68,M,46.25,M,,*69
$GPGLL,4611.957592,N,01258.226872,E,084509.00,A,A*6B
$GPVTG,341.2,T,341.4,M,001.8,*40
$GPGSA,M,3,02,04,09,12,14,25,29,,,,,,2.0,1.1,1.7*3F
Trace #49 at position 12.000000
$GPZDA,084508.04,09,10,2011,00,00*69
$GPRMC,084508.00,A,4611.957215,N,01258.227079,E,001.0,338.4,091011,0.2,E,A*3B
$GPGGA,084509.00,4611.957592,N,01258.226872,E,1,07,1.1,139.68,M,46.25,M,,*69
$GPGLL,4611.957592,N,01258.226872,E,084509.00,A,A*6B
$GPVTG,341.2,T,341.4,M,001.8,*40
$GPGSA,M,3,02,04,09,12,14,25,29,,,,,,2.0,1.1,1.7*3F
Trace #50 at position 12.250000
$GPZDA,084509.04,09,10,2011,00,00*68
$GPRMC,084509.00,A,4611.957592,N,01258.226872,E,001.8,341.2,091011,0.2,E,A*30
$GPGGA,084510.00,4611.958050,N,01258.226653,E,1,07,1.1,139.70,M,46.25,M,,*61
$GPGLL,4611.958050,N,01258.226653,E,084510.00,A,A*6A
$GPVTG,343.4,T,343.5,M,001.7,N,003.2,K,A*25
$GPGSV,3,1,09,02,38,084,45,04,15,041,44,09,23,150,42,12,60,071,44*7A
$GPGSV,3,2,09,14,31,257,40,25,73,322,43,29,47,220,48,30,29,288,35*7D
$GPGSV,3,3,09,31,210,2011,00,00*60
$GPRMC,084510.00,A,4611.958050,N,01258.226653,E,001.7,343.4,091011,0.2,E,A*3A
$GPGGA,084511.00,4611.958413,N,01258.226400,E,1,07,1.1,139.70,M,46.25,M,,*67
$GPGLL,4611.958413,N,01258.226400,E,084511.00,A,A*6C
$GPVTG,322.5,T,322.7,M,001.4,N,002.5,K,A*23
$GPGSV,3,1,09,02,38,084,45,04,15,041,44,09,23,150,43,12,60,071,43*7C
$GPGSV,3,2,09,14,31,257,40,25,73,322,45,29,47,220,48,30,29,288,35*7B
$GPGSV,3,3,09,31,21,313,,,,,,,,,,,,,*40
$GPGSA,M,3,02,04,09,12,14,25,29,,,,,,2.0,1.1,1.7*3F
Trace #51 at position 12.500000
$GPZDA,084509.04,09,10,2011,00,00*68
$GPRMC,084509.00,A,4611.957592,N,01258.226872,E,001.8,341.2,091011,0.2,E,A*30
$GPGGA,084510.00,4611.958050,N,01258.226653,E,1,07,1.1,139.70,M,46.25,M,,*61
$GPGLL,4611.958050,N,01258.226653,E,084510.00,A,A*6A
$GPVTG,343.4,T,343.5,M,001.7,N,003.2,K,A*25
$GPGSV,3,1,09,02,38,084,45,04,15,041,44,09,23,150,42,12,60,071,44*7A
$GPGSV,3,2,09,14,31,257,40,25,73,322,43,29,47,220,48,30,29,288,35*7D
$GPGSV,3,3,09,31,210,2011,00,00*60
$GPRMC,084510.00,A,4611.958050,N,01258.226653,E,001.7,343.4,091011,0.2,E,A*3A
$GPGGA,084511.00,4611.958413,N,01258.226400,E,1,07,1.1,139.70,M,46.25,M,,*67
$GPGLL,4611.958413,N,01258.226400,E,084511.00,A,A*6C
$GPVTG,322.5,T,322.7,M,001.4,N,002.5,K,A*23
$GPGSV,3,1,09,02,38,084,45,04,15,041,44,09,23,150,43,12,60,071,43*7C
$GPGSV,3,2,09,14,31,257,40,25,73,322,45,29,47,220,48,30,29,288,35*7B
$GPGSV,3,3,09,31,21,313,,,,,,,,,,,,,*40
$GPGSA,M,3,02,04,09,12,14,25,29,,,,,,2.0,1.1,1.7*3F
Trace #52 at position 12.750000
$GPZDA,084509.04,09,10,2011,00,00*68
$GPRMC,084509.00,A,4611.957592,N,01258.226872,E,001.8,341.2,091011,0.2,E,A*30
$GPGGA,084510.00,4611.958050,N,01258.226653,E,1,07,1.1,139.70,M,46.25,M,,*61
$GPGLL,4611.958050,N,01258.226653,E,084510.00,A,A*6A
$GPVTG,343.4,T,343.5,M,001.7,N,003.2,K,A*25
$GPGSV,3,1,09,02,38,084,45,04,15,041,44,09,23,150,42,12,60,071,44*7A
$GPGSV,3,2,09,14,31,257,40,25,73,322,43,29,47,220,48,30,29,288,35*7D
$GPGSV,3,3,09,31,210,2011,00,00*60
$GPRMC,084510.00,A,4611.958050,N,01258.226653,E,001.7,343.4,091011,0.2,E,A*3A
$GPGGA,084511.00,4611.958413,N,01258.226400,E,1,07,1.1,139.70,M,46.25,M,,*67
$GPGLL,4611.958413,N,01258.226400,E,084511.00,A,A*6C
$GPVTG,322.5,T,322.7,M,001.4,N,002.5,K,A*23
$GPGSV,3,1,09,02,38,084,45,04,15,041,44,09,23,150,43,12,60,071,43*7C
$GPGSV,3,2,09,14,31,257,40,25,73,322,45,29,47,220,48,30,29,288,35*7B
$GPGSV,3,3,09,31,21,313,,,,,,,,,,,,,*40
$GPGSA,M,3,02,04,09,12,14,25,29,,,,,,2.0,1.1,1.7*3F
Trace #53 at position 13.000000
$GPZD,001.4,322.5,091011,0.2,E,A*39
$GPGGA,084512.00,4611.958768,N,01258.226086,E,1,07,1.1,139.70,M,46.25,M,,*61
$GPGLL,4611.958768,N,01258.226086,E,084512.00,A,A*6A
$GPVTG,330.0,T,330.1,M,001.8,N,003.4,K,A*2C
$GPGSV,3,1,09,02,38,084,44,04,15,041,44,09,23,150,42,12,60,071,44*7B
$GPGSV,3,2,09,14,31,257,41,25,73,322,43,29,47,220,48,30,29,288,38*71
$GPGSV,3,3,09,31,21,313,,,,,,,,,,,,,*40
$GPGSA,M,3,02,04,09,12,14,25,29,,,,,,2.0,1.1,1.7*3F
Trace #54 at position 13.250000
$GPZD,001.4,322.5,091011,0.2,E,A*39
$GPGGA,084512.00,4611.958768,N,01258.226086,E,1,07,1.1,139.70,M,46.25,M,,*61
$GPGLL,4611.958768,N,01258.226086,E,084512.00,A,A*6A
$GPVTG,330.0,T,330.1,M,001.8,N,003.4,K,A*2C
$GPGSV,3,1,09,02,38,084,44,04,15,041,44,09,23,150,42,12,60,071,44*7B
$GPGSV,3,2,09,14,31,257,41,25,73,322,43,29,47,220,48,30,29,288,38*71
$GPGSV,3,3,09,31,21,313,,,,,,,,,,,,,*40
$GPGSA,M,3,02,04,09,12,14,25,29,,,,,,2.0,1.1,1.7*3F
Trace #55 at position 13.500000
$GPZD,001.4,322.5,091011,0.2,E,A*39
$GPGGA,084512.00,4611.958768,N,01258.226086,E,1,07,1.1,139.70,M,46.25,M,,*61
$GPGLL,4611.958768,N,01258.226086,E,084512.00,A,A*6A
$GPVTG,330.0,T,330.1,M,001.8,N,003.4,K,A*2C
$GPGSV,3,1,09,02,38,084,44,04,15,041,44,09,23,150,42,12,60,071,44*7B
$GPGSV,3,2,09,14,31,257,41,25,73,322,43,29,47,220,48,30,29,288,38*71
$GPGSV,3,3,09,31,21,313,,,,,,,,,,,,,*40
$GPGSA,M,3,02,04,09,12,14,25,29,,,,,,2.0,1.1,1.7*3F
Trace #56 at position 13.750000
$GPZDA,084512.04,09,10,2011,00,00*62
$GPRMC,084512.00,A,4611.958768,$GPGGA,084513.00,4611.959072,N,01258.225877,E,1,07,1.1,139.75,M,46.25,M,,*6D
$GPGLL,4611.959072,N,01258.225877,E,084513.00,A,A*63
$GPVTG,333.7,T,333.9,M,000.8,N,001.5,K,A*21
$GPGSV,3,1,09,02,38,084,45,04,15,041,43,09,23,150,39,12,60,071,44*71
$GPGSV,3,2,09,14,31,257,41,25,73,322,43,29,47,220,48,30,29,288,38*71
$GPGSV,3,3,09,31,21,313,,,,,,,,,,,,,*40
$GPGSA,M,3,02,04,09,12,14,25,29,,,,,,2.0,1.1,1.7*3F
Trace #57 at position 14.000000
$GPZDA,084512.04,09,10,2011,00,00*62
$GPRMC,084512.00,A,4611.958768,$GPGGA,084513.00,4611.959072,N,01258.225877,E,1,07,1.1,139.75,M,46.25,M,,*6D
$GPGLL,4611.959072,N,01258.225877,E,084513.00,A,A*63
$GPVTG,333.7,T,333.9,M,000.8,N,001.5,K,A*21
$GPGSV,3,1,09,02,38,084,45,04,15,041,43,09,23,150,39,12,60,071,44*71
$GPGSV,3,2,09,14,31,257,41,25,73,322,43,29,47,220,48,30,29,288,38*71
$GPGSV,3,3,09,31,21,313,,,,,,,,,,,,,*40
$GPGSA,M,3,02,04,09,12,14,25,29,,,,,,2.0,1.1,1.7*3F
Trace #58 at position 14.250000
$GPZDA,084512.04,09,10,2011,00,00*62
$GPRMC,084512.00,A,4611.958768,$GPGGA,084513.00,4611.959072,N,01258.225877,E,1,07,1.1,139.75,M,46.25,M,,*6D
$GPGLL,4611.959072,N,01258.225877,E,084513.00,A,A*63
$GPVTG,333.7,T,333.9,M,000.8,N,001.5,K,A*21
$GPGSV,3,1,09,02,38,084,45,04,15,041,43,09,23,150,39,12,60,071,44*71
$GPGSV,3,2,09,14,31,257,41,25,73,322,43,29,47,220,48,30,29,288,38*71
$GPGSV,3,3,09,31,21,313,,,,,,,,,,,,,*40
$GPGSA,M,3,02,04,09,12,14,25,29,,,,,,2.0,1.1,1.7*3F
Trace #59 at position 14.500000
$GPZDA,084513.04,09,10,2011,00,00*63
$GPRMC,084513.00,A,4611.959072,N,01258.225877,E,000.8,333.7,091$GPGGA,084514.00,4611.959326,N,01258.225746,E,1,07,1.1,139.79,M,46.25,M,,*69
$GPGLL,4611.959326,N,01258.225746,E,084514.00,A,A*6B
$GPVTG,335.9,T,336.1,M,001.3,N,002.4,K,A*2C
$GPGSV,3,1,09,02,38,084,44,04,15,041,44,09,23,150,40,12,60,071,44*79
$GPGSV,3,2,09,14,31,257,41,25,73,322,44,29,47,220,47,30,29,288,39*78
$GPGSV,3,3,09,31,21,313,,,,,,,,,,,,,*40
$GPGSA,M,3,02,04,09,12,14,25,29,,,,,,2.0,1.1,1.7*3F
Trace #60 at position 14.750000
$GPZDA,084513.04,09,10,2011,00,00*63
$GPRMC,084513.00,A,4611.959072,N,01258.225877,E,000.8,333.7,091$GPGGA,084514.00,4611.959326,N,01258.225746,E,1,07,1.1,139.79,M,46.25,M,,*69
$GPGLL,4611.959326,N,01258.225746,E,084514.00,A,A*6B
$GPVTG,335.9,T,336.1,M,001.3,N,002.4,K,A*2C
$GPGSV,3,1,09,02,38,084,44,04,15,041,44,09,23,150,40,12,60,071,44*79
$GPGSV,3,2,09,14,31,257,41,25,73,322,44,29,47,220,47,30,29,288,39*78
$GPGSV,3,3,09,31,21,313,,,,,,,,,,,,,*40
$GPGSA,M,3,02,04,09,12,14,25,29,,,,,,2.0,1.1,1.7*3F
Trace #61 at position 15.000000
$GPZDA,084513.04,09,10,2011,00,00*63
$GPRMC,084513.00,A,4611.959072,N,01258.225877,E,000.8,333.7,091$GPGGA,084514.00,4611.959326,N,01258.225746,E,1,07,1.1,139.79,M,46.25,M,,*69
$GPGLL,4611.959326,N,01258.225746,E,084514.00,A,A*6B
$GPVTG,335.9,T,336.1,M,001.3,N,002.4,K,A*2C
$GPGSV,3,1,09,02,38,084,44,04,15,041,44,09,23,150,40,12,60,071,44*79
$GPGSV,3,2,09,14,31,257,41,25,73,322,44,29,47,220,47,30,29,288,39*78
$GPGSV,3,3,09,31,21,313,,,,,,,,,,,,,*40
$GPGSA,M,3,02,04,09,12,14,25,29,,,,,,2.0,1.1,1.7*3F
Trace #62 at position 15.250000
$GPZDA,084513.04,09,10,2011,00,00*63
$GPRMC,084513.00,A,4611.959072,N,01258.225877,E,000.8,333.7,091$GPGGA,084514.00,4611.959326,N,01258.225746,E,1,07,1.1,139.79,M,46.25,M,,*69
$GPGLL,4611.959326,N,01258.225746,E,084514.00,A,A*6B
$GPVTG,335.9,T,336.1,M,001.3,N,002.4,K,A*2C
$GPGSV,3,1,09,02,38,084,44,04,15,041,44,09,23,150,40,12,60,071,44*79
$GPGSV,3,2,09,14,31,257,41,25,73,322,44,29,47,220,47,30,29,288,39*78
$GPGSV,3,3,09,31,21,313,,,,,,,,,,,,,*40
$GPGSA,M,3,02,04,09,12,14,25,29,,,,,,2.0,1.1,1.7*3F
Trace #63 at position 15.500000
$GPZDA,084514.04,09,10,2011,00,00*64
$GPRMC,084514.00,A,4611.959326,N,01258.225746,E,001.3,335.9,091$GPGGA,084515.00,4611.959641,N,01258.225596,E,1,08,1.0,139.80,M,46.25,M,,*6B
$GPGLL,4611.959641,N,01258.225596,E,084515.00,A,A*61
$GPVTG,344.1,T,344.2,M,001.0,N,001.9,K,A*29
$GPGSV,3,1,09,02,38,084,44,04,15,041,44,09,23,150,41,12,60,071,44*78
$GPGSV,3,2,09,14,31,257,40,25,73,322,44,29,47,220,47,30,29,288,40*77
$GPGSV,3,3,09,31,21,313,,,,,,,,,,,,,*40
$GPGSA,M,3,02,04,09,12,14,25,29,30,,,,,1.9,1.0,1.6*36
Trace #64 at position 15.750000
$GPZDA,084514.04,09,10,2011,00,00*64
$GPRMC,084514.00,A,4611.959326,N,01258.225746,E,001.3,335.9,091$GPGGA,084515.00,4611.959641,N,01258.225596,E,1,08,1.0,139.80,M,46.25,M,,*6B
$GPGLL,4611.959641,N,01258.225596,E,084515.00,A,A*61
$GPVTG,344.1,T,344.2,M,001.0,N,001.9,K,A*29
$GPGSV,3,1,09,02,38,084,44,04,15,041,44,09,23,150,41,12,60,071,44*78
$GPGSV,3,2,09,14,31,257,40,25,73,322,44,29,47,220,47,30,29,288,40*77
$GPGSV,3,3,09,31,21,313,,,,,,,,,,,,,*40
$GPGSA,M,3,02,04,09,12,14,25,29,30,,,,,1.9,1.0,1.6*36
Trace #65 at position 16.000000
$GPZDA,084514.04,09,10,2011,00,00*64
$GPRMC,084514.00,A,4611.959326,N,01258.225746,E,001.3,335.9,091$GPGGA,084515.00,4611.959641,N,01258.225596,E,1,08,1.0,139.80,M,46.25,M,,*6B
$GPGLL,4611.959641,N,01258.225596,E,084515.00,A,A*61
$GPVTG,344.1,T,344.2,M,001.0,N,001.9,K,A*29
$GPGSV,3,1,09,02,38,084,44,04,15,041,44,09,23,150,41,12,60,071,44*78
$GPGSV,3,2,09,14,31,257,40,25,73,322,44,29,47,220,47,30,29,288,40*77
$GPGSV,3,3,09,31,21,313,,,,,,,,,,,,,*40
$GPGSA,M,3,02,04,09,12,14,25,29,30,,,,,1.9,1.0,1.6*36
Trace #66 at position 16.250000
$GPZDA,084514.04,09,10,2011,00,00*64
$GPRMC,084514.00,A,4611.959326,N,01258.225746,E,001.3,335.9,091$GPGGA,084515.00,4611.959641,N,01258.225596,E,1,08,1.0,139.80,M,46.25,M,,*6B
$GPGLL,4611.959641,N,01258.225596,E,084515.00,A,A*61
$GPVTG,344.1,T,344.2,M,001.0,N,001.9,K,A*29
$GPGSV,3,1,09,02,38,084,44,04,15,041,44,09,23,150,41,12,60,071,44*78
$GPGSV,3,2,09,14,31,257,40,25,73,322,44,29,47,220,47,30,29,288,40*77
$GPGSV,3,3,09,31,21,313,,,,,,,,,,,,,*40
$GPGSA,M,3,02,04,09,12,14,25,29,30,,,,,1.9,1.0,1.6*36
Trace #67 at position 16.500000
$GPZDA,084515.04,09,10,2011,00,00*65
$GPRMC,084515.00,A,4611.959641,N,01258.225596,E,001.0,344.1,0$GPGGA,084516.00,4611.959930,N,01258.225420,E,1,08,1.0,139.81,M,46.25,M,,*6C
$GPGLL,4611.959930,N,01258.225420,E,084516.00,A,A*67
$GPVTG,322.7,T,322.8,M,001.2,N,002.1,K,A*2C
$GPGSV,3,1,09,02,38,084,44,04,15,041,43,09,23,150,43,12,60,071,45*7C
$GPGSV,3,2,09,14,31,257,39,25,73,322,45,29,47,220,48,30,29,288,40*77
$GPGSV,3,3,09,31,21,313,,,,,,,,,,,,,*40
$GPGSA,M,3,02,04,09,12,14,25,29,30,,,,,1.9,1.0,1.6*36
Trace #68 at position 16.750000
$GPZDA,084515.04,09,10,2011,00,00*65
$GPRMC,084515.00,A,4611.959641,N,01258.225596,E,001.0,344.1,0$GPGGA,084516.00,4611.959930,N,01258.225420,E,1,08,1.0,139.81,M,46.25,M,,*6C
$GPGLL,4611.959930,N,01258.225420,E,084516.00,A,A*67
$GPVTG,322.7,T,322.8,M,001.2,N,002.1,K,A*2C
$GPGSV,3,1,09,02,38,084,44,04,15,041,43,09,23,150,43,12,60,071,45*7C
$GPGSV,3,2,09,14,31,257,39,25,73,322,45,29,47,220,48,30,29,288,40*77
$GPGSV,3,3,09,31,21,313,,,,,,,,,,,,,*40
$GPGSA,M,3,02,04,09,12,14,25,29,30,,,,,1.9,1.0,1.6*36
Trace #69 at position 17.000000
$GPZDA,084515.04,09,10,2011,00,00*65
$GPRMC,084515.00,A,4611.959641,N,01258.225596,E,001.0,344.1,0$GPGGA,084516.00,4611.959930,N,01258.225420,E,1,08,1.0,139.81,M,46.25,M,,*6C
$GPGLL,4611.959930,N,01258.225420,E,084516.00,A,A*67
$GPVTG,322.7,T,322.8,M,001.2,N,002.1,K,A*2C
$GPGSV,3,1,09,02,38,084,44,04,15,041,43,09,23,150,43,12,60,071,45*7C
$GPGSV,3,2,09,14,31,257,39,25,73,322,45,29,47,220,48,30,29,288,40*77
$GPGSV,3,3,09,31,21,313,,,,,,,,,,,,,*40
$GPGSA,M,3,02,04,09,12,14,25,29,30,,,,,1.9,1.0,1.6*36
Trace #70 at position 17.250000
$GPZDA,084516.04,09,10,2011,00,00*66
$GPRMC,084516.00,A,4611.959930,N,01258.225420,E,001.2,322.7,0$GPGGA,084517.00,4611.960365,N,01258.225118,E,1,08,1.0,139.76,M,46.25,M,,*6B
$GPGLL,4611.960365,N,01258.225118,E,084517.00,A,A*68
$GPVTG,334.6,T,334.8,M,002.2,N,004.2,K,A*2B
$GPGSV,3,1,09,02,38,084,44,04,15,041,43,09,23,150,39,12,60,071,44*70
$GPGSV,3,2,09,14,31,257,41,25,73,322,43,29,47,220,47,30,29,288,39*7F
$GPGSV,3,3,09,31,21,313,,,,,,,,,,,,,*40
$GPGSA,M,3,02,04,09,12,14,25,29,30,,,,,1.9,1.0,1.6*36
Trace #71 at position 17.500000
$GPZDA,084516.04,09,10,2011,00,00*66
$GPRMC,084516.00,A,4611.959930,N,01258.225420,E,001.2,322.7,0$GPGGA,084517.00,4611.960365,N,01258.225118,E,1,08,1.0,139.76,M,46.25,M,,*6B
$GPGLL,4611.960365,N,01258.225118,E,084517.00,A,A*68
$GPVTG,334.6,T,334.8,M,002.2,N,004.2,K,A*2B
$GPGSV,3,1,09,02,38,084,44,04,15,041,43,09,23,150,39,12,60,071,44*70
$GPGSV,3,2,09,14,31,257,41,25,73,322,43,29,47,220,47,30,29,288,39*7F
$GPGSV,3,3,09,31,21,313,,,,,,,,,,,,,*40
$GPGSA,M,3,02,04,09,12,14,25,29,30,,,,,1.9,1.0,1.6*36
Trace #72 at position 17.750000
$GPZDA,084516.04,09,10,2011,00,00*66
$GPRMC,084516.00,A,4611.959930,N,01258.225420,E,001.2,322.7,0$GPGGA,084517.00,4611.960365,N,01258.225118,E,1,08,1.0,139.76,M,46.25,M,,*6B
$GPGLL,4611.960365,N,01258.225118,E,084517.00,A,A*68
$GPVTG,334.6,T,334.8,M,002.2,N,004.2,K,A*2B
$GPGSV,3,1,09,02,38,084,44,04,15,041,43,09,23,150,39,12,60,071,44*70
$GPGSV,3,2,09,14,31,257,41,25,73,322,43,29,47,220,47,30,29,288,39*7F
$GPGSV,3,3,09,31,21,313,,,,,,,,,,,,,*40
$GPGSA,M,3,02,04,09,12,14,25,29,30,,,,,1.9,1.0,1.6*36
Trace #73 at position 18.000000
$GPZDA,084516.04,09,10,2011,00,00*66
$GPRMC,084516.00,A,4611.959930,N,01258.225420,E,001.2,322.7,0$GPGGA,084517.00,4611.960365,N,01258.225118,E,1,08,1.0,139.76,M,46.25,M,,*6B
$GPGLL,4611.960365,N,01258.225118,E,084517.00,A,A*68
$GPVTG,334.6,T,334.8,M,002.2,N,004.2,K,A*2B
$GPGSV,3,1,09,02,38,084,44,04,15,041,43,09,23,150,39,12,60,071,44*70
$GPGSV,3,2,09,14,31,257,41,25,73,322,43,29,47,220,47,30,29,288,39*7F
$GPGSV,3,3,09,31,21,313,,,,,,,,,,,,,*40
$GPGSA,M,3,02,04,09,12,14,25,29,30,,,,,1.9,1.0,1.6*36
Trace #74 at position 18.250000
$GPZDA,084517.04,09,10,2011,00,00*67
$GPRMC,084517.00,A,4611.960365,N,01258.225118,E,002.2,334.6,0$GPGGA,084518.00,4611.960830,N,01258.224921,E,1,07,1.1,139.81,M,46.25,M,,*6A
$GPGLL,4611.960830,N,01258.224921,E,084518.00,A,A*6F
$GPVTG,345.8,T,346.0,M,001.4,N,002.6,K,A*29
$GPGSV,3,1,09,02,38,084,44,04,15,041,44,09,23,150,40,12,60,071,44*79
$GPGSV,3,2,09,14,31,257,42,25,73,322,43,29,47,220,48,30,29,288,33*79
$GPGSV,3,3,09,31,21,313,,,,,,,,,,,,,*40
$GPGSA,M,3,02,04,09,12,14,25,29,,,,,,2.0,1.1,1.7*3F
Trace #75 at position 18.500000
$GPZDA,084517.04,09,10,2011,00,00*67
$GPRMC,084517.00,A,4611.960365,N,01258.225118,E,002.2,334.6,0$GPGGA,084518.00,4611.960830,N,01258.224921,E,1,07,1.1,139.81,M,46.25,M,,*6A
$GPGLL,4611.960830,N,01258.224921,E,084518.00,A,A*6F
$GPVTG,345.8,T,346.0,M,001.4,N,002.6,K,A*29
$GPGSV,3,1,09,02,38,084,44,04,15,041,44,09,23,150,40,12,60,071,44*79
$GPGSV,3,2,09,14,31,257,42,25,73,322,43,29,47,220,48,30,29,288,33*79
$GPGSV,3,3,09,31,21,313,,,,,,,,,,,,,*40
$GPGSA,M,3,02,04,09,12,14,25,29,,,,,,2.0,1.1,1.7*3F
Trace #76 at position 18.750000
$GPZDA,084517.04,09,10,2011,00,00*67
$GPRMC,084517.00,A,4611.960365,N,01258.225118,E,002.2,334.6,0$GPGGA,084518.00,4611.960830,N,01258.224921,E,1,07,1.1,139.81,M,46.25,M,,*6A
$GPGLL,4611.960830,N,01258.224921,E,084518.00,A,A*6F
$GPVTG,345.8,T,346.0,M,001.4,N,002.6,K,A*29
$GPGSV,3,1,09,02,38,084,44,04,15,041,44,09,23,150,40,12,60,071,44*79
$GPGSV,3,2,09,14,31,257,42,25,73,322,43,29,47,220,48,30,29,288,33*79
$GPGSV,3,3,09,31,21,313,,,,,,,,,,,,,*40
$GPGSA,M,3,02,04,09,12,14,25,29,,,,,,2.0,1.1,1.7*3F
Trace #77 at position 19.000000
$GPZDA,084518.04,09,10,2011,00,00*68
$GPRMC,084518.00,A,4611.960830,N,01258.224921,E,001.4,345.8,0911258.224913,E,1,07,1.1,139.90,M,46.25,M,,*66
$GPGLL,4611.961226,N,01258.224913,E,084519.00,A,A*63
$GPVTG,3.4,T,3.6,M,001.5,N,002.8,K,A*2F
$GPGSV,3,1,09,02,38,084,46,04,15,041,43,09,23,150,40,12,60,071,43*7B
$GPGSV,3,2,09,14,31,257,38,25,73,322,44,29,47,220,47,30,29,288,29*77
$GPGSV,3,3,09,31,21,313,,,,,,,,,,,,,*40
$GPGSA,M,3,02,04,09,12,14,25,29,,,,,,2.0,1.1,1.7*3F
Trace #78 at position 19.250000
$GPZDA,084518.04,09,10,2011,00,00*68
$GPRMC,084518.00,A,4611.960830,N,01258.224921,E,001.4,345.8,0911258.224913,E,1,07,1.1,139.90,M,46.25,M,,*66
$GPGLL,4611.961226,N,01258.224913,E,084519.00,A,A*63
$GPVTG,3.4,T,3.6,M,001.5,N,002.8,K,A*2F
$GPGSV,3,1,09,02,38,084,46,04,15,041,43,09,23,150,40,12,60,071,43*7B
$GPGSV,3,2,09,14,31,257,38,25,73,322,44,29,47,220,47,30,29,288,29*77
$GPGSV,3,3,09,31,21,313,,,,,,,,,,,,,*40
$GPGSA,M,3,02,04,09,12,14,25,29,,,,,,2.0,1.1,1.7*3F
Trace #79 at position 19.500000
$GPZDA,084518.04,09,10,2011,00,00*68
$GPRMC,084518.00,A,4611.960830,N,01258.224921,E,001.4,345.8,0911258.224913,E,1,07,1.1,139.90,M,46.25,M,,*66
$GPGLL,4611.961226,N,01258.224913,E,084519.00,A,A*63
$GPVTG,3.4,T,3.6,M,001.5,N,002.8,K,A*2F
$GPGSV,3,1,09,02,38,084,46,04,15,041,43,09,23,150,40,12,60,071,43*7B
$GPGSV,3,2,09,14,31,257,38,25,73,322,44,29,47,220,47,30,29,288,29*77
$GPGSV,3,3,09,31,21,313,,,,,,,,,,,,,*40
$GPGSA,M,3,02,04,09,12,14,25,29,,,,,,2.0,1.1,1.7*3F
Trace #80 at position 19.750000
$GPZDA,084519.04,09,10,2011,00,00*69
$GPRMC,084519.00,A,4611.961226,N,01258.224913,E,001.5,3.4,091011,0.2,E,A*36
$GPGGA,084520.00,4611.611.961639,N,01258.224945,E,084520.00,A,A*60
$GPVTG,0.0,T,0.2,M,001.5,N,002.8,K,A*2F
$GPGSV,3,1,09,02,38,084,45,04,15,041,43,09,23,150,44,12,60,071,43*7C
$GPGSV,3,2,09,14,31,257,41,25,73,322,45,29,47,220,48,30,29,288,36*79
$GPGSV,3,3,09,31,21,313,,,,,,,,,,,,,*40
$GPGSA,M,3,02,04,09,12,14,25,29,,,,,,2.0,1.1,1.7*3F
Trace #81 at position 20.000000
$GPZDA,084519.04,09,10,2011,00,00*69
$GPRMC,084519.00,A,4611.961226,N,01258.224913,E,001.5,3.4,091011,0.2,E,A*36
$GPGGA,084520.00,4611.611.961639,N,01258.224945,E,084520.00,A,A*60
$GPVTG,0.0,T,0.2,M,001.5,N,002.8,K,A*2F
$GPGSV,3,1,09,02,38,084,45,04,15,041,43,09,23,150,44,12,60,071,43*7C
$GPGSV,3,2,09,14,31,257,41,25,73,322,45,29,47,220,48,30,29,288,36*79
$GPGSV,3,3,09,31,21,313,,,,,,,,,,,,,*40
$GPGSA,M,3,02,04,09,12,14,25,29,,,,,,2.0,1.1,1.7*3F
Trace #82 at position 20.250000
$GPZDA,084519.04,09,10,2011,00,00*69
$GPRMC,084519.00,A,4611.961226,N,01258.224913,E,001.5,3.4,091011,0.2,E,A*36
$GPGGA,084520.00,4611.611.961639,N,01258.224945,E,084520.00,A,A*60
$GPVTG,0.0,T,0.2,M,001.5,N,002.8,K,A*2F
$GPGSV,3,1,09,02,38,084,45,04,15,041,43,09,23,150,44,12,60,071,43*7C
$GPGSV,3,2,09,14,31,257,41,25,73,322,45,29,47,220,48,30,29,288,36*79
$GPGSV,3,3,09,31,21,313,,,,,,,,,,,,,*40
$GPGSA,M,3,02,04,09,12,14,25,29,,,,,,2.0,1.1,1.7*3F
Trace #83 at position 20.500000
$GPZDA,084520.04,09,10,2011,00,00*63
$GPRMC,084520.00,A,4611.961639,N,01258.224945,E,001.5,0.0,091011,0.2,E,A*32
$GPGGA,084521.00,4611.962066,N,01258.224853,E,1,08,1.0,139.92,M,46.25,M,,*6101.5,N,002.7,K,A*25
$GPGSV,3,1,09,02,38,084,44,04,15,041,43,09,23,150,44,12,60,071,44*7A
$GPGSV,3,2,09,14,31,257,40,25,73,322,44,29,47,220,48,30,29,288,41*79
$GPGSV,3,3,09,31,21,313,,,,,,,,,,,,,*40
$GPGSA,M,3,02,04,09,12,14,25,29,30,,,,,1.9,1.0,1.6*36
Trace #84 at position 20.750000
$GPZDA,084520.04,09,10,2011,00,00*63
$GPRMC,084520.00,A,4611.961639,N,01258.224945,E,001.5,0.0,091011,0.2,E,A*32
$GPGGA,084521.00,4611.962066,N,01258.224853,E,1,08,1.0,139.92,M,46.25,M,,*6101.5,N,002.7,K,A*25
$GPGSV,3,1,09,02,38,084,44,04,15,041,43,09,23,150,44,12,60,071,44*7A
$GPGSV,3,2,09,14,31,257,40,25,73,322,44,29,47,220,48,30,29,288,41*79
$GPGSV,3,3,09,31,21,313,,,,,,,,,,,,,*40
$GPGSA,M,3,02,04,09,12,14,25,29,30,,,,,1.9,1.0,1.6*36
Trace #85 at position 21.000000
$GPZDA,084520.04,09,10,2011,00,00*63
$GPRMC,084520.00,A,4611.961639,N,01258.224945,E,001.5,0.0,091011,0.2,E,A*32
$GPGGA,084521.00,4611.962066,N,01258.224853,E,1,08,1.0,139.92,M,46.25,M,,*6101.5,N,002.7,K,A*25
$GPGSV,3,1,09,02,38,084,44,04,15,041,43,09,23,150,44,12,60,071,44*7A
$GPGSV,3,2,09,14,31,257,40,25,73,322,44,29,47,220,48,30,29,288,41*79
$GPGSV,3,3,09,31,21,313,,,,,,,,,,,,,*40
$GPGSA,M,3,02,04,09,12,14,25,29,30,,,,,1.9,1.0,1.6*36
Trace #86 at position 21.250000
$GPZDA,084520.04,09,10,2011,00,00*63
$GPRMC,084520.00,A,4611.961639,N,01258.224945,E,001.5,0.0,091011,0.2,E,A*32
$GPGGA,084521.00,4611.962066,N,01258.224853,E,1,08,1.0,139.92,M,46.25,M,,*6101.5,N,002.7,K,A*25
$GPGSV,3,1,09,02,38,084,44,04,15,041,43,09,23,150,44,12,60,071,44*7A
$GPGSV,3,2,09,14,31,257,40,25,73,322,44,29,47,220,48,30,29,288,41*79
$GPGSV,3,3,09,31,21,313,,,,,,,,,,,,,*40
$GPGSA,M,3,02,04,09,12,14,25,29,30,,,,,1.9,1.0,1.6*36
Trace #87 at position 21.500000
$GPZDA,084520.04,09,10,2011,00,00*63
$GPRMC,084520.00,A,4611.961639,N,01258.224945,E,001.5,0.0,091011,0.2,E,A*32
$GPGGA,084521.00,4611.962066,N,01258.224853,E,1,08,1.0,139.92,M,46.25,M,,*6101.5,N,002.7,K,A*25
$GPGSV,3,1,09,02,38,084,44,04,15,041,43,09,23,150,44,12,60,071,44*7A
$GPGSV,3,2,09,14,31,257,40,25,73,322,44,29,47,220,48,30,29,288,41*79
$GPGSV,3,3,09,31,21,313,,,,,,,,,,,,,*40
$GPGSA,M,3,02,04,09,12,14,25,29,30,,,,,1.9,1.0,1.6*36
Trace #88 at position 21.750000
$GPZDA,084520.04,09,10,2011,00,00*63
$GPRMC,084520.00,A,4611.961639,N,01258.224945,E,001.5,0.0,091011,0.2,E,A*32
$GPGGA,084521.00,4611.962066,N,01258.224853,E,1,08,1.0,139.92,M,46.25,M,,*6101.5,N,002.7,K,A*25
$GPGSV,3,1,09,02,38,084,44,04,15,041,43,09,23,150,44,12,60,071,44*7A
$GPGSV,3,2,09,14,31,257,40,25,73,322,44,29,47,220,48,30,29,288,41*79
$GPGSV,3,3,09,31,21,313,,,,,,,,,,,,,*40
$GPGSA,M,3,02,04,09,12,14,25,29,30,,,,,1.9,1.0,1.6*36
Trace #89 at position 22.000000
$GPZDA,084521.04,09,10,2011,00,00*62
$GPRMC,084521.00,A,4611.962066,N,01258.224853,E,001.5,348.3,091011,0.2,E,A*36
$GPGGA,084522.00,4611.962537,N,01258.224775,E,1,08,1.0,139.81,M,46.25,M,,*6A
$GPGLL,4611.962537,N,01258.224775,E,084522.00,A,A*61
$GPVTGGPZDA,084522.04,09,10,2011,00,00*61
$GPRMC,084522.00,A,4611.962537,N,01258.224775,E,001.9,3.1,091011,0.2,E,A*3D
$GPGGA,084523.00,4611.962979,N,01258.224652,E,1,07,1.1,139.85,M,46.25,M,,*63
$GPGLL,4611.962979,N,01258.224652,E,084523.00,A,A*62
$GPVTG,335.5,T,335.6,M,001.5,N,002.8,K,A*2E
$GPGSV,3,1,09,02,38,084,45,04,15,041,44,09,23,150,43,12,60,071,44*7B
$GPGSV,3,2,09,14,31,257,41,25,74,322,44,29,47,220,47,30,29,288,35*73
$GPGSV,3,3,09,31,21,313,,,,,,,,,,,,,*40
$GPGSA,M,3,02,04,09,12,14,25,29,,,,,,2.0,E,001.5,335.5,091011,0.2,E,A*30
Trace #90 at position 22.250000
$GPZDA,084521.04,09,10,2011,00,00*62
$GPRMC,084521.00,A,4611.962066,N,01258.224853,E,001.5,348.3,091011,0.2,E,A*36
$GPGGA,084522.00,4611.962537,N,01258.224775,E,1,08,1.0,139.81,M,46.25,M,,*6A
$GPGLL,4611.962537,N,01258.224775,E,084522.00,A,A*61
$GPVTGGPZDA,084522.04,09,10,2011,00,00*61
$GPRMC,084522.00,A,4611.962537,N,01258.224775,E,001.9,3.1,091011,0.2,E,A*3D
$GPGGA,084523.00,4611.962979,N,01258.224652,E,1,07,1.1,139.85,M,46.25,M,,*63
$GPGLL,4611.962979,N,01258.224652,E,084523.00,A,A*62
$GPVTG,335.5,T,335.6,M,001.5,N,002.8,K,A*2E
$GPGSV,3,1,09,02,38,084,45,04,15,041,44,09,23,150,43,12,60,071,44*7B
$GPGSV,3,2,09,14,31,257,41,25,74,322,44,29,47,220,47,30,29,288,35*73
$GPGSV,3,3,09,31,21,313,,,,,,,,,,,,,*40
$GPGSA,M,3,02,04,09,12,14,25,29,,,,,,2.0,E,001.5,335.5,091011,0.2,E,A*30
Trace #91 at position 22.500000
$GPZDA,084521.04,09,10,2011,00,00*62
$GPRMC,084521.00,A,4611.962066,N,01258.224853,E,001.5,348.3,091011,0.2,E,A*36
$GPGGA,084522.00,4611.962537,N,01258.224775,E,1,08,1.0,139.81,M,46.25,M,,*6A
$GPGLL,4611.962537,N,01258.224775,E,084522.00,A,A*61
$GPVTGGPZDA,084522.04,09,10,2011,00,00*61
$GPRMC,084522.00,A,4611.962537,N,01258.224775,E,001.9,3.1,091011,0.2,E,A*3D
$GPGGA,084523.00,4611.962979,N,01258.224652,E,1,07,1.1,139.85,M,46.25,M,,*63
$GPGLL,4611.962979,N,01258.224652,E,084523.00,A,A*62
$GPVTG,335.5,T,335.6,M,001.5,N,002.8,K,A*2E
$GPGSV,3,1,09,02,38,084,45,04,15,041,44,09,23,150,43,12,60,071,44*7B
$GPGSV,3,2,09,14,31,257,41,25,74,322,44,29,47,220,47,30,29,288,35*73
$GPGSV,3,3,09,31,21,313,,,,,,,,,,,,,*40
$GPGSA,M,3,02,04,09,12,14,25,29,,,,,,2.0,E,001.5,335.5,091011,0.2,E,A*30
Trace #92 at position 22.750000
$GPGGA,084524.00,4611.963417,N,01258.224445,E,1,07,1.1,139.95,M,46.25,M,,*65
$GPGLL,4611.963417,N,01258.224445,E,084524.00,A,A*65
$GPVTG,349.9,T,350.0,M,001.9,N,003.5,K,A*2C
$GPGSV,3,1,09,02,38,084,45,04,15,041,43,09,23,150,40,12,60,071,46*7D
$GPGSV,3,2,09,14,31,257,40,25,74,322,42,29,47,220,47,30,29,288,37*76
$GPGSV,3,3,09,31,21,313,,,,,,,,,,,,,*40
$GPGSA,M,3,02,04,09,12,14,25,29,,,,,,2.0,1.1,1.7*3F
Trace #93 at position 23.000000
$GPGGA,084524.00,4611.963417,N,01258.224445,E,1,07,1.1,139.95,M,46.25,M,,*65
$GPGLL,4611.963417,N,01258.224445,E,084524.00,A,A*65
$GPVTG,349.9,T,350.0,M,001.9,N,003.5,K,A*2C
$GPGSV,3,1,09,02,38,084,45,04,15,041,43,09,23,150,40,12,60,071,46*7D
$GPGSV,3,2,09,14,31,257,40,25,74,322,42,29,47,220,47,30,29,288,37*76
$GPGSV,3,3,09,31,21,313,,,,,,,,,,,,,*40
$GPGSA,M,3,02,04,09,12,14,25,29,,,,,,2.0,1.1,1.7*3F
Trace #94 at position 23.250000
$GPZDA,084524.04,09,10,2011,00,00*67
$GPRMC,084524.00,A,4611.96341$GPGGA,084525.00,4611.963852,N,01258.224362,E,1,07,1.1,140.02,M,46.25,M,,*6B
$GPGLL,4611.963852,N,01258.224362,E,084525.00,A,A*6B
$GPVTG,1.5,T,1.6,M,001.4,N,002.6,K,A*21
$GPGSV,3,1,09,02,38,084,45,04,15,041,43,09,23,150,41,12,60,071,44*7E
$GPGSV,3,2,09,14,31,257,39,25,74,322,43,29,47,220,46,30,29,288,38*77
$GPGSV,3,3,09,31,21,313,,,,,,,,,,,,,*40
$GPGSA,M,3,02,04,09,12,14,25,29,,,,,,2.0,1.1,1.7*3F
Trace #95 at position 23.500000
$GPZDA,084524.04,09,10,2011,00,00*67
$GPRMC,084524.00,A,4611.96341$GPGGA,084525.00,4611.963852,N,01258.224362,E,1,07,1.1,140.02,M,46.25,M,,*6B
$GPGLL,4611.963852,N,01258.224362,E,084525.00,A,A*6B
$GPVTG,1.5,T,1.6,M,001.4,N,002.6,K,A*21
$GPGSV,3,1,09,02,38,084,45,04,15,041,43,09,23,150,41,12,60,071,44*7E
$GPGSV,3,2,09,14,31,257,39,25,74,322,43,29,47,220,46,30,29,288,38*77
$GPGSV,3,3,09,31,21,313,,,,,,,,,,,,,*40
$GPGSA,M,3,02,04,09,12,14,25,29,,,,,,2.0,1.1,1.7*3F
Trace #96 at position 23.750000
$GPZDA,084524.04,09,10,2011,00,00*67
$GPRMC,084524.00,A,4611.96341$GPGGA,084525.00,4611.963852,N,01258.224362,E,1,07,1.1,140.02,M,46.25,M,,*6B
$GPGLL,4611.963852,N,01258.224362,E,084525.00,A,A*6B
$GPVTG,1.5,T,1.6,M,001.4,N,002.6,K,A*21
$GPGSV,3,1,09,02,38,084,45,04,15,041,43,09,23,150,41,12,60,071,44*7E
$GPGSV,3,2,09,14,31,257,39,25,74,322,43,29,47,220,46,30,29,288,38*77
$GPGSV,3,3,09,31,21,313,,,,,,,,,,,,,*40
$GPGSA,M,3,02,04,09,12,14,25,29,,,,,,2.0,1.1,1.7*3F
Trace #97 at position 24.000000
$GPZDA,084525.04,09,10,2011,00,00*66
$GPRMC,084525.00,A,4611.963852,N,01258.224362,E,001.4,1.5,091011,0.$GPGGA,084526.00,4611.964222,N,01258.224341,E,1,07,1.1,140.09,M,46.25,M,,*68
$GPGLL,4611.964222,N,01258.224341,E,084526.00,A,A*63
$GPVTG,4.5,T,4.7,M,001.4,N,002.5,K,A*23
$GPGSV,3,1,09,02,38,084,43,04,15,041,42,09,23,150,42,12,60,071,44*7A
$GPGSV,3,2,09,14,31,257,39,25,74,322,42,29,47,220,47,30,29,288,36*79
$GPGSV,3,3,09,31,21,313,,,,,,,,,,,,,*40
$GPGSA,M,3,02,04,09,12,14,25,29,,,,,,2.0,1.1,1.7*3F
Trace #98 at position 24.250000
$GPZDA,084525.04,09,10,2011,00,00*66
$GPRMC,084525.00,A,4611.963852,N,01258.224362,E,001.4,1.5,091011,0.$GPGGA,084526.00,4611.964222,N,01258.224341,E,1,07,1.1,140.09,M,46.25,M,,*68
$GPGLL,4611.964222,N,01258.224341,E,084526.00,A,A*63
$GPVTG,4.5,T,4.7,M,001.4,N,002.5,K,A*23
$GPGSV,3,1,09,02,38,084,43,04,15,041,42,09,23,150,42,12,60,071,44*7A
$GPGSV,3,2,09,14,31,257,39,25,74,322,42,29,47,220,47,30,29,288,36*79
$GPGSV,3,3,09,31,21,313,,,,,,,,,,,,,*40
$GPGSA,M,3,02,04,09,12,14,25,29,,,,,,2.0,1.1,1.7*3F
Trace #99 at position 24.500000
$GPZDA,084525.04,09,10,2011,00,00*66
$GPRMC,084525.00,A,4611.963852,N,01258.224362,E,001.4,1.5,091011,0.$GPGGA,084526.00,4611.964222,N,01258.224341,E,1,07,1.1,140.09,M,46.25,M,,*68
$GPGLL,4611.964222,N,01258.224341,E,084526.00,A,A*63
$GPVTG,4.5,T,4.7,M,001.4,N,002.5,K,A*23
$GPGSV,3,1,09,02,38,084,43,04,15,041,42,09,23,150,42,12,60,071,44*7A
$GPGSV,3,2,09,14,31,257,39,25,74,322,42,29,47,220,47,30,29,288,36*79
$GPGSV,3,3,09,31,21,313,,,,,,,,,,,,,*40
$GPGSA,M,3,02,04,09,12,14,25,29,,,,,,2.0,1.1,1.7*3F
Trace #100 at position 24.750000
$GPZDA,084526.04,09,10,2011,00,00*65
$GPRMC,084526.00,A,4611.964222,N,01258.224341,E,001.4,4.5,091011,0.$GPGGA,084527.00,4611.964561,N,01258.224226,E,1,07,1.1,140.15,M,46.25,M,,*64
$GPGLL,4611.964561,N,01258.224226,E,084527.00,A,A*62
$GPVTG,341.5,T,341.7,M,001.2,N,002.2,K,A*22
$GPGSV,3,1,09,02,38,084,44,04,15,041,43,09,23,150,40,12,60,071,43*79
$GPGSV,3,2,09,14,31,257,40,25,74,322,43,29,47,220,47,30,29,288,38*78
$GPGSV,3,3,09,31,21,313,,,,,,,,,,,,,*40
$GPGSA,M,3,02,04,09,12,14,25,29,,,,,,2.0,1.1,1.7*3F
Trace #101 at position 25.000000
$GPZDA,084530.04,09,10,2011,00,00*62
$GPRMC,084530.00,A,4611.965540,N,01258.223667,E,000.9,353.5,091011,0.2,E,A*3F
$GPGGA,084531.00,4611.965792,N,0,N,002.0,K,A*23
$GPGSV,3,1,09,02,38,084,44,04,15,041,43,09,23,150,40,12,60,071,44*7E
$GPGSV,3,2,09,14,31,257,41,25,74,323,40,29,48,220,47,30,29,288,38*74
$GPGSV,3,3,09,31,21,313,,,,,,,,,,,,,*40
$GPGSA,M,3,02,04,09,12,14,25,29,,,,,,2.0,1.1,1.7*3F
Trace #102 at position 25.250000
$GPZDA,084530.04,09,10,2011,00,00*62
$GPRMC,084530.00,A,4611.965540,N,01258.223667,E,000.9,353.5,091011,0.2,E,A*3F
$GPGGA,084531.00,4611.965792,N,0,N,002.0,K,A*23
$GPGSV,3,1,09,02,38,084,44,04,15,041,43,09,23,150,40,12,60,071,44*7E
$GPGSV,3,2,09,14,31,257,41,25,74,323,40,29,48,220,47,30,29,288,38*74
$GPGSV,3,3,09,31,21,313,,,,,,,,,,,,,*40
$GPGSA,M,3,02,04,09,12,14,25,29,,,,,,2.0,1.1,1.7*3F
Trace #103 at position 25.500000
$GPZDA,084531.04,09,10,2011,00,00*63
$GPRMC,084531.00,A,4611.965792,N,01258.223413,E,001.1,304.5,091011,0.2,E,A*39
$GPGGA,084532.00,4611.966110,N,01258.223240,E,1,07,1.1,140.37,M,46.25,M,,*67
$GPGLL,4611.966110,N,01258.223240,E,084532.00,A,A*61
$GPVTG,10.0,13,,,,,,,,,,,,,*40
$GPGSA,M,3,02,04,09,12,14,25,29,,,,,,2.0,1.1,1.7*3F
Trace #104 at position 25.750000
$GPZDA,084531.04,09,10,2011,00,00*63
$GPRMC,084531.00,A,4611.965792,N,01258.223413,E,001.1,304.5,091011,0.2,E,A*39
$GPGGA,084532.00,4611.966110,N,01258.223240,E,1,07,1.1,140.37,M,46.25,M,,*67
$GPGLL,4611.966110,N,01258.223240,E,084532.00,A,A*61
$GPVTG,10.0,13,,,,,,,,,,,,,*40
$GPGSA,M,3,02,04,09,12,14,25,29,,,,,,2.0,1.1,1.7*3F
Trace #105 at position 26.000000
$GPZDA,084531.04,09,10,2011,00,00*63
$GPRMC,084531.00,A,4611.965792,N,01258.223413,E,001.1,304.5,091011,0.2,E,A*39
$GPGGA,084532.00,4611.966110,N,01258.223240,E,1,07,1.1,140.37,M,46.25,M,,*67
$GPGLL,4611.966110,N,01258.223240,E,084532.00,A,A*61
$GPVTG,10.0,13,,,,,,,,,,,,,*40
$GPGSA,M,3,02,04,09,12,14,25,29,,,,,,2.0,1.1,1.7*3F
Trace #106 at position 26.250000
$GPZDA,084531.04,09,10,2011,00,00*63
$GPRMC,084531.00,A,4611.965792,N,01258.223413,E,001.1,304.5,091011,0.2,E,A*39
$GPGGA,084532.00,4611.966110,N,01258.223240,E,1,07,1.1,140.37,M,46.25,M,,*67
$GPGLL,4611.966110,N,01258.223240,E,084532.00,A,A*61
$GPVTG,10.0,13,,,,,,,,,,,,,*40
$GPGSA,M,3,02,04,09,12,14,25,29,,,,,,2.0,1.1,1.7*3F
Trace #107 at position 26.500000
$GPZDA,084531.04,09,10,2011,00,00*63
$GPRMC,084531.00,A,4611.965792,N,01258.223413,E,001.1,304.5,091011,0.2,E,A*39
$GPGGA,084532.00,4611.966110,N,01258.223240,E,1,07,1.1,140.37,M,46.25,M,,*67
$GPGLL,4611.966110,N,01258.223240,E,084532.00,A,A*61
$GPVTG,10.0,13,,,,,,,,,,,,,*40
$GPGSA,M,3,02,04,09,12,14,25,29,,,,,,2.0,1.1,1.7*3F
Trace #108 at position 26.750000
$GPZDA,084531.04,09,10,2011,00,00*63
$GPRMC,084531.00,A,4611.965792,N,01258.223413,E,001.1,304.5,091011,0.2,E,A*39
$GPGGA,084532.00,4611.966110,N,01258.223240,E,1,07,1.1,140.37,M,46.25,M,,*67
$GPGLL,4611.966110,N,01258.223240,E,084532.00,A,A*61
$GPVTG,10.0,13,,,,,,,,,,,,,*40
$GPGSA,M,3,02,04,09,12,14,25,29,,,,,,2.0,1.1,1.7*3F
Trace #109 at position 27.000000
$GPZDA,084532.04,09,10,2011,00,00*60
$GPRMC,084532.00,A,4611.966110,N,01258.223240,E,001.4,10.0,091011,0.2,E,A*03
$GPGGA,084533.00,4611.966508,N,01258.223218,E,1,07,1.1,140.26,M,46.25,M,,*66
$GPGLL,4611.966508,N,01258.223218,E,084533.00,A,A*60
$GPVTG,356.6,T,356.7,M,001.3,N,002.4,K,A*26
$GPGSV,3,1,09,02,38,084,44,04,15,041,43,09,23,150,41,12,60,071,43*78
$GPGSV,3,2,09,14,31,257,41,25,74,323,44,29,48,220,47,30,29,288,37*7F
$GPGSV$GPGGA,084534.00,4611.966759,N,01258.223168,E,1,07,1.1,140.18,M,46.25,M,,*6E
$GPGLL,4611.966759,N,01258.223168,E,084534.00,A,A*65
$GPVTG,18.2,T,18.4,M,000.4,N,000.7,K,A*26
$GPGSV,3,1,09,02,38,084,43,04,15,041,43,09,23,150,40,12,60,071,44*79
$GPGSV,3,2,09,14,31,257,41,25,74,323,42,29,48,220,47,30,29,288,38*76
$GPGSV,3,3,09,31,21,313,,,,,,,,,,,,,*40
$GPGSA,M,3,02,04,09,12,14,25,29,,,,,,2.0,1.1,1.7*3F
Trace #110 at position 27.250000
$GPZDA,084532.04,09,10,2011,00,00*60
$GPRMC,084532.00,A,4611.966110,N,01258.223240,E,001.4,10.0,091011,0.2,E,A*03
$GPGGA,084533.00,4611.966508,N,01258.223218,E,1,07,1.1,140.26,M,46.25,M,,*66
$GPGLL,4611.966508,N,01258.223218,E,084533.00,A,A*60
$GPVTG,356.6,T,356.7,M,001.3,N,002.4,K,A*26
$GPGSV,3,1,09,02,38,084,44,04,15,041,43,09,23,150,41,12,60,071,43*78
$GPGSV,3,2,09,14,31,257,41,25,74,323,44,29,48,220,47,30,29,288,37*7F
$GPGSV$GPGGA,084534.00,4611.966759,N,01258.223168,E,1,07,1.1,140.18,M,46.25,M,,*6E
$GPGLL,4611.966759,N,01258.223168,E,084534.00,A,A*65
$GPVTG,18.2,T,18.4,M,000.4,N,000.7,K,A*26
$GPGSV,3,1,09,02,38,084,43,04,15,041,43,09,23,150,40,12,60,071,44*79
$GPGSV,3,2,09,14,31,257,41,25,74,323,42,29,48,220,47,30,29,288,38*76
$GPGSV,3,3,09,31,21,313,,,,,,,,,,,,,*40
$GPGSA,M,3,02,04,09,12,14,25,29,,,,,,2.0,1.1,1.7*3F
Trace #111 at position 27.500000
$GPZDA,084532.04,09,10,2011,00,00*60
$GPRMC,084532.00,A,4611.966110,N,01258.223240,E,001.4,10.0,091011,0.2,E,A*03
$GPGGA,084533.00,4611.966508,N,01258.223218,E,1,07,1.1,140.26,M,46.25,M,,*66
$GPGLL,4611.966508,N,01258.223218,E,084533.00,A,A*60
$GPVTG,356.6,T,356.7,M,001.3,N,002.4,K,A*26
$GPGSV,3,1,09,02,38,084,44,04,15,041,43,09,23,150,41,12,60,071,43*78
$GPGSV,3,2,09,14,31,257,41,25,74,323,44,29,48,220,47,30,29,288,37*7F
$GPGSV$GPGGA,084534.00,4611.966759,N,01258.223168,E,1,07,1.1,140.18,M,46.25,M,,*6E
$GPGLL,4611.966759,N,01258.223168,E,084534.00,A,A*65
$GPVTG,18.2,T,18.4,M,000.4,N,000.7,K,A*26
$GPGSV,3,1,09,02,38,084,43,04,15,041,43,09,23,150,40,12,60,071,44*79
$GPGSV,3,2,09,14,31,257,41,25,74,323,42,29,48,220,47,30,29,288,38*76
$GPGSV,3,3,09,31,21,313,,,,,,,,,,,,,*40
