Trace #1 at position 0.000000
$GPZDA,103519.01,08,10,2011,00,00*63
$GPRMC,103153.00,V,,,,,,,,,,N*78
$GPGGA,,,,,,0,03,,,M,,M,,*65
$GPGLL,,,,,,V,N*64
$GPVTG,,T,,,,N,,K,N*61
$GPGSV,3,1,12,02,16,043,48,04,00,026,,06,00,253,,05,14,078,46*79
$GPGSV,3,2,12,07,00,359,,25,54,112,46,29,80,021,43,30,77,307,*75
$GPGSV,3,3,12,31,53,273,33,10,03,026,,11,00,255,,12,21,114,*78
$GPGSA,M,1,,,,,,,,,,,,,4.3,2.2,3.7*3F
Trace #2 at position 0.250000
$GPZDA,103521.01,08,10,2011,00,00*68
$GPRMC,103153.00,V,,,,,,,,,,N*78
$GPGGA,,,,,,0,03,,,M,,M,,*65
$GPGLL,,,,,,V,N*64
$GPVTG,,T,,,,N,,K,N*61
$GPGSV,3,1,12,02,16,043,48,04,00,026,,06,00,253,,05,14,078,46*79
$GPGSV,3,2,12,07,00,359,,25,54,112,46,29,80,021,43,30,77,307,*75
$GPGSV,3,3,12,31,53,273,32,10,03,026,,11,00,255,,12,21,114,*79
$GPGSA,M,1,,,,,,,,,,,,,4.3,2.2,3.7*3F
Trace #3 at position 0.500000
$GPZDA,103521.01,08,10,2011,00,00*68
$GPRMC,103153.00,V,,,,,,,,,,N*78
$GPGGA,,,,,,0,03,,,M,,M,,*65
$GPGLL,,,,,,V,N*64
$GPVTG,,T,,,,N,,K,N*61
$GPGSV,3,1,12,02,16,043,48,04,00,026,,06,00,253,,05,14,078,46*79
$GPGSV,3,2,12,07,00,359,,25,54,112,46,29,80,021,43,30,77,307,*75
$GPGSV,3,3,12,31,53,273,32,10,03,026,,11,00,255,,12,21,114,*79
$GPGSA,M,1,,,,,,,,,,,,,4.3,2.2,3.7*3F
Trace #4 at position 0.750000
$GPZDA,103522.02,08,10,2011,00,00*68
$GPRMC,103153.00,V,,,,,,,,,,N*78
$GPGGA,103526.00,4611.953194,N,01258.225431,E,1,04,7.1,141.44,M,46.25,M,,*60
$GPGLL,4611.953194,N,01258.225431,E,103526.00,A,A*66
$GPVTG,313.7,T,313.9,M,000.8,N,001.5,K,A*21
$GPGSV,2,1,07,02,16,043,48,21,31,186,,25,54,112,46,29,80,021,42*7D
$GPGSV,2,2,07,30,77,307,,31,53,273,,12,21,114,42,,,,*49
$GPGSA,M,3,02,25,29,12,,,,,,,,,9.7,7.1,6.6*3B
Trace #5 at position 1.000000
$GPZDA,103522.02,08,10,2011,00,00*68
$GPRMC,103153.00,V,,,,,,,,,,N*78
$GPGGA,103526.00,4611.953194,N,01258.225431,E,1,04,7.1,141.44,M,46.25,M,,*60
$GPGLL,4611.953194,N,01258.225431,E,103526.00,A,A*66
$GPVTG,313.7,T,313.9,M,000.8,N,001.5,K,A*21
$GPGSV,2,1,07,02,16,043,48,21,31,186,,25,54,112,46,29,80,021,42*7D
$GPGSV,2,2,07,30,77,307,,31,53,273,,12,21,114,42,,,,*49
$GPGSA,M,3,02,25,29,12,,,,,,,,,9.7,7.1,6.6*3B
Trace #6 at position 1.250000
$GPZDA,103526.03,08,10,2011,00,00*6D
$GPRMC,103526.00,A,4611.953194,N,01258.225431,E,000.8,313.7,081011,0.2,E,A*3F
$GPGGA,103527.00,4611.953398,N,01258.225447,E,1,04,7.1,141.63,M,46.25,M,,*6B
$GPGLL,4611.953398,N,01258.225447,E,103527.00,A,A*68
$GPVTG,45.0,T,45.2,M,001.4,N,002.6,K,A*20
$GPGSV,2,1,07,02,16,043,47,21,31,186,,25,54,112,44,29,80,021,40*72
$GPGSV,2,2,07,30,77,307,,31,53,273,,12,21,114,43,,,,*48
$GPGSA,M,3,02,25,29,12,,,,,,,,,9.7,7.1,6.6*3B
Trace #7 at position 1.500000
$GPZDA,103526.03,08,10,2011,00,00*6D
$GPRMC,103526.00,A,4611.953194,N,01258.225431,E,000.8,313.7,081011,0.2,E,A*3F
$GPGGA,103527.00,4611.953398,N,01258.225447,E,1,04,7.1,141.63,M,46.25,M,,*6B
$GPGLL,4611.953398,N,01258.225447,E,103527.00,A,A*68
$GPVTG,45.0,T,45.2,M,001.4,N,002.6,K,A*20
$GPGSV,2,1,07,02,16,043,47,21,31,186,,25,54,112,44,29,80,021,40*72
$GPGSV,2,2,07,30,77,307,,31,53,273,,12,21,114,43,,,,*48
$GPGSA,M,3,02,25,29,12,,,,,,,,,9.7,7.1,6.6*3B
Trace #8 at position 1.750000
$GPZDA,103527.03,08,10,2011,00,00*6C
$GPRMC,103527.00,A,4611.953398,N,01258.225447,E,001.4,45.0,081011,0.2,E,A*0B
$GPGGA,103528.00,4611.953712,N,01258.225557,E,1,04,7.1,141.98,M,46.25,M,,*66
$GPGLL,4611.953712,N,01258.225557,E,103528.00,A,A*61
$GPVTG,330.7,T,330.9,M,001.3,N,002.3,K,A*2E
$GPGSV,2,1,07,02,16,043,48,21,31,186,37,25,54,112,48,29,80,021,38*7A
$GPGSV,2,2,07,30,77,307,,31,53,273,,12,21,114,43,,,,*48
$GPGSA,M,3,02,25,29,12,,,,,,,,,9.7,7.1,6.6*3B
Trace #9 at position 2.000000
$GPZDA,103527.03,08,10,2011,00,00*6C
$GPRMC,103527.00,A,4611.953398,N,01258.225447,E,001.4,45.0,081011,0.2,E,A*0B
$GPGGA,103528.00,4611.953712,N,01258.225557,E,1,04,7.1,141.98,M,46.25,M,,*66
$GPGLL,4611.953712,N,01258.225557,E,103528.00,A,A*61
$GPVTG,330.7,T,330.9,M,001.3,N,002.3,K,A*2E
$GPGSV,2,1,07,02,16,043,48,21,31,186,37,25,54,112,48,29,80,021,38*7A
$GPGSV,2,2,07,30,77,307,,31,53,273,,12,21,114,43,,,,*48
$GPGSA,M,3,02,25,29,12,,,,,,,,,9.7,7.1,6.6*3B
Trace #10 at position 2.250000
$GPZDA,103528.03,08,10,2011,00,00*63
$GPRMC,103528.00,A,4611.953712,N,01258.225557,E,001.3,330.7,081011,0.2,E,A*33
$GPGGA,103529.00,4611.953936,N,01258.225003,E,1,04,7.1,141.67,M,46.25,M,,*6B
$GPGLL,4611.953936,N,01258.225003,E,103529.00,A,A*6C
$GPVTG,278.5,T,278.6,M,002.6,N,004.7,K,A*27
$GPGSV,2,1,07,02,16,043,49,21,31,186,40,25,54,112,49,29,80,021,37*75
$GPGSV,2,2,07,30,77,307,,31,53,273,,12,21,114,41,,,,*4A
$GPGSA,M,3,02,25,29,12,,,,,,,,,9.7,7.1,6.6*3B
Trace #11 at position 2.500000
$GPZDA,103528.03,08,10,2011,00,00*63
$GPRMC,103528.00,A,4611.953712,N,01258.225557,E,001.3,330.7,081011,0.2,E,A*33
$GPGGA,103529.00,4611.953936,N,01258.225003,E,1,04,7.1,141.67,M,46.25,M,,*6B
$GPGLL,4611.953936,N,01258.225003,E,103529.00,A,A*6C
$GPVTG,278.5,T,278.6,M,002.6,N,004.7,K,A*27
$GPGSV,2,1,07,02,16,043,49,21,31,186,40,25,54,112,49,29,80,021,37*75
$GPGSV,2,2,07,30,77,307,,31,53,273,,12,21,114,41,,,,*4A
$GPGSA,M,3,02,25,29,12,,,,,,,,,9.7,7.1,6.6*3B
Trace #12 at position 2.750000
$GPZDA,103529.03,08,10,2011,00,00*62
$GPRMC,103529.00,A,4611.953936,N,01258.225003,E,002.6,278.5,081011,0.2,E,A*37
$GPGGA,103530.00,4611.954080,N,01258.224417,E,1,04,2.1,141.28,M,46.25,M,,*6E
$GPGLL,4611.954080,N,01258.224417,E,103530.00,A,A*67
$GPVTG,358.8,T,359.0,M,000.7,N,001.3,K,A*2F
$GPGSV,2,1,07,02,16,043,48,21,31,186,41,25,54,112,49,29,80,021,32*70
$GPGSV,2,2,07,30,77,307,,31,53,273,,12,21,114,44,,,,*4F
$GPGSA,M,3,02,21,25,12,,,,,,,,,3.4,2.1,2.7*3A
Trace #13 at position 3.000000
$GPZDA,103529.03,08,10,2011,00,00*62
$GPRMC,103529.00,A,4611.953936,N,01258.225003,E,002.6,278.5,081011,0.2,E,A*37
$GPGGA,103530.00,4611.954080,N,01258.224417,E,1,04,2.1,141.28,M,46.25,M,,*6E
$GPGLL,4611.954080,N,01258.224417,E,103530.00,A,A*67
$GPVTG,358.8,T,359.0,M,000.7,N,001.3,K,A*2F
$GPGSV,2,1,07,02,16,043,48,21,31,186,41,25,54,112,49,29,80,021,32*70
$GPGSV,2,2,07,30,77,307,,31,53,273,,12,21,114,44,,,,*4F
$GPGSA,M,3,02,21,25,12,,,,,,,,,3.4,2.1,2.7*3A
Trace #14 at position 3.250000
$GPZDA,103530.03,08,10,2011,00,00*6A
$GPRMC,103530.00,A,4611.954080,N,01258.224417,E,000.7,358.8,081011,0.2,E,A*31
$GPGGA,,,,,,0,03,,,M,,M,,*65
$GPGLL,,,,,,V,N*64
$GPVTG,,T,,,,N,,K,N*61
$GPGSV,2,1,07,02,16,043,48,21,31,186,36,25,54,112,48,29,80,021,37*74
$GPGSV,2,2,07,30,77,307,,31,53,273,35,12,21,114,43,,,,*4E
$GPGSA,M,1,,,,,,,,,,,,,3.4,2.1,2.7*3D
Trace #15 at position 3.500000
$GPZDA,103530.03,08,10,2011,00,00*6A
$GPRMC,103530.00,A,4611.954080,N,01258.224417,E,000.7,358.8,081011,0.2,E,A*31
$GPGGA,,,,,,0,03,,,M,,M,,*65
$GPGLL,,,,,,V,N*64
$GPVTG,,T,,,,N,,K,N*61
$GPGSV,2,1,07,02,16,043,48,21,31,186,36,25,54,112,48,29,80,021,37*74
$GPGSV,2,2,07,30,77,307,,31,53,273,35,12,21,114,43,,,,*4E
$GPGSA,M,1,,,,,,,,,,,,,3.4,2.1,2.7*3D
Trace #16 at position 3.750000
$GPZDA,103531.02,08,10,2011,00,00*6A
$GPRMC,103530.00,V,,,,,,,,,,N*79
$GPGGA,103532.00,4611.954341,N,01258.224045,E,1,04,2.1,141.31,M,46.25,M,,*69
$GPGLL,4611.954341,N,01258.224045,E,103532.00,A,A*68
$GPVTG,285.2,T,285.3,M,000.8,N,001.4,K,A*2F
$GPGSV,2,1,07,02,16,043,48,21,31,186,38,25,54,112,46,29,80,021,36*75
$GPGSV,2,2,07,30,77,307,,31,53,273,32,12,21,114,46,,,,*4C
$GPGSA,M,3,02,21,25,12,,,,,,,,,3.4,2.1,2.7*3A
Trace #17 at position 4.000000
$GPZDA,103531.02,08,10,2011,00,00*6A
$GPRMC,103530.00,V,,,,,,,,,,N*79
$GPGGA,103532.00,4611.954341,N,01258.224045,E,1,04,2.1,141.31,M,46.25,M,,*69
$GPGLL,4611.954341,N,01258.224045,E,103532.00,A,A*68
$GPVTG,285.2,T,285.3,M,000.8,N,001.4,K,A*2F
$GPGSV,2,1,07,02,16,043,48,21,31,186,38,25,54,112,46,29,80,021,36*75
$GPGSV,2,2,07,30,77,307,,31,53,273,32,12,21,114,46,,,,*4C
$GPGSA,M,3,02,21,25,12,,,,,,,,,3.4,2.1,2.7*3A
Trace #18 at position 4.250000
$GPZDA,103532.03,08,10,2011,00,00*68
$GPRMC,103532.00,A,4611.954341,N,01258.224045,E,000.8,285.2,081011,0.2,E,A*3A
$GPGGA,,,,,,0,03,,,M,,M,,*65
$GPGLL,,,,,,V,N*64
$GPVTG,,T,,,,N,,K,N*61
$GPGSV,2,1,07,02,16,043,49,21,31,186,38,25,54,112,47,29,80,021,37*74
$GPGSV,2,2,07,30,77,307,,31,53,273,31,12,21,114,48,,,,*41
$GPGSA,M,1,,,,,,,,,,,,,3.4,2.1,2.7*3D
Trace #19 at position 4.500000
$GPZDA,103532.03,08,10,2011,00,00*68
$GPRMC,103532.00,A,4611.954341,N,01258.224045,E,000.8,285.2,081011,0.2,E,A*3A
$GPGGA,,,,,,0,03,,,M,,M,,*65
$GPGLL,,,,,,V,N*64
$GPVTG,,T,,,,N,,K,N*61
$GPGSV,2,1,07,02,16,043,49,21,31,186,38,25,54,112,47,29,80,021,37*74
$GPGSV,2,2,07,30,77,307,,31,53,273,31,12,21,114,48,,,,*41
$GPGSA,M,1,,,,,,,,,,,,,3.4,2.1,2.7*3D
Trace #20 at position 4.750000
$GPZDA,103533.02,08,10,2011,00,00*68
$GPRMC,103532.00,V,,,,,,,,,,N*7B
$GPGGA,103534.00,4611.954711,N,01258.223543,E,1,04,2.1,141.42,M,46.25,M,,*6E
$GPGLL,4611.954711,N,01258.223543,E,103534.00,A,A*6B
$GPVTG,343.9,T,344.1,M,001.1,N,002.0,K,A*2E
$GPGSV,2,1,07,02,16,043,48,21,31,186,40,25,54,112,46,29,80,022,37*78
$GPGSV,2,2,07,30,77,307,,31,53,273,34,12,21,114,49,,,,*45
$GPGSA,M,3,02,21,25,12,,,,,,,,,3.4,2.1,2.7*3A
Trace #21 at position 5.000000
$GPZDA,103533.02,08,10,2011,00,00*68
$GPRMC,103532.00,V,,,,,,,,,,N*7B
$GPGGA,103534.00,4611.954711,N,01258.223543,E,1,04,2.1,141.42,M,46.25,M,,*6E
$GPGLL,4611.954711,N,01258.223543,E,103534.00,A,A*6B
$GPVTG,343.9,T,344.1,M,001.1,N,002.0,K,A*2E
$GPGSV,2,1,07,02,16,043,48,21,31,186,40,25,54,112,46,29,80,022,37*78
$GPGSV,2,2,07,30,77,307,,31,53,273,34,12,21,114,49,,,,*45
$GPGSA,M,3,02,21,25,12,,,,,,,,,3.4,2.1,2.7*3A
Trace #22 at position 5.250000
$GPZDA,103533.02,08,10,2011,00,00*68
$GPRMC,103532.00,V,,,,,,,,,,N*7B
$GPGGA,103534.00,4611.954711,N,01258.223543,E,1,04,2.1,141.42,M,46.25,M,,*6E
$GPGLL,4611.954711,N,01258.223543,E,103534.00,A,A*6B
$GPVTG,343.9,T,344.1,M,001.1,N,002.0,K,A*2E
$GPGSV,2,1,07,02,16,043,48,21,31,186,40,25,54,112,46,29,80,022,37*78
$GPGSV,2,2,07,30,77,307,,31,53,273,34,12,21,114,49,,,,*45
$GPGSA,M,3,02,21,25,12,,,,,,,,,3.4,2.1,2.7*3A
Trace #23 at position 5.500000
$GPZDA,103534.03,08,10,2011,00,00*6E
$GPRMC,103534.00,A,4611.954711,N,01258.223543,E,001.1,343.9,081011,0.2,E,A*31
$GPGGA,103535.00,4611.955001,N,01258.223431,E,1,04,2.1,141.37,M,46.25,M,,*6E
$GPGLL,4611.955001,N,01258.223431,E,103535.00,A,A*69
$GPVTG,9.3,T,9.5,M,000.9,N,001.7,K,A*2A
$GPGSV,2,1,07,02,16,043,49,21,31,186,39,25,54,112,48,29,80,022,38*76
$GPGSV,2,2,07,30,77,307,,31,53,273,29,12,21,114,48,,,,*48
$GPGSA,M,3,02,21,25,12,,,,,,,,,3.4,2.1,2.7*3A
Trace #24 at position 5.750000
$GPZDA,103534.03,08,10,2011,00,00*6E
$GPRMC,103534.00,A,4611.954711,N,01258.223543,E,001.1,343.9,081011,0.2,E,A*31
$GPGGA,103535.00,4611.955001,N,01258.223431,E,1,04,2.1,141.37,M,46.25,M,,*6E
$GPGLL,4611.955001,N,01258.223431,E,103535.00,A,A*69
$GPVTG,9.3,T,9.5,M,000.9,N,001.7,K,A*2A
$GPGSV,2,1,07,02,16,043,49,21,31,186,39,25,54,112,48,29,80,022,38*76
$GPGSV,2,2,07,30,77,307,,31,53,273,29,12,21,114,48,,,,*48
$GPGSA,M,3,02,21,25,12,,,,,,,,,3.4,2.1,2.7*3A
Trace #25 at position 6.000000
$GPZDA,103535.03,08,10,2011,00,00*6F
$GPRMC,103535.00,A,4611.955001,N,01258.223431,E,000.9,9.3,081011,0.2,E,A*3D
$GPGGA,103536.00,4611.955359,N,01258.223417,E,1,04,2.1,141.26,M,46.25,M,,*67
$GPGLL,4611.955359,N,01258.223417,E,103536.00,A,A*60
$GPVTG,9.1,T,9.3,M,001.6,N,002.9,K,A*2D
$GPGSV,2,1,07,02,16,043,49,21,31,186,37,25,54,112,48,29,80,022,39*79
$GPGSV,2,2,07,30,77,307,,31,53,273,,12,21,114,50,,,,*4A
$GPGSA,M,3,02,21,25,12,,,,,,,,,3.4,2.1,2.7*3A
Trace #26 at position 6.250000
$GPZDA,103536.03,08,10,2011,00,00*6C
$GPRMC,103536.00,A,4611.955359,N,01258.223417,E,001.6,9.1,081011,0.2,E,A*38
$GPGGA,103537.00,4611.955744,N,01258.223287,E,1,04,2.1,141.22,M,46.25,M,,*65
$GPGLL,4611.955744,N,01258.223287,E,103537.00,A,A*66
$GPVTG,339.3,T,339.4,M,001.2,N,002.2,K,A*27
$GPGSV,2,1,07,02,16,043,48,21,31,186,39,25,54,112,49,29,80,022,36*78
$GPGSV,2,2,07,30,77,307,26,31,53,273,34,12,21,114,50,,,,*49
$GPGSA,M,3,02,21,25,12,,,,,,,,,3.4,2.1,2.7*3A
Trace #27 at position 6.500000
$GPZDA,103536.03,08,10,2011,00,00*6C
$GPRMC,103536.00,A,4611.955359,N,01258.223417,E,001.6,9.1,081011,0.2,E,A*38
$GPGGA,103537.00,4611.955744,N,01258.223287,E,1,04,2.1,141.22,M,46.25,M,,*65
$GPGLL,4611.955744,N,01258.223287,E,103537.00,A,A*66
$GPVTG,339.3,T,339.4,M,001.2,N,002.2,K,A*27
$GPGSV,2,1,07,02,16,043,48,21,31,186,39,25,54,112,49,29,80,022,36*78
$GPGSV,2,2,07,30,77,307,26,31,53,273,34,12,21,114,50,,,,*49
$GPGSA,M,3,02,21,25,12,,,,,,,,,3.4,2.1,2.7*3A
Trace #28 at position 6.750000
$GPZDA,103537.03,08,10,2011,00,00*6D
$GPRMC,103537.00,A,4611.955744,N,01258.223287,E,001.2,339.3,081011,0.2,E,A*38
$GPGGA,103538.00,4611.955952,N,01258.223346,E,1,04,7.2,141.27,M,46.25,M,,*6C
$GPGLL,4611.955952,N,01258.223346,E,103538.00,A,A*6C
$GPVTG,76.0,T,76.2,M,000.9,N,001.7,K,A*2E
$GPGSV,2,1,07,02,16,043,50,21,31,186,36,25,54,112,48,29,80,022,41*7F
$GPGSV,2,2,07,30,77,307,,31,53,273,,12,21,114,49,,,,*42
$GPGSA,M,3,02,25,29,12,,,,,,,,,9.8,7.2,6.6*37
Trace #29 at position 7.000000
$GPZDA,103537.03,08,10,2011,00,00*6D
$GPRMC,103537.00,A,4611.955744,N,01258.223287,E,001.2,339.3,081011,0.2,E,A*38
$GPGGA,103538.00,4611.955952,N,01258.223346,E,1,04,7.2,141.27,M,46.25,M,,*6C
$GPGLL,4611.955952,N,01258.223346,E,103538.00,A,A*6C
$GPVTG,76.0,T,76.2,M,000.9,N,001.7,K,A*2E
$GPGSV,2,1,07,02,16,043,50,21,31,186,36,25,54,112,48,29,80,022,41*7F
$GPGSV,2,2,07,30,77,307,,31,53,273,,12,21,114,49,,,,*42
$GPGSA,M,3,02,25,29,12,,,,,,,,,9.8,7.2,6.6*37
Trace #30 at position 7.250000
$GPZDA,103537.03,08,10,2011,00,00*6D
$GPRMC,103537.00,A,4611.955744,N,01258.223287,E,001.2,339.3,081011,0.2,E,A*38
$GPGGA,103538.00,4611.955952,N,01258.223346,E,1,04,7.2,141.27,M,46.25,M,,*6C
$GPGLL,4611.955952,N,01258.223346,E,103538.00,A,A*6C
$GPVTG,76.0,T,76.2,M,000.9,N,001.7,K,A*2E
$GPGSV,2,1,07,02,16,043,50,21,31,186,36,25,54,112,48,29,80,022,41*7F
$GPGSV,2,2,07,30,77,307,,31,53,273,,12,21,114,49,,,,*42
$GPGSA,M,3,02,25,29,12,,,,,,,,,9.8,7.2,6.6*37
Trace #31 at position 7.500000
$GPZDA,103538.04,08,10,2011,00,00*65
$GPRMC,103538.00,A,4611.955952,N,01258.223346,E,000.9,76.0,081011,0.2,E,A*03
$GPGGA,103539.00,4611.956102,N,01258.223624,E,1,04,7.2,141.55,M,46.25,M,,*67
$GPGLL,4611.956102,N,01258.223624,E,103539.00,A,A*62
$GPVTG,55.8,T,55.9,M,001.2,N,002.2,K,A*21
$GPGSV,2,1,07,02,16,043,48,21,31,186,39,25,54,112,46,29,80,022,40*76
$GPGSV,2,2,07,30,77,307,,31,53,273,,12,21,114,49,,,,*42
$GPGSA,M,3,02,25,29,12,,,,,,,,,9.8,7.2,6.6*37
Trace #32 at position 7.750000
$GPZDA,103538.04,08,10,2011,00,00*65
$GPRMC,103538.00,A,4611.955952,N,01258.223346,E,000.9,76.0,081011,0.2,E,A*03
$GPGGA,103539.00,4611.956102,N,01258.223624,E,1,04,7.2,141.55,M,46.25,M,,*67
$GPGLL,4611.956102,N,01258.223624,E,103539.00,A,A*62
$GPVTG,55.8,T,55.9,M,001.2,N,002.2,K,A*21
$GPGSV,2,1,07,02,16,043,48,21,31,186,39,25,54,112,46,29,80,022,40*76
$GPGSV,2,2,07,30,77,307,,31,53,273,,12,21,114,49,,,,*42
$GPGSA,M,3,02,25,29,12,,,,,,,,,9.8,7.2,6.6*37
Trace #33 at position 8.000000
$GPZDA,103539.03,08,10,2011,00,00*63
$GPRMC,103539.00,A,4611.956102,N,01258.223624,E,001.2,55.8,081011,0.2,E,A*0E
$GPGGA,103540.00,4611.956309,N,01258.223358,E,1,04,7.2,141.49,M,46.25,M,,*63
$GPGLL,4611.956309,N,01258.223358,E,103540.00,A,A*6B
$GPVTG,287.3,T,287.4,M,001.9,N,003.4,K,A*2B
$GPGSV,2,1,07,02,16,043,49,21,31,186,36,25,54,112,50,29,80,022,41*7E
$GPGSV,2,2,07,30,77,307,,31,53,273,29,12,21,114,48,,,,*48
$GPGSA,M,3,02,25,29,12,,,,,,,,,9.8,7.2,6.6*37
Trace #34 at position 8.250000
$GPZDA,103540.03,08,10,2011,00,00*6D
$GPRMC,103540.00,A,4611.956309,N,01258.223358,E,001.9,287.3,081011,0.2,E,A*3A
$GPGGA,103541.00,4611.956555,N,01258.222866,E,1,04,7.2,140.98,M,46.25,M,,*67
$GPGLL,4611.956555,N,01258.222866,E,103541.00,A,A*62
$GPVTG,334.5,T,334.6,M,001.0,N,001.9,K,A*29
$GPGSV,2,1,07,02,16,043,48,21,31,186,37,25,54,112,48,29,80,022,39*78
$GPGSV,2,2,07,30,77,307,29,31,53,273,35,12,21,114,51,,,,*46
$GPGSA,M,3,02,25,29,12,,,,,,,,,9.8,7.2,6.6*37
Trace #35 at position 8.500000
$GPZDA,103540.03,08,10,2011,00,00*6D
$GPRMC,103540.00,A,4611.956309,N,01258.223358,E,001.9,287.3,081011,0.2,E,A*3A
$GPGGA,103541.00,4611.956555,N,01258.222866,E,1,04,7.2,140.98,M,46.25,M,,*67
$GPGLL,4611.956555,N,01258.222866,E,103541.00,A,A*62
$GPVTG,334.5,T,334.6,M,001.0,N,001.9,K,A*29
$GPGSV,2,1,07,02,16,043,48,21,31,186,37,25,54,112,48,29,80,022,39*78
$GPGSV,2,2,07,30,77,307,29,31,53,273,35,12,21,114,51,,,,*46
$GPGSA,M,3,02,25,29,12,,,,,,,,,9.8,7.2,6.6*37
Trace #36 at position 8.750000
$GPZDA,103541.03,08,10,2011,00,00*6C
$GPRMC,103541.00,A,4611.956555,N,01258.222866,E,001.0,334.5,081011,0.2,E,A*35
$GPGGA,103542.00,4611.956824,N,01258.222576,E,1,04,7.2,140.76,M,46.25,M,,*63
$GPGLL,4611.956824,N,01258.222576,E,103542.00,A,A*66
$GPVTG,311.1,T,311.3,M,001.2,N,002.2,K,A*22
$GPGSV,2,1,07,02,16,043,48,21,31,186,36,25,54,112,48,29,80,022,41*76
$GPGSV,2,2,07,30,77,307,28,31,53,273,28,12,21,114,50,,,,*4A
$GPGSA,M,3,02,25,29,12,,,,,,,,,9.8,7.2,6.6*37
Trace #37 at position 9.000000
$GPZDA,103541.03,08,10,2011,00,00*6C
$GPRMC,103541.00,A,4611.956555,N,01258.222866,E,001.0,334.5,081011,0.2,E,A*35
$GPGGA,103542.00,4611.956824,N,01258.222576,E,1,04,7.2,140.76,M,46.25,M,,*63
$GPGLL,4611.956824,N,01258.222576,E,103542.00,A,A*66
$GPVTG,311.1,T,311.3,M,001.2,N,002.2,K,A*22
$GPGSV,2,1,07,02,16,043,48,21,31,186,36,25,54,112,48,29,80,022,41*76
$GPGSV,2,2,07,30,77,307,28,31,53,273,28,12,21,114,50,,,,*4A
$GPGSA,M,3,02,25,29,12,,,,,,,,,9.8,7.2,6.6*37
Trace #38 at position 9.250000
$GPZDA,103542.03,08,10,2011,00,00*6F
$GPRMC,103542.00,A,4611.956824,N,01258.222576,E,001.2,311.1,081011,0.2,E,A*30
$GPGGA,103543.00,4611.957111,N,01258.222340,E,1,04,7.2,140.68,M,46.25,M,,*60
$GPGLL,4611.957111,N,01258.222340,E,103543.00,A,A*6A
$GPVTG,350.8,T,351.0,M,001.1,N,002.1,K,A*29
$GPGSV,2,1,07,02,16,043,48,21,31,186,36,25,54,112,48,29,80,022,36*76
$GPGSV,2,2,07,30,77,307,26,31,53,273,32,12,21,114,49,,,,*47
$GPGSA,M,3,02,25,29,12,,,,,,,,,9.8,7.2,6.6*37
Trace #39 at position 9.500000
$GPZDA,103542.03,08,10,2011,00,00*6F
$GPRMC,103542.00,A,4611.956824,N,01258.222576,E,001.2,311.1,081011,0.2,E,A*30
$GPGGA,103543.00,4611.957111,N,01258.222340,E,1,04,7.2,140.68,M,46.25,M,,*60
$GPGLL,4611.957111,N,01258.222340,E,103543.00,A,A*6A
$GPVTG,350.8,T,351.0,M,001.1,N,002.1,K,A*29
$GPGSV,2,1,07,02,16,043,48,21,31,186,36,25,54,112,48,29,80,022,36*76
$GPGSV,2,2,07,30,77,307,26,31,53,273,32,12,21,114,49,,,,*47
$GPGSA,M,3,02,25,29,12,,,,,,,,,9.8,7.2,6.6*37
Trace #40 at position 9.750000
$GPZDA,103543.03,08,10,2011,00,00*6E
$GPRMC,103543.00,A,4611.957111,N,01258.222340,E,001.1,350.8,081011,0.2,E,A*33
$GPGGA,103544.00,4611.957402,N,01258.222158,E,1,04,7.2,140.60,M,46.25,M,,*63
$GPGLL,4611.957402,N,01258.222158,E,103544.00,A,A*61
$GPVTG,328.5,T,328.7,M,001.0,N,001.9,K,A*28
$GPGSV,2,1,07,02,16,043,48,21,31,186,35,25,54,112,48,29,80,022,39*7A
$GPGSV,2,2,07,30,77,307,,31,53,273,26,12,21,114,50,,,,*4E
$GPGSA,M,3,02,25,29,12,,,,,,,,,9.8,7.2,6.6*37
Trace #41 at position 10.000000
$GPZDA,103543.03,08,10,2011,00,00*6E
$GPRMC,103543.00,A,4611.957111,N,01258.222340,E,001.1,350.8,081011,0.2,E,A*33
$GPGGA,103544.00,4611.957402,N,01258.222158,E,1,04,7.2,140.60,M,46.25,M,,*63
$GPGLL,4611.957402,N,01258.222158,E,103544.00,A,A*61
$GPVTG,328.5,T,328.7,M,001.0,N,001.9,K,A*28
$GPGSV,2,1,07,02,16,043,48,21,31,186,35,25,54,112,48,29,80,022,39*7A
$GPGSV,2,2,07,30,77,307,,31,53,273,26,12,21,114,50,,,,*4E
$GPGSA,M,3,02,25,29,12,,,,,,,,,9.8,7.2,6.6*37
Trace #42 at position 10.250000
$GPZDA,103544.03,08,10,2011,00,00*69
$GPRMC,103544.00,A,4611.957402,N,01258.222158,E,001.0,328.5,081011,0.2,E,A*3B
$GPGGA,103545.00,4611.957661,N,01258.221822,E,1,04,7.2,140.43,M,46.25,M,,*63
$GPGLL,4611.957661,N,01258.221822,E,103545.00,A,A*60
$GPVTG,313.5,T,313.7,M,001.3,N,002.4,K,A*25
$GPGSV,2,1,07,02,16,043,48,21,31,186,34,25,54,112,48,29,80,022,39*7B
$GPGSV,2,2,07,30,77,307,31,31,53,273,,12,21,114,48,,,,*41
$GPGSA,M,3,02,25,29,12,,,,,,,,,9.8,7.2,6.6*37
Trace #43 at position 10.500000
$GPZDA,103544.03,08,10,2011,00,00*69
$GPRMC,103544.00,A,4611.957402,N,01258.222158,E,001.0,328.5,081011,0.2,E,A*3B
$GPGGA,103545.00,4611.957661,N,01258.221822,E,1,04,7.2,140.43,M,46.25,M,,*63
$GPGLL,4611.957661,N,01258.221822,E,103545.00,A,A*60
$GPVTG,313.5,T,313.7,M,001.3,N,002.4,K,A*25
$GPGSV,2,1,07,02,16,043,48,21,31,186,34,25,54,112,48,29,80,022,39*7B
$GPGSV,2,2,07,30,77,307,31,31,53,273,,12,21,114,48,,,,*41
$GPGSA,M,3,02,25,29,12,,,,,,,,,9.8,7.2,6.6*37
Trace #44 at position 10.750000
$GPZDA,103545.03,08,10,2011,00,00*68
$GPRMC,103545.00,A,4611.957661,N,01258.221822,E,001.3,313.5,081011,0.2,E,A*31
$GPGGA,103546.00,4611.957871,N,01258.221604,E,1,05,1.8,140.31,M,46.25,M,,*6D
$GPGLL,4611.957871,N,01258.221604,E,103546.00,A,A*66
$GPVTG,345.4,T,345.5,M,000.4,N,000.8,K,A*2E
$GPGSV,2,1,07,02,16,043,49,21,31,186,39,25,54,112,47,29,80,022,40*76
$GPGSV,2,2,07,30,77,307,,31,53,273,,12,21,114,49,,,,*42
$GPGSA,M,3,02,21,25,29,12,,,,,,,,2.7,1.8,2.0*3E
Trace #45 at position 11.000000
$GPZDA,103556.03,08,10,2011,00,00*6A
$GPRMC,103556.00,A,4611.958637,N,01258.221946,E,000.1,178.8,081011,0.2,E,A*3D
$GPGGA,,,,,,0,03,,,M,,M,,*65
$GPGLL,,,,,,V,N*64
$GPVTG,,T,,,,N,,K,N*61
$GPGSV,2,1,07,02,16,043,43,21,31,186,39,25,54,112,40,29,80,022,26*7B
$GPGSV,2,2,07,30,77,307,30,31,53,273,,12,21,114,45,,,,*4D
$GPGSA,M,1,,,,,,,,,,,,,2.7,1.8,2.0*32
Trace #46 at position 11.250000
$GPZDA,103556.03,08,10,2011,00,00*6A
$GPRMC,103556.00,A,4611.958637,N,01258.221946,E,000.1,178.8,081011,0.2,E,A*3D
$GPGGA,,,,,,0,03,,,M,,M,,*65
$GPGLL,,,,,,V,N*64
$GPVTG,,T,,,,N,,K,N*61
$GPGSV,2,1,07,02,16,043,43,21,31,186,39,25,54,112,40,29,80,022,26*7B
$GPGSV,2,2,07,30,77,307,30,31,53,273,,12,21,114,45,,,,*4D
$GPGSA,M,1,,,,,,,,,,,,,2.7,1.8,2.0*32
Trace #47 at position 11.500000
$GPZDA,103557.02,08,10,2011,00,00*6A
$GPRMC,103556.00,V,,,,,,,,,,N*79
$GPGGA,103558.00,4611.958688,N,01258.221815,E,1,04,2.1,140.80,M,46.25,M,,*6A
$GPGLL,4611.958688,N,01258.221815,E,103558.00,A,A*60
$GPVTG,340.7,T,340.8,M,000.4,N,000.7,K,A*2F
$GPGSV,2,1,07,02,16,043,47,21,31,186,37,25,54,112,48,29,80,022,35*7B
$GPGSV,2,2,07,30,77,307,31,31,53,273,,12,21,114,49,,,,*40
$GPGSA,M,3,02,21,25,12,,,,,,,,,3.4,2.1,2.7*3A
Trace #48 at position 11.750000
$GPZDA,103557.02,08,10,2011,00,00*6A
$GPRMC,103556.00,V,,,,,,,,,,N*79
$GPGGA,103558.00,4611.958688,N,01258.221815,E,1,04,2.1,140.80,M,46.25,M,,*6A
$GPGLL,4611.958688,N,01258.221815,E,103558.00,A,A*60
$GPVTG,340.7,T,340.8,M,000.4,N,000.7,K,A*2F
$GPGSV,2,1,07,02,16,043,47,21,31,186,37,25,54,112,48,29,80,022,35*7B
$GPGSV,2,2,07,30,77,307,31,31,53,273,,12,21,114,49,,,,*40
$GPGSA,M,3,02,21,25,12,,,,,,,,,3.4,2.1,2.7*3A
Trace #49 at position 12.000000
$GPZDA,103558.03,08,10,2011,00,00*64
$GPRMC,103558.00,A,4611.958688,N,01258.221815,E,000.4,340.7,081011,0.2,E,A*33
$GPGGA,103559.00,4611.958829,N,01258.221538,E,1,05,1.8,140.84,M,46.25,M,,*63
$GPGLL,4611.958829,N,01258.221538,E,103559.00,A,A*66
$GPVTG,309.7,T,309.8,M,000.8,N,001.4,K,A*21
$GPGSV,2,1,07,02,16,043,46,21,31,186,38,25,54,112,46,29,80,022,40*79
$GPGSV,2,2,07,30,77,307,32,31,53,273,,12,21,114,50,,,,*4B
$GPGSA,M,3,02,21,25,29,12,,,,,,,,2.7,1.8,2.0*3E
Trace #50 at position 12.250000
$GPZDA,103559.03,08,10,2011,00,00*65
$GPRMC,103559.00,A,4611.958829,N,01258.221538,E,000.8,309.7,081011,0.2,E,A*34
$GPGGA,103600.00,4611.959052,N,01258.221143,E,1,05,1.8,140.84,M,46.25,M,,*61
$GPGLL,4611.959052,N,01258.221143,E,103600.00,A,A*64
$GPVTG,314.0,T,314.2,M,001.3,N,002.4,K,A*25
$GPGSV,2,1,07,02,16,043,45,21,32,186,36,25,54,112,47,29,80,022,37*76
$GPGSV,2,2,07,30,77,307,29,31,53,273,,12,21,114,51,,,,*40
$GPGSA,M,3,02,21,25,29,12,,,,,,,,2.7,1.8,2.0*3E
Trace #51 at position 12.500000
$GPZDA,103559.03,08,10,2011,00,00*65
$GPRMC,103559.00,A,4611.958829,N,01258.221538,E,000.8,309.7,081011,0.2,E,A*34
$GPGGA,103600.00,4611.959052,N,01258.221143,E,1,05,1.8,140.84,M,46.25,M,,*61
$GPGLL,4611.959052,N,01258.221143,E,103600.00,A,A*64
$GPVTG,314.0,T,314.2,M,001.3,N,002.4,K,A*25
$GPGSV,2,1,07,02,16,043,45,21,32,186,36,25,54,112,47,29,80,022,37*76
$GPGSV,2,2,07,30,77,307,29,31,53,273,,12,21,114,51,,,,*40
$GPGSA,M,3,02,21,25,29,12,,,,,,,,2.7,1.8,2.0*3E
Trace #52 at position 12.750000
$GPZDA,103600.03,08,10,2011,00,00*6A
$GPRMC,103600.00,A,4611.959052,N,01258.221143,E,001.3,314.0,081011,0.2,E,A*37
$GPGGA,103601.00,4611.959223,N,01258.220848,E,1,05,1.8,140.83,M,46.25,M,,*60
$GPGLL,4611.959223,N,01258.220848,E,103601.00,A,A*62
$GPVTG,300.1,T,300.2,M,000.2,N,000.4,K,A*26
$GPGSV,2,1,07,02,16,043,44,21,32,186,36,25,54,112,48,29,80,022,39*76
$GPGSV,2,2,07,30,77,307,,31,53,273,,12,21,114,48,,,,*43
$GPGSA,M,3,02,21,25,29,12,,,,,,,,2.7,1.8,2.0*3E
Trace #53 at position 13.000000
$GPZDA,103600.03,08,10,2011,00,00*6A
$GPRMC,103600.00,A,4611.959052,N,01258.221143,E,001.3,314.0,081011,0.2,E,A*37
$GPGGA,103601.00,4611.959223,N,01258.220848,E,1,05,1.8,140.83,M,46.25,M,,*60
$GPGLL,4611.959223,N,01258.220848,E,103601.00,A,A*62
$GPVTG,300.1,T,300.2,M,000.2,N,000.4,K,A*26
$GPGSV,2,1,07,02,16,043,44,21,32,186,36,25,54,112,48,29,80,022,39*76
$GPGSV,2,2,07,30,77,307,,31,53,273,,12,21,114,48,,,,*43
$GPGSA,M,3,02,21,25,29,12,,,,,,,,2.7,1.8,2.0*3E
Trace #54 at position 13.250000
$GPZDA,103601.03,08,10,2011,00,00*6B
$GPRMC,103601.00,A,4611.959223,N,01258.220848,E,000.2,300.1,081011,0.2,E,A*35
$GPGGA,103602.00,4611.959329,N,01258.220740,E,1,05,1.8,140.88,M,46.25,M,,*64
$GPGLL,4611.959329,N,01258.220740,E,103602.00,A,A*6D
$GPVTG,355.3,T,355.4,M,000.5,N,000.8,K,A*29
$GPGSV,2,1,07,02,16,043,46,21,32,186,41,25,54,112,47,29,80,022,41*74
$GPGSV,2,2,07,30,77,307,,31,53,272,,12,21,114,48,,,,*42
$GPGSA,M,3,02,21,25,29,12,,,,,,,,2.7,1.8,2.0*3E
Trace #55 at position 13.500000
$GPZDA,103602.03,08,10,2011,00,00*68
$GPRMC,103602.00,A,4611.959329,N,01258.220740,E,000.5,355.3,081011,0.2,E,A*3F
$GPGGA,103603.00,4611.959625,N,01258.220544,E,1,05,1.8,141.00,M,46.25,M,,*6B
$GPGLL,4611.959625,N,01258.220544,E,103603.00,A,A*63
$GPVTG,332.6,T,332.8,M,001.8,N,003.3,K,A*24
$GPGSV,2,1,07,02,16,043,44,21,32,186,38,25,54,112,47,29,80,022,39*77
$GPGSV,2,2,07,30,77,307,,31,53,272,,12,21,114,50,,,,*4B
$GPGSA,M,3,02,21,25,29,12,,,,,,,,2.7,1.8,2.0*3E
Trace #56 at position 13.750000
$GPZDA,103603.04,08,10,2011,00,00*6E
$GPRMC,103603.00,A,4611.959625,N,01258.220544,E,001.8,332.6,081011,0.2,E,A*39
$GPGGA,103604.00,4611.959952,N,01258.220337,E,1,05,1.8,141.18,M,46.25,M,,*68
$GPGLL,4611.959952,N,01258.220337,E,103604.00,A,A*69
$GPVTG,348.7,T,348.8,M,000.8,N,001.5,K,A*20
$GPGSV,2,1,07,02,16,043,47,21,32,186,39,25,54,112,45,29,80,022,39*77
$GPGSV,2,2,07,30,77,307,,31,53,272,,12,21,114,50,,,,*4B
$GPGSA,M,3,02,21,25,29,12,,,,,,,,2.7,1.8,2.0*3E
Trace #57 at position 14.000000
$GPZDA,103603.04,08,10,2011,00,00*6E
$GPRMC,103603.00,A,4611.959625,N,01258.220544,E,001.8,332.6,081011,0.2,E,A*39
$GPGGA,103604.00,4611.959952,N,01258.220337,E,1,05,1.8,141.18,M,46.25,M,,*68
$GPGLL,4611.959952,N,01258.220337,E,103604.00,A,A*69
$GPVTG,348.7,T,348.8,M,000.8,N,001.5,K,A*20
$GPGSV,2,1,07,02,16,043,47,21,32,186,39,25,54,112,45,29,80,022,39*77
$GPGSV,2,2,07,30,77,307,,31,53,272,,12,21,114,50,,,,*4B
$GPGSA,M,3,02,21,25,29,12,,,,,,,,2.7,1.8,2.0*3E
Trace #58 at position 14.250000
$GPZDA,103603.04,08,10,2011,00,00*6E
$GPRMC,103603.00,A,4611.959625,N,01258.220544,E,001.8,332.6,081011,0.2,E,A*39
$GPGGA,103604.00,4611.959952,N,01258.220337,E,1,05,1.8,141.18,M,46.25,M,,*68
$GPGLL,4611.959952,N,01258.220337,E,103604.00,A,A*69
$GPVTG,348.7,T,348.8,M,000.8,N,001.5,K,A*20
$GPGSV,2,1,07,02,16,043,47,21,32,186,39,25,54,112,45,29,80,022,39*77
$GPGSV,2,2,07,30,77,307,,31,53,272,,12,21,114,50,,,,*4B
$GPGSA,M,3,02,21,25,29,12,,,,,,,,2.7,1.8,2.0*3E
Trace #59 at position 14.500000
$GPZDA,103604.03,08,10,2011,00,00*6E
$GPRMC,103604.00,A,4611.959952,N,01258.220337,E,000.8,348.7,081011,0.2,E,A*3E
$GPGGA,103605.00,4611.960110,N,01258.220302,E,1,05,1.8,141.25,M,46.25,M,,*65
$GPGLL,4611.960110,N,01258.220302,E,103605.00,A,A*6A
$GPVTG,2.5,T,2.7,M,000.4,N,000.7,K,A*22
$GPGSV,2,1,07,02,16,043,48,21,32,186,41,25,54,112,46,29,80,022,40*7A
$GPGSV,2,2,07,30,77,307,33,31,53,272,,12,21,114,46,,,,*4C
$GPGSA,M,3,02,21,25,29,12,,,,,,,,2.7,1.8,2.0*3E
Trace #60 at position 14.750000
$GPZDA,103605.03,08,10,2011,00,00*6F
$GPRMC,103605.00,A,4611.960110,N,01258.220302,E,000.4,2.5,081011,0.2,E,A*3E
$GPGGA,103606.00,4611.960239,N,01258.220227,E,1,05,1.8,141.34,M,46.25,M,,*68
$GPGLL,4611.960239,N,01258.220227,E,103606.00,A,A*67
$GPVTG,326.3,T,326.4,M,000.6,N,001.1,K,A*22
$GPGSV,2,1,07,02,16,043,50,21,32,186,42,25,54,112,46,29,80,022,40*70
$GPGSV,2,2,07,30,77,307,31,31,53,272,,12,21,114,46,,,,*4E
$GPGSA,M,3,02,21,25,29,12,,,,,,,,2.7,1.8,2.0*3E
Trace #61 at position 15.000000
$GPZDA,103605.03,08,10,2011,00,00*6F
$GPRMC,103605.00,A,4611.960110,N,01258.220302,E,000.4,2.5,081011,0.2,E,A*3E
$GPGGA,103606.00,4611.960239,N,01258.220227,E,1,05,1.8,141.34,M,46.25,M,,*68
$GPGLL,4611.960239,N,01258.220227,E,103606.00,A,A*67
$GPVTG,326.3,T,326.4,M,000.6,N,001.1,K,A*22
$GPGSV,2,1,07,02,16,043,50,21,32,186,42,25,54,112,46,29,80,022,40*70
$GPGSV,2,2,07,30,77,307,31,31,53,272,,12,21,114,46,,,,*4E
$GPGSA,M,3,02,21,25,29,12,,,,,,,,2.7,1.8,2.0*3E
Trace #62 at position 15.250000
$GPZDA,103606.03,08,10,2011,00,00*6C
$GPRMC,103606.00,A,4611.960239,N,01258.220227,E,000.6,326.3,081011,0.2,E,A*32
$GPGGA,103607.00,4611.960445,N,01258.219997,E,1,05,1.8,141.41,M,46.25,M,,*6C
$GPGLL,4611.960445,N,01258.219997,E,103607.00,A,A*61
$GPVTG,317.0,T,317.1,M,001.2,N,002.2,K,A*21
$GPGSV,2,1,07,02,16,043,49,21,32,186,42,25,54,112,46,29,80,022,41*79
$GPGSV,2,2,07,30,77,307,36,31,53,272,,12,21,114,47,,,,*48
$GPGSA,M,3,02,21,25,29,12,,,,,,,,2.7,1.8,2.0*3E
Trace #63 at position 15.500000
$GPZDA,103606.03,08,10,2011,00,00*6C
$GPRMC,103606.00,A,4611.960239,N,01258.220227,E,000.6,326.3,081011,0.2,E,A*32
$GPGGA,103607.00,4611.960445,N,01258.219997,E,1,05,1.8,141.41,M,46.25,M,,*6C
$GPGLL,4611.960445,N,01258.219997,E,103607.00,A,A*61
$GPVTG,317.0,T,317.1,M,001.2,N,002.2,K,A*21
$GPGSV,2,1,07,02,16,043,49,21,32,186,42,25,54,112,46,29,80,022,41*79
$GPGSV,2,2,07,30,77,307,36,31,53,272,,12,21,114,47,,,,*48
$GPGSA,M,3,02,21,25,29,12,,,,,,,,2.7,1.8,2.0*3E
Trace #64 at position 15.750000
$GPZDA,103607.03,08,10,2011,00,00*6D
$GPRMC,103607.00,A,4611.960445,N,01258.219997,E,001.2,317.0,081011,0.2,E,A*30
$GPGGA,103608.00,4611.960672,N,01258.219763,E,1,05,1.9,141.31,M,46.25,M,,*66
$GPGLL,4611.960672,N,01258.219763,E,103608.00,A,A*6D
$GPVTG,324.6,T,324.8,M,000.8,N,001.5,K,A*21
$GPGSV,2,1,07,02,16,043,50,21,32,186,38,25,54,112,46,29,80,022,39*73
$GPGSV,2,2,07,30,77,307,34,31,53,272,,12,21,114,49,,,,*44
$GPGSA,M,3,02,21,25,29,12,,,,,,,,2.7,1.9,2.0*3F
Trace #65 at position 16.000000
$GPZDA,103607.03,08,10,2011,00,00*6D
$GPRMC,103607.00,A,4611.960445,N,01258.219997,E,001.2,317.0,081011,0.2,E,A*30
$GPGGA,103608.00,4611.960672,N,01258.219763,E,1,05,1.9,141.31,M,46.25,M,,*66
$GPGLL,4611.960672,N,01258.219763,E,103608.00,A,A*6D
$GPVTG,324.6,T,324.8,M,000.8,N,001.5,K,A*21
$GPGSV,2,1,07,02,16,043,50,21,32,186,38,25,54,112,46,29,80,022,39*73
$GPGSV,2,2,07,30,77,307,34,31,53,272,,12,21,114,49,,,,*44
$GPGSA,M,3,02,21,25,29,12,,,,,,,,2.7,1.9,2.0*3F
Trace #66 at position 16.250000
$GPZDA,103607.03,08,10,2011,00,00*6D
$GPRMC,103607.00,A,4611.960445,N,01258.219997,E,001.2,317.0,081011,0.2,E,A*30
$GPGGA,103608.00,4611.960672,N,01258.219763,E,1,05,1.9,141.31,M,46.25,M,,*66
$GPGLL,4611.960672,N,01258.219763,E,103608.00,A,A*6D
$GPVTG,324.6,T,324.8,M,000.8,N,001.5,K,A*21
$GPGSV,2,1,07,02,16,043,50,21,32,186,38,25,54,112,46,29,80,022,39*73
$GPGSV,2,2,07,30,77,307,34,31,53,272,,12,21,114,49,,,,*44
$GPGSA,M,3,02,21,25,29,12,,,,,,,,2.7,1.9,2.0*3F
Trace #67 at position 16.500000
$GPZDA,103608.03,08,10,2011,00,00*62
$GPRMC,103608.00,A,4611.960672,N,01258.219763,E,000.8,324.6,081011,0.2,E,A*31
$GPGGA,103609.00,4611.960869,N,01258.219386,E,1,05,1.9,140.89,M,46.25,M,,*6E
$GPGLL,4611.960869,N,01258.219386,E,103609.00,A,A*67
$GPVTG,290.1,T,290.2,M,001.8,N,003.3,K,A*29
$GPGSV,2,1,07,02,16,043,48,21,32,186,,25,54,112,47,29,80,022,38*71
$GPGSV,2,2,07,30,77,307,30,31,53,272,,12,21,114,49,,,,*40
$GPGSA,M,3,02,21,25,29,12,,,,,,,,2.7,1.9,2.0*3F
Trace #68 at position 16.750000
$GPZDA,103608.03,08,10,2011,00,00*62
$GPRMC,103608.00,A,4611.960672,N,01258.219763,E,000.8,324.6,081011,0.2,E,A*31
$GPGGA,103609.00,4611.960869,N,01258.219386,E,1,05,1.9,140.89,M,46.25,M,,*6E
$GPGLL,4611.960869,N,01258.219386,E,103609.00,A,A*67
$GPVTG,290.1,T,290.2,M,001.8,N,003.3,K,A*29
$GPGSV,2,1,07,02,16,043,48,21,32,186,,25,54,112,47,29,80,022,38*71
$GPGSV,2,2,07,30,77,307,30,31,53,272,,12,21,114,49,,,,*40
$GPGSA,M,3,02,21,25,29,12,,,,,,,,2.7,1.9,2.0*3F
Trace #69 at position 17.000000
$GPZDA,103609.03,08,10,2011,00,00*63
$GPRMC,103609.00,A,4611.960869,N,01258.219386,E,001.8,290.1,081011,0.2,E,A*33
$GPGGA,103610.00,4611.961092,N,01258.218836,E,1,04,7.3,140.32,M,46.25,M,,*67
$GPGLL,4611.961092,N,01258.218836,E,103610.00,A,A*63
$GPVTG,330.6,T,330.8,M,001.4,N,002.6,K,A*2C
$GPGSV,2,1,07,02,16,043,47,21,32,186,36,25,54,112,46,29,80,023,38*7B
$GPGSV,2,2,07,30,77,307,31,31,53,272,,12,21,114,50,,,,*49
$GPGSA,M,3,02,25,29,12,,,,,,,,,9.8,7.3,6.6*36
Trace #70 at position 17.250000
$GPZDA,103609.03,08,10,2011,00,00*63
$GPRMC,103609.00,A,4611.960869,N,01258.219386,E,001.8,290.1,081011,0.2,E,A*33
$GPGGA,103610.00,4611.961092,N,01258.218836,E,1,04,7.3,140.32,M,46.25,M,,*67
$GPGLL,4611.961092,N,01258.218836,E,103610.00,A,A*63
$GPVTG,330.6,T,330.8,M,001.4,N,002.6,K,A*2C
$GPGSV,2,1,07,02,16,043,47,21,32,186,36,25,54,112,46,29,80,023,38*7B
$GPGSV,2,2,07,30,77,307,31,31,53,272,,12,21,114,50,,,,*49
$GPGSA,M,3,02,25,29,12,,,,,,,,,9.8,7.3,6.6*36
Trace #71 at position 17.500000
$GPZDA,103609.03,08,10,2011,00,00*63
$GPRMC,103609.00,A,4611.960869,N,01258.219386,E,001.8,290.1,081011,0.2,E,A*33
$GPGGA,103610.00,4611.961092,N,01258.218836,E,1,04,7.3,140.32,M,46.25,M,,*67
$GPGLL,4611.961092,N,01258.218836,E,103610.00,A,A*63
$GPVTG,330.6,T,330.8,M,001.4,N,002.6,K,A*2C
$GPGSV,2,1,07,02,16,043,47,21,32,186,36,25,54,112,46,29,80,023,38*7B
$GPGSV,2,2,07,30,77,307,31,31,53,272,,12,21,114,50,,,,*49
$GPGSA,M,3,02,25,29,12,,,,,,,,,9.8,7.3,6.6*36
Trace #72 at position 17.750000
$GPZDA,103610.03,08,10,2011,00,00*6B
$GPRMC,103610.00,A,4611.961092,N,01258.218836,E,001.4,330.6,081011,0.2,E,A*37
$GPGGA,103611.00,4611.961380,N,01258.218412,E,1,04,7.3,140.04,M,46.25,M,,*69
$GPGLL,4611.961380,N,01258.218412,E,103611.00,A,A*68
$GPVTG,310.0,T,310.1,M,001.6,N,003.0,K,A*26
$GPGSV,2,1,07,02,16,043,48,21,32,186,36,25,54,112,47,29,80,023,39*74
$GPGSV,2,2,07,30,77,307,32,31,53,272,,12,21,114,49,,,,*42
$GPGSA,M,3,02,25,29,12,,,,,,,,,9.8,7.3,6.6*36
Trace #73 at position 18.000000
$GPZDA,103610.03,08,10,2011,00,00*6B
$GPRMC,103610.00,A,4611.961092,N,01258.218836,E,001.4,330.6,081011,0.2,E,A*37
$GPGGA,103611.00,4611.961380,N,01258.218412,E,1,04,7.3,140.04,M,46.25,M,,*69
$GPGLL,4611.961380,N,01258.218412,E,103611.00,A,A*68
$GPVTG,310.0,T,310.1,M,001.6,N,003.0,K,A*26
$GPGSV,2,1,07,02,16,043,48,21,32,186,36,25,54,112,47,29,80,023,39*74
$GPGSV,2,2,07,30,77,307,32,31,53,272,,12,21,114,49,,,,*42
$GPGSA,M,3,02,25,29,12,,,,,,,,,9.8,7.3,6.6*36
Trace #74 at position 18.250000
$GPZDA,103611.03,08,10,2011,00,00*6A
$GPRMC,103611.00,A,4611.961380,N,01258.218412,E,001.6,310.0,081011,0.2,E,A*3A
$GPGGA,103612.00,4611.961614,N,01258.217941,E,1,04,7.3,139.68,M,46.25,M,,*62
$GPGLL,4611.961614,N,01258.217941,E,103612.00,A,A*67
$GPVTG,304.8,T,305.0,M,001.4,N,002.5,K,A*28
$GPGSV,2,1,07,02,16,043,47,21,32,186,36,25,54,112,47,29,80,023,40*75
$GPGSV,2,2,07,30,77,307,,31,53,272,,12,21,114,50,,,,*4B
$GPGSA,M,3,02,25,29,12,,,,,,,,,9.8,7.3,6.6*36
Trace #75 at position 18.500000
$GPZDA,103611.03,08,10,2011,00,00*6A
$GPRMC,103611.00,A,4611.961380,N,01258.218412,E,001.6,310.0,081011,0.2,E,A*3A
$GPGGA,103612.00,4611.961614,N,01258.217941,E,1,04,7.3,139.68,M,46.25,M,,*62
$GPGLL,4611.961614,N,01258.217941,E,103612.00,A,A*67
$GPVTG,304.8,T,305.0,M,001.4,N,002.5,K,A*28
$GPGSV,2,1,07,02,16,043,47,21,32,186,36,25,54,112,47,29,80,023,40*75
$GPGSV,2,2,07,30,77,307,,31,53,272,,12,21,114,50,,,,*4B
$GPGSA,M,3,02,25,29,12,,,,,,,,,9.8,7.3,6.6*36
Trace #76 at position 18.750000
$GPZDA,103612.03,08,10,2011,00,00*69
$GPRMC,103612.00,A,4611.961614,N,01258.217941,E,001.4,304.8,081011,0.2,E,A*3A
$GPGGA,103613.00,4611.961892,N,01258.217758,E,1,04,7.3,139.70,M,46.25,M,,*6C
$GPGLL,4611.961892,N,01258.217758,E,103613.00,A,A*60
$GPVTG,5.6,T,5.8,M,001.3,N,002.4,K,A*29
$GPGSV,2,1,07,02,16,043,48,21,32,186,35,25,54,112,47,29,80,023,38*76
$GPGSV,2,2,07,30,77,307,28,31,53,272,,12,21,114,49,,,,*49
$GPGSA,M,3,02,25,29,12,,,,,,,,,9.8,7.3,6.6*36
Trace #77 at position 19.000000
$GPZDA,103612.03,08,10,2011,00,00*69
$GPRMC,103612.00,A,4611.961614,N,01258.217941,E,001.4,304.8,081011,0.2,E,A*3A
$GPGGA,103613.00,4611.961892,N,01258.217758,E,1,04,7.3,139.70,M,46.25,M,,*6C
$GPGLL,4611.961892,N,01258.217758,E,103613.00,A,A*60
$GPVTG,5.6,T,5.8,M,001.3,N,002.4,K,A*29
$GPGSV,2,1,07,02,16,043,48,21,32,186,35,25,54,112,47,29,80,023,38*76
$GPGSV,2,2,07,30,77,307,28,31,53,272,,12,21,114,49,,,,*49
$GPGSA,M,3,02,25,29,12,,,,,,,,,9.8,7.3,6.6*36
Trace #78 at position 19.250000
$GPZDA,103612.03,08,10,2011,00,00*69
$GPRMC,103612.00,A,4611.961614,N,01258.217941,E,001.4,304.8,081011,0.2,E,A*3A
$GPGGA,103613.00,4611.961892,N,01258.217758,E,1,04,7.3,139.70,M,46.25,M,,*6C
$GPGLL,4611.961892,N,01258.217758,E,103613.00,A,A*60
$GPVTG,5.6,T,5.8,M,001.3,N,002.4,K,A*29
$GPGSV,2,1,07,02,16,043,48,21,32,186,35,25,54,112,47,29,80,023,38*76
$GPGSV,2,2,07,30,77,307,28,31,53,272,,12,21,114,49,,,,*49
$GPGSA,M,3,02,25,29,12,,,,,,,,,9.8,7.3,6.6*36
Trace #79 at position 19.500000
$GPZDA,103613.03,08,10,2011,00,00*68
$GPRMC,103613.00,A,4611.961892,N,01258.217758,E,001.3,5.6,081011,0.2,E,A*36
$GPGGA,103614.00,4611.962269,N,01258.217808,E,1,05,1.9,140.17,M,46.25,M,,*6E
$GPGLL,4611.962269,N,01258.217808,E,103614.00,A,A*60
$GPVTG,332.7,T,332.9,M,001.5,N,002.7,K,A*2C
$GPGSV,2,1,07,02,16,043,49,21,32,186,40,25,54,112,46,29,80,023,39*75
$GPGSV,2,2,07,30,77,307,31,31,53,272,,12,21,114,50,,,,*49
$GPGSA,M,3,02,21,25,29,12,,,,,,,,2.7,1.9,2.0*3F
Trace #80 at position 19.750000
$GPZDA,103613.03,08,10,2011,00,00*68
$GPRMC,103613.00,A,4611.961892,N,01258.217758,E,001.3,5.6,081011,0.2,E,A*36
$GPGGA,103614.00,4611.962269,N,01258.217808,E,1,05,1.9,140.17,M,46.25,M,,*6E
$GPGLL,4611.962269,N,01258.217808,E,103614.00,A,A*60
$GPVTG,332.7,T,332.9,M,001.5,N,002.7,K,A*2C
$GPGSV,2,1,07,02,16,043,49,21,32,186,40,25,54,112,46,29,80,023,39*75
$GPGSV,2,2,07,30,77,307,31,31,53,272,,12,21,114,50,,,,*49
$GPGSA,M,3,02,21,25,29,12,,,,,,,,2.7,1.9,2.0*3F
Trace #81 at position 20.000000
$GPZDA,103614.03,08,10,2011,00,00*6F
$GPRMC,103614.00,A,4611.962269,N,01258.217808,E,001.5,332.7,081011,0.2,E,A*36
$GPGGA,103615.00,4611.962663,N,01258.217975,E,1,05,1.9,140.68,M,46.25,M,,*62
$GPGLL,4611.962663,N,01258.217975,E,103615.00,A,A*64
$GPVTG,30.0,T,30.2,M,001.6,N,003.0,K,A*25
$GPGSV,2,1,07,02,16,043,49,21,32,186,37,25,54,112,47,29,80,023,39*74
$GPGSV,2,2,07,30,77,307,29,31,53,272,,12,21,114,49,,,,*48
$GPGSA,M,3,02,21,25,29,12,,,,,,,,2.7,1.9,2.0*3F
Trace #82 at position 20.250000
$GPZDA,103614.03,08,10,2011,00,00*6F
$GPRMC,103614.00,A,4611.962269,N,01258.217808,E,001.5,332.7,081011,0.2,E,A*36
$GPGGA,103615.00,4611.962663,N,01258.217975,E,1,05,1.9,140.68,M,46.25,M,,*62
$GPGLL,4611.962663,N,01258.217975,E,103615.00,A,A*64
$GPVTG,30.0,T,30.2,M,001.6,N,003.0,K,A*25
$GPGSV,2,1,07,02,16,043,49,21,32,186,37,25,54,112,47,29,80,023,39*74
$GPGSV,2,2,07,30,77,307,29,31,53,272,,12,21,114,49,,,,*48
$GPGSA,M,3,02,21,25,29,12,,,,,,,,2.7,1.9,2.0*3F
Trace #83 at position 20.500000
$GPZDA,103614.03,08,10,2011,00,00*6F
$GPRMC,103614.00,A,4611.962269,N,01258.217808,E,001.5,332.7,081011,0.2,E,A*36
$GPGGA,103615.00,4611.962663,N,01258.217975,E,1,05,1.9,140.68,M,46.25,M,,*62
$GPGLL,4611.962663,N,01258.217975,E,103615.00,A,A*64
$GPVTG,30.0,T,30.2,M,001.6,N,003.0,K,A*25
$GPGSV,2,1,07,02,16,043,49,21,32,186,37,25,54,112,47,29,80,023,39*74
$GPGSV,2,2,07,30,77,307,29,31,53,272,,12,21,114,49,,,,*48
$GPGSA,M,3,02,21,25,29,12,,,,,,,,2.7,1.9,2.0*3F
Trace #84 at position 20.750000
$GPZDA,103615.03,08,10,2011,00,00*6E
$GPRMC,103615.00,A,4611.962663,N,01258.217975,E,001.6,30.0,081011,0.2,E,A*07
$GPGGA,103616.00,4611.963113,N,01258.218240,E,1,05,1.9,141.14,M,46.25,M,,*68
$GPGLL,4611.963113,N,01258.218240,E,103616.00,A,A*64
$GPVTG,1.9,T,2.1,M,001.8,N,003.3,K,A*21
$GPGSV,2,1,07,02,16,043,48,21,32,186,36,25,54,112,47,29,80,023,38*75
$GPGSV,2,2,07,30,77,307,29,31,53,272,,12,21,114,50,,,,*40
$GPGSA,M,3,02,21,25,29,12,,,,,,,,2.7,1.9,2.0*3F
Trace #85 at position 21.000000
$GPZDA,103615.03,08,10,2011,00,00*6E
$GPRMC,103615.00,A,4611.962663,N,01258.217975,E,001.6,30.0,081011,0.2,E,A*07
$GPGGA,103616.00,4611.963113,N,01258.218240,E,1,05,1.9,141.14,M,46.25,M,,*68
$GPGLL,4611.963113,N,01258.218240,E,103616.00,A,A*64
$GPVTG,1.9,T,2.1,M,001.8,N,003.3,K,A*21
$GPGSV,2,1,07,02,16,043,48,21,32,186,36,25,54,112,47,29,80,023,38*75
$GPGSV,2,2,07,30,77,307,29,31,53,272,,12,21,114,50,,,,*40
$GPGSA,M,3,02,21,25,29,12,,,,,,,,2.7,1.9,2.0*3F
Trace #86 at position 21.250000
$GPZDA,103616.03,08,10,2011,00,00*6D
$GPRMC,103616.00,A,4611.963113,N,01258.218240,E,001.8,1.9,081011,0.2,E,A*32
$GPGGA,103617.00,4611.963515,N,01258.218310,E,1,05,1.9,141.30,M,46.25,M,,*69
$GPGLL,4611.963515,N,01258.218310,E,103617.00,A,A*63
$GPVTG,351.8,T,352.0,M,001.1,N,002.0,K,A*2A
$GPGSV,2,1,07,02,16,043,49,21,32,186,39,25,54,112,47,29,80,023,39*7A
$GPGSV,2,2,07,30,77,307,32,31,53,272,,12,21,114,49,,,,*42
$GPGSA,M,3,02,21,25,29,12,,,,,,,,2.7,1.9,2.0*3F
Trace #87 at position 21.500000
$GPZDA,103616.03,08,10,2011,00,00*6D
$GPRMC,103616.00,A,4611.963113,N,01258.218240,E,001.8,1.9,081011,0.2,E,A*32
$GPGGA,103617.00,4611.963515,N,01258.218310,E,1,05,1.9,141.30,M,46.25,M,,*69
$GPGLL,4611.963515,N,01258.218310,E,103617.00,A,A*63
$GPVTG,351.8,T,352.0,M,001.1,N,002.0,K,A*2A
$GPGSV,2,1,07,02,16,043,49,21,32,186,39,25,54,112,47,29,80,023,39*7A
$GPGSV,2,2,07,30,77,307,32,31,53,272,,12,21,114,49,,,,*42
$GPGSA,M,3,02,21,25,29,12,,,,,,,,2.7,1.9,2.0*3F
Trace #88 at position 21.750000
$GPZDA,103617.03,08,10,2011,00,00*6C
$GPRMC,103617.00,A,4611.963515,N,01258.218310,E,001.1,351.8,081011,0.2,E,A*3B
$GPGGA,103618.00,4611.963868,N,01258.218335,E,1,05,1.9,141.24,M,46.25,M,,*63
$GPGLL,4611.963868,N,01258.218335,E,103618.00,A,A*6C
$GPVTG,359.3,T,359.5,M,001.6,N,002.9,K,A*29
$GPGSV,2,1,07,02,16,043,49,21,32,186,39,25,54,112,46,29,80,023,38*7A
$GPGSV,2,2,07,30,77,307,,31,53,272,,12,21,114,50,,,,*4B
$GPGSA,M,3,02,21,25,29,12,,,,,,,,2.7,1.9,2.0*3F
Trace #89 at position 22.000000
$GPZDA,103617.03,08,10,2011,00,00*6C
$GPRMC,103617.00,A,4611.963515,N,01258.218310,E,001.1,351.8,081011,0.2,E,A*3B
$GPGGA,103618.00,4611.963868,N,01258.218335,E,1,05,1.9,141.24,M,46.25,M,,*63
$GPGLL,4611.963868,N,01258.218335,E,103618.00,A,A*6C
$GPVTG,359.3,T,359.5,M,001.6,N,002.9,K,A*29
$GPGSV,2,1,07,02,16,043,49,21,32,186,39,25,54,112,46,29,80,023,38*7A
$GPGSV,2,2,07,30,77,307,,31,53,272,,12,21,114,50,,,,*4B
$GPGSA,M,3,02,21,25,29,12,,,,,,,,2.7,1.9,2.0*3F
Trace #90 at position 22.250000
$GPZDA,103618.03,08,10,2011,00,00*63
$GPRMC,103618.00,A,4611.963868,N,01258.218335,E,001.6,359.3,081011,0.2,E,A*30
$GPGGA,103619.00,4611.964233,N,01258.218241,E,1,05,1.9,141.22,M,46.25,M,,*65
$GPGLL,4611.964233,N,01258.218241,E,103619.00,A,A*6C
$GPVTG,328.7,T,328.8,M,001.4,N,002.6,K,A*2D
$GPGSV,2,1,07,02,16,043,49,21,32,186,37,25,54,112,46,29,80,023,39*75
$GPGSV,2,2,07,30,77,307,,31,53,272,,12,21,114,50,,,,*4B
$GPGSA,M,3,02,21,25,29,12,,,,,,,,2.7,1.9,2.0*3F
Trace #91 at position 22.500000
$GPZDA,103618.03,08,10,2011,00,00*63
$GPRMC,103618.00,A,4611.963868,N,01258.218335,E,001.6,359.3,081011,0.2,E,A*30
$GPGGA,103619.00,4611.964233,N,01258.218241,E,1,05,1.9,141.22,M,46.25,M,,*65
$GPGLL,4611.964233,N,01258.218241,E,103619.00,A,A*6C
$GPVTG,328.7,T,328.8,M,001.4,N,002.6,K,A*2D
$GPGSV,2,1,07,02,16,043,49,21,32,186,37,25,54,112,46,29,80,023,39*75
$GPGSV,2,2,07,30,77,307,,31,53,272,,12,21,114,50,,,,*4B
$GPGSA,M,3,02,21,25,29,12,,,,,,,,2.7,1.9,2.0*3F
Trace #92 at position 22.750000
$GPZDA,103618.03,08,10,2011,00,00*63
$GPRMC,103618.00,A,4611.963868,N,01258.218335,E,001.6,359.3,081011,0.2,E,A*30
$GPGGA,103619.00,4611.964233,N,01258.218241,E,1,05,1.9,141.22,M,46.25,M,,*65
$GPGLL,4611.964233,N,01258.218241,E,103619.00,A,A*6C
$GPVTG,328.7,T,328.8,M,001.4,N,002.6,K,A*2D
$GPGSV,2,1,07,02,16,043,49,21,32,186,37,25,54,112,46,29,80,023,39*75
$GPGSV,2,2,07,30,77,307,,31,53,272,,12,21,114,50,,,,*4B
$GPGSA,M,3,02,21,25,29,12,,,,,,,,2.7,1.9,2.0*3F
Trace #93 at position 23.000000
$GPZDA,103619.03,08,10,2011,00,00*62
$GPRMC,103619.00,A,4611.964233,N,01258.218241,E,001.4,328.7,081011,0.2,E,A*30
$GPGGA,103620.00,4611.964477,N,01258.218140,E,1,05,1.9,141.25,M,46.25,M,,*6C
$GPGLL,4611.964477,N,01258.218140,E,103620.00,A,A*62
$GPVTG,1.2,T,1.4,M,000.7,N,001.2,K,A*21
$GPGSV,2,1,07,02,16,043,49,21,32,186,38,25,54,112,45,29,80,023,40*77
$GPGSV,2,2,07,30,77,307,,31,53,272,,12,21,114,50,,,,*4B
$GPGSA,M,3,02,21,25,29,12,,,,,,,,2.7,1.9,2.0*3F
Trace #94 at position 23.250000
$GPZDA,103619.03,08,10,2011,00,00*62
$GPRMC,103619.00,A,4611.964233,N,01258.218241,E,001.4,328.7,081011,0.2,E,A*30
$GPGGA,103620.00,4611.964477,N,01258.218140,E,1,05,1.9,141.25,M,46.25,M,,*6C
$GPGLL,4611.964477,N,01258.218140,E,103620.00,A,A*62
$GPVTG,1.2,T,1.4,M,000.7,N,001.2,K,A*21
$GPGSV,2,1,07,02,16,043,49,21,32,186,38,25,54,112,45,29,80,023,40*77
$GPGSV,2,2,07,30,77,307,,31,53,272,,12,21,114,50,,,,*4B
$GPGSA,M,3,02,21,25,29,12,,,,,,,,2.7,1.9,2.0*3F
Trace #95 at position 23.500000
$GPZDA,103620.03,08,10,2011,00,00*68
$GPRMC,103620.00,A,4611.964477,N,01258.218140,E,000.7,1.2,081011,0.2,E,A*31
$GPGGA,103621.00,4611.964698,N,01258.217954,E,1,05,1.9,141.27,M,46.25,M,,*6E
$GPGLL,4611.964698,N,01258.217954,E,103621.00,A,A*62
$GPVTG,311.9,T,312.0,M,001.5,N,002.8,K,A*27
$GPGSV,2,1,07,02,16,043,50,21,32,186,37,25,54,112,47,29,80,023,42*70
$GPGSV,2,2,07,30,77,307,,31,53,272,,12,21,114,50,,,,*4B
$GPGSA,M,3,02,21,25,29,12,,,,,,,,2.7,1.9,2.0*3F
Trace #96 at position 23.750000
$GPZDA,103620.03,08,10,2011,00,00*68
$GPRMC,103620.00,A,4611.964477,N,01258.218140,E,000.7,1.2,081011,0.2,E,A*31
$GPGGA,103621.00,4611.964698,N,01258.217954,E,1,05,1.9,141.27,M,46.25,M,,*6E
$GPGLL,4611.964698,N,01258.217954,E,103621.00,A,A*62
$GPVTG,311.9,T,312.0,M,001.5,N,002.8,K,A*27
$GPGSV,2,1,07,02,16,043,50,21,32,186,37,25,54,112,47,29,80,023,42*70
$GPGSV,2,2,07,30,77,307,,31,53,272,,12,21,114,50,,,,*4B
$GPGSA,M,3,02,21,25,29,12,,,,,,,,2.7,1.9,2.0*3F
Trace #97 at position 24.000000
$GPZDA,103621.03,08,10,2011,00,00*69
$GPRMC,103621.00,A,4611.964698,N,01258.217954,E,001.5,311.9,081011,0.2,E,A*3B
$GPGGA,103622.00,4611.964975,N,01258.217789,E,1,05,1.9,141.30,M,46.25,M,,*69
$GPGLL,4611.964975,N,01258.217789,E,103622.00,A,A*63
$GPVTG,6.8,T,6.9,M,001.1,N,002.0,K,A*20
$GPGSV,2,1,07,02,16,043,50,21,32,186,38,25,54,112,47,29,80,023,41*7C
$GPGSV,2,2,07,30,77,307,,31,53,272,,12,21,114,49,,,,*43
$GPGSA,M,3,02,21,25,29,12,,,,,,,,2.7,1.9,2.0*3F
Trace #98 at position 24.250000
$GPZDA,103621.03,08,10,2011,00,00*69
$GPRMC,103621.00,A,4611.964698,N,01258.217954,E,001.5,311.9,081011,0.2,E,A*3B
$GPGGA,103622.00,4611.964975,N,01258.217789,E,1,05,1.9,141.30,M,46.25,M,,*69
$GPGLL,4611.964975,N,01258.217789,E,103622.00,A,A*63
$GPVTG,6.8,T,6.9,M,001.1,N,002.0,K,A*20
$GPGSV,2,1,07,02,16,043,50,21,32,186,38,25,54,112,47,29,80,023,41*7C
$GPGSV,2,2,07,30,77,307,,31,53,272,,12,21,114,49,,,,*43
$GPGSA,M,3,02,21,25,29,12,,,,,,,,2.7,1.9,2.0*3F
Trace #99 at position 24.500000
$GPZDA,103622.03,08,10,2011,00,00*6A
$GPRMC,103622.00,A,4611.964975,N,01258.217789,E,001.1,6.8,081011,0.2,E,A*3A
$GPGGA,103623.00,4611.965192,N,01258.217679,E,1,05,1.9,141.36,M,46.25,M,,*60
$GPGLL,4611.965192,N,01258.217679,E,103623.00,A,A*6C
$GPVTG,301.7,T,301.8,M,000.9,N,001.7,K,A*23
$GPGSV,2,1,07,02,16,043,48,21,32,186,36,25,54,112,47,29,80,023,39*74
$GPGSV,2,2,07,30,77,307,,31,53,272,,12,21,114,49,,,,*43
$GPGSA,M,3,02,21,25,29,12,,,,,,,,2.7,1.9,2.0*3F
Trace #100 at position 24.750000
$GPZDA,103623.03,08,10,2011,00,00*6B
$GPRMC,103623.00,A,4611.965192,N,01258.217679,E,000.9,301.7,081011,0.2,E,A*37
$GPGGA,103624.00,4611.965378,N,01258.217495,E,1,05,1.9,141.38,M,46.25,M,,*6F
$GPGLL,4611.965378,N,01258.217495,E,103624.00,A,A*6D
$GPVTG,336.8,T,336.9,M,000.8,N,001.5,K,A*2E
$GPGSV,2,1,07,02,16,043,48,21,32,186,36,25,54,112,47,29,80,023,39*74
$GPGSV,2,2,07,30,77,307,32,31,53,272,,12,21,114,49,,,,*42
$GPGSA,M,3,02,21,25,29,12,,,,,,,,2.7,1.9,2.0*3F
Trace #101 at position 25.000000
$GPZDA,103627.03,08,10,2011,00,00*6F
$GPRMC,103627.00,A,4611.965885,N,01258.217517,E,000.0,174.6,081011,0.2,E,A*3F
$GPGGA,103628.00,4611.965867,N,01258.217543,E,1,05,1.9,141.00,M,46.25,M,,*67
$GPGLL,4611.965867,N,01258.217543,E,103628.00,A,A*6E
$GPVTG,83.3,T,83.5,M,000.1,N,000.1,K,A*25
$GPGSV,2,1,07,02,16,043,49,21,32,186,38,25,54,112,46,29,80,023,39*7A
$GPGSV,2,2,07,30,77,307,30,31,53,272,,12,21,114,50,,,,*48
$GPGSA,M,3,02,21,25,29,12,,,,,,,,2.7,1.9,2.0*3F
Trace #102 at position 25.250000
$GPZDA,103628.03,08,10,2011,00,00*60
$GPRMC,103628.00,A,4611.965867,N,01258.217543,E,000.1,83.3,081011,0.2,E,A*00
$GPGGA,103629.00,4611.965844,N,01258.217582,E,1,05,1.9,140.96,M,46.25,M,,*64
$GPGLL,4611.965844,N,01258.217582,E,103629.00,A,A*63
$GPVTG,135.0,T,135.2,M,000.1,N,000.2,K,A*22
$GPGSV,2,1,07,02,16,043,49,21,32,186,37,25,54,112,46,29,80,023,40*7B
$GPGSV,2,2,07,30,77,307,31,31,53,272,,12,21,114,50,,,,*49
$GPGSA,M,3,02,21,25,29,12,,,,,,,,2.7,1.9,2.0*3F
Trace #103 at position 25.500000
$GPZDA,103628.03,08,10,2011,00,00*60
$GPRMC,103628.00,A,4611.965867,N,01258.217543,E,000.1,83.3,081011,0.2,E,A*00
$GPGGA,103629.00,4611.965844,N,01258.217582,E,1,05,1.9,140.96,M,46.25,M,,*64
$GPGLL,4611.965844,N,01258.217582,E,103629.00,A,A*63
$GPVTG,135.0,T,135.2,M,000.1,N,000.2,K,A*22
$GPGSV,2,1,07,02,16,043,49,21,32,186,37,25,54,112,46,29,80,023,40*7B
$GPGSV,2,2,07,30,77,307,31,31,53,272,,12,21,114,50,,,,*49
$GPGSA,M,3,02,21,25,29,12,,,,,,,,2.7,1.9,2.0*3F
Trace #104 at position 25.750000
$GPZDA,103629.03,08,10,2011,00,00*61
$GPRMC,103629.00,A,4611.965844,N,01258.217582,E,000.1,135.0,081011,0.2,E,A*32
$GPGGA,103630.00,4611.965839,N,01258.217615,E,1,05,1.9,140.95,M,46.25,M,,*68
$GPGLL,4611.965839,N,01258.217615,E,103630.00,A,A*6C
$GPVTG,13.4,T,13.5,M,000.1,N,000.2,K,A*21
$GPGSV,2,1,07,02,16,043,48,21,32,186,38,25,54,112,46,29,80,023,40*75
$GPGSV,2,2,07,30,77,307,,31,53,272,,12,21,114,50,,,,*4B
$GPGSA,M,3,02,21,25,29,12,,,,,,,,2.7,1.9,2.0*3F
Trace #105 at position 26.000000
$GPZDA,103630.03,08,10,2011,00,00*69
$GPRMC,103630.00,A,4611.965839,N,01258.217615,E,000.1,13.4,081011,0.2,E,A*0C
$GPGGA,103631.00,4611.965886,N,01258.217476,E,1,05,1.9,140.78,M,46.25,M,,*69
$GPGLL,4611.965886,N,01258.217476,E,103631.00,A,A*6E
$GPVTG,283.0,T,283.2,M,000.7,N,001.3,K,A*24
$GPGSV,2,1,07,02,16,043,48,21,32,186,,25,54,112,47,29,80,023,40*7F
$GPGSV,2,2,07,30,77,307,,31,53,272,,12,21,114,50,,,,*4B
$GPGSA,M,3,02,21,25,29,12,,,,,,,,2.7,1.9,2.0*3F
Trace #106 at position 26.250000
$GPZDA,103630.03,08,10,2011,00,00*69
$GPRMC,103630.00,A,4611.965839,N,01258.217615,E,000.1,13.4,081011,0.2,E,A*0C
$GPGGA,103631.00,4611.965886,N,01258.217476,E,1,05,1.9,140.78,M,46.25,M,,*69
$GPGLL,4611.965886,N,01258.217476,E,103631.00,A,A*6E
$GPVTG,283.0,T,283.2,M,000.7,N,001.3,K,A*24
$GPGSV,2,1,07,02,16,043,48,21,32,186,,25,54,112,47,29,80,023,40*7F
$GPGSV,2,2,07,30,77,307,,31,53,272,,12,21,114,50,,,,*4B
$GPGSA,M,3,02,21,25,29,12,,,,,,,,2.7,1.9,2.0*3F
Trace #107 at position 26.500000
$GPZDA,103631.03,08,10,2011,00,00*68
$GPRMC,103631.00,A,4611.965886,N,01258.217476,E,000.7,283.0,081011,0.2,E,A*37
$GPGGA,103632.00,4611.966051,N,01258.217317,E,1,05,1.9,140.83,M,46.25,M,,*6F
$GPGLL,4611.966051,N,01258.217317,E,103632.00,A,A*6C
$GPVTG,2.6,T,2.8,M,001.0,N,001.8,K,A*25
$GPGSV,2,1,07,02,16,043,49,21,32,186,,25,54,112,47,29,80,023,40*7E
$GPGSV,2,2,07,30,77,307,32,31,53,272,,12,21,114,50,,,,*4A
$GPGSA,M,3,02,21,25,29,12,,,,,,,,2.7,1.9,2.0*3F
Trace #108 at position 26.750000
$GPZDA,103631.03,08,10,2011,00,00*68
$GPRMC,103631.00,A,4611.965886,N,01258.217476,E,000.7,283.0,081011,0.2,E,A*37
$GPGGA,103632.00,4611.966051,N,01258.217317,E,1,05,1.9,140.83,M,46.25,M,,*6F
$GPGLL,4611.966051,N,01258.217317,E,103632.00,A,A*6C
$GPVTG,2.6,T,2.8,M,001.0,N,001.8,K,A*25
$GPGSV,2,1,07,02,16,043,49,21,32,186,,25,54,112,47,29,80,023,40*7E
$GPGSV,2,2,07,30,77,307,32,31,53,272,,12,21,114,50,,,,*4A
$GPGSA,M,3,02,21,25,29,12,,,,,,,,2.7,1.9,2.0*3F
Trace #109 at position 27.000000
$GPZDA,103632.03,08,10,2011,00,00*6B
$GPRMC,103632.00,A,4611.966051,N,01258.217317,E,001.0,2.6,081011,0.2,E,A*3E
$GPGGA,103633.00,4611.966334,N,01258.217227,E,1,04,7.3,140.98,M,46.25,M,,*6B
$GPGLL,4611.966334,N,01258.217227,E,103633.00,A,A*6F
$GPVTG,4.9,T,5.1,M,001.3,N,002.3,K,A*29
$GPGSV,2,1,07,02,16,043,48,21,32,186,38,25,54,112,47,29,80,023,38*7B
$GPGSV,2,2,07,30,77,307,33,31,53,272,,12,21,114,50,,,,*4B
$GPGSA,M,3,02,25,29,12,,,,,,,,,9.9,7.3,6.7*36
Trace #110 at position 27.250000
$GPZDA,103632.03,08,10,2011,00,00*6B
$GPRMC,103632.00,A,4611.966051,N,01258.217317,E,001.0,2.6,081011,0.2,E,A*3E
$GPGGA,103633.00,4611.966334,N,01258.217227,E,1,04,7.3,140.98,M,46.25,M,,*6B
$GPGLL,4611.966334,N,01258.217227,E,103633.00,A,A*6F
$GPVTG,4.9,T,5.1,M,001.3,N,002.3,K,A*29
$GPGSV,2,1,07,02,16,043,48,21,32,186,38,25,54,112,47,29,80,023,38*7B
$GPGSV,2,2,07,30,77,307,33,31,53,272,,12,21,114,50,,,,*4B
$GPGSA,M,3,02,25,29,12,,,,,,,,,9.9,7.3,6.7*36
Trace #111 at position 27.500000
$GPZDA,103633.03,08,10,2011,00,00*6A
$GPRMC,103633.00,A,4611.966334,N,01258.217227,E,001.3,4.9,081011,0.2,E,A*37
$GPGGA,103634.00,4611.966637,N,01258.217143,E,1,05,1.9,140.73,M,46.25,M,,*63
$GPGLL,4611.966637,N,01258.217143,E,103634.00,A,A*6F
$GPVTG,329.2,T,329.3,M,001.1,N,002.1,K,A*21
$GPGSV,2,1,07,02,16,043,47,21,32,186,39,25,54,112,46,29,80,023,38*74
$GPGSV,2,2,07,30,77,307,31,31,53,272,,12,21,114,50,,,,*49
$GPGSA,M,3,02,21,25,29,12,,,,,,,,2.7,1.9,2.0*3F
Trace #112 at position 27.750000
$GPZDA,103633.03,08,10,2011,00,00*6A
$GPRMC,103633.00,A,4611.966334,N,01258.217227,E,001.3,4.9,081011,0.2,E,A*37
$GPGGA,103634.00,4611.966637,N,01258.217143,E,1,05,1.9,140.73,M,46.25,M,,*63
$GPGLL,4611.966637,N,01258.217143,E,103634.00,A,A*6F
$GPVTG,329.2,T,329.3,M,001.1,N,002.1,K,A*21
$GPGSV,2,1,07,02,16,043,47,21,32,186,39,25,54,112,46,29,80,023,38*74
$GPGSV,2,2,07,30,77,307,31,31,53,272,,12,21,114,50,,,,*49
$GPGSA,M,3,02,21,25,29,12,,,,,,,,2.7,1.9,2.0*3F
Trace #113 at position 28.000000
$GPZDA,103634.03,08,10,2011,00,00*6D
$GPRMC,103634.00,A,4611.966637,N,01258.217143,E,001.1,329.2,081011,0.2,E,A*32
$GPGGA,103635.00,4611.966887,N,01258.216948,E,1,05,1.9,140.45,M,46.25,M,,*60
$GPGLL,4611.966887,N,01258.216948,E,103635.00,A,A*69
$GPVTG,331.7,T,331.8,M,001.0,N,001.9,K,A*25
$GPGSV,2,1,07,02,16,043,49,21,32,186,37,25,54,112,44,29,80,023,38*76
$GPGSV,2,2,07,30,77,307,32,31,53,272,,12,21,114,50,,,,*4A
$GPGSA,M,3,02,21,25,29,12,,,,,,,,2.7,1.9,2.0*3F
Trace #114 at position 28.250000
$GPZDA,103634.03,08,10,2011,00,00*6D
$GPRMC,103634.00,A,4611.966637,N,01258.217143,E,001.1,329.2,081011,0.2,E,A*32
$GPGGA,103635.00,4611.966887,N,01258.216948,E,1,05,1.9,140.45,M,46.25,M,,*60
$GPGLL,4611.966887,N,01258.216948,E,103635.00,A,A*69
$GPVTG,331.7,T,331.8,M,001.0,N,001.9,K,A*25
$GPGSV,2,1,07,02,16,043,49,21,32,186,37,25,54,112,44,29,80,023,38*76
$GPGSV,2,2,07,30,77,307,32,31,53,272,,12,21,114,50,,,,*4A
$GPGSA,M,3,02,21,25,29,12,,,,,,,,2.7,1.9,2.0*3F
Trace #115 at position 28.500000
$GPZDA,103634.03,08,10,2011,00,00*6D
$GPRMC,103634.00,A,4611.966637,N,01258.217143,E,001.1,329.2,081011,0.2,E,A*32
$GPGGA,103635.00,4611.966887,N,01258.216948,E,1,05,1.9,140.45,M,46.25,M,,*60
$GPGLL,4611.966887,N,01258.216948,E,103635.00,A,A*69
$GPVTG,331.7,T,331.8,M,001.0,N,001.9,K,A*25
$GPGSV,2,1,07,02,16,043,49,21,32,186,37,25,54,112,44,29,80,023,38*76
$GPGSV,2,2,07,30,77,307,32,31,53,272,,12,21,114,50,,,,*4A
$GPGSA,M,3,02,21,25,29,12,,,,,,,,2.7,1.9,2.0*3F
Trace #116 at position 28.750000
$GPZDA,103635.03,08,10,2011,00,00*6C
$GPRMC,103635.00,A,4611.966887,N,01258.216948,E,001.0,331.7,081011,0.2,E,A*39
$GPGGA,103636.00,4611.967187,N,01258.216889,E,1,05,1.9,140.49,M,46.25,M,,*6B
$GPGLL,4611.967187,N,01258.216889,E,103636.00,A,A*6E
$GPVTG,4.3,T,4.5,M,001.3,N,002.4,K,A*21
$GPGSV,2,1,07,02,16,043,47,21,32,186,38,25,54,112,45,29,80,023,39*77
$GPGSV,2,2,07,30,77,307,32,31,53,272,,12,21,114,49,,,,*42
$GPGSA,M,3,02,21,25,29,12,,,,,,,,2.7,1.9,2.0*3F
Trace #117 at position 29.000000
$GPZDA,103635.03,08,10,2011,00,00*6C
$GPRMC,103635.00,A,4611.966887,N,01258.216948,E,001.0,331.7,081011,0.2,E,A*39
$GPGGA,103636.00,4611.967187,N,01258.216889,E,1,05,1.9,140.49,M,46.25,M,,*6B
$GPGLL,4611.967187,N,01258.216889,E,103636.00,A,A*6E
$GPVTG,4.3,T,4.5,M,001.3,N,002.4,K,A*21
$GPGSV,2,1,07,02,16,043,47,21,32,186,38,25,54,112,45,29,80,023,39*77
$GPGSV,2,2,07,30,77,307,32,31,53,272,,12,21,114,49,,,,*42
$GPGSA,M,3,02,21,25,29,12,,,,,,,,2.7,1.9,2.0*3F
Trace #118 at position 29.250000
$GPZDA,103636.03,08,10,2011,00,00*6F
$GPRMC,103636.00,A,4611.967187,N,01258.216889,E,001.3,4.3,081011,0.2,E,A*3C
$GPGGA,103637.00,4611.967462,N,01258.217141,E,1,05,1.9,140.07,M,46.25,M,,*62
$GPGLL,4611.967462,N,01258.217141,E,103637.00,A,A*6D
$GPVTG,60.3,T,60.5,M,001.5,N,002.8,K,A*2B
$GPGSV,2,1,07,02,16,043,48,21,32,186,39,25,54,112,46,29,80,023,39*7A
$GPGSV,2,2,07,30,77,307,,31,53,272,,12,21,114,49,,,,*43
$GPGSA,M,3,02,21,25,29,12,,,,,,,,2.7,1.9,2.0*3F
Trace #119 at position 29.500000
$GPZDA,103636.03,08,10,2011,00,00*6F
$GPRMC,103636.00,A,4611.967187,N,01258.216889,E,001.3,4.3,081011,0.2,E,A*3C
$GPGGA,103637.00,4611.967462,N,01258.217141,E,1,05,1.9,140.07,M,46.25,M,,*62
$GPGLL,4611.967462,N,01258.217141,E,103637.00,A,A*6D
$GPVTG,60.3,T,60.5,M,001.5,N,002.8,K,A*2B
$GPGSV,2,1,07,02,16,043,48,21,32,186,39,25,54,112,46,29,80,023,39*7A
$GPGSV,2,2,07,30,77,307,,31,53,272,,12,21,114,49,,,,*43
$GPGSA,M,3,02,21,25,29,12,,,,,,,,2.7,1.9,2.0*3F
Trace #120 at position 29.750000
$GPZDA,103636.03,08,10,2011,00,00*6F
$GPRMC,103636.00,A,4611.967187,N,01258.216889,E,001.3,4.3,081011,0.2,E,A*3C
$GPGGA,103637.00,4611.967462,N,01258.217141,E,1,05,1.9,140.07,M,46.25,M,,*62
$GPGLL,4611.967462,N,01258.217141,E,103637.00,A,A*6D
$GPVTG,60.3,T,60.5,M,001.5,N,002.8,K,A*2B
$GPGSV,2,1,07,02,16,043,48,21,32,186,39,25,54,112,46,29,80,023,39*7A
$GPGSV,2,2,07,30,77,307,,31,53,272,,12,21,114,49,,,,*43
$GPGSA,M,3,02,21,25,29,12,,,,,,,,2.7,1.9,2.0*3F
Trace #121 at position 30.000000
$GPZDA,103637.03,08,10,2011,00,00*6E
$GPRMC,103637.00,A,4611.967462,N,01258.217141,E,001.5,60.3,081011,0.2,E,A*0B
