Trace #1 at position 0.000000
$GPZDA,083708.04,08,10,20112,E,A*34
$GPGGA,083709.00,4611.950837,N,01258.217422,E,1,06,1.5,139.56,M,46.25,M,,*6A
$GPGLL,4611.950837,N,01258.217422,E,083709.00,A,A*60
$GPVTG,323.2,T,323.3,M,000.1,N,000.2,K,A*21
$GPGSV,3,1,09,04,18,045,40,02,37,091,46,09,29,148,44,12,65,063,45*7D
$GPGSV,3,2,09,14,33,263,33,25,69,309,38,29,42,218,47,30,26,285,*77
$GPGSV,3,3,09,31,16,314,,,,,,,,,,,,,*43
$GPGSA,M,3,04,02,09,12,25,29,,,,,,,2.7,1.5,2.3*3E
Trace #2 at position 0.250000
$GPZDA,083713.04,08,10,2011,00,00*67
$GPRMC,083713.00,A,4611.950804,N,01258.217456,E,000.0,153.8,081011,$GPGGA,083714.00,4611.950796,N,01258.217466,E,1,06,1.5,139.64,M,46.25,M,,*63
$GPGLL,4611.950796,N,01258.217466,E,083714.00,A,A*68
$GPVTG,69.8,T,69.9,M,000.0,N,000.0,K,A*22
$GPGSV,3,1,09,04,18,045,39,02,37,091,47,09,29,148,43,12,65,063,46*76
$GPGSV,3,2,09,14,33,263,36,25,69,309,41,29,42,218,47,30,26,285,*7C
$GPGSV,3,3,09,31,17,314,,,,,,,,,,,,,*42
$GPGSA,M,3,04,02,09,12,25,29,,,,,,,2.7,1.5,2.3*3E
Trace #3 at position 0.500000
$GPZDA,083714.04,08,10,2011,00,00*60
$GPRMC,083714.00,A,4611.950796,N,01258.217466,E,000.0,69.8,081011,0.206,1.5,139.67,M,46.25,M,,*61
$GPGLL,4611.950797,N,01258.217467,E,083715.00,A,A*69
$GPVTG,327.5,T,327.6,M,000.0,N,000.1,K,A*21
$GPGSV,3,1,09,04,18,045,40,02,37,091,47,09,29,148,43,12,65,063,46*78
$GPGSV,3,2,09,14,33,263,36,25,69,309,40,29,42,218,47,30,26,285,*7D
$GPGSV,3,3,09,31,17,314,,,,,,,,,,,,,*42
$GPGSA,M,3,04,02,09,12,25,29,,,,,,,2.7,1.5,2.3*3E
Trace #4 at position 0.750000
$GPZDA,083715.04,08,10,2011,00,00*61
$GPRMC,083715.00,A,4611.950797,N,01258.217467,E,000.0,327.5,081011,0.2,E,A*3D
$GPGGA,083716.00,4611.950798,N,01258GSV,3,1,09,04,18,045,41,02,37,091,47,09,29,148,43,12,65,063,46*79
$GPGSV,3,2,09,14,33,263,35,25,69,309,40,29,42,218,47,30,26,285,*7E
$GPGSV,3,3,09,31,17,314,,,,,,,,,,,,,*42
$GPGSA,M,3,04,02,09,12,25,29,,,,,,,2.7,1.5,2.3*3E
Trace #5 at position 1.000000
$GPZDA,083716.04,08,10,2011,00,00*62
$GPRMC,083716.00,A,4611.950798,N,01258.217466,E,000.0,209.1,081011,0.2,E,A*39
$GPGGA,083717.00,4611.950793,N,01258.217472,E,1,06,1.5,139.65,M,46.25,M,,*61
$GPGLL,4611.950793,N,01258.217472,E,083717.00,A,A*6B
$GPVTG,110.0,T,110.2,M,000.0,N,000.0,,,,,,,*42
$GPGSA,M,3,04,02,09,12,25,29,,,,,,,2.7,1.5,2.3*3E
Trace #6 at position 1.250000
$GPZDA,083716.04,08,10,2011,00,00*62
$GPRMC,083716.00,A,4611.950798,N,01258.217466,E,000.0,209.1,081011,0.2,E,A*39
$GPGGA,083717.00,4611.950793,N,01258.217472,E,1,06,1.5,139.65,M,46.25,M,,*61
$GPGLL,4611.950793,N,01258.217472,E,083717.00,A,A*6B
$GPVTG,110.0,T,110.2,M,000.0,N,000.0,,,,,,,*42
$GPGSA,M,3,04,02,09,12,25,29,,,,,,,2.7,1.5,2.3*3E
Trace #7 at position 1.500000
$GPZDA,083717.04,08,10,2011,00,00*63
$GPRMC,083717.00,A,4611.950793,N,01258.217472,E,000.0,110.0,081011,0.2,E,A*3C
$GPGGA,083718.00,4611.950790,N,01258.217466,E,1,06,1.5,139.60,M,46.25,M,,*6D
$GPGLL,4611.950790,N,01258.217466,E,083718.00,A,A*62
$GPVTG,277.7,T,277.8,M,000.1,N,000.1,K,A*2C
$GPGSV,3,1,09,04,18,045,41,02,37,091,46,09,28,148,43,12,65,063,44*7B
$GPGSV,3,2,09,14,33,263,38,25,69,309,44,29,42,218,45,30,26,285,*75
$GPGSV,3,3,09,31,.5,2.3*3E
$GPZDA,083718.04,08,10,2011,00,00*6C
$GPRMC,083718.00,A,4611.950790,N,01258.217466,E,000.1,277.7,081011,0.2,E,A*31
$GPGGA,083719.00,4611.950805,N,01258.217455,E,1,06,1.5,139.59,M,46.25,M,,*65
$GPGLL,4611.950805,N,01258.217455,E,083719.00,A,A*60
$GPVTG,357.8,T,358.0,M,000.1,N,000.2,K,A*27
$GPGSV,3,1,09,04,18,045,40,02,37,091,46,09,28,148,44,12,65,063,45*7C
$GPGSV,3,2,09,14,33,263,38,25,69,309,44,29,42,218,46,30,26,285,*76
$GPGSV,3,3,09,31,17,314,,,,,,,,,,,,,*42
$GPGSA,M,3,04,02,09,12,25,294611.950805,N,01258.217455,E,000.1,357.8,081011,0.2,E,A*3F
Trace #8 at position 1.750000
$GPGGA,083720.00,4611.950852,N,01258.217419,E,1,06,1.5,139.66,M,46.25,M,,*69
$GPGLL,4611.950852,N,01258.217419,E,083720.00,A,A*60
$GPVTG,312.7,T,312.9,M,000.3,N,000.5,K,A*2B
$GPGSV,3,1,09,04,18,045,40,02,37,091,46,09,28,148,45,12,65,063,45*7D
$GPGSV,3,2,09,14,33,263,38,25,69,309,44,29,42,218,45,30,26,285,*75
$GPGSV,3,3,09,31,17,314,,,,,,,,,,,,,*42
$GPGSA,M,3,04,02,09,12,25,29,,,,,,,2.7,1.5,2.3*3E
Trace #9 at position 2.000000
$GPZDA,083720.04,08,10,2011,00,00*67
$GPRMC,$GPGGA,083721.00,4611.950938,N,01258.217336,E,1,06,1.5,139.69,M,46.25,M,,*60
$GPGLL,4611.950938,N,01258.217336,E,083721.00,A,A*66
$GPVTG,324.6,T,324.8,M,000.5,N,000.9,K,A*21
$GPGSV,3,1,09,04,18,045,38,02,37,091,46,09,28,148,43,12,65,063,45*74
$GPGSV,3,2,09,14,33,263,35,25,69,309,43,29,42,218,45,30,26,285,*7F
$GPGSV,3,3,09,31,17,314,,,,,,,,,,,,,*42
$GPGSA,M,3,04,02,09,12,25,29,,,,,,,2.7,1.5,2.3*3E
Trace #10 at position 2.250000
$GPZDA,083721.04,08,10,2011,00,00*66
$GPRMC,083721.00,A,4611.950938,N,01258.217336,E,000.5,324.6,081011,$GPGGA,083722.00,4611.951069,N,01258.217237,E,1,06,1.5,139.65,M,46.25,M,,*63
$GPGLL,4611.951069,N,01258.217237,E,083722.00,A,A*69
$GPVTG,329.5,T,329.7,M,000.6,N,001.1,K,A*27
$GPGSV,3,1,09,04,18,045,39,02,37,091,46,09,28,148,44,12,65,063,45*72
$GPGSV,3,2,09,14,33,263,37,25,69,309,43,29,42,218,45,30,26,285,*7D
$GPGSV,3,3,09,31,17,314,33,,,,,,,,,,,,*42
$GPGSA,M,3,04,02,09,12,25,29,,,,,,,2.7,1.5,2.3*3E
Trace #11 at position 2.500000
$GPZDA,083722.04,08,10,2011,00,00*65
$GPRMC,083722.00,A,4611.951069,N,01258.217237,E,000.6,329.5,08101$GPGGA,083723.00,4611.951235,N,01258.217270,E,1,06,1.5,139.59,M,46.25,M,,*65
$GPGLL,4611.951235,N,01258.217270,E,083723.00,A,A*60
$GPVTG,32.3,T,32.4,M,000.8,N,001.5,K,A*28
$GPGSV,3,1,09,04,18,045,39,02,37,091,46,09,28,148,43,12,65,063,44*74
$GPGSV,3,2,09,14,33,263,38,25,69,309,44,29,42,218,46,30,26,285,36*73
$GPGSV,3,3,09,31,17,314,34,,,,,,,,,,,,*45
$GPGSA,M,3,04,02,09,12,25,29,,,,,,,2.7,1.5,2.3*3E
Trace #12 at position 2.750000
$GPZDA,083723.04,08,10,2011,00,00*64
$GPRMC,083723.00,A,4611.951235,N,01258.217270,E,000.8,32.3,081011$GPGGA,083724.00,4611.951401,N,01258.217343,E,1,06,1.5,139.53,M,46.25,M,,*68
$GPGLL,4611.951401,N,01258.217343,E,083724.00,A,A*67
$GPVTG,358.9,T,359.0,M,000.5,N,001.0,K,A*2F
$GPGSV,3,1,09,04,18,045,38,02,37,091,46,09,28,148,45,12,65,063,45*72
$GPGSV,3,2,09,14,33,263,36,25,69,309,44,29,42,218,46,30,26,285,32*79
$GPGSV,3,3,09,31,17,314,34,,,,,,,,,,,,*45
$GPGSA,M,3,04,02,09,12,25,29,,,,,,,2.7,1.5,2.3*3E
Trace #13 at position 3.000000
$GPZDA,083723.04,08,10,2011,00,00*64
$GPRMC,083723.00,A,4611.951235,N,01258.217270,E,000.8,32.3,081011$GPGGA,083724.00,4611.951401,N,01258.217343,E,1,06,1.5,139.53,M,46.25,M,,*68
$GPGLL,4611.951401,N,01258.217343,E,083724.00,A,A*67
$GPVTG,358.9,T,359.0,M,000.5,N,001.0,K,A*2F
$GPGSV,3,1,09,04,18,045,38,02,37,091,46,09,28,148,45,12,65,063,45*72
$GPGSV,3,2,09,14,33,263,36,25,69,309,44,29,42,218,46,30,26,285,32*79
$GPGSV,3,3,09,31,17,314,34,,,,,,,,,,,,*45
$GPGSA,M,3,04,02,09,12,25,29,,,,,,,2.7,1.5,2.3*3E
Trace #14 at position 3.250000
$GPZDA,083724.04,08,10,2011,00,00*63
$GPRMC,083724.00,A,4611.951401,N,01258.217343,E,000.5,358.9,081$GPGGA,083725.00,4611.951581,N,01258.217297,E,1,06,1.5,139.46,M,46.25,M,,*6C
$GPGLL,4611.951581,N,01258.217297,E,083725.00,A,A*67
$GPVTG,350.5,T,350.7,M,000.8,N,001.5,K,A*2D
$GPGSV,3,1,09,04,18,045,36,02,37,091,48,09,28,148,44,12,65,063,46*70
$GPGSV,3,2,09,14,33,263,34,25,69,309,43,29,42,218,45,30,26,285,*7E
$GPGSV,3,3,09,31,17,314,32,,,,,,,,,,,,*43
$GPGSA,M,3,04,02,09,12,25,29,,,,,,,2.7,1.5,2.3*3E
Trace #15 at position 3.500000
$GPZDA,083725.04,08,10,2011,00,00*62
$GPRMC,083725.00,A,4611.951581,N,01258.217297,E,000.8,350.5,08101,4611.951783,N,01258.217201,E,1,06,1.5,139.41,M,46.25,M,,*67
$GPGLL,4611.951783,N,01258.217201,E,083726.00,A,A*6B
$GPVTG,339.7,T,339.9,M,000.8,N,001.5,K,A*21
$GPGSV,3,1,09,04,18,045,38,02,37,091,47,09,28,148,45,12,65,063,46*70
$GPGSV,3,2,09,14,33,263,34,25,69,310,43,29,42,218,45,30,26,285,31*74
$GPGSV,3,3,09,31,17,314,31,,,,,,,,,,,,*40
$GPGSA,M,3,04,02,09,12,25,29,,,,,,,2.7,1.5,2.3*3E
Trace #16 at position 3.750000
$GPZDA,083726.04,08,10,2011,00,00*61
$GPRMC,083726.00,A,4611.951783,N,01258.217201,E,000.8,339.7,081011,0.2,E,A*3A
46.25,M,,*6E
$GPGLL,4611.951903,N,01258.217079,E,083727.00,A,A*61
$GPVTG,306.0,T,306.1,M,000.4,N,000.7,K,A*21
$GPGSV,3,1,09,04,18,045,37,02,37,091,47,09,28,148,45,12,65,063,46*7F
$GPGSV,3,2,09,14,33,263,37,25,69,310,44,29,42,218,45,30,26,285,34*75
$GPGSV,3,3,09,31,17,314,,,,,,,,,,,,,*42
$GPGSA,M,3,04,02,09,12,25,29,,,,,,,2.7,1.5,2.3*3E
Trace #17 at position 4.000000
$GPZDA,083727.04,08,10,2011,00,00*60
$GPRMC,083727.00,A,4611.951903,N,01258.217079,E,000.4,306.0,081011,0.2,E,A*37
$GPGGA,083728.00,4611.952014,N,01258.216971,E,1,06GPGSV,3,1,09,04,18,045,39,02,37,091,47,09,28,148,43,12,65,063,45*74
$GPGSV,3,2,09,14,33,263,37,25,69,310,44,29,42,218,46,30,26,285,32*70
$GPGSV,3,3,09,31,17,314,33,,,,,,,,,,,,*42
$GPGSA,M,3,04,02,09,12,25,29,,,,,,,2.7,1.5,2.3*3E
Trace #18 at position 4.250000
$GPZDA,083727.04,08,10,2011,00,00*60
$GPRMC,083727.00,A,4611.951903,N,01258.217079,E,000.4,306.0,081011,0.2,E,A*37
$GPGGA,083728.00,4611.952014,N,01258.216971,E,1,06GPGSV,3,1,09,04,18,045,39,02,37,091,47,09,28,148,43,12,65,063,45*74
$GPGSV,3,2,09,14,33,263,37,25,69,310,44,29,42,218,46,30,26,285,32*70
$GPGSV,3,3,09,31,17,314,33,,,,,,,,,,,,*42
$GPGSA,M,3,04,02,09,12,25,29,,,,,,,2.7,1.5,2.3*3E
Trace #19 at position 4.500000
$GPZDA,083728.04,08,10,2011,00,00*6F
$GPRMC,083728.00,A,4611.952014,N,01258.216971,E,000.7,339.3,081011,0.2,E,A*38
$GPGGA,083729.00,4611.952165,N,01258.216935,E,1,06,1.5,139.48,M,46.25,M,,*61
$GPGLL,4611.952165,N,01258.216935,E,083729.00,A,A*64
$GPVTG,3.8,T,4.0,M,000.6,N,001
$GPGSV,3,2,09,14,33,263,38,25,69,310,42,29,42,218,45,30,26,285,29*70
$GPGSV,3,3,09,31,17,314,30,,,,,,,,,,,,*41
$GPGSA,M,3,04,02,09,12,25,29,,,,,,,2.7,1.5,2.3*3E
Trace #20 at position 4.750000
$GPZDA,083728.04,08,10,2011,00,00*6F
$GPRMC,083728.00,A,4611.952014,N,01258.216971,E,000.7,339.3,081011,0.2,E,A*38
$GPGGA,083729.00,4611.952165,N,01258.216935,E,1,06,1.5,139.48,M,46.25,M,,*61
$GPGLL,4611.952165,N,01258.216935,E,083729.00,A,A*64
$GPVTG,3.8,T,4.0,M,000.6,N,001
$GPGSV,3,2,09,14,33,263,38,25,69,310,42,29,42,218,45,30,26,285,29*70
$GPGSV,3,3,09,31,17,314,30,,,,,,,,,,,,*41
$GPGSA,M,3,04,02,09,12,25,29,,,,,,,2.7,1.5,2.3*3E
Trace #21 at position 5.000000
$GPZDA,083728.04,08,10,2011,00,00*6F
$GPRMC,083728.00,A,4611.952014,N,01258.216971,E,000.7,339.3,081011,0.2,E,A*38
$GPGGA,083729.00,4611.952165,N,01258.216935,E,1,06,1.5,139.48,M,46.25,M,,*61
$GPGLL,4611.952165,N,01258.216935,E,083729.00,A,A*64
$GPVTG,3.8,T,4.0,M,000.6,N,001
$GPGSV,3,2,09,14,33,263,38,25,69,310,42,29,42,218,45,30,26,285,29*70
$GPGSV,3,3,09,31,17,314,30,,,,,,,,,,,,*41
$GPGSA,M,3,04,02,09,12,25,29,,,,,,,2.7,1.5,2.3*3E
Trace #22 at position 5.250000
$GPZDA,083729.04,08,10,2011,00,00*6E
$GPRMC,083729.00,A,4611.952165,N,01258.216935,E,000.6,3.8,081011,0.2,E,A*3E
$GPGGA,083730.00,4611.952319,N,01258.216906,E,1,06,1.5,139.40,M,46.25,M,,*68
$GPGLL,4611.952319,N,01258.216906,E,083730.00,A,A*65
$GPVTG,345.3,T,345.5,M,000.7,N,001.3,K,A*20
$GPGSV,3,1,09,04,18,045,39,02,37,091,49,09,28,148,44,12E
$GPZDA,083730.04,08,10,2011,00,00*66
$GPRMC,083730.00,A,4611.952319,N,01258.216906,E,000.7,345.3,081011,0.2,E,A*34
$GPGGA,083731.00,4611.952465,N,01258.216911,E,1,06,1.5,139.39,M,46.25,M,,*6D
$GPGLL,4611.952465,N,01258.216911,E,083731.00,A,A*6E
$GPVTG,29.8,T,30.0,M,000.5,N,001.0,K,A*27
$GPGSV,3,1,09,04,18,045,41,02,37,091,47,09,28,148,44,12,65,063,44*7D
$GPGSV,3,2,09,14,33,263,36,25,69,310,45,29,42,218,44,30,26,285,*73
$GPGSV,3,3,09,31,17,314,29,,,,,,,,,,,,*49
$GPGSA,M,3,04,02,09,12,25,29,,,,,,,231.00,A,4611.952465,N,01258.216911,E,000.5,29.8,081011,0.2,E,A*0F
Trace #23 at position 5.500000
$GPGGA,083732.00,4611.952590,N,01258.216900,E,1,06,1.5,139.44,M,46.25,M,,*6F
$GPGLL,4611.952590,N,01258.216900,E,083732.00,A,A*66
$GPVTG,337.9,T,338.0,M,000.6,N,001.1,K,A*23
$GPGSV,3,1,09,04,18,045,42,02,37,091,49,09,28,148,45,12,65,063,44*71
$GPGSV,3,2,09,14,33,263,37,25,69,310,44,29,42,218,44,30,26,285,*73
$GPGSV,3,3,09,31,17,314,29,,,,,,,,,,,,*49
$GPGSA,M,3,04,02,09,12,25,29,,,,,,,2.7,1.5,2.3*3E
Trace #24 at position 5.750000
$GPGGA,083732.00,4611.952590,N,01258.216900,E,1,06,1.5,139.44,M,46.25,M,,*6F
$GPGLL,4611.952590,N,01258.216900,E,083732.00,A,A*66
$GPVTG,337.9,T,338.0,M,000.6,N,001.1,K,A*23
$GPGSV,3,1,09,04,18,045,42,02,37,091,49,09,28,148,45,12,65,063,44*71
$GPGSV,3,2,09,14,33,263,37,25,69,310,44,29,42,218,44,30,26,285,*73
$GPGSV,3,3,09,31,17,314,29,,,,,,,,,,,,*49
$GPGSA,M,3,04,02,09,12,25,29,,,,,,,2.7,1.5,2.3*3E
Trace #25 at position 6.000000
$GPZDA,083732.04,08,10,2011,00,00*64$GPGGA,083733.00,4611.952725,N,01258.216846,E,1,06,1.5,139.46,M,46.25,M,,*63
$GPGLL,4611.952725,N,01258.216846,E,083733.00,A,A*68
$GPVTG,6.1,T,6.3,M,000.5,N,000.9,K,A*2D
$GPGSV,3,1,09,04,18,045,42,02,37,091,48,09,28,148,44,12,65,063,45*70
$GPGSV,3,2,09,14,33,263,37,25,69,310,44,29,42,218,44,30,26,285,*73
$GPGSV,3,3,09,31,17,314,29,,,,,,,,,,,,*49
$GPGSA,M,3,04,02,09,12,25,29,,,,,,,2.7,1.5,2.3*3E
Trace #26 at position 6.250000
$GPZDA,083733.04,08,10,2011,00,00*65
$GPRMC,083733.00,A,4611.952725,N,01258.216846,E,000.5,6.1,081011,0.2,$GPGGA,083734.00,4611.952872,N,01258.216780,E,1,06,1.5,139.47,M,46.25,M,,*6D
$GPGLL,4611.952872,N,01258.216780,E,083734.00,A,A*67
$GPVTG,337.0,T,337.1,M,000.6,N,001.2,K,A*27
$GPGSV,3,1,09,04,18,045,42,02,37,091,49,09,28,148,45,12,65,063,45*70
$GPGSV,3,2,09,14,33,263,37,25,69,310,45,29,42,218,44,30,26,285,*72
$GPGSV,3,3,09,31,17,314,28,,,,,,,,,,,,*48
$GPGSA,M,3,04,02,09,12,25,29,,,,,,,2.7,1.5,2.3*3E
Trace #27 at position 6.500000
$GPZDA,083733.04,08,10,2011,00,00*65
$GPRMC,083733.00,A,4611.952725,N,01258.216846,E,000.5,6.1,081011,0.2,$GPGGA,083734.00,4611.952872,N,01258.216780,E,1,06,1.5,139.47,M,46.25,M,,*6D
$GPGLL,4611.952872,N,01258.216780,E,083734.00,A,A*67
$GPVTG,337.0,T,337.1,M,000.6,N,001.2,K,A*27
$GPGSV,3,1,09,04,18,045,42,02,37,091,49,09,28,148,45,12,65,063,45*70
$GPGSV,3,2,09,14,33,263,37,25,69,310,45,29,42,218,44,30,26,285,*72
$GPGSV,3,3,09,31,17,314,28,,,,,,,,,,,,*48
$GPGSA,M,3,04,02,09,12,25,29,,,,,,,2.7,1.5,2.3*3E
Trace #28 at position 6.750000
$GPZDA,083734.04,08,10,2011,00,00*62
$GPRMC,083734.00,A,4611.952872,N,01258.216780,E,000.6,337.0,08101$GPGGA,083735.00,4611.953037,N,01258.216597,E,1,06,1.5,139.53,M,46.25,M,,*65
$GPGLL,4611.953037,N,01258.216597,E,083735.00,A,A*6A
$GPVTG,313.7,T,313.9,M,000.8,N,001.6,K,A*22
$GPGSV,3,1,09,04,18,045,43,02,37,091,48,09,28,148,45,12,65,063,46*73
$GPGSV,3,2,09,14,33,263,37,25,69,310,44,29,42,218,45,30,26,285,*72
$GPGSV,3,3,09,31,17,314,31,,,,,,,,,,,,*40
$GPGSA,M,3,04,02,09,12,25,29,,,,,,,2.7,1.5,2.3*3E
Trace #29 at position 7.000000
$GPZDA,083735.04,08,10,2011,00,00*63
$GPRMC,083735.00,A,4611.953037,N,01258.216597,E,000.8,313.7,08101$GPGGA,083736.00,4611.953211,N,01258.216491,E,1,06,1.5,139.55,M,46.25,M,,*61
$GPGLL,4611.953211,N,01258.216491,E,083736.00,A,A*68
$GPVTG,9.7,T,9.8,M,000.6,N,001.2,K,A*29
$GPGSV,3,1,09,04,18,045,42,02,37,091,48,09,28,148,46,12,65,063,46*71
$GPGSV,3,2,09,14,33,263,38,25,69,310,45,29,42,218,45,30,26,285,*7C
$GPGSV,3,3,09,31,17,314,,,,,,,,,,,,,*42
$GPGSA,M,3,04,02,09,12,25,29,,,,,,,2.7,1.5,2.3*3E
Trace #30 at position 7.250000
$GPZDA,083735.04,08,10,2011,00,00*63
$GPRMC,083735.00,A,4611.953037,N,01258.216597,E,000.8,313.7,08101$GPGGA,083736.00,4611.953211,N,01258.216491,E,1,06,1.5,139.55,M,46.25,M,,*61
$GPGLL,4611.953211,N,01258.216491,E,083736.00,A,A*68
$GPVTG,9.7,T,9.8,M,000.6,N,001.2,K,A*29
$GPGSV,3,1,09,04,18,045,42,02,37,091,48,09,28,148,46,12,65,063,46*71
$GPGSV,3,2,09,14,33,263,38,25,69,310,45,29,42,218,45,30,26,285,*7C
$GPGSV,3,3,09,31,17,314,,,,,,,,,,,,,*42
$GPGSA,M,3,04,02,09,12,25,29,,,,,,,2.7,1.5,2.3*3E
Trace #31 at position 7.500000
$GPZDA,083736.04,08,10,2011,00,00*60
$GPRMC,083736.00,A,4611.953211,N,01258.216491,E,000.6,9.7,081011,0.2,E,$GPGGA,083737.00,4611.953399,N,01258.216436,E,1,06,1.5,139.53,M,46.25,M,,*6A
$GPGLL,4611.953399,N,01258.216436,E,083737.00,A,A*65
$GPVTG,334.3,T,334.5,M,000.8,N,001.4,K,A*28
$GPGSV,3,1,09,04,18,045,42,02,37,091,46,09,28,148,45,12,65,063,45*7F
$GPGSV,3,2,09,14,33,263,36,25,69,310,44,29,42,218,44,30,26,285,*72
$GPGSV,3,3,09,31,17,314,,,,,,,,,,,,,*42
$GPGSA,M,3,04,02,09,12,25,29,,,,,,,2.7,1.5,2.3*3E
Trace #32 at position 7.750000
$GPZDA,083736.04,08,10,2011,00,00*60
$GPRMC,083736.00,A,4611.953211,N,01258.216491,E,000.6,9.7,081011,0.2,E,$GPGGA,083737.00,4611.953399,N,01258.216436,E,1,06,1.5,139.53,M,46.25,M,,*6A
$GPGLL,4611.953399,N,01258.216436,E,083737.00,A,A*65
$GPVTG,334.3,T,334.5,M,000.8,N,001.4,K,A*28
$GPGSV,3,1,09,04,18,045,42,02,37,091,46,09,28,148,45,12,65,063,45*7F
$GPGSV,3,2,09,14,33,263,36,25,69,310,44,29,42,218,44,30,26,285,*72
$GPGSV,3,3,09,31,17,314,,,,,,,,,,,,,*42
$GPGSA,M,3,04,02,09,12,25,29,,,,,,,2.7,1.5,2.3*3E
Trace #33 at position 8.000000
$GPZDA,083737.04,08,10,2011,00,00*61
$GPRMC,083737.00,A,4611.953399,N,01258.216436,E,000.8,334.3,081011,$GPGGA,083738.00,4611.953597,N,01258.216356,E,1,06,1.5,139.56,M,46.25,M,,*69
$GPGLL,4611.953597,N,01258.216356,E,083738.00,A,A*63
$GPVTG,357.0,T,357.2,M,000.7,N,001.2,K,A*25
$GPGSV,3,1,09,04,18,045,42,02,37,091,46,09,28,148,45,12,65,063,45*7F
$GPGSV,3,2,09,14,33,263,36,25,69,310,41,29,42,218,43,30,26,285,*70
$GPGSV,3,3,09,31,17,314,33,,,,,,,,,,,,*42
$GPGSA,M,3,04,02,09,12,25,29,,,,,,,2.7,1.5,2.3*3E
Trace #34 at position 8.250000
$GPZDA,083737.04,08,10,2011,00,00*61
$GPRMC,083737.00,A,4611.953399,N,01258.216436,E,000.8,334.3,081011,$GPGGA,083738.00,4611.953597,N,01258.216356,E,1,06,1.5,139.56,M,46.25,M,,*69
$GPGLL,4611.953597,N,01258.216356,E,083738.00,A,A*63
$GPVTG,357.0,T,357.2,M,000.7,N,001.2,K,A*25
$GPGSV,3,1,09,04,18,045,42,02,37,091,46,09,28,148,45,12,65,063,45*7F
$GPGSV,3,2,09,14,33,263,36,25,69,310,41,29,42,218,43,30,26,285,*70
$GPGSV,3,3,09,31,17,314,33,,,,,,,,,,,,*42
$GPGSA,M,3,04,02,09,12,25,29,,,,,,,2.7,1.5,2.3*3E
Trace #35 at position 8.500000
$GPZDA,083738.04,08,10,2011,00,00*6E
$GPRMC,083738.00,A,4611.953597,N,01258.216356,E,000.7,357.0,0810106,1.5,139.64,M,46.25,M,,*69
$GPGLL,4611.953799,N,01258.216286,E,083739.00,A,A*62
$GPVTG,339.9,T,340.1,M,000.7,N,001.4,K,A*27
$GPGSV,3,1,09,04,18,045,41,02,37,091,47,09,28,148,45,12,65,063,44*7C
$GPGSV,3,2,09,14,33,263,36,25,69,310,41,29,42,218,44,30,26,285,*77
$GPGSV,3,3,09,31,17,314,31,,,,,,,,,,,,*40
$GPGSA,M,3,04,02,09,12,25,29,,,,,,,2.7,1.5,2.3*3E
Trace #36 at position 8.750000
$GPZDA,083739.04,08,10,2011,00,00*6F
$GPRMC,083739.00,A,4611.953799,N,01258.216286,E,000.7,339.9,081011,0.2,E,A*32
$GPGGA,083740.00,4611.953995,N,012,01258.216207,E,083740.00,A,A*67
$GPVTG,353.7,T,353.9,M,000.7,N,001.2,K,A*29
$GPGSV,3,1,09,04,18,045,41,02,37,091,47,09,28,148,45,12,65,063,44*7C
$GPGSV,3,2,09,14,33,263,38,25,70,310,41,29,42,218,44,30,26,285,*71
$GPGSV,3,3,09,31,17,314,26,,,,,,,,,,,,*46
$GPGSA,M,3,04,02,09,12,25,29,,,,,,,2.7,1.5,2.3*3E
Trace #37 at position 9.000000
$GPZDA,083739.04,08,10,2011,00,00*6F
$GPRMC,083739.00,A,4611.953799,N,01258.216286,E,000.7,339.9,081011,0.2,E,A*32
$GPGGA,083740.00,4611.953995,N,012,01258.216207,E,083740.00,A,A*67
$GPVTG,353.7,T,353.9,M,000.7,N,001.2,K,A*29
$GPGSV,3,1,09,04,18,045,41,02,37,091,47,09,28,148,45,12,65,063,44*7C
$GPGSV,3,2,09,14,33,263,38,25,70,310,41,29,42,218,44,30,26,285,*71
$GPGSV,3,3,09,31,17,314,26,,,,,,,,,,,,*46
$GPGSA,M,3,04,02,09,12,25,29,,,,,,,2.7,1.5,2.3*3E
Trace #38 at position 9.250000
$GPZDA,083740.04,08,10,2011,00,00*61
$GPRMC,083740.00,A,4611.953995,N,01258.216207,E,000.7,353.7,081011,0.2,E,A*35
$GPGGA,083741.00,4611.954198,N,01258.216115,E,1,06,1.5,139.68,M,46.25,M,,*63
$GPGLLGSV,3,1,09,04,18,045,41,02,37,091,47,09,28,148,45,12,65,063,44*7C
$GPGSV,3,2,09,14,33,263,35,25,70,310,40,29,42,218,44,30,26,285,*7D
$GPGSV,3,3,09,31,17,314,29,,,,,,,,,,,,*49
$GPGSA,M,3,04,02,09,12,25,29,,,,,,,2.7,1.5,2.3*3E
Trace #39 at position 9.500000
$GPZDA,083741.04,08,10,2011,00,00*60
$GPRMC,083741.00,A,4611.954198,N,01258.216115,E,000.8,338.7,081011,0.2,E,A*34
$GPGGA,083742.00,4611.954446,N,01258.216063,E,1,06,1.5,139.68,M,46.25,M,,*66
$GPGLL,4611.954446,N,01258.216063,E,083742.00,A,A*61
$GPVTG,9.0,T,9.2,M,001.0,N,001.9,K5,063,44*7E
$GPGSV,3,2,09,14,33,263,35,25,70,310,41,29,42,218,44,30,26,285,*7C
$GPGSV,3,3,09,31,17,314,30,,,,,,,,,,,,*41
$GPGSA,M,3,04,02,09,12,25,29,,,,,,,2.7,1.5,2.3*3E
Trace #40 at position 9.750000
$GPZDA,083741.04,08,10,2011,00,00*60
$GPRMC,083741.00,A,4611.954198,N,01258.216115,E,000.8,338.7,081011,0.2,E,A*34
$GPGGA,083742.00,4611.954446,N,01258.216063,E,1,06,1.5,139.68,M,46.25,M,,*66
$GPGLL,4611.954446,N,01258.216063,E,083742.00,A,A*61
$GPVTG,9.0,T,9.2,M,001.0,N,001.9,K5,063,44*7E
$GPGSV,3,2,09,14,33,263,35,25,70,310,41,29,42,218,44,30,26,285,*7C
$GPGSV,3,3,09,31,17,314,30,,,,,,,,,,,,*41
$GPGSA,M,3,04,02,09,12,25,29,,,,,,,2.7,1.5,2.3*3E
Trace #41 at position 10.000000
$GPZDA,083741.04,08,10,2011,00,00*60
$GPRMC,083741.00,A,4611.954198,N,01258.216115,E,000.8,338.7,081011,0.2,E,A*34
$GPGGA,083742.00,4611.954446,N,01258.216063,E,1,06,1.5,139.68,M,46.25,M,,*66
$GPGLL,4611.954446,N,01258.216063,E,083742.00,A,A*61
$GPVTG,9.0,T,9.2,M,001.0,N,001.9,K5,063,44*7E
$GPGSV,3,2,09,14,33,263,35,25,70,310,41,29,42,218,44,30,26,285,*7C
$GPGSV,3,3,09,31,17,314,30,,,,,,,,,,,,*41
$GPGSA,M,3,04,02,09,12,25,29,,,,,,,2.7,1.5,2.3*3E
Trace #42 at position 10.250000
$GPZDA,083741.04,08,10,2011,00,00*60
$GPRMC,083741.00,A,4611.954198,N,01258.216115,E,000.8,338.7,081011,0.2,E,A*34
$GPGGA,083742.00,4611.954446,N,01258.216063,E,1,06,1.5,139.68,M,46.25,M,,*66
$GPGLL,4611.954446,N,01258.216063,E,083742.00,A,A*61
$GPVTG,9.0,T,9.2,M,001.0,N,001.9,K5,063,44*7E
$GPGSV,3,2,09,14,33,263,35,25,70,310,41,29,42,218,44,30,26,285,*7C
$GPGSV,3,3,09,31,17,314,30,,,,,,,,,,,,*41
$GPGSA,M,3,04,02,09,12,25,29,,,,,,,2.7,1.5,2.3*3E
Trace #43 at position 10.500000
$GPZDA,083742.04,08,10,2011,00,00*63
$GPRMC,083742.00,A,4611.954446,N,01258.216063,E,001.0,9.0,081011,0.2,E,A*3E
$GPGGA,083743.00,4611.954713,N,01258.215981,E,1,06,1.5,139.68,M,46.25,M,,*62
$GPGLL,4611.954713,N,01258.215981,E,083743.00,A,A*65
$GPVTG,335.1,T,335.2,M,001.1,N,002.0,K,A*22
$GPGSV,3,1,09,04,18,045,42,02,37,091,47,09,2829,,,,,,,2.7,1.5,2.3*3E
$GPZDA,083743.04,08,10,2011,00,00*62
$GPRMC,083743.00,A,4611.954713,N,01258.215981,E,001.1,335.1,081011,0.2,E,A*36
$GPGGA,083744.00,4611.954978,N,01258.215777,E,1,06,1.5,139.62,M,46.25,M,,*6B
$GPGLL,4611.954978,N,01258.215777,E,083744.00,A,A*66
$GPVTG,333.7,T,333.8,M,001.2,N,002.2,K,A*2F
$GPGSV,3,1,09,04,18,045,41,02,37,091,47,09,28,148,44,12,65,063,44*7D
$GPGSV,3,2,09,14,33,263,36,25,70,310,41,29,42,218,43,30,26,285,*78
$GPGSV,3,3,09,31,17,314,28,,,,,,,,,,,,*48
$GPGSA,M,3,0.2,333.7,081011,0.2,E,A*36
Trace #44 at position 10.750000
$GPGGA,083745.00,4611.955216,N,01258.215562,E,1,06,1.5,139.65,M,46.25,M,,*69
$GPGLL,4611.955216,N,01258.215562,E,083745.00,A,A*63
$GPVTG,324.5,T,324.7,M,001.0,N,001.8,K,A*29
$GPGSV,3,1,09,04,18,045,42,02,37,091,48,09,28,148,44,12,65,063,46*73
$GPGSV,3,2,09,14,33,263,36,25,70,310,40,29,42,218,44,30,26,285,*7E
$GPGSV,3,3,09,31,17,314,28,,,,,,,,,,,,*48
$GPGSA,M,3,04,02,09,12,25,29,,,,,,,2.7,1.5,2.3*3E
Trace #45 at position 11.000000
$GPGGA,083745.00,4611.955216,N,01258.215562,E,1,06,1.5,139.65,M,46.25,M,,*69
$GPGLL,4611.955216,N,01258.215562,E,083745.00,A,A*63
$GPVTG,324.5,T,324.7,M,001.0,N,001.8,K,A*29
$GPGSV,3,1,09,04,18,045,42,02,37,091,48,09,28,148,44,12,65,063,46*73
$GPGSV,3,2,09,14,33,263,36,25,70,310,40,29,42,218,44,30,26,285,*7E
$GPGSV,3,3,09,31,17,314,28,,,,,,,,,,,,*48
$GPGSA,M,3,04,02,09,12,25,29,,,,,,,2.7,1.5,2.3*3E
Trace #46 at position 11.250000
$GPZDA,083745.04,08,10,2011,00,00*64
$GPRMC,083745.00,A,4611.955216,N,0125$GPGGA,083746.00,4611.955378,N,01258.215490,E,1,06,1.5,139.73,M,46.25,M,,*68
$GPGLL,4611.955378,N,01258.215490,E,083746.00,A,A*65
$GPVTG,17.6,T,17.8,M,000.5,N,001.0,K,A*29
$GPGSV,3,1,09,04,18,045,42,02,37,090,48,09,28,148,43,12,65,063,45*76
$GPGSV,3,2,09,14,33,263,35,25,70,310,42,29,42,218,45,30,26,285,*7E
$GPGSV,3,3,09,31,17,314,,,,,,,,,,,,,*42
$GPGSA,M,3,04,02,09,12,25,29,,,,,,,2.7,1.5,2.3*3E
Trace #47 at position 11.500000
$GPZDA,083745.04,08,10,2011,00,00*64
$GPRMC,083745.00,A,4611.955216,N,0125$GPGGA,083746.00,4611.955378,N,01258.215490,E,1,06,1.5,139.73,M,46.25,M,,*68
$GPGLL,4611.955378,N,01258.215490,E,083746.00,A,A*65
$GPVTG,17.6,T,17.8,M,000.5,N,001.0,K,A*29
$GPGSV,3,1,09,04,18,045,42,02,37,090,48,09,28,148,43,12,65,063,45*76
$GPGSV,3,2,09,14,33,263,35,25,70,310,42,29,42,218,45,30,26,285,*7E
$GPGSV,3,3,09,31,17,314,,,,,,,,,,,,,*42
$GPGSA,M,3,04,02,09,12,25,29,,,,,,,2.7,1.5,2.3*3E
Trace #48 at position 11.750000
$GPZDA,083746.04,08,10,2011,00,00*67
$GPRMC,083746.00,A,4611.955378,N,01258.215490,E,000.5,17.6,081011,0.2$GPGGA,083747.00,4611.955533,N,01258.215382,E,1,06,1.5,139.75,M,46.25,M,,*62
$GPGLL,4611.955533,N,01258.215382,E,083747.00,A,A*69
$GPVTG,312.3,T,312.4,M,001.0,N,001.8,K,A*2C
$GPGSV,3,1,09,04,18,045,42,02,37,090,48,09,28,148,44,12,65,063,44*70
$GPGSV,3,2,09,14,33,263,36,25,70,310,43,29,42,218,44,30,26,285,*7D
$GPGSV,3,3,09,31,17,314,28,,,,,,,,,,,,*48
$GPGSA,M,3,04,02,09,12,25,29,,,,,,,2.7,1.5,2.3*3E
Trace #49 at position 12.000000
$GPZDA,083747.04,08,10,2011,00,00*66
$GPRMC,083747.00,A,4611.955533,N,01258.215382,E,001.0,312.3,08101$GPGGA,083748.00,4611.955768,N,01258.215266,E,1,06,1.5,139.66,M,46.25,M,,*68
$GPGLL,4611.955768,N,01258.215266,E,083748.00,A,A*61
$GPVTG,5.6,T,5.8,M,001.1,N,002.0,K,A*2F
$GPGSV,3,1,09,04,18,045,40,02,37,090,47,09,28,148,45,12,65,063,45*7D
$GPGSV,3,2,09,14,33,263,39,25,70,310,43,29,42,218,45,30,26,285,*73
$GPGSV,3,3,09,31,17,314,30,,,,,,,,,,,,*41
$GPGSA,M,3,04,02,09,12,25,29,,,,,,,2.7,1.5,2.3*3E
Trace #50 at position 12.250000
$GPZDA,083747.04,08,10,2011,00,00*66
$GPRMC,083747.00,A,4611.955533,N,01258.215382,E,001.0,312.3,08101$GPGGA,083748.00,4611.955768,N,01258.215266,E,1,06,1.5,139.66,M,46.25,M,,*68
$GPGLL,4611.955768,N,01258.215266,E,083748.00,A,A*61
$GPVTG,5.6,T,5.8,M,001.1,N,002.0,K,A*2F
$GPGSV,3,1,09,04,18,045,40,02,37,090,47,09,28,148,45,12,65,063,45*7D
$GPGSV,3,2,09,14,33,263,39,25,70,310,43,29,42,218,45,30,26,285,*73
$GPGSV,3,3,09,31,17,314,30,,,,,,,,,,,,*41
$GPGSA,M,3,04,02,09,12,25,29,,,,,,,2.7,1.5,2.3*3E
Trace #51 at position 12.500000
$GPZDA,083748.04,08,10,2011,00,00*69
$GPRMC,083748.00,A,4611.955768,N,01258.215266,E,001.1,5.6,081011,0.2,$GPGGA,083749.00,4611.956007,N,01258.215261,E,1,06,1.5,139.64,M,46.25,M,,*61
$GPGLL,4611.956007,N,01258.215261,E,083749.00,A,A*6A
$GPVTG,350.6,T,350.8,M,000.7,N,001.3,K,A*28
$GPGSV,3,1,09,04,18,045,42,02,37,090,47,09,28,148,45,12,65,063,44*7E
$GPGSV,3,2,09,14,33,263,38,25,70,310,42,29,42,218,44,30,26,285,*72
$GPGSV,3,3,09,31,17,314,26,,,,,,,,,,,,*46
$GPGSA,M,3,04,02,09,12,25,29,,,,,,,2.7,1.5,2.3*3E
Trace #52 at position 12.750000
$GPZDA,083749.04,08,10,2011,00,00*68
$GPRMC,083749.00,A,4611.956007,N,01258.215261,E,000.7,350.6,08101$GPGGA,083750.00,4611.956167,N,01258.215153,E,1,06,1.5,139.75,M,46.25,M,,*6C
$GPGLL,4611.956167,N,01258.215153,E,083750.00,A,A*67
$GPVTG,317.0,T,317.2,M,000.6,N,001.1,K,A*27
$GPGSV,3,1,09,04,18,045,42,02,37,090,47,09,28,148,45,12,65,063,45*7F
$GPGSV,3,2,09,14,33,263,38,25,70,310,42,29,42,218,44,30,26,285,*72
$GPGSV,3,3,09,31,17,314,26,,,,,,,,,,,,*46
$GPGSA,M,3,04,02,09,12,25,29,,,,,,,2.7,1.5,2.3*3E
Trace #53 at position 13.000000
$GPZDA,083749.04,08,10,2011,00,00*68
$GPRMC,083749.00,A,4611.956007,N,01258.215261,E,000.7,350.6,08101$GPGGA,083750.00,4611.956167,N,01258.215153,E,1,06,1.5,139.75,M,46.25,M,,*6C
$GPGLL,4611.956167,N,01258.215153,E,083750.00,A,A*67
$GPVTG,317.0,T,317.2,M,000.6,N,001.1,K,A*27
$GPGSV,3,1,09,04,18,045,42,02,37,090,47,09,28,148,45,12,65,063,45*7F
$GPGSV,3,2,09,14,33,263,38,25,70,310,42,29,42,218,44,30,26,285,*72
$GPGSV,3,3,09,31,17,314,26,,,,,,,,,,,,*46
$GPGSA,M,3,04,02,09,12,25,29,,,,,,,2.7,1.5,2.3*3E
Trace #54 at position 13.250000
$GPZDA,083750.04,08,10,2011,00,00*60
$GPRMC,083750.00,A,4611.956167,N,01258.215153,E,000.6,317.0,08101$GPGGA,083751.00,4611.956365,N,01258.214990,E,1,06,1.5,139.84,M,46.25,M,,*65
$GPGLL,4611.956365,N,01258.214990,E,083751.00,A,A*60
$GPVTG,334.6,T,334.8,M,001.1,N,002.0,K,A*2F
$GPGSV,3,1,09,04,18,045,45,02,37,090,49,09,28,148,43,12,65,063,45*70
$GPGSV,3,2,09,14,33,263,37,25,70,310,42,29,42,218,44,30,26,285,*7D
$GPGSV,3,3,09,31,17,314,,,,,,,,,,,,,*42
$GPGSA,M,3,04,02,09,12,25,29,,,,,,,2.7,1.5,2.3*3E
Trace #55 at position 13.500000
$GPZDA,083751.04,08,10,2011,00,00*61
$GPRMC,083751.00,A,4611.956365,N,01258.214990,E,001.1,334.6,081011,1258.214897,E,1,06,1.5,139.79,M,46.25,M,,*6A
$GPGLL,4611.956668,N,01258.214897,E,083752.00,A,A*6D
$GPVTG,356.5,T,356.6,M,001.2,N,002.3,K,A*22
$GPGSV,3,1,09,04,18,045,43,02,37,090,48,09,28,148,44,12,65,063,45*70
$GPGSV,3,2,09,14,33,263,38,25,70,310,43,29,42,218,44,30,26,285,*73
$GPGSV,3,3,09,31,17,314,29,,,,,,,,,,,,*49
$GPGSA,M,3,04,02,09,12,25,29,,,,,,,2.7,1.5,2.3*3E
Trace #56 at position 13.750000
$GPZDA,083752.04,08,10,2011,00,00*62
$GPRMC,083752.00,A,4611.956668,N,01258.214897,E,001.2,356.5,081011,0.2,E,A*3C
$GPGGA,083753.00,4,01258.214741,E,083753.00,A,A*68
$GPVTG,315.7,T,315.8,M,001.1,N,002.1,K,A*2F
$GPGSV,3,1,09,04,18,045,45,02,37,090,48,09,28,148,45,12,65,063,44*76
$GPGSV,3,2,09,14,33,263,38,25,70,310,42,29,42,218,43,30,26,285,*75
$GPGSV,3,3,09,31,17,314,31,,,,,,,,,,,,*40
$GPGSA,M,3,04,02,09,12,25,29,,,,,,,2.7,1.5,2.3*3E
Trace #57 at position 14.000000
$GPZDA,083752.04,08,10,2011,00,00*62
$GPRMC,083752.00,A,4611.956668,N,01258.214897,E,001.2,356.5,081011,0.2,E,A*3C
$GPGGA,083753.00,4,01258.214741,E,083753.00,A,A*68
$GPVTG,315.7,T,315.8,M,001.1,N,002.1,K,A*2F
$GPGSV,3,1,09,04,18,045,45,02,37,090,48,09,28,148,45,12,65,063,44*76
$GPGSV,3,2,09,14,33,263,38,25,70,310,42,29,42,218,43,30,26,285,*75
$GPGSV,3,3,09,31,17,314,31,,,,,,,,,,,,*40
$GPGSA,M,3,04,02,09,12,25,29,,,,,,,2.7,1.5,2.3*3E
Trace #58 at position 14.250000
$GPZDA,083753.04,08,10,2011,00,00*63
$GPRMC,083753.00,A,4611.956945,N,01258.214741,E,001.1,315.7,081011,0.2,E,A*3F
$GPGGA,083754.00,4611.957099,N,01258.214536,E,1,06,1.5,139.92,M,46.25,M,,*66
$GPGLL,045,44,02,37,090,48,09,28,148,45,12,65,063,44*77
$GPGSV,3,2,09,14,33,263,37,25,70,310,42,29,42,218,44,30,26,285,*7D
$GPGSV,3,3,09,31,17,314,,,,,,,,,,,,,*42
$GPGSA,M,3,04,02,09,12,25,29,,,,,,,2.7,1.5,2.3*3E
Trace #59 at position 14.500000
$GPZDA,083753.04,08,10,2011,00,00*63
$GPRMC,083753.00,A,4611.956945,N,01258.214741,E,001.1,315.7,081011,0.2,E,A*3F
$GPGGA,083754.00,4611.957099,N,01258.214536,E,1,06,1.5,139.92,M,46.25,M,,*66
$GPGLL,045,44,02,37,090,48,09,28,148,45,12,65,063,44*77
$GPGSV,3,2,09,14,33,263,37,25,70,310,42,29,42,218,44,30,26,285,*7D
$GPGSV,3,3,09,31,17,314,,,,,,,,,,,,,*42
$GPGSA,M,3,04,02,09,12,25,29,,,,,,,2.7,1.5,2.3*3E
Trace #60 at position 14.750000
$GPZDA,083753.04,08,10,2011,00,00*63
$GPRMC,083753.00,A,4611.956945,N,01258.214741,E,001.1,315.7,081011,0.2,E,A*3F
$GPGGA,083754.00,4611.957099,N,01258.214536,E,1,06,1.5,139.92,M,46.25,M,,*66
$GPGLL,045,44,02,37,090,48,09,28,148,45,12,65,063,44*77
$GPGSV,3,2,09,14,33,263,37,25,70,310,42,29,42,218,44,30,26,285,*7D
$GPGSV,3,3,09,31,17,314,,,,,,,,,,,,,*42
$GPGSA,M,3,04,02,09,12,25,29,,,,,,,2.7,1.5,2.3*3E
Trace #61 at position 15.000000
$GPZDA,083754.04,08,10,2011,00,00*64
$GPRMC,083754.00,A,4611.957099,N,01258.214536,E,000.5,311.4,081011,0.2,E,A*31
$GPGGA,083755.00,4611.957238,N,01258.214506,E,1,06,1.5,140.00,M,46.25,M,,*68
$GPGLL,4611.957238,N,01258.214506,E,083755.00,A,A*6F
$GPVTG,7.3,T,7.5,M,000.7,N,001.3,K,A*20
$GPGSV,3,1,5,29,,,,,,,2.7,1.5,2.3*3E
$GPZDA,083755.04,08,10,2011,00,00*65
$GPRMC,083755.00,A,4611.957238,N,01258.214506,E,000.7,7.3,081011,0.2,E,A*3B
$GPGGA,083756.00,4611.957378,N,01258.214425,E,1,06,1.5,140.09,M,46.25,M,,*67
$GPGLL,4611.957378,N,01258.214425,E,083756.00,A,A*69
$GPVTG,297.4,T,297.6,M,000.7,N,001.4,K,A*23
$GPGSV,3,1,09,04,18,045,42,02,37,090,49,09,28,148,46,12,65,063,44*73
$GPGSV,3,2,09,14,33,263,38,25,70,310,42,29,42,218,43,30,26,285,*75
$GPGSV,3,3,09,31,17,314,32,,,,,,,,,,,,*43
$GPGSA,M,3,0RMC,083756.00,A,4611.957378,N,01258.214425,E,000.7,297.4,081011,0.2,E,A*31
Trace #62 at position 15.250000
$GPGGA,083757.00,4611.957529,N,01258.214306,E,1,06,1.5,140.15,M,46.25,M,,*6F
$GPGLL,4611.957529,N,01258.214306,E,083757.00,A,A*6C
$GPVTG,349.3,T,349.4,M,000.8,N,001.4,K,A*29
$GPGSV,3,1,09,04,18,045,43,02,37,090,49,09,28,148,46,12,65,063,44*72
$GPGSV,3,2,09,14,33,263,35,25,70,310,42,29,42,218,44,30,26,285,*7F
$GPGSV,3,3,09,31,17,314,,,,,,,,,,,,,*42
$GPGSA,M,3,04,02,09,12,25,29,,,,,,,2.7,1.5,2.2*3F
Trace #63 at position 15.500000
$GPZDA,083757.04,08,10,2011,0$GPGGA,083758.00,4611.957690,N,01258.214299,E,1,06,1.5,140.20,M,46.25,M,,*60
$GPGLL,4611.957690,N,01258.214299,E,083758.00,A,A*65
$GPVTG,352.2,T,352.4,M,000.4,N,000.8,K,A*29
$GPGSV,3,1,09,04,18,045,42,02,37,090,49,09,28,148,47,12,64,063,45*72
$GPGSV,3,2,09,14,33,263,33,25,70,310,43,29,42,218,43,30,26,285,*7F
$GPGSV,3,3,09,31,17,314,,,,,,,,,,,,,*42
$GPGSA,M,3,04,02,09,12,25,29,,,,,,,2.7,1.5,2.2*3F
Trace #64 at position 15.750000
$GPZDA,083757.04,08,10,2011,0$GPGGA,083758.00,4611.957690,N,01258.214299,E,1,06,1.5,140.20,M,46.25,M,,*60
$GPGLL,4611.957690,N,01258.214299,E,083758.00,A,A*65
$GPVTG,352.2,T,352.4,M,000.4,N,000.8,K,A*29
$GPGSV,3,1,09,04,18,045,42,02,37,090,49,09,28,148,47,12,64,063,45*72
$GPGSV,3,2,09,14,33,263,33,25,70,310,43,29,42,218,43,30,26,285,*7F
$GPGSV,3,3,09,31,17,314,,,,,,,,,,,,,*42
$GPGSA,M,3,04,02,09,12,25,29,,,,,,,2.7,1.5,2.2*3F
Trace #65 at position 16.000000
$GPZDA,083758.04,08,10,2011,00,00*68
$GPRMC,083758.00,A,4611.957690,N,01258.214299,E,000.4,352.2,081011,$GPGGA,083759.00,4611.957783,N,01258.214268,E,1,06,1.5,140.22,M,46.25,M,,*6E
$GPGLL,4611.957783,N,01258.214268,E,083759.00,A,A*69
$GPVTG,309.4,T,309.6,M,000.3,N,000.5,K,A*27
$GPGSV,3,1,09,04,18,045,42,02,37,090,48,09,28,148,45,12,64,063,45*71
$GPGSV,3,2,09,14,33,263,36,25,70,310,44,29,42,218,42,30,26,285,*7C
$GPGSV,3,3,09,31,17,314,30,,,,,,,,,,,,*41
$GPGSA,M,3,04,02,09,12,25,29,,,,,,,2.7,1.5,2.2*3F
Trace #66 at position 16.250000
$GPZDA,083758.04,08,10,2011,00,00*68
$GPRMC,083758.00,A,4611.957690,N,01258.214299,E,000.4,352.2,081011,$GPGGA,083759.00,4611.957783,N,01258.214268,E,1,06,1.5,140.22,M,46.25,M,,*6E
$GPGLL,4611.957783,N,01258.214268,E,083759.00,A,A*69
$GPVTG,309.4,T,309.6,M,000.3,N,000.5,K,A*27
$GPGSV,3,1,09,04,18,045,42,02,37,090,48,09,28,148,45,12,64,063,45*71
$GPGSV,3,2,09,14,33,263,36,25,70,310,44,29,42,218,42,30,26,285,*7C
$GPGSV,3,3,09,31,17,314,30,,,,,,,,,,,,*41
$GPGSA,M,3,04,02,09,12,25,29,,,,,,,2.7,1.5,2.2*3F
Trace #67 at position 16.500000
$GPZDA,083759.04,08,10,2011,00,00*69
$GPRMC,083759.00,A,4611.957783,N,01258.214268,E,000.3,309.4,08101$GPGGA,083800.00,4611.957917,N,01258.214183,E,1,06,1.5,140.21,M,46.25,M,,*6B
$GPGLL,4611.957917,N,01258.214183,E,083800.00,A,A*6F
$GPVTG,333.3,T,333.5,M,000.7,N,001.4,K,A*27
$GPGSV,3,1,09,04,18,045,42,02,37,090,48,09,28,148,45,12,64,063,45*71
$GPGSV,3,2,09,14,33,263,37,25,70,310,45,29,42,218,43,30,26,285,*7D
$GPGSV,3,3,09,31,17,314,,,,,,,,,,,,,*42
$GPGSA,M,3,04,02,09,12,25,29,,,,,,,2.7,1.5,2.2*3F
Trace #68 at position 16.750000
$GPZDA,083759.04,08,10,2011,00,00*69
$GPRMC,083759.00,A,4611.957783,N,01258.214268,E,000.3,309.4,08101$GPGGA,083800.00,4611.957917,N,01258.214183,E,1,06,1.5,140.21,M,46.25,M,,*6B
$GPGLL,4611.957917,N,01258.214183,E,083800.00,A,A*6F
$GPVTG,333.3,T,333.5,M,000.7,N,001.4,K,A*27
$GPGSV,3,1,09,04,18,045,42,02,37,090,48,09,28,148,45,12,64,063,45*71
$GPGSV,3,2,09,14,33,263,37,25,70,310,45,29,42,218,43,30,26,285,*7D
$GPGSV,3,3,09,31,17,314,,,,,,,,,,,,,*42
$GPGSA,M,3,04,02,09,12,25,29,,,,,,,2.7,1.5,2.2*3F
Trace #69 at position 17.000000
$GPZDA,083800.04,08,10,2011,00,00*6A
$GPRMC,083800.00,A,4611.957917,N,01258.214183,E,000.7,333.3,081011,$GPGGA,083801.00,4611.958149,N,01258.214092,E,1,06,1.5,140.20,M,46.25,M,,*66
$GPGLL,4611.958149,N,01258.214092,E,083801.00,A,A*63
$GPVTG,346.0,T,346.2,M,000.9,N,001.7,K,A*2E
$GPGSV,3,1,09,04,18,045,43,02,37,090,48,09,28,148,45,12,64,063,45*70
$GPGSV,3,2,09,14,33,263,36,25,70,310,42,29,42,218,42,30,26,285,*7A
$GPGSV,3,3,09,31,17,314,31,,,,,,,,,,,,*40
$GPGSA,M,3,04,02,09,12,25,29,,,,,,,2.7,1.5,2.2*3F
Trace #70 at position 17.250000
$GPZDA,083801.04,08,10,2011,00,00*6B
$GPRMC,083801.00,A,4611.958149,N,01258.214092,E,000.9,346.0,08101$GPGGA,083802.00,4611.958422,N,01258.214075,E,1,06,1.5,140.15,M,46.25,M,,*62
$GPGLL,4611.958422,N,01258.214075,E,083802.00,A,A*61
$GPVTG,4.8,T,5.0,M,001.0,N,001.9,K,A*23
$GPGSV,3,1,09,04,18,045,42,02,37,090,48,09,28,148,45,12,64,063,45*71
$GPGSV,3,2,09,14,33,263,37,25,70,310,42,29,42,218,43,30,26,285,*7A
$GPGSV,3,3,09,31,17,314,32,,,,,,,,,,,,*43
$GPGSA,M,3,04,02,09,12,25,29,,,,,,,2.7,1.5,2.2*3F
Trace #71 at position 17.500000
$GPZDA,083802.04,08,10,2011,00,00*68
$GPRMC,083802.00,A,4611.958422,N,01258.214075,E,001.0,4.8,081011,0.2,$GPGGA,083803.00,4611.958660,N,01258.213973,E,1,06,1.5,140.13,M,46.25,M,,*69
$GPGLL,4611.958660,N,01258.213973,E,083803.00,A,A*6C
$GPVTG,316.1,T,316.2,M,001.0,N,001.8,K,A*28
$GPGSV,3,1,09,04,18,045,40,02,37,090,47,09,28,148,44,12,64,063,44*7C
$GPGSV,3,2,09,14,33,263,38,25,70,310,42,29,42,218,44,30,26,285,*72
$GPGSV,3,3,09,31,17,314,32,,,,,,,,,,,,*43
$GPGSA,M,3,04,02,09,12,25,29,,,,,,,2.7,1.5,2.2*3F
Trace #72 at position 17.750000
$GPZDA,083803.04,08,10,2011,00,00*69
$GPRMC,083803.00,A,4611.958660,N,01258.213973,E,001.0,316.1,08101$GPGGA,083804.00,4611.958858,N,01258.213782,E,1,06,1.5,140.17,M,46.25,M,,*6F
$GPGLL,4611.958858,N,01258.213782,E,083804.00,A,A*6E
$GPVTG,330.5,T,330.7,M,000.8,N,001.5,K,A*2D
$GPGSV,3,1,09,04,18,045,42,02,37,090,47,09,28,148,45,12,64,063,44*7F
$GPGSV,3,2,09,14,33,263,36,25,70,310,40,29,42,218,43,30,26,285,*79
$GPGSV,3,3,09,31,17,314,29,,,,,,,,,,,,*49
$GPGSA,M,3,04,02,09,12,25,29,,,,,,,2.7,1.5,2.2*3F
Trace #73 at position 18.000000
$GPZDA,083803.04,08,10,2011,00,00*69
$GPRMC,083803.00,A,4611.958660,N,01258.213973,E,001.0,316.1,08101$GPGGA,083804.00,4611.958858,N,01258.213782,E,1,06,1.5,140.17,M,46.25,M,,*6F
$GPGLL,4611.958858,N,01258.213782,E,083804.00,A,A*6E
$GPVTG,330.5,T,330.7,M,000.8,N,001.5,K,A*2D
$GPGSV,3,1,09,04,18,045,42,02,37,090,47,09,28,148,45,12,64,063,44*7F
$GPGSV,3,2,09,14,33,263,36,25,70,310,40,29,42,218,43,30,26,285,*79
$GPGSV,3,3,09,31,17,314,29,,,,,,,,,,,,*49
$GPGSA,M,3,04,02,09,12,25,29,,,,,,,2.7,1.5,2.2*3F
Trace #74 at position 18.250000
$GPZDA,083804.04,08,10,2011,00,00*6E
$GPRMC,083804.00,A,4611.958858,N,01258.213782,E,000.8,330.5,0810146.25,M,,*61
$GPGLL,4611.959050,N,01258.213725,E,083805.00,A,A*63
$GPVTG,2.6,T,2.7,M,000.6,N,001.1,K,A*24
$GPGSV,3,1,09,04,18,045,41,02,37,090,47,09,28,148,45,12,64,063,44*7C
$GPGSV,3,2,09,14,33,263,36,25,70,310,41,29,42,218,44,30,26,285,*7F
$GPGSV,3,3,09,31,17,314,30,,,,,,,,,,,,*41
$GPGSA,M,3,04,02,09,12,25,29,,,,,,,2.7,1.5,2.2*3F
Trace #75 at position 18.500000
$GPZDA,083805.04,08,10,2011,00,00*6F
$GPRMC,083805.00,A,4611.959050,N,01258.213725,E,000.6,2.6,081011,0.2,E,A*36
$GPGGA,083806.00,4611.959202,N,01258.213704,E,1,06,1.5,13,1,09,04,18,045,42,02,37,090,46,09,28,148,45,12,64,064,44*79
$GPGSV,3,2,09,14,33,263,36,25,70,310,41,29,42,218,44,30,26,285,*7F
$GPGSV,3,3,09,31,17,314,,,,,,,,,,,,,*42
$GPGSA,M,3,04,02,09,12,25,29,,,,,,,2.7,1.5,2.2*3F
Trace #76 at position 18.750000
$GPZDA,083805.04,08,10,2011,00,00*6F
$GPRMC,083805.00,A,4611.959050,N,01258.213725,E,000.6,2.6,081011,0.2,E,A*36
$GPGGA,083806.00,4611.959202,N,01258.213704,E,1,06,1.5,13,1,09,04,18,045,42,02,37,090,46,09,28,148,45,12,64,064,44*79
$GPGSV,3,2,09,14,33,263,36,25,70,310,41,29,42,218,44,30,26,285,*7F
$GPGSV,3,3,09,31,17,314,,,,,,,,,,,,,*42
$GPGSA,M,3,04,02,09,12,25,29,,,,,,,2.7,1.5,2.2*3F
Trace #77 at position 19.000000
$GPZDA,083805.04,08,10,2011,00,00*6F
$GPRMC,083805.00,A,4611.959050,N,01258.213725,E,000.6,2.6,081011,0.2,E,A*36
$GPGGA,083806.00,4611.959202,N,01258.213704,E,1,06,1.5,13,1,09,04,18,045,42,02,37,090,46,09,28,148,45,12,64,064,44*79
$GPGSV,3,2,09,14,33,263,36,25,70,310,41,29,42,218,44,30,26,285,*7F
$GPGSV,3,3,09,31,17,314,,,,,,,,,,,,,*42
$GPGSA,M,3,04,02,09,12,25,29,,,,,,,2.7,1.5,2.2*3F
Trace #78 at position 19.250000
$GPZDA,083806.04,08,10,2011,00,00*6C
$GPRMC,083806.00,A,4611.959202,N,01258.213704,E,000.4,336.0,081011,0.2,E,A*33
$GPGGA,083807.00,4611.959394,N,01258.213585,E,1,06,1.5,140.32,M,46.25,M,,*64
$GPGLL,4611.959394,N,01258.213585,E,083807.00,A,A*62
$GPVTG,331.1,T,331.3,M,001.0,N,001.9,K,A,M,3,04,02,09,12,25,29,,,,,,,2.7,1.5,2.2*3F
$GPZDA,083807.04,08,10,2011,00,00*6D
$GPRMC,083807.00,A,4611.959394,N,01258.213585,E,001.0,331.1,081011,0.2,E,A*34
$GPGGA,083808.00,4611.959544,N,01258.213547,E,1,06,1.5,140.28,M,46.25,M,,*65
$GPGLL,4611.959544,N,01258.213547,E,083808.00,A,A*68
$GPVTG,70.7,T,70.9,M,000.3,N,000.5,K,A*2B
$GPGSV,3,1,09,04,18,045,43,02,37,090,48,09,28,148,46,12,64,064,45*74
$GPGSV,3,2,09,14,33,263,35,25,70,310,39,29,42,218,43,30,26,285,*74
$GPGSV,3,3,09,31,17,314,31,,,,,,,,,,,01258.213547,E,000.3,70.7,081011,0.2,E,A*0C
$GPGGA,083809.00,4611.959642,N,01258.213545,E,1,06,1.5,140.29,M,46.25,M,,*62
$GPGLL,4611.959642,N,01258.213545,E,083809.00,A,A*6E
$GPVTG,331.8,T,331.9,M,000.5,N,001.0,K,A*26
$GPGSV,3,1,09,04,18,045,43,02,37,090,48,09,28,148,46,12,64,064,45*74
$GPGSV,3,2,09,14,33,263,35,25,70,310,40,29,42,218,43,30,26,285,*7A
$GPGSV,3,3,09,31,17,314,29,,,,,,,,,,,,*49
$GPGSA,M,3,04,02,09,12,25,29,,,,,,,2.7,1.5,2.2*3F
Trace #79 at position 19.500000
$GPZDA,083809.04,08,10,2011,00,00*63
$GPRMC,083809.00,A,4$GPGGA,083810.00,4611.959762,N,01258.213460,E,1,06,1.5,140.28,M,46.25,M,,*6E
$GPGLL,4611.959762,N,01258.213460,E,083810.00,A,A*63
$GPVTG,327.9,T,328.1,M,000.3,N,000.6,K,A*21
$GPGSV,3,1,09,04,18,045,43,02,37,090,48,09,28,148,45,12,64,064,45*77
$GPGSV,3,2,09,14,33,263,37,25,70,310,41,29,42,218,44,30,26,285,*7E
$GPGSV,3,3,09,31,17,314,32,,,,,,,,,,,,*43
$GPGSA,M,3,04,02,09,12,25,29,,,,,,,2.7,1.5,2.2*3F
Trace #80 at position 19.750000
$GPZDA,083809.04,08,10,2011,00,00*63
$GPRMC,083809.00,A,4$GPGGA,083810.00,4611.959762,N,01258.213460,E,1,06,1.5,140.28,M,46.25,M,,*6E
$GPGLL,4611.959762,N,01258.213460,E,083810.00,A,A*63
$GPVTG,327.9,T,328.1,M,000.3,N,000.6,K,A*21
$GPGSV,3,1,09,04,18,045,43,02,37,090,48,09,28,148,45,12,64,064,45*77
$GPGSV,3,2,09,14,33,263,37,25,70,310,41,29,42,218,44,30,26,285,*7E
$GPGSV,3,3,09,31,17,314,32,,,,,,,,,,,,*43
$GPGSA,M,3,04,02,09,12,25,29,,,,,,,2.7,1.5,2.2*3F
Trace #81 at position 20.000000
$GPZDA,083810.04,08,10,2011,00,00*6B
$GPRMC,083810.00,A,4611.959762,N,01258.213460,E,000.3,327.9,08101$GPGGA,083811.00,4611.959908,N,01258.213345,E,1,06,1.5,140.32,M,46.25,M,,*66
$GPGLL,4611.959908,N,01258.213345,E,083811.00,A,A*60
$GPVTG,324.3,T,324.4,M,000.8,N,001.5,K,A*28
$GPGSV,3,1,09,04,18,045,44,02,37,090,48,09,28,148,45,12,64,064,46*73
$GPGSV,3,2,09,14,33,263,35,25,70,310,41,29,42,218,44,30,26,285,*7C
$GPGSV,3,3,09,31,17,314,32,,,,,,,,,,,,*43
$GPGSA,M,3,04,02,09,12,25,29,,,,,,,2.7,1.5,2.2*3F
Trace #82 at position 20.250000
$GPZDA,083810.04,08,10,2011,00,00*6B
$GPRMC,083810.00,A,4611.959762,N,01258.213460,E,000.3,327.9,08101$GPGGA,083811.00,4611.959908,N,01258.213345,E,1,06,1.5,140.32,M,46.25,M,,*66
$GPGLL,4611.959908,N,01258.213345,E,083811.00,A,A*60
$GPVTG,324.3,T,324.4,M,000.8,N,001.5,K,A*28
$GPGSV,3,1,09,04,18,045,44,02,37,090,48,09,28,148,45,12,64,064,46*73
$GPGSV,3,2,09,14,33,263,35,25,70,310,41,29,42,218,44,30,26,285,*7C
$GPGSV,3,3,09,31,17,314,32,,,,,,,,,,,,*43
$GPGSA,M,3,04,02,09,12,25,29,,,,,,,2.7,1.5,2.2*3F
Trace #83 at position 20.500000
$GPZDA,083811.04,08,10,2011,00,00*6A
$GPRMC,083811.00,A,4611.959908,N,01258.213345,E,000.8,324.3,08101$GPGGA,083812.00,4611.960157,N,01258.213218,E,1,06,1.5,140.33,M,46.25,M,,*65
$GPGLL,4611.960157,N,01258.213218,E,083812.00,A,A*62
$GPVTG,346.8,T,346.9,M,001.1,N,002.0,K,A*20
$GPGSV,3,1,09,04,18,045,44,02,37,090,48,09,28,148,44,12,64,064,45*71
$GPGSV,3,2,09,14,33,263,36,25,70,310,40,29,42,218,43,30,26,285,*79
$GPGSV,3,3,09,31,17,314,32,,,,,,,,,,,,*43
$GPGSA,M,3,04,02,09,12,25,29,,,,,,,2.7,1.5,2.2*3F
Trace #84 at position 20.750000
$GPZDA,083812.04,08,10,2011,00,00*69
$GPRMC,083812.00,A,4611.960157,N,01258.213218,E,001.1,346.8,08101$GPGGA,083813.00,4611.960419,N,01258.213108,E,1,06,1.5,140.31,M,46.25,M,,*6B
$GPGLL,4611.960419,N,01258.213108,E,083813.00,A,A*6E
$GPVTG,333.0,T,333.1,M,000.9,N,001.7,K,A*2D
$GPGSV,3,1,09,04,18,045,42,02,37,090,47,09,28,148,45,12,64,064,46*7A
$GPGSV,3,2,09,14,33,263,36,25,70,310,38,29,42,218,44,30,26,285,*71
$GPGSV,3,3,09,31,17,314,32,,,,,,,,,,,,*43
$GPGSA,M,3,04,02,09,12,25,29,,,,,,,2.7,1.5,2.2*3F
Trace #85 at position 21.000000
$GPZDA,083812.04,08,10,2011,00,00*69
$GPRMC,083812.00,A,4611.960157,N,01258.213218,E,001.1,346.8,08101$GPGGA,083813.00,4611.960419,N,01258.213108,E,1,06,1.5,140.31,M,46.25,M,,*6B
$GPGLL,4611.960419,N,01258.213108,E,083813.00,A,A*6E
$GPVTG,333.0,T,333.1,M,000.9,N,001.7,K,A*2D
$GPGSV,3,1,09,04,18,045,42,02,37,090,47,09,28,148,45,12,64,064,46*7A
$GPGSV,3,2,09,14,33,263,36,25,70,310,38,29,42,218,44,30,26,285,*71
$GPGSV,3,3,09,31,17,314,32,,,,,,,,,,,,*43
$GPGSA,M,3,04,02,09,12,25,29,,,,,,,2.7,1.5,2.2*3F
Trace #86 at position 21.250000
$GPZDA,083813.04,08,10,2011,00,00*68
$GPRMC,083813.00,A,4611.960419,N,01258.213108,E,000.9,333.0,08101$GPGGA,083814.00,4611.960600,N,01258.213084,E,1,06,1.5,140.30,M,46.25,M,,*62
$GPGLL,4611.960600,N,01258.213084,E,083814.00,A,A*66
$GPVTG,21.3,T,21.5,M,000.5,N,001.0,K,A*21
$GPGSV,3,1,09,04,18,045,42,02,37,090,47,09,28,148,45,12,64,064,45*79
$GPGSV,3,2,09,14,33,263,37,25,70,310,37,29,42,218,43,30,26,285,*78
$GPGSV,3,3,09,31,17,314,28,,,,,,,,,,,,*48
$GPGSA,M,3,04,02,09,12,25,29,,,,,,,2.7,1.5,2.2*3F
Trace #87 at position 21.500000
$GPZDA,083814.04,08,10,2011,00,00*6F
$GPRMC,083814.00,A,4611.960600,N,01258.213084,E,000.5,21.3,081011,0$GPGGA,083815.00,4611.960756,N,01258.213024,E,1,06,1.5,140.24,M,46.25,M,,*6E
$GPGLL,4611.960756,N,01258.213024,E,083815.00,A,A*6F
$GPVTG,319.9,T,320.0,M,000.9,N,001.6,K,A*2E
$GPGSV,3,1,09,04,18,045,43,02,37,090,48,09,28,148,45,12,64,064,45*77
$GPGSV,3,2,09,14,33,263,36,25,70,310,38,29,42,218,43,30,26,285,*76
$GPGSV,3,3,09,31,17,314,29,,,,,,,,,,,,*49
$GPGSA,M,3,04,02,09,12,25,29,,,,,,,2.7,1.5,2.2*3F
Trace #88 at position 21.750000
$GPZDA,083815.04,08,10,2011,00,00*6E
$GPRMC,083815.00,A,4611.960756,N,01258.213024,E,000.9,319.9,08101,4611.960980,N,01258.212963,E,1,06,1.5,140.16,M,46.25,M,,*62
$GPGLL,4611.960980,N,01258.212963,E,083816.00,A,A*62
$GPVTG,9.3,T,9.5,M,001.0,N,001.9,K,A*2C
$GPGSV,3,1,09,04,18,045,42,02,37,090,47,09,28,148,44,12,64,064,45*78
$GPGSV,3,2,09,14,33,263,36,25,70,310,38,29,42,218,44,30,26,285,*71
$GPGSV,3,3,09,31,17,314,31,,,,,,,,,,,,*40
$GPGSA,M,3,04,02,09,12,25,29,,,,,,,2.7,1.5,2.2*3F
Trace #89 at position 22.000000
$GPZDA,083815.04,08,10,2011,00,00*6E
$GPRMC,083815.00,A,4611.960756,N,01258.213024,E,000.9,319.9,08101,4611.960980,N,01258.212963,E,1,06,1.5,140.16,M,46.25,M,,*62
$GPGLL,4611.960980,N,01258.212963,E,083816.00,A,A*62
$GPVTG,9.3,T,9.5,M,001.0,N,001.9,K,A*2C
$GPGSV,3,1,09,04,18,045,42,02,37,090,47,09,28,148,44,12,64,064,45*78
$GPGSV,3,2,09,14,33,263,36,25,70,310,38,29,42,218,44,30,26,285,*71
$GPGSV,3,3,09,31,17,314,31,,,,,,,,,,,,*40
$GPGSA,M,3,04,02,09,12,25,29,,,,,,,2.7,1.5,2.2*3F
Trace #90 at position 22.250000
$GPZDA,083816.04,08,10,2011,00,00*6D
$GPRMC,083816.00,A,4611.960980,N,01258.212963,E,001.0,9.3,081011,0.2,E,A*3E
$GPGGA,0,*6A
$GPGLL,4611.961229,N,01258.212963,E,083817.00,A,A*6A
$GPVTG,347.8,T,348.0,M,000.9,N,001.7,K,A*2B
$GPGSV,3,1,09,04,18,045,42,02,37,090,47,09,28,148,44,12,64,064,45*78
$GPGSV,3,2,09,14,33,263,37,25,70,310,38,29,42,218,43,30,26,285,*77
$GPGSV,3,3,09,31,17,314,31,,,,,,,,,,,,*40
$GPGSA,M,3,04,02,09,12,25,29,,,,,,,2.7,1.5,2.2*3F
Trace #91 at position 22.500000
$GPZDA,083817.04,08,10,2011,00,00*6C
$GPRMC,083817.00,A,4611.961229,N,01258.212963,E,000.9,347.8,081011,0.2,E,A*3C
$GPGGA,083818.00,4611.961437,N,01258.212889,E,1,06,1.5,140,A*2F
$GPGSV,3,1,09,04,18,045,42,02,37,090,47,09,28,148,46,12,64,064,45*7A
$GPGSV,3,2,09,14,33,263,36,25,70,310,38,29,42,218,43,30,26,285,*76
$GPGSV,3,3,09,31,17,314,,,,,,,,,,,,,*42
$GPGSA,M,3,04,02,09,12,25,29,,,,,,,2.7,1.5,2.2*3F
Trace #92 at position 22.750000
$GPZDA,083818.04,08,10,2011,00,00*63
$GPRMC,083818.00,A,4611.961437,N,01258.212889,E,000.7,346.7,081011,0.2,E,A*3F
$GPGGA,083819.00,4611.961638,N,01258.212875,E,1,06,1.5,140.17,M,46.25,M,,*67
$GPGLL,4611.961638,N,01258.212875,E,083819.00,A,A*66
$GPVTG,8.8,T,9.0,M,000.8,N*78
$GPGSV,3,2,09,14,33,263,38,25,70,310,38,29,42,218,44,30,26,285,*7F
$GPGSV,3,3,09,31,17,314,30,,,,,,,,,,,,*41
$GPGSA,M,3,04,02,09,12,25,29,,,,,,,2.7,1.5,2.2*3F
Trace #93 at position 23.000000
$GPZDA,083818.04,08,10,2011,00,00*63
$GPRMC,083818.00,A,4611.961437,N,01258.212889,E,000.7,346.7,081011,0.2,E,A*3F
$GPGGA,083819.00,4611.961638,N,01258.212875,E,1,06,1.5,140.17,M,46.25,M,,*67
$GPGLL,4611.961638,N,01258.212875,E,083819.00,A,A*66
$GPVTG,8.8,T,9.0,M,000.8,N*78
$GPGSV,3,2,09,14,33,263,38,25,70,310,38,29,42,218,44,30,26,285,*7F
$GPGSV,3,3,09,31,17,314,30,,,,,,,,,,,,*41
$GPGSA,M,3,04,02,09,12,25,29,,,,,,,2.7,1.5,2.2*3F
Trace #94 at position 23.250000
$GPZDA,083818.04,08,10,2011,00,00*63
$GPRMC,083818.00,A,4611.961437,N,01258.212889,E,000.7,346.7,081011,0.2,E,A*3F
$GPGGA,083819.00,4611.961638,N,01258.212875,E,1,06,1.5,140.17,M,46.25,M,,*67
$GPGLL,4611.961638,N,01258.212875,E,083819.00,A,A*66
$GPVTG,8.8,T,9.0,M,000.8,N*78
$GPGSV,3,2,09,14,33,263,38,25,70,310,38,29,42,218,44,30,26,285,*7F
$GPGSV,3,3,09,31,17,314,30,,,,,,,,,,,,*41
$GPGSA,M,3,04,02,09,12,25,29,,,,,,,2.7,1.5,2.2*3F
Trace #95 at position 23.500000
$GPZDA,083819.04,08,10,2011,00,00*62
$GPRMC,083819.00,A,4611.961638,N,01258.212875,E,000.8,8.8,081011,0.2,E,A*39
$GPGGA,083820.00,4611.961841,N,01258.212893,E,1,06,1.5,140.16,M,46.25,M,,*64
$GPGLL,4611.961841,N,01258.212893,E,083820.00,A,A*64
$GPVTG,5.0,T,5.1,M,000.8,N,001.4,K,A*2F
$GPGSV,3,1,09,04,18,045,43,02,37,090,47,09,28,148,44,12,6.7,1.5,2.2*3F
$GPZDA,083820.04,08,10,2011,00,00*68
$GPRMC,083820.00,A,4611.961841,N,01258.212893,E,000.8,5.0,081011,0.2,E,A*3E
$GPGGA,083821.00,4611.961992,N,01258.212627,E,1,06,1.5,140.22,M,46.25,M,,*6C
$GPGLL,4611.961992,N,01258.212627,E,083821.00,A,A*6B
$GPVTG,289.0,T,289.1,M,001.5,N,002.7,K,A*23
$GPGSV,3,1,09,04,18,045,41,02,37,090,48,09,28,148,45,12,64,064,44*74
$GPGSV,3,2,09,14,33,263,37,25,70,310,40,29,42,218,44,30,26,285,*7F
$GPGSV,3,3,09,31,17,314,31,,,,,,,,,,,,*40
$GPGSA,M,3,04,02,09,12,2$GPGGA,083822.00,4611.962148,N,01258.212344,E,1,06,1.5,140.24,M,46.25,M,,*65
Trace #96 at position 23.750000
$GPGLL,4611.962148,N,01258.212344,E,083822.00,A,A*64
$GPVTG,345.4,T,345.6,M,000.8,N,001.5,K,A*2D
$GPGSV,3,1,09,04,18,045,41,02,37,090,47,09,28,148,45,12,64,064,45*7A
$GPGSV,3,2,09,14,33,263,37,25,70,310,40,29,42,218,44,30,26,285,*7F
$GPGSV,3,3,09,31,17,314,31,,,,,,,,,,,,*40
$GPGSA,M,3,04,02,09,12,25,29,,,,,,,2.7,1.5,2.2*3F
Trace #97 at position 24.000000
$GPZDA,083822.04,08,10,2011,00,00*6A
$GPRMC,083822.00,A,4611.962148,N,01258.212344,E,000.8,345.4,08101$GPGGA,083823.00,4611.962324,N,01258.212344,E,1,06,1.5,140.19,M,46.25,M,,*62
$GPGLL,4611.962324,N,01258.212344,E,083823.00,A,A*6D
$GPVTG,6.6,T,6.8,M,000.6,N,001.2,K,A*28
$GPGSV,3,1,09,04,18,045,43,02,37,090,47,09,28,148,45,12,64,064,44*79
$GPGSV,3,2,09,14,33,263,37,25,70,310,38,29,42,218,44,30,26,285,*70
$GPGSV,3,3,09,31,17,314,30,,,,,,,,,,,,*41
$GPGSA,M,3,04,02,09,12,25,29,,,,,,,2.7,1.5,2.2*3F
Trace #98 at position 24.250000
$GPZDA,083822.04,08,10,2011,00,00*6A
$GPRMC,083822.00,A,4611.962148,N,01258.212344,E,000.8,345.4,08101$GPGGA,083823.00,4611.962324,N,01258.212344,E,1,06,1.5,140.19,M,46.25,M,,*62
$GPGLL,4611.962324,N,01258.212344,E,083823.00,A,A*6D
$GPVTG,6.6,T,6.8,M,000.6,N,001.2,K,A*28
$GPGSV,3,1,09,04,18,045,43,02,37,090,47,09,28,148,45,12,64,064,44*79
$GPGSV,3,2,09,14,33,263,37,25,70,310,38,29,42,218,44,30,26,285,*70
$GPGSV,3,3,09,31,17,314,30,,,,,,,,,,,,*41
$GPGSA,M,3,04,02,09,12,25,29,,,,,,,2.7,1.5,2.2*3F
Trace #99 at position 24.500000
$GPZDA,083823.04,08,10,2011,00,00*6B
$GPRMC,083823.00,A,4611.962324,N,01258.212344,E,000.6,6.6,081011,0.2,$GPGGA,083824.00,4611.962444,N,01258.212409,E,1,06,1.5,140.20,M,46.25,M,,*60
$GPGLL,4611.962444,N,01258.212409,E,083824.00,A,A*65
$GPVTG,30.5,T,30.7,M,000.4,N,000.7,K,A*22
$GPGSV,3,1,09,04,18,045,42,02,37,090,48,09,28,148,41,12,64,064,45*72
$GPGSV,3,2,09,14,33,263,37,25,70,310,39,29,42,218,44,30,26,285,*71
$GPGSV,3,3,09,31,17,314,30,,,,,,,,,,,,*41
$GPGSA,M,3,04,02,09,12,25,29,,,,,,,2.7,1.5,2.2*3F
Trace #100 at position 24.750000
$GPZDA,083824.04,08,10,2011,00,00*6C
$GPRMC,083824.00,A,4611.962444,N,01258.212409,E,000.4,30.5,081011,0$GPGGA,083825.00,4611.962572,N,01258.212409,E,1,06,1.5,140.23,M,46.25,M,,*66
$GPGLL,4611.962572,N,01258.212409,E,083825.00,A,A*60
$GPVTG,344.7,T,344.9,M,000.6,N,001.2,K,A*28
$GPGSV,3,1,09,04,18,045,42,02,37,090,48,09,28,148,44,12,64,064,45*77
$GPGSV,3,2,09,14,33,263,37,25,70,310,40,29,42,218,44,30,26,285,*7F
$GPGSV,3,3,09,31,17,314,29,,,,,,,,,,,,*49
$GPGSA,M,3,04,02,09,12,25,29,,,,,,,2.7,1.5,2.2*3F
Trace #101 at position 25.000000
$GPZDA,083824.04,08,10,2011,00,00*6C
$GPRMC,083824.00,A,4611.962444,N,01258.212409,E,000.4,30.5,081011,0$GPGGA,083825.00,4611.962572,N,01258.212409,E,1,06,1.5,140.23,M,46.25,M,,*66
$GPGLL,4611.962572,N,01258.212409,E,083825.00,A,A*60
$GPVTG,344.7,T,344.9,M,000.6,N,001.2,K,A*28
$GPGSV,3,1,09,04,18,045,42,02,37,090,48,09,28,148,44,12,64,064,45*77
$GPGSV,3,2,09,14,33,263,37,25,70,310,40,29,42,218,44,30,26,285,*7F
$GPGSV,3,3,09,31,17,314,29,,,,,,,,,,,,*49
$GPGSA,M,3,04,02,09,12,25,29,,,,,,,2.7,1.5,2.2*3F
Trace #102 at position 25.250000
$GPZDA,083829.04,08,10,2011,00,00*61
$GPRMC,083829.00,A,4611.963317,N,01258.212179,E,001.0,350.3,081011,0.2,E,A*39
$GPGGA,083830.00,4611.963508,N,01258.212080,E,1,06,1.5,140.36,M,46.25,M,,*6F
$GPGLL,045,42,02,37,090,48,09,28,148,45,12,64,064,45*76
$GPGSV,3,2,09,14,33,263,35,25,70,310,40,29,42,218,43,30,26,285,*7A
$GPGSV,3,3,09,31,17,314,26,,,,,,,,,,,,*46
$GPGSA,M,3,04,02,09,12,25,29,,,,,,,2.7,1.5,2.2*3F
Trace #103 at position 25.500000
$GPZDA,083829.04,08,10,2011,00,00*61
$GPRMC,083829.00,A,4611.963317,N,01258.212179,E,001.0,350.3,081011,0.2,E,A*39
$GPGGA,083830.00,4611.963508,N,01258.212080,E,1,06,1.5,140.36,M,46.25,M,,*6F
$GPGLL,045,42,02,37,090,48,09,28,148,45,12,64,064,45*76
$GPGSV,3,2,09,14,33,263,35,25,70,310,40,29,42,218,43,30,26,285,*7A
$GPGSV,3,3,09,31,17,314,26,,,,,,,,,,,,*46
$GPGSA,M,3,04,02,09,12,25,29,,,,,,,2.7,1.5,2.2*3F
Trace #104 at position 25.750000
$GPZDA,083830.04,08,10,2011,00,00*69
$GPRMC,083830.00,A,4611.963508,N,01258.212080,E,000.6,333.2,081011,0.2,E,A*3D
$GPGGA,083831.00,4611.963677,N,01258.211900,E,1,06,1.5,140.40,M,46.25,M,,*66
$GPGLL,4611.963677,N,01258.211900,E,083831.00,A,A*65
$GPVTG,320.5,T,320.7,M,001.0,N,001.8,K,A*29
$GPGSF
$GPZDA,083831.04,08,10,2011,00,00*68
$GPRMC,083831.00,A,4611.963677,N,01258.211900,E,001.0,320.5,081011,0.2,E,A*37
$GPGGA,083832.00,4611.963827,N,01258.211833,E,1,06,1.5,140.42,M,46.25,M,,*6D
$GPGLL,4611.963827,N,01258.211833,E,083832.00,A,A*6C
$GPVTG,39.2,T,39.3,M,000.4,N,000.8,K,A*2E
$GPGSV,3,1,09,04,18,045,43,02,37,090,49,09,28,148,43,12,64,064,45*70
$GPGSV,3,2,09,14,33,263,36,25,70,310,41,29,42,218,42,30,26,285,*79
$GPGSV,3,3,09,31,17,314,,,,,,,,,,,,,*42
$GPGSA,M,3,04,02,09,12,25,29,,,,,,,2.7
Trace #105 at position 26.000000
$GPGGA,083833.00,4611.963870,N,01258.211875,E,1,06,1.5,140.44,M,46.25,M,,*6A
$GPGLL,4611.963870,N,01258.211875,E,083833.00,A,A*6D
$GPVTG,288.6,T,288.7,M,000.0,N,000.1,K,A*23
$GPGSV,3,1,09,04,18,045,42,02,37,090,49,09,28,148,43,12,64,064,45*71
$GPGSV,3,2,09,14,33,263,35,25,70,310,41,29,42,218,43,30,26,285,*7B
$GPGSV,3,3,09,31,17,314,,,,,,,,,,,,,*42
$GPGSA,M,3,04,02,09,12,25,29,,,,,,,2.7,1.5,2.2*3F
Trace #106 at position 26.250000
$GPGGA,083833.00,4611.963870,N,01258.211875,E,1,06,1.5,140.44,M,46.25,M,,*6A
$GPGLL,4611.963870,N,01258.211875,E,083833.00,A,A*6D
$GPVTG,288.6,T,288.7,M,000.0,N,000.1,K,A*23
$GPGSV,3,1,09,04,18,045,42,02,37,090,49,09,28,148,43,12,64,064,45*71
$GPGSV,3,2,09,14,33,263,35,25,70,310,41,29,42,218,43,30,26,285,*7B
$GPGSV,3,3,09,31,17,314,,,,,,,,,,,,,*42
$GPGSA,M,3,04,02,09,12,25,29,,,,,,,2.7,1.5,2.2*3F
Trace #107 at position 26.500000
$GPZDA,083833.04,08,10,2011,00,00*6A
$GPRMC,083833.00,A,4611.963870,N,01258.211875,E,000.0,288.6,081011$GPGGA,083834.00,4611.963863,N,01258.211876,E,1,06,1.5,140.47,M,46.25,M,,*6F
$GPGLL,4611.963863,N,01258.211876,E,083834.00,A,A*6B
$GPVTG,103.6,T,103.8,M,000.1,N,000.2,K,A*2E
$GPGSV,3,1,09,04,18,045,43,02,37,090,49,09,28,148,43,12,64,064,45*70
$GPGSV,3,2,09,14,33,263,33,25,70,311,37,29,42,218,43,30,26,285,*7D
$GPGSV,3,3,09,31,17,314,31,,,,,,,,,,,,*40
$GPGSA,M,3,04,02,09,12,25,29,,,,,,,2.7,1.5,2.2*3F
Trace #108 at position 26.750000
$GPZDA,083834.04,08,10,2011,00,00*6D
$GPRMC,083834.00,A,4611.963863,N,01258.211876,E,000.1,103.6,08101$GPGGA,083835.00,4611.963855,N,01258.211885,E,1,06,1.5,140.48,M,46.25,M,,*68
$GPGLL,4611.963855,N,01258.211885,E,083835.00,A,A*63
$GPVTG,359.4,T,359.6,M,000.0,N,000.0,K,A*21
$GPGSV,3,1,09,04,18,045,41,02,37,090,49,09,28,148,43,12,64,064,45*72
$GPGSV,3,2,09,14,33,263,34,25,70,311,39,29,42,218,43,30,26,285,*74
$GPGSV,3,3,09,31,17,314,31,,,,,,,,,,,,*40
$GPGSA,M,3,04,02,09,12,25,29,,,,,,,2.7,1.5,2.2*3F
Trace #109 at position 27.000000
$GPZDA,083835.04,08,10,2011,00,00*6C
$GPRMC,083835.00,A,4611.963855,N,01258.211885,E,000.0,359.4,08101$GPGGA,083836.00,4611.963876,N,01258.211865,E,1,06,1.5,140.45,M,46.25,M,,*69
$GPGLL,4611.963876,N,01258.211865,E,083836.00,A,A*6F
$GPVTG,339.7,T,339.8,M,000.2,N,000.4,K,A*2A
$GPGSV,3,1,09,04,18,045,41,02,37,090,50,09,28,148,42,12,64,064,46*78
$GPGSV,3,2,09,14,33,263,37,25,70,311,42,29,42,218,44,30,26,285,*7C
$GPGSV,3,3,09,31,17,314,33,,,,,,,,,,,,*42
$GPGSA,M,3,04,02,09,12,25,29,,,,,,,2.7,1.5,2.2*3F
Trace #110 at position 27.250000
$GPZDA,083836.04,08,10,2011,00,00*6F
$GPRMC,083836.00,A,4611.963876,N,01258.211865,E,000.2,339.7,08101$GPGGA,083837.00,4611.963969,N,01258.211743,E,1,06,1.5,140.47,M,46.25,M,,*6E
$GPGLL,4611.963969,N,01258.211743,E,083837.00,A,A*6A
$GPVTG,312.0,T,312.1,M,000.7,N,001.3,K,A*27
$GPGSV,3,1,09,04,18,045,42,02,37,090,50,09,28,148,43,12,64,064,46*7A
$GPGSV,3,2,09,14,33,263,38,25,70,311,44,29,42,218,44,30,26,285,*75
$GPGSV,3,3,09,31,17,314,32,,,,,,,,,,,,*43
$GPGSA,M,3,04,02,09,12,25,29,,,,,,,2.7,1.5,2.2*3F
Trace #111 at position 27.500000
$GPZDA,083837.04,08,10,2011,00,00*6E
$GPRMC,083837.00,A,4611.963969,N,01258.211743,E,000.7,312.0,08101$GPGGA,083838.00,4611.964184,N,01258.211485,E,1,06,1.5,140.47,M,46.25,M,,*64
$GPGLL,4611.964184,N,01258.211485,E,083838.00,A,A*60
$GPVTG,320.8,T,320.9,M,001.4,N,002.6,K,A*23
$GPGSV,3,1,09,04,18,045,42,02,37,090,49,09,28,148,45,12,64,064,45*77
$GPGSV,3,2,09,14,33,262,35,25,70,311,43,29,42,218,44,30,26,285,*7E
