Trace #1 at position 0.000000
$GPZDA,080953.04,09,10,2011,00,00*6F
$GPRMC,080953.00,A,4611.976037,N,01258.215789,E,000.2,333.7,091011,0.2,E,A*3E
$GPGGA,080954.00,4611.975875,N,01258.215798,E,1,05,14.1,138.55,M,46.25,M,,*5F
$GPGLL,4611.975875,N,01258.215798,E,080954.00,A,A*64
$GPVTG,318.3,T,318.5,M,000.0,N,000.1,K,A*24
$GPGSV,2,1,08,02,33,103,34,04,22,054,42,09,39,144,32,12,72,040,44*77
$GPGSV,2,2,08,14,37,276,45,25,61,293,49,29,31,213,36,30,16,279,42*75
$GPGSA,M,3,04,12,14,25,30,,,,,,,,14.5,14.1,3.6*39
Trace #2 at position 0.250000
$GPZDA,080956.03,09,10,2011,00,00*6D
$GPRMC,080956.00,A,4611.975535,N,01258.215850,E,000.1,166.2,091011,0.2,E,A*30
$GPGGA,080957.00,4611.975426,N,01258.215869,E,1,05,14.0,138.54,M,46.25,M,,*57
$GPGLL,4611.975426,N,01258.215869,E,080957.00,A,A*6C
$GPVTG,353.4,T,353.6,M,000.2,N,000.4,K,A*27
$GPGSV,2,1,08,02,33,103,36,04,22,054,43,09,39,144,32,12,72,040,43*73
$GPGSV,2,2,08,14,37,276,45,25,61,293,49,29,31,213,36,30,16,279,42*75
$GPGSA,M,3,04,12,14,25,30,,,,,,,,14.5,14.0,3.5*3B
Trace #3 at position 0.500000
$GPZDA,080957.03,09,10,2011,00,00*6C
$GPRMC,080957.00,A,4611.975426,N,01258.215869,E,000.2,353.4,091011,0.2,E,A*39
$GPGGA,080958.00,4611.975263,N,01258.215897,E,1,05,14.0,138.55,M,46.25,M,,*5F
$GPGLL,4611.975263,N,01258.215897,E,080958.00,A,A*65
$GPVTG,171.8,T,172.0,M,000.7,N,001.4,K,A*2A
$GPGSV,2,1,08,02,33,103,34,04,22,054,41,09,39,144,32,12,72,041,42*73
$GPGSV,2,2,08,14,37,276,45,25,61,293,48,29,31,213,35,30,16,279,42*77
$GPGSA,M,3,04,12,14,25,30,,,,,,,,14.4,14.0,3.5*3A
Trace #4 at position 0.750000
$GPZDA,080958.04,09,10,2011,00,00*64
$GPRMC,080958.00,A,4611.975263,N,01258.215897,E,000.7,171.8,091011,0.2,E,A*3B
$GPGGA,080959.00,4611.975172,N,01258.215894,E,1,05,14.0,138.56,M,46.25,M,,*5D
$GPGLL,4611.975172,N,01258.215894,E,080959.00,A,A*64
$GPVTG,343.5,T,343.7,M,000.6,N,001.1,K,A*27
$GPGSV,2,1,08,02,33,103,38,04,22,054,43,09,39,144,29,12,72,041,41*74
$GPGSV,2,2,08,14,37,276,42,25,61,293,46,29,31,213,29,30,16,279,39*7F
$GPGSA,M,3,04,12,14,25,30,,,,,,,,14.4,14.0,3.5*3A
Trace #5 at position 1.000000
$GPZDA,080959.04,09,10,2011,00,00*65
$GPRMC,080959.00,A,4611.975172,N,01258.215894,E,000.6,343.5,091011,0.2,E,A*35
$GPGGA,081000.00,4611.975583,N,01258.215732,E,1,07,1.2,138.85,M,46.25,M,,*6A
$GPGLL,4611.975583,N,01258.215732,E,081000.00,A,A*69
$GPVTG,161.9,T,162.1,M,000.6,N,001.1,K,A*2E
$GPGSV,2,1,08,02,33,103,39,04,22,054,43,09,39,144,29,12,72,041,42*76
$GPGSV,2,2,08,14,37,276,37,25,61,293,47,29,31,213,40,30,16,279,38*72
$GPGSA,M,3,02,04,12,14,25,29,30,,,,,,2.1,1.2,1.7*37
Trace #6 at position 1.250000
$GPZDA,080959.04,09,10,2011,00,00*65
$GPRMC,080959.00,A,4611.975172,N,01258.215894,E,000.6,343.5,091011,0.2,E,A*35
$GPGGA,081000.00,4611.975583,N,01258.215732,E,1,07,1.2,138.85,M,46.25,M,,*6A
$GPGLL,4611.975583,N,01258.215732,E,081000.00,A,A*69
$GPVTG,161.9,T,162.1,M,000.6,N,001.1,K,A*2E
$GPGSV,2,1,08,02,33,103,39,04,22,054,43,09,39,144,29,12,72,041,42*76
$GPGSV,2,2,08,14,37,276,37,25,61,293,47,29,31,213,40,30,16,279,38*72
$GPGSA,M,3,02,04,12,14,25,29,30,,,,,,2.1,1.2,1.7*37
Trace #7 at position 1.500000
$GPZDA,081000.04,09,10,2011,00,00*61
$GPRMC,081000.00,A,4611.975583,N,01258.215732,E,000.6,161.9,091011,0.2,E,A*36
$GPGGA,081001.00,4611.975723,N,01258.215738,E,1,07,1.2,139.11,M,46.25,M,,*65
$GPGLL,4611.975723,N,01258.215738,E,081001.00,A,A*6A
$GPVTG,149.2,T,149.3,M,001.2,N,002.2,K,A*21
$GPGSV,2,1,08,02,33,103,38,04,22,054,41,09,39,144,30,12,72,041,43*7C
$GPGSV,2,2,08,14,37,276,44,25,61,293,47,29,31,213,40,30,16,279,39*77
$GPGSA,M,3,02,04,12,14,25,29,30,,,,,,2.1,1.2,1.7*37
Trace #8 at position 1.750000
$GPZDA,081000.04,09,10,2011,00,00*61
$GPRMC,081000.00,A,4611.975583,N,01258.215732,E,000.6,161.9,091011,0.2,E,A*36
$GPGGA,081001.00,4611.975723,N,01258.215738,E,1,07,1.2,139.11,M,46.25,M,,*65
$GPGLL,4611.975723,N,01258.215738,E,081001.00,A,A*6A
$GPVTG,149.2,T,149.3,M,001.2,N,002.2,K,A*21
$GPGSV,2,1,08,02,33,103,38,04,22,054,41,09,39,144,30,12,72,041,43*7C
$GPGSV,2,2,08,14,37,276,44,25,61,293,47,29,31,213,40,30,16,279,39*77
$GPGSA,M,3,02,04,12,14,25,29,30,,,,,,2.1,1.2,1.7*37
Trace #9 at position 2.000000
$GPZDA,081000.04,09,10,2011,00,00*61
$GPRMC,081000.00,A,4611.975583,N,01258.215732,E,000.6,161.9,091011,0.2,E,A*36
$GPGGA,081001.00,4611.975723,N,01258.215738,E,1,07,1.2,139.11,M,46.25,M,,*65
$GPGLL,4611.975723,N,01258.215738,E,081001.00,A,A*6A
$GPVTG,149.2,T,149.3,M,001.2,N,002.2,K,A*21
$GPGSV,2,1,08,02,33,103,38,04,22,054,41,09,39,144,30,12,72,041,43*7C
$GPGSV,2,2,08,14,37,276,44,25,61,293,47,29,31,213,40,30,16,279,39*77
$GPGSA,M,3,02,04,12,14,25,29,30,,,,,,2.1,1.2,1.7*37
Trace #10 at position 2.250000
$GPZDA,081001.04,09,10,2011,00,00*60
$GPRMC,081001.00,A,4611.975723,N,01258.215738,E,001.2,149.2,091011,0.2,E,A*31
$GPGGA,081002.00,4611.975882,N,01258.215722,E,1,07,1.2,139.30,M,46.25,M,,*6A
$GPGLL,4611.975882,N,01258.215722,E,081002.00,A,A*66
$GPVTG,176.8,T,177.0,M,000.1,N,000.2,K,A*29
$GPGSV,2,1,08,02,33,103,36,04,22,054,43,09,39,144,28,12,72,041,44*7E
$GPGSV,2,2,08,14,37,276,42,25,61,293,47,29,31,213,39,30,16,279,41*70
$GPGSA,M,3,02,04,12,14,25,29,30,,,,,,2.1,1.2,1.7*37
Trace #11 at position 2.500000
$GPZDA,081001.04,09,10,2011,00,00*60
$GPRMC,081001.00,A,4611.975723,N,01258.215738,E,001.2,149.2,091011,0.2,E,A*31
$GPGGA,081002.00,4611.975882,N,01258.215722,E,1,07,1.2,139.30,M,46.25,M,,*6A
$GPGLL,4611.975882,N,01258.215722,E,081002.00,A,A*66
$GPVTG,176.8,T,177.0,M,000.1,N,000.2,K,A*29
$GPGSV,2,1,08,02,33,103,36,04,22,054,43,09,39,144,28,12,72,041,44*7E
$GPGSV,2,2,08,14,37,276,42,25,61,293,47,29,31,213,39,30,16,279,41*70
$GPGSA,M,3,02,04,12,14,25,29,30,,,,,,2.1,1.2,1.7*37
Trace #12 at position 2.750000
$GPZDA,081001.04,09,10,2011,00,00*60
$GPRMC,081001.00,A,4611.975723,N,01258.215738,E,001.2,149.2,091011,0.2,E,A*31
$GPGGA,081002.00,4611.975882,N,01258.215722,E,1,07,1.2,139.30,M,46.25,M,,*6A
$GPGLL,4611.975882,N,01258.215722,E,081002.00,A,A*66
$GPVTG,176.8,T,177.0,M,000.1,N,000.2,K,A*29
$GPGSV,2,1,08,02,33,103,36,04,22,054,43,09,39,144,28,12,72,041,44*7E
$GPGSV,2,2,08,14,37,276,42,25,61,293,47,29,31,213,39,30,16,279,41*70
$GPGSA,M,3,02,04,12,14,25,29,30,,,,,,2.1,1.2,1.7*37
Trace #13 at position 3.000000
$GPZDA,081002.04,09,10,2011,00,00*63
$GPRMC,081002.00,A,4611.975882,N,01258.215722,E,000.1,176.8,091011,0.2,E,A*39
$GPGGA,081003.00,4611.975998,N,01258.215649,E,1,07,1.2,139.44,M,46.25,M,,*6E
$GPGLL,4611.975998,N,01258.215649,E,081003.00,A,A*61
$GPVTG,166.3,T,166.5,M,001.0,N,001.9,K,A*2C
$GPGSV,2,1,08,02,33,103,40,04,22,054,43,09,39,144,29,12,72,041,43*79
$GPGSV,2,2,08,14,37,276,44,25,61,293,47,29,31,213,40,30,16,279,40*79
$GPGSA,M,3,02,04,12,14,25,29,30,,,,,,2.1,1.2,1.7*37
Trace #14 at position 3.250000
$GPZDA,081002.04,09,10,2011,00,00*63
$GPRMC,081002.00,A,4611.975882,N,01258.215722,E,000.1,176.8,091011,0.2,E,A*39
$GPGGA,081003.00,4611.975998,N,01258.215649,E,1,07,1.2,139.44,M,46.25,M,,*6E
$GPGLL,4611.975998,N,01258.215649,E,081003.00,A,A*61
$GPVTG,166.3,T,166.5,M,001.0,N,001.9,K,A*2C
$GPGSV,2,1,08,02,33,103,40,04,22,054,43,09,39,144,29,12,72,041,43*79
$GPGSV,2,2,08,14,37,276,44,25,61,293,47,29,31,213,40,30,16,279,40*79
$GPGSA,M,3,02,04,12,14,25,29,30,,,,,,2.1,1.2,1.7*37
Trace #15 at position 3.500000
$GPZDA,081002.04,09,10,2011,00,00*63
$GPRMC,081002.00,A,4611.975882,N,01258.215722,E,000.1,176.8,091011,0.2,E,A*39
$GPGGA,081003.00,4611.975998,N,01258.215649,E,1,07,1.2,139.44,M,46.25,M,,*6E
$GPGLL,4611.975998,N,01258.215649,E,081003.00,A,A*61
$GPVTG,166.3,T,166.5,M,001.0,N,001.9,K,A*2C
$GPGSV,2,1,08,02,33,103,40,04,22,054,43,09,39,144,29,12,72,041,43*79
$GPGSV,2,2,08,14,37,276,44,25,61,293,47,29,31,213,40,30,16,279,40*79
$GPGSA,M,3,02,04,12,14,25,29,30,,,,,,2.1,1.2,1.7*37
Trace #16 at position 3.750000
$GPZDA,081003.04,09,10,2011,00,00*62
$GPRMC,081003.00,A,4611.975998,N,01258.215649,E,001.0,166.3,091011,0.2,E,A*34
$GPGGA,081004.00,4611.975988,N,01258.215807,E,1,07,1.2,139.57,M,46.25,M,,*6E
$GPGLL,4611.975988,N,01258.215807,E,081004.00,A,A*63
$GPVTG,121.6,T,121.8,M,001.3,N,002.4,K,A*29
$GPGSV,2,1,08,02,33,103,37,04,22,054,42,09,39,144,31,12,72,041,44*76
$GPGSV,2,2,08,14,37,276,43,25,61,293,47,29,31,213,41,30,16,279,40*7F
$GPGSA,M,3,02,04,12,14,25,29,30,,,,,,2.1,1.2,1.7*37
Trace #17 at position 4.000000
$GPZDA,081003.04,09,10,2011,00,00*62
$GPRMC,081003.00,A,4611.975998,N,01258.215649,E,001.0,166.3,091011,0.2,E,A*34
$GPGGA,081004.00,4611.975988,N,01258.215807,E,1,07,1.2,139.57,M,46.25,M,,*6E
$GPGLL,4611.975988,N,01258.215807,E,081004.00,A,A*63
$GPVTG,121.6,T,121.8,M,001.3,N,002.4,K,A*29
$GPGSV,2,1,08,02,33,103,37,04,22,054,42,09,39,144,31,12,72,041,44*76
$GPGSV,2,2,08,14,37,276,43,25,61,293,47,29,31,213,41,30,16,279,40*7F
$GPGSA,M,3,02,04,12,14,25,29,30,,,,,,2.1,1.2,1.7*37
Trace #18 at position 4.250000
$GPZDA,081003.04,09,10,2011,00,00*62
$GPRMC,081003.00,A,4611.975998,N,01258.215649,E,001.0,166.3,091011,0.2,E,A*34
$GPGGA,081004.00,4611.975988,N,01258.215807,E,1,07,1.2,139.57,M,46.25,M,,*6E
$GPGLL,4611.975988,N,01258.215807,E,081004.00,A,A*63
$GPVTG,121.6,T,121.8,M,001.3,N,002.4,K,A*29
$GPGSV,2,1,08,02,33,103,37,04,22,054,42,09,39,144,31,12,72,041,44*76
$GPGSV,2,2,08,14,37,276,43,25,61,293,47,29,31,213,41,30,16,279,40*7F
$GPGSA,M,3,02,04,12,14,25,29,30,,,,,,2.1,1.2,1.7*37
Trace #19 at position 4.500000
$GPZDA,081004.04,09,10,2011,00,00*65
$GPRMC,081004.00,A,4611.975988,N,01258.215807,E,001.3,121.6,091011,0.2,E,A*33
$GPGGA,081005.00,4611.975935,N,01258.215943,E,1,07,1.2,139.72,M,46.25,M,,*6F
$GPGLL,4611.975935,N,01258.215943,E,081005.00,A,A*65
$GPVTG,172.9,T,173.0,M,001.0,N,001.9,K,A*22
$GPGSV,2,1,08,02,33,103,37,04,22,054,40,09,39,144,30,12,72,041,44*75
$GPGSV,2,2,08,14,37,276,44,25,61,293,47,29,31,213,42,30,16,279,39*75
$GPGSA,M,3,02,04,12,14,25,29,30,,,,,,2.1,1.2,1.7*37
Trace #20 at position 4.750000
$GPZDA,081004.04,09,10,2011,00,00*65
$GPRMC,081004.00,A,4611.975988,N,01258.215807,E,001.3,121.6,091011,0.2,E,A*33
$GPGGA,081005.00,4611.975935,N,01258.215943,E,1,07,1.2,139.72,M,46.25,M,,*6F
$GPGLL,4611.975935,N,01258.215943,E,081005.00,A,A*65
$GPVTG,172.9,T,173.0,M,001.0,N,001.9,K,A*22
$GPGSV,2,1,08,02,33,103,37,04,22,054,40,09,39,144,30,12,72,041,44*75
$GPGSV,2,2,08,14,37,276,44,25,61,293,47,29,31,213,42,30,16,279,39*75
$GPGSA,M,3,02,04,12,14,25,29,30,,,,,,2.1,1.2,1.7*37
Trace #21 at position 5.000000
$GPZDA,081004.04,09,10,2011,00,00*65
$GPRMC,081004.00,A,4611.975988,N,01258.215807,E,001.3,121.6,091011,0.2,E,A*33
$GPGGA,081005.00,4611.975935,N,01258.215943,E,1,07,1.2,139.72,M,46.25,M,,*6F
$GPGLL,4611.975935,N,01258.215943,E,081005.00,A,A*65
$GPVTG,172.9,T,173.0,M,001.0,N,001.9,K,A*22
$GPGSV,2,1,08,02,33,103,37,04,22,054,40,09,39,144,30,12,72,041,44*75
$GPGSV,2,2,08,14,37,276,44,25,61,293,47,29,31,213,42,30,16,279,39*75
$GPGSA,M,3,02,04,12,14,25,29,30,,,,,,2.1,1.2,1.7*37
Trace #22 at position 5.250000
$GPZDA,081005.04,09,10,2011,00,00*64
$GPRMC,081005.00,A,4611.975935,N,01258.215943,E,001.0,172.9,091011,0.2,E,A*3F
$GPGGA,081006.00,4611.975739,N,01258.215850,E,1,07,1.2,139.85,M,46.25,M,,*65
$GPGLL,4611.975739,N,01258.215850,E,081006.00,A,A*67
$GPVTG,187.3,T,187.4,M,001.5,N,002.8,K,A*2A
$GPGSV,2,1,08,02,33,103,39,04,22,054,40,09,39,144,30,12,72,041,43*7C
$GPGSV,2,2,08,14,37,276,44,25,61,293,48,29,31,213,41,30,16,279,40*77
$GPGSA,M,3,02,04,12,14,25,29,30,,,,,,2.1,1.2,1.7*37
Trace #23 at position 5.500000
$GPZDA,081005.04,09,10,2011,00,00*64
$GPRMC,081005.00,A,4611.975935,N,01258.215943,E,001.0,172.9,091011,0.2,E,A*3F
$GPGGA,081006.00,4611.975739,N,01258.215850,E,1,07,1.2,139.85,M,46.25,M,,*65
$GPGLL,4611.975739,N,01258.215850,E,081006.00,A,A*67
$GPVTG,187.3,T,187.4,M,001.5,N,002.8,K,A*2A
$GPGSV,2,1,08,02,33,103,39,04,22,054,40,09,39,144,30,12,72,041,43*7C
$GPGSV,2,2,08,14,37,276,44,25,61,293,48,29,31,213,41,30,16,279,40*77
$GPGSA,M,3,02,04,12,14,25,29,30,,,,,,2.1,1.2,1.7*37
Trace #24 at position 5.750000
$GPZDA,081005.04,09,10,2011,00,00*64
$GPRMC,081005.00,A,4611.975935,N,01258.215943,E,001.0,172.9,091011,0.2,E,A*3F
$GPGGA,081006.00,4611.975739,N,01258.215850,E,1,07,1.2,139.85,M,46.25,M,,*65
$GPGLL,4611.975739,N,01258.215850,E,081006.00,A,A*67
$GPVTG,187.3,T,187.4,M,001.5,N,002.8,K,A*2A
$GPGSV,2,1,08,02,33,103,39,04,22,054,40,09,39,144,30,12,72,041,43*7C
$GPGSV,2,2,08,14,37,276,44,25,61,293,48,29,31,213,41,30,16,279,40*77
$GPGSA,M,3,02,04,12,14,25,29,30,,,,,,2.1,1.2,1.7*37
Trace #25 at position 6.000000
$GPZDA,081005.04,09,10,2011,00,00*64
$GPRMC,081005.00,A,4611.975935,N,01258.215943,E,001.0,172.9,091011,0.2,E,A*3F
$GPGGA,081006.00,4611.975739,N,01258.215850,E,1,07,1.2,139.85,M,46.25,M,,*65
$GPGLL,4611.975739,N,01258.215850,E,081006.00,A,A*67
$GPVTG,187.3,T,187.4,M,001.5,N,002.8,K,A*2A
$GPGSV,2,1,08,02,33,103,39,04,22,054,40,09,39,144,30,12,72,041,43*7C
$GPGSV,2,2,08,14,37,276,44,25,61,293,48,29,31,213,41,30,16,279,40*77
$GPGSA,M,3,02,04,12,14,25,29,30,,,,,,2.1,1.2,1.7*37
Trace #26 at position 6.250000
$GPZDA,081006.04,09,10,2011,00,00*67
$GPRMC,081006.00,A,4611.975739,N,01258.215850,E,001.5,187.3,091011,0.2,E,A*38
$GPGGA,081007.00,4611.975470,N,01258.215805,E,1,07,1.2,139.92,M,46.25,M,,*6C
$GPGLL,4611.975470,N,01258.215805,E,081007.00,A,A*68
$GPVTG,171.8,T,171.9,M,001.4,N,002.5,K,A*20
$GPGSV,2,1,08,02,33,103,39,04,22,054,41,09,39,144,29,12,72,041,44*72
$GPGSV,2,2,08,14,37,276,43,25,61,293,48,29,31,213,40,30,16,279,40*71
$GPGSA,M,3,02,04,12,14,25,29,30,,,,,,2.1,1.2,1.7*37
Trace #27 at position 6.500000
$GPZDA,081006.04,09,10,2011,00,00*67
$GPRMC,081006.00,A,4611.975739,N,01258.215850,E,001.5,187.3,091011,0.2,E,A*38
$GPGGA,081007.00,4611.975470,N,01258.215805,E,1,07,1.2,139.92,M,46.25,M,,*6C
$GPGLL,4611.975470,N,01258.215805,E,081007.00,A,A*68
$GPVTG,171.8,T,171.9,M,001.4,N,002.5,K,A*20
$GPGSV,2,1,08,02,33,103,39,04,22,054,41,09,39,144,29,12,72,041,44*72
$GPGSV,2,2,08,14,37,276,43,25,61,293,48,29,31,213,40,30,16,279,40*71
$GPGSA,M,3,02,04,12,14,25,29,30,,,,,,2.1,1.2,1.7*37
Trace #28 at position 6.750000
$GPZDA,081006.04,09,10,2011,00,00*67
$GPRMC,081006.00,A,4611.975739,N,01258.215850,E,001.5,187.3,091011,0.2,E,A*38
$GPGGA,081007.00,4611.975470,N,01258.215805,E,1,07,1.2,139.92,M,46.25,M,,*6C
$GPGLL,4611.975470,N,01258.215805,E,081007.00,A,A*68
$GPVTG,171.8,T,171.9,M,001.4,N,002.5,K,A*20
$GPGSV,2,1,08,02,33,103,39,04,22,054,41,09,39,144,29,12,72,041,44*72
$GPGSV,2,2,08,14,37,276,43,25,61,293,48,29,31,213,40,30,16,279,40*71
$GPGSA,M,3,02,04,12,14,25,29,30,,,,,,2.1,1.2,1.7*37
Trace #29 at position 7.000000
$GPZDA,081007.04,09,10,2011,00,00*66
$GPRMC,081007.00,A,4611.975470,N,01258.215805,E,001.4,171.8,091011,0.2,E,A*34
$GPGGA,081008.00,4611.975201,N,01258.215962,E,1,07,1.2,140.00,M,46.25,M,,*66
$GPGLL,4611.975201,N,01258.215962,E,081008.00,A,A*67
$GPVTG,149.2,T,149.4,M,001.5,N,002.8,K,A*2B
$GPGSV,2,1,08,02,33,103,37,04,22,054,41,09,39,144,,12,72,041,44*77
$GPGSV,2,2,08,14,37,276,43,25,61,293,47,29,31,213,38,30,16,279,40*71
$GPGSA,M,3,02,04,12,14,25,29,30,,,,,,2.1,1.2,1.7*37
Trace #30 at position 7.250000
$GPZDA,081007.04,09,10,2011,00,00*66
$GPRMC,081007.00,A,4611.975470,N,01258.215805,E,001.4,171.8,091011,0.2,E,A*34
$GPGGA,081008.00,4611.975201,N,01258.215962,E,1,07,1.2,140.00,M,46.25,M,,*66
$GPGLL,4611.975201,N,01258.215962,E,081008.00,A,A*67
$GPVTG,149.2,T,149.4,M,001.5,N,002.8,K,A*2B
$GPGSV,2,1,08,02,33,103,37,04,22,054,41,09,39,144,,12,72,041,44*77
$GPGSV,2,2,08,14,37,276,43,25,61,293,47,29,31,213,38,30,16,279,40*71
$GPGSA,M,3,02,04,12,14,25,29,30,,,,,,2.1,1.2,1.7*37
Trace #31 at position 7.500000
$GPZDA,081008.04,09,10,2011,00,00*69
$GPRMC,081008.00,A,4611.975201,N,01258.215962,E,001.5,149.2,091011,0.2,E,A*3B
$GPGGA,081009.00,4611.974910,N,01258.216191,E,1,07,1.2,140.08,M,46.25,M,,*62
$GPGLL,4611.974910,N,01258.216191,E,081009.00,A,A*6B
$GPVTG,157.4,T,157.6,M,001.5,N,002.8,K,A*2F
$GPGSV,2,1,08,02,33,103,40,04,22,054,42,09,39,144,,12,72,041,44*74
$GPGSV,2,2,08,14,37,276,43,25,61,293,47,29,31,213,41,30,16,279,40*7F
$GPGSA,M,3,02,04,12,14,25,29,30,,,,,,2.1,1.2,1.7*37
Trace #32 at position 7.750000
$GPZDA,081008.04,09,10,2011,00,00*69
$GPRMC,081008.00,A,4611.975201,N,01258.215962,E,001.5,149.2,091011,0.2,E,A*3B
$GPGGA,081009.00,4611.974910,N,01258.216191,E,1,07,1.2,140.08,M,46.25,M,,*62
$GPGLL,4611.974910,N,01258.216191,E,081009.00,A,A*6B
$GPVTG,157.4,T,157.6,M,001.5,N,002.8,K,A*2F
$GPGSV,2,1,08,02,33,103,40,04,22,054,42,09,39,144,,12,72,041,44*74
$GPGSV,2,2,08,14,37,276,43,25,61,293,47,29,31,213,41,30,16,279,40*7F
$GPGSA,M,3,02,04,12,14,25,29,30,,,,,,2.1,1.2,1.7*37
Trace #33 at position 8.000000
$GPZDA,081008.04,09,10,2011,00,00*69
$GPRMC,081008.00,A,4611.975201,N,01258.215962,E,001.5,149.2,091011,0.2,E,A*3B
$GPGGA,081009.00,4611.974910,N,01258.216191,E,1,07,1.2,140.08,M,46.25,M,,*62
$GPGLL,4611.974910,N,01258.216191,E,081009.00,A,A*6B
$GPVTG,157.4,T,157.6,M,001.5,N,002.8,K,A*2F
$GPGSV,2,1,08,02,33,103,40,04,22,054,42,09,39,144,,12,72,041,44*74
$GPGSV,2,2,08,14,37,276,43,25,61,293,47,29,31,213,41,30,16,279,40*7F
$GPGSA,M,3,02,04,12,14,25,29,30,,,,,,2.1,1.2,1.7*37
Trace #34 at position 8.250000
$GPZDA,081009.04,09,10,2011,00,00*68
$GPRMC,081009.00,A,4611.974910,N,01258.216191,E,001.5,157.4,091011,0.2,E,A*3E
$GPGGA,081010.00,4611.974585,N,01258.216270,E,1,07,1.2,140.11,M,46.25,M,,*6E
$GPGLL,4611.974585,N,01258.216270,E,081010.00,A,A*6F
$GPVTG,181.5,T,181.7,M,001.5,N,002.7,K,A*20
$GPGSV,2,1,08,02,33,103,37,04,22,054,41,09,39,144,,12,72,041,43*70
$GPGSV,2,2,08,14,37,276,42,25,61,293,47,29,31,213,41,30,16,279,41*7F
$GPGSA,M,3,02,04,12,14,25,29,30,,,,,,2.1,1.2,1.7*37
Trace #35 at position 8.500000
$GPZDA,081009.04,09,10,2011,00,00*68
$GPRMC,081009.00,A,4611.974910,N,01258.216191,E,001.5,157.4,091011,0.2,E,A*3E
$GPGGA,081010.00,4611.974585,N,01258.216270,E,1,07,1.2,140.11,M,46.25,M,,*6E
$GPGLL,4611.974585,N,01258.216270,E,081010.00,A,A*6F
$GPVTG,181.5,T,181.7,M,001.5,N,002.7,K,A*20
$GPGSV,2,1,08,02,33,103,37,04,22,054,41,09,39,144,,12,72,041,43*70
$GPGSV,2,2,08,14,37,276,42,25,61,293,47,29,31,213,41,30,16,279,41*7F
$GPGSA,M,3,02,04,12,14,25,29,30,,,,,,2.1,1.2,1.7*37
Trace #36 at position 8.750000
$GPZDA,081009.04,09,10,2011,00,00*68
$GPRMC,081009.00,A,4611.974910,N,01258.216191,E,001.5,157.4,091011,0.2,E,A*3E
$GPGGA,081010.00,4611.974585,N,01258.216270,E,1,07,1.2,140.11,M,46.25,M,,*6E
$GPGLL,4611.974585,N,01258.216270,E,081010.00,A,A*6F
$GPVTG,181.5,T,181.7,M,001.5,N,002.7,K,A*20
$GPGSV,2,1,08,02,33,103,37,04,22,054,41,09,39,144,,12,72,041,43*70
$GPGSV,2,2,08,14,37,276,42,25,61,293,47,29,31,213,41,30,16,279,41*7F
$GPGSA,M,3,02,04,12,14,25,29,30,,,,,,2.1,1.2,1.7*37
Trace #37 at position 9.000000
$GPZDA,081010.04,09,10,2011,00,00*60
$GPRMC,081010.00,A,4611.974585,N,01258.216270,E,001.5,181.5,091011,0.2,E,A*30
$GPGGA,081011.00,4611.974265,N,01258.216356,E,1,07,1.2,140.18,M,46.25,M,,*6A
$GPGLL,4611.974265,N,01258.216356,E,081011.00,A,A*62
$GPVTG,157.7,T,157.8,M,001.4,N,002.6,K,A*2D
$GPGSV,2,1,08,02,33,103,39,04,22,054,42,09,39,144,,12,72,041,43*7D
$GPGSV,2,2,08,14,37,276,43,25,61,293,47,29,31,213,41,30,16,279,40*7F
$GPGSA,M,3,02,04,12,14,25,29,30,,,,,,2.1,1.2,1.7*37
Trace #38 at position 9.250000
$GPZDA,081010.04,09,10,2011,00,00*60
$GPRMC,081010.00,A,4611.974585,N,01258.216270,E,001.5,181.5,091011,0.2,E,A*30
$GPGGA,081011.00,4611.974265,N,01258.216356,E,1,07,1.2,140.18,M,46.25,M,,*6A
$GPGLL,4611.974265,N,01258.216356,E,081011.00,A,A*62
$GPVTG,157.7,T,157.8,M,001.4,N,002.6,K,A*2D
$GPGSV,2,1,08,02,33,103,39,04,22,054,42,09,39,144,,12,72,041,43*7D
$GPGSV,2,2,08,14,37,276,43,25,61,293,47,29,31,213,41,30,16,279,40*7F
$GPGSA,M,3,02,04,12,14,25,29,30,,,,,,2.1,1.2,1.7*37
Trace #39 at position 9.500000
$GPZDA,081010.04,09,10,2011,00,00*60
$GPRMC,081010.00,A,4611.974585,N,01258.216270,E,001.5,181.5,091011,0.2,E,A*30
$GPGGA,081011.00,4611.974265,N,01258.216356,E,1,07,1.2,140.18,M,46.25,M,,*6A
$GPGLL,4611.974265,N,01258.216356,E,081011.00,A,A*62
$GPVTG,157.7,T,157.8,M,001.4,N,002.6,K,A*2D
$GPGSV,2,1,08,02,33,103,39,04,22,054,42,09,39,144,,12,72,041,43*7D
$GPGSV,2,2,08,14,37,276,43,25,61,293,47,29,31,213,41,30,16,279,40*7F
$GPGSA,M,3,02,04,12,14,25,29,30,,,,,,2.1,1.2,1.7*37
Trace #40 at position 9.750000
$GPZDA,081011.04,09,10,2011,00,00*61
$GPRMC,081011.00,A,4611.974265,N,01258.216356,E,001.4,157.7,091011,0.2,E,A*35
$GPGGA,081012.00,4611.973906,N,01258.216536,E,1,07,1.2,140.24,M,46.25,M,,*6F
$GPGLL,4611.973906,N,01258.216536,E,081012.00,A,A*68
$GPVTG,166.1,T,166.3,M,001.8,N,003.3,K,A*28
$GPGSV,2,1,08,02,33,103,38,04,22,054,41,09,39,144,,12,72,041,43*7F
$GPGSV,2,2,08,14,37,276,43,25,61,293,47,29,31,213,40,30,16,279,40*7E
$GPGSA,M,3,02,04,12,14,25,29,30,,,,,,2.1,1.2,1.7*37
Trace #41 at position 10.000000
$GPZDA,081011.04,09,10,2011,00,00*61
$GPRMC,081011.00,A,4611.974265,N,01258.216356,E,001.4,157.7,091011,0.2,E,A*35
$GPGGA,081012.00,4611.973906,N,01258.216536,E,1,07,1.2,140.24,M,46.25,M,,*6F
$GPGLL,4611.973906,N,01258.216536,E,081012.00,A,A*68
$GPVTG,166.1,T,166.3,M,001.8,N,003.3,K,A*28
$GPGSV,2,1,08,02,33,103,38,04,22,054,41,09,39,144,,12,72,041,43*7F
$GPGSV,2,2,08,14,37,276,43,25,61,293,47,29,31,213,40,30,16,279,40*7E
$GPGSA,M,3,02,04,12,14,25,29,30,,,,,,2.1,1.2,1.7*37
Trace #42 at position 10.250000
$GPZDA,081011.04,09,10,2011,00,00*61
$GPRMC,081011.00,A,4611.974265,N,01258.216356,E,001.4,157.7,091011,0.2,E,A*35
$GPGGA,081012.00,4611.973906,N,01258.216536,E,1,07,1.2,140.24,M,46.25,M,,*6F
$GPGLL,4611.973906,N,01258.216536,E,081012.00,A,A*68
$GPVTG,166.1,T,166.3,M,001.8,N,003.3,K,A*28
$GPGSV,2,1,08,02,33,103,38,04,22,054,41,09,39,144,,12,72,041,43*7F
$GPGSV,2,2,08,14,37,276,43,25,61,293,47,29,31,213,40,30,16,279,40*7E
$GPGSA,M,3,02,04,12,14,25,29,30,,,,,,2.1,1.2,1.7*37
Trace #43 at position 10.500000
$GPZDA,081012.04,09,10,2011,00,00*62
$GPRMC,081012.00,A,4611.973906,N,01258.216536,E,001.8,166.1,091011,0.2,E,A*37
$GPGGA,081013.00,4611.973521,N,01258.216646,E,1,07,1.2,140.18,M,46.25,M,,*6C
$GPGLL,4611.973521,N,01258.216646,E,081013.00,A,A*64
$GPVTG,173.1,T,173.2,M,001.5,N,002.8,K,A*2E
$GPGSV,2,1,08,02,33,103,39,04,22,054,43,09,39,144,,12,72,041,43*7C
$GPGSV,2,2,08,14,37,276,43,25,61,293,48,29,31,213,41,30,16,279,40*70
$GPGSA,M,3,02,04,12,14,25,29,30,,,,,,2.1,1.2,1.7*37
Trace #44 at position 10.750000
$GPZDA,081012.04,09,10,2011,00,00*62
$GPRMC,081012.00,A,4611.973906,N,01258.216536,E,001.8,166.1,091011,0.2,E,A*37
$GPGGA,081013.00,4611.973521,N,01258.216646,E,1,07,1.2,140.18,M,46.25,M,,*6C
$GPGLL,4611.973521,N,01258.216646,E,081013.00,A,A*64
$GPVTG,173.1,T,173.2,M,001.5,N,002.8,K,A*2E
$GPGSV,2,1,08,02,33,103,39,04,22,054,43,09,39,144,,12,72,041,43*7C
$GPGSV,2,2,08,14,37,276,43,25,61,293,48,29,31,213,41,30,16,279,40*70
$GPGSA,M,3,02,04,12,14,25,29,30,,,,,,2.1,1.2,1.7*37
Trace #45 at position 11.000000
$GPZDA,081012.04,09,10,2011,00,00*62
$GPRMC,081012.00,A,4611.973906,N,01258.216536,E,001.8,166.1,091011,0.2,E,A*37
$GPGGA,081013.00,4611.973521,N,01258.216646,E,1,07,1.2,140.18,M,46.25,M,,*6C
$GPGLL,4611.973521,N,01258.216646,E,081013.00,A,A*64
$GPVTG,173.1,T,173.2,M,001.5,N,002.8,K,A*2E
$GPGSV,2,1,08,02,33,103,39,04,22,054,43,09,39,144,,12,72,041,43*7C
$GPGSV,2,2,08,14,37,276,43,25,61,293,48,29,31,213,41,30,16,279,40*70
$GPGSA,M,3,02,04,12,14,25,29,30,,,,,,2.1,1.2,1.7*37
Trace #46 at position 11.250000
$GPZDA,081013.04,09,10,2011,00,00*63
$GPRMC,081013.00,A,4611.973521,N,01258.216646,E,001.5,173.1,091011,0.2,E,A*32
$GPGGA,081014.00,4611.973166,N,01258.216781,E,1,07,1.2,140.13,M,46.25,M,,*6D
$GPGLL,4611.973166,N,01258.216781,E,081014.00,A,A*6E
$GPVTG,159.9,T,160.1,M,001.6,N,002.9,K,A*2D
$GPGSV,2,1,08,02,33,103,40,04,22,054,42,09,39,144,,12,72,041,44*74
$GPGSV,2,2,08,14,37,276,43,25,61,293,47,29,31,213,42,30,16,279,39*72
$GPGSA,M,3,02,04,12,14,25,29,30,,,,,,2.1,1.2,1.7*37
Trace #47 at position 11.500000
$GPZDA,081013.04,09,10,2011,00,00*63
$GPRMC,081013.00,A,4611.973521,N,01258.216646,E,001.5,173.1,091011,0.2,E,A*32
$GPGGA,081014.00,4611.973166,N,01258.216781,E,1,07,1.2,140.13,M,46.25,M,,*6D
$GPGLL,4611.973166,N,01258.216781,E,081014.00,A,A*6E
$GPVTG,159.9,T,160.1,M,001.6,N,002.9,K,A*2D
$GPGSV,2,1,08,02,33,103,40,04,22,054,42,09,39,144,,12,72,041,44*74
$GPGSV,2,2,08,14,37,276,43,25,61,293,47,29,31,213,42,30,16,279,39*72
$GPGSA,M,3,02,04,12,14,25,29,30,,,,,,2.1,1.2,1.7*37
Trace #48 at position 11.750000
$GPZDA,081013.04,09,10,2011,00,00*63
$GPRMC,081013.00,A,4611.973521,N,01258.216646,E,001.5,173.1,091011,0.2,E,A*32
$GPGGA,081014.00,4611.973166,N,01258.216781,E,1,07,1.2,140.13,M,46.25,M,,*6D
$GPGLL,4611.973166,N,01258.216781,E,081014.00,A,A*6E
$GPVTG,159.9,T,160.1,M,001.6,N,002.9,K,A*2D
$GPGSV,2,1,08,02,33,103,40,04,22,054,42,09,39,144,,12,72,041,44*74
$GPGSV,2,2,08,14,37,276,43,25,61,293,47,29,31,213,42,30,16,279,39*72
$GPGSA,M,3,02,04,12,14,25,29,30,,,,,,2.1,1.2,1.7*37
Trace #49 at position 12.000000
$GPZDA,081014.04,09,10,2011,00,00*64
$GPRMC,081014.00,A,4611.973166,N,01258.216781,E,001.6,159.9,091011,0.2,E,A*3B
$GPGGA,081015.00,4611.972774,N,01258.217060,E,1,07,1.2,140.13,M,46.25,M,,*61
$GPGLL,4611.972774,N,01258.217060,E,081015.00,A,A*62
$GPVTG,150.9,T,151.0,M,002.0,N,003.7,K,A*2D
$GPGSV,2,1,08,02,33,103,38,04,22,054,41,09,39,144,,12,72,041,44*78
$GPGSV,2,2,08,14,37,276,43,25,61,293,48,29,31,213,41,30,16,279,40*70
$GPGSA,M,3,02,04,12,14,25,29,30,,,,,,2.1,1.2,1.7*37
Trace #50 at position 12.250000
$GPZDA,081014.04,09,10,2011,00,00*64
$GPRMC,081014.00,A,4611.973166,N,01258.216781,E,001.6,159.9,091011,0.2,E,A*3B
$GPGGA,081015.00,4611.972774,N,01258.217060,E,1,07,1.2,140.13,M,46.25,M,,*61
$GPGLL,4611.972774,N,01258.217060,E,081015.00,A,A*62
$GPVTG,150.9,T,151.0,M,002.0,N,003.7,K,A*2D
$GPGSV,2,1,08,02,33,103,38,04,22,054,41,09,39,144,,12,72,041,44*78
$GPGSV,2,2,08,14,37,276,43,25,61,293,48,29,31,213,41,30,16,279,40*70
$GPGSA,M,3,02,04,12,14,25,29,30,,,,,,2.1,1.2,1.7*37
Trace #51 at position 12.500000
$GPZDA,081014.04,09,10,2011,00,00*64
$GPRMC,081014.00,A,4611.973166,N,01258.216781,E,001.6,159.9,091011,0.2,E,A*3B
$GPGGA,081015.00,4611.972774,N,01258.217060,E,1,07,1.2,140.13,M,46.25,M,,*61
$GPGLL,4611.972774,N,01258.217060,E,081015.00,A,A*62
$GPVTG,150.9,T,151.0,M,002.0,N,003.7,K,A*2D
$GPGSV,2,1,08,02,33,103,38,04,22,054,41,09,39,144,,12,72,041,44*78
$GPGSV,2,2,08,14,37,276,43,25,61,293,48,29,31,213,41,30,16,279,40*70
$GPGSA,M,3,02,04,12,14,25,29,30,,,,,,2.1,1.2,1.7*37
Trace #52 at position 12.750000
$GPZDA,081014.04,09,10,2011,00,00*64
$GPRMC,081014.00,A,4611.973166,N,01258.216781,E,001.6,159.9,091011,0.2,E,A*3B
$GPGGA,081015.00,4611.972774,N,01258.217060,E,1,07,1.2,140.13,M,46.25,M,,*61
$GPGLL,4611.972774,N,01258.217060,E,081015.00,A,A*62
$GPVTG,150.9,T,151.0,M,002.0,N,003.7,K,A*2D
$GPGSV,2,1,08,02,33,103,38,04,22,054,41,09,39,144,,12,72,041,44*78
$GPGSV,2,2,08,14,37,276,43,25,61,293,48,29,31,213,41,30,16,279,40*70
$GPGSA,M,3,02,04,12,14,25,29,30,,,,,,2.1,1.2,1.7*37
Trace #53 at position 13.000000
$GPZDA,081015.04,09,10,2011,00,00*65
$GPRMC,081015.00,A,4611.972774,N,01258.217060,E,002.0,150.9,091011,0.2,E,A*3B
$GPGGA,081016.00,4611.972404,N,01258.217289,E,1,07,1.2,140.16,M,46.25,M,,*66
$GPGLL,4611.972404,N,01258.217289,E,081016.00,A,A*60
$GPVTG,166.6,T,166.7,M,001.3,N,002.4,K,A*26
$GPGSV,2,1,08,02,33,103,37,04,22,054,42,09,39,144,,12,72,041,44*74
$GPGSV,2,2,08,14,37,276,44,25,61,293,47,29,31,213,42,30,16,279,39*75
$GPGSA,M,3,02,04,12,14,25,29,30,,,,,,2.1,1.2,1.7*37
Trace #54 at position 13.250000
$GPZDA,081015.04,09,10,2011,00,00*65
$GPRMC,081015.00,A,4611.972774,N,01258.217060,E,002.0,150.9,091011,0.2,E,A*3B
$GPGGA,081016.00,4611.972404,N,01258.217289,E,1,07,1.2,140.16,M,46.25,M,,*66
$GPGLL,4611.972404,N,01258.217289,E,081016.00,A,A*60
$GPVTG,166.6,T,166.7,M,001.3,N,002.4,K,A*26
$GPGSV,2,1,08,02,33,103,37,04,22,054,42,09,39,144,,12,72,041,44*74
$GPGSV,2,2,08,14,37,276,44,25,61,293,47,29,31,213,42,30,16,279,39*75
$GPGSA,M,3,02,04,12,14,25,29,30,,,,,,2.1,1.2,1.7*37
Trace #55 at position 13.500000
$GPZDA,081015.04,09,10,2011,00,00*65
$GPRMC,081015.00,A,4611.972774,N,01258.217060,E,002.0,150.9,091011,0.2,E,A*3B
$GPGGA,081016.00,4611.972404,N,01258.217289,E,1,07,1.2,140.16,M,46.25,M,,*66
$GPGLL,4611.972404,N,01258.217289,E,081016.00,A,A*60
$GPVTG,166.6,T,166.7,M,001.3,N,002.4,K,A*26
$GPGSV,2,1,08,02,33,103,37,04,22,054,42,09,39,144,,12,72,041,44*74
$GPGSV,2,2,08,14,37,276,44,25,61,293,47,29,31,213,42,30,16,279,39*75
$GPGSA,M,3,02,04,12,14,25,29,30,,,,,,2.1,1.2,1.7*37
Trace #56 at position 13.750000
$GPZDA,081015.04,09,10,2011,00,00*65
$GPRMC,081015.00,A,4611.972774,N,01258.217060,E,002.0,150.9,091011,0.2,E,A*3B
$GPGGA,081016.00,4611.972404,N,01258.217289,E,1,07,1.2,140.16,M,46.25,M,,*66
$GPGLL,4611.972404,N,01258.217289,E,081016.00,A,A*60
$GPVTG,166.6,T,166.7,M,001.3,N,002.4,K,A*26
$GPGSV,2,1,08,02,33,103,37,04,22,054,42,09,39,144,,12,72,041,44*74
$GPGSV,2,2,08,14,37,276,44,25,61,293,47,29,31,213,42,30,16,279,39*75
$GPGSA,M,3,02,04,12,14,25,29,30,,,,,,2.1,1.2,1.7*37
Trace #57 at position 14.000000
$GPZDA,081016.04,09,10,2011,00,00*66
$GPRMC,081016.00,A,4611.972404,N,01258.217289,E,001.3,166.6,091011,0.2,E,A*33
$GPGGA,081017.00,4611.972009,N,01258.217508,E,1,07,1.2,140.19,M,46.25,M,,*6F
$GPGLL,4611.972009,N,01258.217508,E,081017.00,A,A*66
$GPVTG,153.3,T,153.4,M,002.1,N,003.9,K,A*2D
$GPGSV,2,1,08,02,33,103,37,04,22,054,42,09,39,144,,12,72,041,43*73
$GPGSV,2,2,08,14,37,276,43,25,61,293,47,29,31,213,41,30,16,279,40*7F
$GPGSA,M,3,02,04,12,14,25,29,30,,,,,,2.1,1.2,1.7*37
Trace #58 at position 14.250000
$GPZDA,081016.04,09,10,2011,00,00*66
$GPRMC,081016.00,A,4611.972404,N,01258.217289,E,001.3,166.6,091011,0.2,E,A*33
$GPGGA,081017.00,4611.972009,N,01258.217508,E,1,07,1.2,140.19,M,46.25,M,,*6F
$GPGLL,4611.972009,N,01258.217508,E,081017.00,A,A*66
$GPVTG,153.3,T,153.4,M,002.1,N,003.9,K,A*2D
$GPGSV,2,1,08,02,33,103,37,04,22,054,42,09,39,144,,12,72,041,43*73
$GPGSV,2,2,08,14,37,276,43,25,61,293,47,29,31,213,41,30,16,279,40*7F
$GPGSA,M,3,02,04,12,14,25,29,30,,,,,,2.1,1.2,1.7*37
Trace #59 at position 14.500000
$GPZDA,081016.04,09,10,2011,00,00*66
$GPRMC,081016.00,A,4611.972404,N,01258.217289,E,001.3,166.6,091011,0.2,E,A*33
$GPGGA,081017.00,4611.972009,N,01258.217508,E,1,07,1.2,140.19,M,46.25,M,,*6F
$GPGLL,4611.972009,N,01258.217508,E,081017.00,A,A*66
$GPVTG,153.3,T,153.4,M,002.1,N,003.9,K,A*2D
$GPGSV,2,1,08,02,33,103,37,04,22,054,42,09,39,144,,12,72,041,43*73
$GPGSV,2,2,08,14,37,276,43,25,61,293,47,29,31,213,41,30,16,279,40*7F
$GPGSA,M,3,02,04,12,14,25,29,30,,,,,,2.1,1.2,1.7*37
Trace #60 at position 14.750000
$GPZDA,081017.04,09,10,2011,00,00*67
$GPRMC,081017.00,A,4611.972009,N,01258.217508,E,002.1,153.3,091011,0.2,E,A*37
$GPGGA,081018.00,4611.971526,N,01258.217793,E,1,07,1.2,140.17,M,46.25,M,,*65
$GPGLL,4611.971526,N,01258.217793,E,081018.00,A,A*62
$GPVTG,160.9,T,161.1,M,002.0,N,003.8,K,A*23
$GPGSV,2,1,08,02,33,103,37,04,22,054,41,09,39,144,,12,72,041,43*70
$GPGSV,2,2,08,14,37,276,43,25,61,293,47,29,31,213,41,30,16,279,40*7F
$GPGSA,M,3,02,04,12,14,25,29,30,,,,,,2.1,1.2,1.7*37
Trace #61 at position 15.000000
$GPZDA,081017.04,09,10,2011,00,00*67
$GPRMC,081017.00,A,4611.972009,N,01258.217508,E,002.1,153.3,091011,0.2,E,A*37
$GPGGA,081018.00,4611.971526,N,01258.217793,E,1,07,1.2,140.17,M,46.25,M,,*65
$GPGLL,4611.971526,N,01258.217793,E,081018.00,A,A*62
$GPVTG,160.9,T,161.1,M,002.0,N,003.8,K,A*23
$GPGSV,2,1,08,02,33,103,37,04,22,054,41,09,39,144,,12,72,041,43*70
$GPGSV,2,2,08,14,37,276,43,25,61,293,47,29,31,213,41,30,16,279,40*7F
$GPGSA,M,3,02,04,12,14,25,29,30,,,,,,2.1,1.2,1.7*37
Trace #62 at position 15.250000
$GPZDA,081017.04,09,10,2011,00,00*67
$GPRMC,081017.00,A,4611.972009,N,01258.217508,E,002.1,153.3,091011,0.2,E,A*37
$GPGGA,081018.00,4611.971526,N,01258.217793,E,1,07,1.2,140.17,M,46.25,M,,*65
$GPGLL,4611.971526,N,01258.217793,E,081018.00,A,A*62
$GPVTG,160.9,T,161.1,M,002.0,N,003.8,K,A*23
$GPGSV,2,1,08,02,33,103,37,04,22,054,41,09,39,144,,12,72,041,43*70
$GPGSV,2,2,08,14,37,276,43,25,61,293,47,29,31,213,41,30,16,279,40*7F
$GPGSA,M,3,02,04,12,14,25,29,30,,,,,,2.1,1.2,1.7*37
Trace #63 at position 15.500000
$GPZDA,081017.04,09,10,2011,00,00*67
$GPRMC,081017.00,A,4611.972009,N,01258.217508,E,002.1,153.3,091011,0.2,E,A*37
$GPGGA,081018.00,4611.971526,N,01258.217793,E,1,07,1.2,140.17,M,46.25,M,,*65
$GPGLL,4611.971526,N,01258.217793,E,081018.00,A,A*62
$GPVTG,160.9,T,161.1,M,002.0,N,003.8,K,A*23
$GPGSV,2,1,08,02,33,103,37,04,22,054,41,09,39,144,,12,72,041,43*70
$GPGSV,2,2,08,14,37,276,43,25,61,293,47,29,31,213,41,30,16,279,40*7F
$GPGSA,M,3,02,04,12,14,25,29,30,,,,,,2.1,1.2,1.7*37
Trace #64 at position 15.750000
$GPZDA,081018.04,09,10,2011,00,00*68
$GPRMC,081018.00,A,4611.971526,N,01258.217793,E,002.0,160.9,091011,0.2,E,A*38
$GPGGA,081019.00,4611.971049,N,01258.218056,E,1,07,1.2,140.12,M,46.25,M,,*6C
$GPGLL,4611.971049,N,01258.218056,E,081019.00,A,A*6E
$GPVTG,155.0,T,155.1,M,002.0,N,003.8,K,A*2B
$GPGSV,2,1,08,02,33,103,36,04,22,054,42,09,39,144,,12,72,041,44*75
$GPGSV,2,2,08,14,37,276,42,25,61,293,47,29,31,213,41,30,16,279,40*7E
$GPGSA,M,3,02,04,12,14,25,29,30,,,,,,2.1,1.2,1.7*37
Trace #65 at position 16.000000
$GPZDA,081018.04,09,10,2011,00,00*68
$GPRMC,081018.00,A,4611.971526,N,01258.217793,E,002.0,160.9,091011,0.2,E,A*38
$GPGGA,081019.00,4611.971049,N,01258.218056,E,1,07,1.2,140.12,M,46.25,M,,*6C
$GPGLL,4611.971049,N,01258.218056,E,081019.00,A,A*6E
$GPVTG,155.0,T,155.1,M,002.0,N,003.8,K,A*2B
$GPGSV,2,1,08,02,33,103,36,04,22,054,42,09,39,144,,12,72,041,44*75
$GPGSV,2,2,08,14,37,276,42,25,61,293,47,29,31,213,41,30,16,279,40*7E
$GPGSA,M,3,02,04,12,14,25,29,30,,,,,,2.1,1.2,1.7*37
Trace #66 at position 16.250000
$GPZDA,081018.04,09,10,2011,00,00*68
$GPRMC,081018.00,A,4611.971526,N,01258.217793,E,002.0,160.9,091011,0.2,E,A*38
$GPGGA,081019.00,4611.971049,N,01258.218056,E,1,07,1.2,140.12,M,46.25,M,,*6C
$GPGLL,4611.971049,N,01258.218056,E,081019.00,A,A*6E
$GPVTG,155.0,T,155.1,M,002.0,N,003.8,K,A*2B
$GPGSV,2,1,08,02,33,103,36,04,22,054,42,09,39,144,,12,72,041,44*75
$GPGSV,2,2,08,14,37,276,42,25,61,293,47,29,31,213,41,30,16,279,40*7E
$GPGSA,M,3,02,04,12,14,25,29,30,,,,,,2.1,1.2,1.7*37
Trace #67 at position 16.500000
$GPZDA,081018.04,09,10,2011,00,00*68
$GPRMC,081018.00,A,4611.971526,N,01258.217793,E,002.0,160.9,091011,0.2,E,A*38
$GPGGA,081019.00,4611.971049,N,01258.218056,E,1,07,1.2,140.12,M,46.25,M,,*6C
$GPGLL,4611.971049,N,01258.218056,E,081019.00,A,A*6E
$GPVTG,155.0,T,155.1,M,002.0,N,003.8,K,A*2B
$GPGSV,2,1,08,02,33,103,36,04,22,054,42,09,39,144,,12,72,041,44*75
$GPGSV,2,2,08,14,37,276,42,25,61,293,47,29,31,213,41,30,16,279,40*7E
$GPGSA,M,3,02,04,12,14,25,29,30,,,,,,2.1,1.2,1.7*37
Trace #68 at position 16.750000
$GPZDA,081019.04,09,10,2011,00,00*69
$GPRMC,081019.00,A,4611.971049,N,01258.218056,E,002.0,155.0,091011,0.2,E,A*3B
$GPGGA,081020.00,4611.970611,N,01258.218297,E,1,07,1.2,140.15,M,46.25,M,,*64
$GPGLL,4611.970611,N,01258.218297,E,081020.00,A,A*61
$GPVTG,160.9,T,161.0,M,001.7,N,003.1,K,A*2F
$GPGSV,2,1,08,02,33,103,36,04,22,054,41,09,39,144,,12,72,041,44*76
$GPGSV,2,2,08,14,37,276,43,25,61,293,47,29,31,213,42,30,16,279,39*72
$GPGSA,M,3,02,04,12,14,25,29,30,,,,,,2.1,1.2,1.7*37
Trace #69 at position 17.000000
$GPZDA,081019.04,09,10,2011,00,00*69
$GPRMC,081019.00,A,4611.971049,N,01258.218056,E,002.0,155.0,091011,0.2,E,A*3B
$GPGGA,081020.00,4611.970611,N,01258.218297,E,1,07,1.2,140.15,M,46.25,M,,*64
$GPGLL,4611.970611,N,01258.218297,E,081020.00,A,A*61
$GPVTG,160.9,T,161.0,M,001.7,N,003.1,K,A*2F
$GPGSV,2,1,08,02,33,103,36,04,22,054,41,09,39,144,,12,72,041,44*76
$GPGSV,2,2,08,14,37,276,43,25,61,293,47,29,31,213,42,30,16,279,39*72
$GPGSA,M,3,02,04,12,14,25,29,30,,,,,,2.1,1.2,1.7*37
Trace #70 at position 17.250000
$GPZDA,081019.04,09,10,2011,00,00*69
$GPRMC,081019.00,A,4611.971049,N,01258.218056,E,002.0,155.0,091011,0.2,E,A*3B
$GPGGA,081020.00,4611.970611,N,01258.218297,E,1,07,1.2,140.15,M,46.25,M,,*64
$GPGLL,4611.970611,N,01258.218297,E,081020.00,A,A*61
$GPVTG,160.9,T,161.0,M,001.7,N,003.1,K,A*2F
$GPGSV,2,1,08,02,33,103,36,04,22,054,41,09,39,144,,12,72,041,44*76
$GPGSV,2,2,08,14,37,276,43,25,61,293,47,29,31,213,42,30,16,279,39*72
$GPGSA,M,3,02,04,12,14,25,29,30,,,,,,2.1,1.2,1.7*37
Trace #71 at position 17.500000
$GPZDA,081019.04,09,10,2011,00,00*69
$GPRMC,081019.00,A,4611.971049,N,01258.218056,E,002.0,155.0,091011,0.2,E,A*3B
$GPGGA,081020.00,4611.970611,N,01258.218297,E,1,07,1.2,140.15,M,46.25,M,,*64
$GPGLL,4611.970611,N,01258.218297,E,081020.00,A,A*61
$GPVTG,160.9,T,161.0,M,001.7,N,003.1,K,A*2F
$GPGSV,2,1,08,02,33,103,36,04,22,054,41,09,39,144,,12,72,041,44*76
$GPGSV,2,2,08,14,37,276,43,25,61,293,47,29,31,213,42,30,16,279,39*72
$GPGSA,M,3,02,04,12,14,25,29,30,,,,,,2.1,1.2,1.7*37
Trace #72 at position 17.750000
$GPZDA,081020.04,09,10,2011,00,00*63
$GPRMC,081020.00,A,4611.970611,N,01258.218297,E,001.7,160.9,091011,0.2,E,A*3F
$GPGGA,081021.00,4611.970155,N,01258.218558,E,1,07,1.2,140.16,M,46.25,M,,*65
$GPGLL,4611.970155,N,01258.218558,E,081021.00,A,A*63
$GPVTG,152.6,T,152.7,M,002.2,N,004.1,K,A*27
$GPGSV,2,1,08,02,33,103,37,04,22,054,40,09,39,144,,12,72,041,44*76
$GPGSV,2,2,08,14,37,276,43,25,61,293,47,29,31,213,42,30,16,279,39*72
$GPGSA,M,3,02,04,12,14,25,29,30,,,,,,2.1,1.2,1.7*37
Trace #73 at position 18.000000
$GPZDA,081020.04,09,10,2011,00,00*63
$GPRMC,081020.00,A,4611.970611,N,01258.218297,E,001.7,160.9,091011,0.2,E,A*3F
$GPGGA,081021.00,4611.970155,N,01258.218558,E,1,07,1.2,140.16,M,46.25,M,,*65
$GPGLL,4611.970155,N,01258.218558,E,081021.00,A,A*63
$GPVTG,152.6,T,152.7,M,002.2,N,004.1,K,A*27
$GPGSV,2,1,08,02,33,103,37,04,22,054,40,09,39,144,,12,72,041,44*76
$GPGSV,2,2,08,14,37,276,43,25,61,293,47,29,31,213,42,30,16,279,39*72
$GPGSA,M,3,02,04,12,14,25,29,30,,,,,,2.1,1.2,1.7*37
Trace #74 at position 18.250000
$GPZDA,081020.04,09,10,2011,00,00*63
$GPRMC,081020.00,A,4611.970611,N,01258.218297,E,001.7,160.9,091011,0.2,E,A*3F
$GPGGA,081021.00,4611.970155,N,01258.218558,E,1,07,1.2,140.16,M,46.25,M,,*65
$GPGLL,4611.970155,N,01258.218558,E,081021.00,A,A*63
$GPVTG,152.6,T,152.7,M,002.2,N,004.1,K,A*27
$GPGSV,2,1,08,02,33,103,37,04,22,054,40,09,39,144,,12,72,041,44*76
$GPGSV,2,2,08,14,37,276,43,25,61,293,47,29,31,213,42,30,16,279,39*72
$GPGSA,M,3,02,04,12,14,25,29,30,,,,,,2.1,1.2,1.7*37
Trace #75 at position 18.500000
$GPZDA,081021.04,09,10,2011,00,00*62
$GPRMC,081021.00,A,4611.970155,N,01258.218558,E,002.2,152.6,091011,0.2,E,A*35
$GPGGA,081022.00,4611.969714,N,01258.218869,E,1,07,1.2,140.16,M,46.25,M,,*62
$GPGLL,4611.969714,N,01258.218869,E,081022.00,A,A*64
$GPVTG,150.2,T,150.4,M,001.7,N,003.2,K,A*22
$GPGSV,2,1,08,02,33,102,37,04,22,054,41,09,39,144,,12,72,041,43*71
$GPGSV,2,2,08,14,37,276,43,25,61,293,47,29,31,213,41,30,16,279,39*71
$GPGSA,M,3,02,04,12,14,25,29,30,,,,,,2.1,1.2,1.7*37
Trace #76 at position 18.750000
$GPZDA,081021.04,09,10,2011,00,00*62
$GPRMC,081021.00,A,4611.970155,N,01258.218558,E,002.2,152.6,091011,0.2,E,A*35
$GPGGA,081022.00,4611.969714,N,01258.218869,E,1,07,1.2,140.16,M,46.25,M,,*62
$GPGLL,4611.969714,N,01258.218869,E,081022.00,A,A*64
$GPVTG,150.2,T,150.4,M,001.7,N,003.2,K,A*22
$GPGSV,2,1,08,02,33,102,37,04,22,054,41,09,39,144,,12,72,041,43*71
$GPGSV,2,2,08,14,37,276,43,25,61,293,47,29,31,213,41,30,16,279,39*71
$GPGSA,M,3,02,04,12,14,25,29,30,,,,,,2.1,1.2,1.7*37
Trace #77 at position 19.000000
$GPZDA,081021.04,09,10,2011,00,00*62
$GPRMC,081021.00,A,4611.970155,N,01258.218558,E,002.2,152.6,091011,0.2,E,A*35
$GPGGA,081022.00,4611.969714,N,01258.218869,E,1,07,1.2,140.16,M,46.25,M,,*62
$GPGLL,4611.969714,N,01258.218869,E,081022.00,A,A*64
$GPVTG,150.2,T,150.4,M,001.7,N,003.2,K,A*22
$GPGSV,2,1,08,02,33,102,37,04,22,054,41,09,39,144,,12,72,041,43*71
$GPGSV,2,2,08,14,37,276,43,25,61,293,47,29,31,213,41,30,16,279,39*71
$GPGSA,M,3,02,04,12,14,25,29,30,,,,,,2.1,1.2,1.7*37
Trace #78 at position 19.250000
$GPZDA,081022.04,09,10,2011,00,00*61
$GPRMC,081022.00,A,4611.969714,N,01258.218869,E,001.7,150.2,091011,0.2,E,A*32
$GPGGA,081023.00,4611.969290,N,01258.219176,E,1,06,1.5,140.18,M,46.25,M,,*64
$GPGLL,4611.969290,N,01258.219176,E,081023.00,A,A*6A
$GPVTG,152.3,T,152.5,M,001.8,N,003.3,K,A*2C
$GPGSV,2,1,08,02,33,102,33,04,22,054,42,09,39,144,,12,72,041,44*71
$GPGSV,2,2,08,14,37,276,43,25,61,293,46,29,31,213,41,30,16,279,40*7E
$GPGSA,M,3,04,12,14,25,29,30,,,,,,,2.2,1.5,1.7*31
Trace #79 at position 19.500000
$GPZDA,081022.04,09,10,2011,00,00*61
$GPRMC,081022.00,A,4611.969714,N,01258.218869,E,001.7,150.2,091011,0.2,E,A*32
$GPGGA,081023.00,4611.969290,N,01258.219176,E,1,06,1.5,140.18,M,46.25,M,,*64
$GPGLL,4611.969290,N,01258.219176,E,081023.00,A,A*6A
$GPVTG,152.3,T,152.5,M,001.8,N,003.3,K,A*2C
$GPGSV,2,1,08,02,33,102,33,04,22,054,42,09,39,144,,12,72,041,44*71
$GPGSV,2,2,08,14,37,276,43,25,61,293,46,29,31,213,41,30,16,279,40*7E
$GPGSA,M,3,04,12,14,25,29,30,,,,,,,2.2,1.5,1.7*31
Trace #80 at position 19.750000
$GPZDA,081022.04,09,10,2011,00,00*61
$GPRMC,081022.00,A,4611.969714,N,01258.218869,E,001.7,150.2,091011,0.2,E,A*32
$GPGGA,081023.00,4611.969290,N,01258.219176,E,1,06,1.5,140.18,M,46.25,M,,*64
$GPGLL,4611.969290,N,01258.219176,E,081023.00,A,A*6A
$GPVTG,152.3,T,152.5,M,001.8,N,003.3,K,A*2C
$GPGSV,2,1,08,02,33,102,33,04,22,054,42,09,39,144,,12,72,041,44*71
$GPGSV,2,2,08,14,37,276,43,25,61,293,46,29,31,213,41,30,16,279,40*7E
$GPGSA,M,3,04,12,14,25,29,30,,,,,,,2.2,1.5,1.7*31
Trace #81 at position 20.000000
$GPZDA,081023.04,09,10,2011,00,00*60
$GPRMC,081023.00,A,4611.969290,N,01258.219176,E,001.8,152.3,091011,0.2,E,A*30
$GPGGA,081024.00,4611.968903,N,01258.219426,E,1,06,1.5,140.18,M,46.25,M,,*63
$GPGLL,4611.968903,N,01258.219426,E,081024.00,A,A*6D
$GPVTG,150.6,T,150.7,M,001.3,N,002.4,K,A*26
$GPGSV,2,1,08,02,33,102,36,04,22,054,42,09,39,144,,12,72,041,44*74
$GPGSV,2,2,08,14,37,276,43,25,61,293,46,29,31,213,42,30,16,279,40*7D
$GPGSA,M,3,04,12,14,25,29,30,,,,,,,2.2,1.5,1.7*31
Trace #82 at position 20.250000
$GPZDA,081023.04,09,10,2011,00,00*60
$GPRMC,081023.00,A,4611.969290,N,01258.219176,E,001.8,152.3,091011,0.2,E,A*30
$GPGGA,081024.00,4611.968903,N,01258.219426,E,1,06,1.5,140.18,M,46.25,M,,*63
$GPGLL,4611.968903,N,01258.219426,E,081024.00,A,A*6D
$GPVTG,150.6,T,150.7,M,001.3,N,002.4,K,A*26
$GPGSV,2,1,08,02,33,102,36,04,22,054,42,09,39,144,,12,72,041,44*74
$GPGSV,2,2,08,14,37,276,43,25,61,293,46,29,31,213,42,30,16,279,40*7D
$GPGSA,M,3,04,12,14,25,29,30,,,,,,,2.2,1.5,1.7*31
Trace #83 at position 20.500000
$GPZDA,081023.04,09,10,2011,00,00*60
$GPRMC,081023.00,A,4611.969290,N,01258.219176,E,001.8,152.3,091011,0.2,E,A*30
$GPGGA,081024.00,4611.968903,N,01258.219426,E,1,06,1.5,140.18,M,46.25,M,,*63
$GPGLL,4611.968903,N,01258.219426,E,081024.00,A,A*6D
$GPVTG,150.6,T,150.7,M,001.3,N,002.4,K,A*26
$GPGSV,2,1,08,02,33,102,36,04,22,054,42,09,39,144,,12,72,041,44*74
$GPGSV,2,2,08,14,37,276,43,25,61,293,46,29,31,213,42,30,16,279,40*7D
$GPGSA,M,3,04,12,14,25,29,30,,,,,,,2.2,1.5,1.7*31
Trace #84 at position 20.750000
$GPZDA,081023.04,09,10,2011,00,00*60
$GPRMC,081023.00,A,4611.969290,N,01258.219176,E,001.8,152.3,091011,0.2,E,A*30
$GPGGA,081024.00,4611.968903,N,01258.219426,E,1,06,1.5,140.18,M,46.25,M,,*63
$GPGLL,4611.968903,N,01258.219426,E,081024.00,A,A*6D
$GPVTG,150.6,T,150.7,M,001.3,N,002.4,K,A*26
$GPGSV,2,1,08,02,33,102,36,04,22,054,42,09,39,144,,12,72,041,44*74
$GPGSV,2,2,08,14,37,276,43,25,61,293,46,29,31,213,42,30,16,279,40*7D
$GPGSA,M,3,04,12,14,25,29,30,,,,,,,2.2,1.5,1.7*31
Trace #85 at position 21.000000
$GPZDA,081024.04,09,10,2011,00,00*67
$GPRMC,081024.00,A,4611.968903,N,01258.219426,E,001.3,150.6,091011,0.2,E,A*3B
$GPGGA,081025.00,4611.968545,N,01258.219640,E,1,06,1.5,140.14,M,46.25,M,,*62
$GPGLL,4611.968545,N,01258.219640,E,081025.00,A,A*60
$GPVTG,152.6,T,152.7,M,001.4,N,002.6,K,A*23
$GPGSV,2,1,08,02,33,102,35,04,22,054,42,09,39,144,,12,72,041,44*77
$GPGSV,2,2,08,14,37,276,43,25,61,293,47,29,31,213,40,30,16,279,40*7E
$GPGSA,M,3,04,12,14,25,29,30,,,,,,,2.2,1.5,1.7*31
Trace #86 at position 21.250000
$GPZDA,081024.04,09,10,2011,00,00*67
$GPRMC,081024.00,A,4611.968903,N,01258.219426,E,001.3,150.6,091011,0.2,E,A*3B
$GPGGA,081025.00,4611.968545,N,01258.219640,E,1,06,1.5,140.14,M,46.25,M,,*62
$GPGLL,4611.968545,N,01258.219640,E,081025.00,A,A*60
$GPVTG,152.6,T,152.7,M,001.4,N,002.6,K,A*23
$GPGSV,2,1,08,02,33,102,35,04,22,054,42,09,39,144,,12,72,041,44*77
$GPGSV,2,2,08,14,37,276,43,25,61,293,47,29,31,213,40,30,16,279,40*7E
$GPGSA,M,3,04,12,14,25,29,30,,,,,,,2.2,1.5,1.7*31
Trace #87 at position 21.500000
$GPZDA,081024.04,09,10,2011,00,00*67
$GPRMC,081024.00,A,4611.968903,N,01258.219426,E,001.3,150.6,091011,0.2,E,A*3B
$GPGGA,081025.00,4611.968545,N,01258.219640,E,1,06,1.5,140.14,M,46.25,M,,*62
$GPGLL,4611.968545,N,01258.219640,E,081025.00,A,A*60
$GPVTG,152.6,T,152.7,M,001.4,N,002.6,K,A*23
$GPGSV,2,1,08,02,33,102,35,04,22,054,42,09,39,144,,12,72,041,44*77
$GPGSV,2,2,08,14,37,276,43,25,61,293,47,29,31,213,40,30,16,279,40*7E
$GPGSA,M,3,04,12,14,25,29,30,,,,,,,2.2,1.5,1.7*31
Trace #88 at position 21.750000
$GPZDA,081024.04,09,10,2011,00,00*67
$GPRMC,081024.00,A,4611.968903,N,01258.219426,E,001.3,150.6,091011,0.2,E,A*3B
$GPGGA,081025.00,4611.968545,N,01258.219640,E,1,06,1.5,140.14,M,46.25,M,,*62
$GPGLL,4611.968545,N,01258.219640,E,081025.00,A,A*60
$GPVTG,152.6,T,152.7,M,001.4,N,002.6,K,A*23
$GPGSV,2,1,08,02,33,102,35,04,22,054,42,09,39,144,,12,72,041,44*77
$GPGSV,2,2,08,14,37,276,43,25,61,293,47,29,31,213,40,30,16,279,40*7E
$GPGSA,M,3,04,12,14,25,29,30,,,,,,,2.2,1.5,1.7*31
Trace #89 at position 22.000000
$GPZDA,081025.03,09,10,2011,00,00*61
$GPRMC,081025.00,A,4611.968545,N,01258.219640,E,001.4,152.6,091011,0.2,E,A*33
$GPGGA,081026.00,4611.968092,N,01258.219704,E,1,06,1.5,140.06,M,46.25,M,,*6C
$GPGLL,4611.968092,N,01258.219704,E,081026.00,A,A*6D
$GPVTG,184.8,T,185.0,M,001.9,N,003.6,K,A*27
$GPGSV,2,1,08,02,33,102,37,04,22,054,41,09,39,144,,12,72,041,44*76
$GPGSV,2,2,08,14,37,276,43,25,61,293,47,29,31,213,41,30,16,279,40*7F
$GPGSA,M,3,04,12,14,25,29,30,,,,,,,2.2,1.5,1.7*31
Trace #90 at position 22.250000
$GPZDA,081025.03,09,10,2011,00,00*61
$GPRMC,081025.00,A,4611.968545,N,01258.219640,E,001.4,152.6,091011,0.2,E,A*33
$GPGGA,081026.00,4611.968092,N,01258.219704,E,1,06,1.5,140.06,M,46.25,M,,*6C
$GPGLL,4611.968092,N,01258.219704,E,081026.00,A,A*6D
$GPVTG,184.8,T,185.0,M,001.9,N,003.6,K,A*27
$GPGSV,2,1,08,02,33,102,37,04,22,054,41,09,39,144,,12,72,041,44*76
$GPGSV,2,2,08,14,37,276,43,25,61,293,47,29,31,213,41,30,16,279,40*7F
$GPGSA,M,3,04,12,14,25,29,30,,,,,,,2.2,1.5,1.7*31
Trace #91 at position 22.500000
$GPZDA,081025.03,09,10,2011,00,00*61
$GPRMC,081025.00,A,4611.968545,N,01258.219640,E,001.4,152.6,091011,0.2,E,A*33
$GPGGA,081026.00,4611.968092,N,01258.219704,E,1,06,1.5,140.06,M,46.25,M,,*6C
$GPGLL,4611.968092,N,01258.219704,E,081026.00,A,A*6D
$GPVTG,184.8,T,185.0,M,001.9,N,003.6,K,A*27
$GPGSV,2,1,08,02,33,102,37,04,22,054,41,09,39,144,,12,72,041,44*76
$GPGSV,2,2,08,14,37,276,43,25,61,293,47,29,31,213,41,30,16,279,40*7F
$GPGSA,M,3,04,12,14,25,29,30,,,,,,,2.2,1.5,1.7*31
Trace #92 at position 22.750000
$GPZDA,081025.03,09,10,2011,00,00*61
$GPRMC,081025.00,A,4611.968545,N,01258.219640,E,001.4,152.6,091011,0.2,E,A*33
$GPGGA,081026.00,4611.968092,N,01258.219704,E,1,06,1.5,140.06,M,46.25,M,,*6C
$GPGLL,4611.968092,N,01258.219704,E,081026.00,A,A*6D
$GPVTG,184.8,T,185.0,M,001.9,N,003.6,K,A*27
$GPGSV,2,1,08,02,33,102,37,04,22,054,41,09,39,144,,12,72,041,44*76
$GPGSV,2,2,08,14,37,276,43,25,61,293,47,29,31,213,41,30,16,279,40*7F
$GPGSA,M,3,04,12,14,25,29,30,,,,,,,2.2,1.5,1.7*31
Trace #93 at position 23.000000
$GPZDA,081026.03,09,10,2011,00,00*62
$GPRMC,081026.00,A,4611.968092,N,01258.219704,E,001.9,184.8,091011,0.2,E,A*36
$GPGGA,081027.00,4611.967637,N,01258.219739,E,1,06,1.5,140.10,M,46.25,M,,*62
$GPGLL,4611.967637,N,01258.219739,E,081027.00,A,A*64
$GPVTG,163.9,T,164.0,M,001.3,N,002.4,K,A*29
$GPGSV,2,1,08,02,33,102,33,04,22,054,42,09,39,144,,12,72,041,45*70
$GPGSV,2,2,08,14,37,276,42,25,61,293,46,29,31,213,41,30,16,279,40*7F
$GPGSA,M,3,04,12,14,25,29,30,,,,,,,2.2,1.5,1.7*31
Trace #94 at position 23.250000
$GPZDA,081026.03,09,10,2011,00,00*62
$GPRMC,081026.00,A,4611.968092,N,01258.219704,E,001.9,184.8,091011,0.2,E,A*36
$GPGGA,081027.00,4611.967637,N,01258.219739,E,1,06,1.5,140.10,M,46.25,M,,*62
$GPGLL,4611.967637,N,01258.219739,E,081027.00,A,A*64
$GPVTG,163.9,T,164.0,M,001.3,N,002.4,K,A*29
$GPGSV,2,1,08,02,33,102,33,04,22,054,42,09,39,144,,12,72,041,45*70
$GPGSV,2,2,08,14,37,276,42,25,61,293,46,29,31,213,41,30,16,279,40*7F
$GPGSA,M,3,04,12,14,25,29,30,,,,,,,2.2,1.5,1.7*31
Trace #95 at position 23.500000
$GPZDA,081026.03,09,10,2011,00,00*62
$GPRMC,081026.00,A,4611.968092,N,01258.219704,E,001.9,184.8,091011,0.2,E,A*36
$GPGGA,081027.00,4611.967637,N,01258.219739,E,1,06,1.5,140.10,M,46.25,M,,*62
$GPGLL,4611.967637,N,01258.219739,E,081027.00,A,A*64
$GPVTG,163.9,T,164.0,M,001.3,N,002.4,K,A*29
$GPGSV,2,1,08,02,33,102,33,04,22,054,42,09,39,144,,12,72,041,45*70
$GPGSV,2,2,08,14,37,276,42,25,61,293,46,29,31,213,41,30,16,279,40*7F
$GPGSA,M,3,04,12,14,25,29,30,,,,,,,2.2,1.5,1.7*31
Trace #96 at position 23.750000
$GPZDA,081027.03,09,10,2011,00,00*63
$GPRMC,081027.00,A,4611.967637,N,01258.219739,E,001.3,163.9,091011,0.2,E,A*3D
$GPGGA,081028.00,4611.967123,N,01258.219911,E,1,06,1.5,140.09,M,46.25,M,,*63
$GPGLL,4611.967123,N,01258.219911,E,081028.00,A,A*6D
$GPVTG,168.4,T,168.6,M,002.4,N,004.5,K,A*26
$GPGSV,2,1,08,02,33,102,36,04,22,054,42,09,39,144,,12,72,041,44*74
$GPGSV,2,2,08,14,37,276,43,25,61,293,47,29,31,213,42,30,17,279,41*7C
$GPGSA,M,3,04,12,14,25,29,30,,,,,,,2.2,1.5,1.7*31
Trace #97 at position 24.000000
$GPZDA,081027.03,09,10,2011,00,00*63
$GPRMC,081027.00,A,4611.967637,N,01258.219739,E,001.3,163.9,091011,0.2,E,A*3D
$GPGGA,081028.00,4611.967123,N,01258.219911,E,1,06,1.5,140.09,M,46.25,M,,*63
$GPGLL,4611.967123,N,01258.219911,E,081028.00,A,A*6D
$GPVTG,168.4,T,168.6,M,002.4,N,004.5,K,A*26
$GPGSV,2,1,08,02,33,102,36,04,22,054,42,09,39,144,,12,72,041,44*74
$GPGSV,2,2,08,14,37,276,43,25,61,293,47,29,31,213,42,30,17,279,41*7C
$GPGSA,M,3,04,12,14,25,29,30,,,,,,,2.2,1.5,1.7*31
Trace #98 at position 24.250000
$GPZDA,081027.03,09,10,2011,00,00*63
$GPRMC,081027.00,A,4611.967637,N,01258.219739,E,001.3,163.9,091011,0.2,E,A*3D
$GPGGA,081028.00,4611.967123,N,01258.219911,E,1,06,1.5,140.09,M,46.25,M,,*63
$GPGLL,4611.967123,N,01258.219911,E,081028.00,A,A*6D
$GPVTG,168.4,T,168.6,M,002.4,N,004.5,K,A*26
$GPGSV,2,1,08,02,33,102,36,04,22,054,42,09,39,144,,12,72,041,44*74
$GPGSV,2,2,08,14,37,276,43,25,61,293,47,29,31,213,42,30,17,279,41*7C
$GPGSA,M,3,04,12,14,25,29,30,,,,,,,2.2,1.5,1.7*31
Trace #99 at position 24.500000
$GPZDA,081027.03,09,10,2011,00,00*63
$GPRMC,081027.00,A,4611.967637,N,01258.219739,E,001.3,163.9,091011,0.2,E,A*3D
$GPGGA,081028.00,4611.967123,N,01258.219911,E,1,06,1.5,140.09,M,46.25,M,,*63
$GPGLL,4611.967123,N,01258.219911,E,081028.00,A,A*6D
$GPVTG,168.4,T,168.6,M,002.4,N,004.5,K,A*26
$GPGSV,2,1,08,02,33,102,36,04,22,054,42,09,39,144,,12,72,041,44*74
$GPGSV,2,2,08,14,37,276,43,25,61,293,47,29,31,213,42,30,17,279,41*7C
$GPGSA,M,3,04,12,14,25,29,30,,,,,,,2.2,1.5,1.7*31
Trace #100 at position 24.750000
$GPZDA,081028.04,09,10,2011,00,00*6B
$GPRMC,081028.00,A,4611.967123,N,01258.219911,E,002.4,168.4,091011,0.2,E,A*36
$GPGGA,081029.00,4611.966608,N,01258.220125,E,1,06,1.5,140.01,M,46.25,M,,*60
$GPGLL,4611.966608,N,01258.220125,E,081029.00,A,A*66
$GPVTG,155.9,T,156.1,M,001.4,N,002.6,K,A*29
$GPGSV,2,1,08,02,33,102,30,04,22,054,41,09,39,144,,12,72,041,44*71
$GPGSV,2,2,08,14,37,276,43,25,61,293,47,29,31,213,41,30,17,279,41*7F
$GPGSA,M,3,04,12,14,25,29,30,,,,,,,2.2,1.5,1.7*31
Trace #101 at position 25.000000
$GPZDA,081028.04,09,10,2011,00,00*6B
$GPRMC,081028.00,A,4611.967123,N,01258.219911,E,002.4,168.4,091011,0.2,E,A*36
$GPGGA,081029.00,4611.966608,N,01258.220125,E,1,06,1.5,140.01,M,46.25,M,,*60
$GPGLL,4611.966608,N,01258.220125,E,081029.00,A,A*66
$GPVTG,155.9,T,156.1,M,001.4,N,002.6,K,A*29
$GPGSV,2,1,08,02,33,102,30,04,22,054,41,09,39,144,,12,72,041,44*71
$GPGSV,2,2,08,14,37,276,43,25,61,293,47,29,31,213,41,30,17,279,41*7F
$GPGSA,M,3,04,12,14,25,29,30,,,,,,,2.2,1.5,1.7*31
Trace #102 at position 25.250000
$GPZDA,081029.04,09,10,2011,00,00*6A
$GPRMC,081029.00,A,4611.966608,N,01258.220125,E,001.4,155.9,091011,0.2,E,A*3D
$GPGGA,081030.00,4611.966178,N,01258.220305,E,1,06,1.5,140.11,M,46.25,M,,*69
$GPGLL,4611.966178,N,01258.220305,E,081030.00,A,A*6E
$GPVTG,169.9,T,170.1,M,001.7,N,003.2,K,A*24
$GPGSV,2,1,08,02,33,102,36,04,22,054,41,09,39,144,,12,72,041,44*77
$GPGSV,2,2,08,14,37,276,43,25,61,293,46,29,31,213,42,30,17,279,40*7C
$GPGSA,M,3,04,12,14,25,29,30,,,,,,,2.2,1.5,1.7*31
Trace #103 at position 25.500000
$GPZDA,081029.04,09,10,2011,00,00*6A
$GPRMC,081029.00,A,4611.966608,N,01258.220125,E,001.4,155.9,091011,0.2,E,A*3D
$GPGGA,081030.00,4611.966178,N,01258.220305,E,1,06,1.5,140.11,M,46.25,M,,*69
$GPGLL,4611.966178,N,01258.220305,E,081030.00,A,A*6E
$GPVTG,169.9,T,170.1,M,001.7,N,003.2,K,A*24
$GPGSV,2,1,08,02,33,102,36,04,22,054,41,09,39,144,,12,72,041,44*77
$GPGSV,2,2,08,14,37,276,43,25,61,293,46,29,31,213,42,30,17,279,40*7C
$GPGSA,M,3,04,12,14,25,29,30,,,,,,,2.2,1.5,1.7*31
Trace #104 at position 25.750000
$GPZDA,081029.04,09,10,2011,00,00*6A
$GPRMC,081029.00,A,4611.966608,N,01258.220125,E,001.4,155.9,091011,0.2,E,A*3D
$GPGGA,081030.00,4611.966178,N,01258.220305,E,1,06,1.5,140.11,M,46.25,M,,*69
$GPGLL,4611.966178,N,01258.220305,E,081030.00,A,A*6E
$GPVTG,169.9,T,170.1,M,001.7,N,003.2,K,A*24
$GPGSV,2,1,08,02,33,102,36,04,22,054,41,09,39,144,,12,72,041,44*77
$GPGSV,2,2,08,14,37,276,43,25,61,293,46,29,31,213,42,30,17,279,40*7C
$GPGSA,M,3,04,12,14,25,29,30,,,,,,,2.2,1.5,1.7*31
Trace #105 at position 26.000000
$GPZDA,081030.03,09,10,2011,00,00*65
$GPRMC,081030.00,A,4611.966178,N,01258.220305,E,001.7,169.9,091011,0.2,E,A*39
$GPGGA,081031.00,4611.965718,N,01258.220444,E,1,06,1.5,140.11,M,46.25,M,,*69
$GPGLL,4611.965718,N,01258.220444,E,081031.00,A,A*6E
$GPVTG,167.7,T,167.9,M,001.5,N,002.8,K,A*23
$GPGSV,2,1,08,02,33,102,34,04,22,054,42,09,39,144,,12,72,041,44*76
$GPGSV,2,2,08,14,37,276,43,25,61,293,47,29,31,213,41,30,17,279,40*7E
$GPGSA,M,3,04,12,14,25,29,30,,,,,,,2.2,1.5,1.7*31
Trace #106 at position 26.250000
$GPZDA,081030.03,09,10,2011,00,00*65
$GPRMC,081030.00,A,4611.966178,N,01258.220305,E,001.7,169.9,091011,0.2,E,A*39
$GPGGA,081031.00,4611.965718,N,01258.220444,E,1,06,1.5,140.11,M,46.25,M,,*69
$GPGLL,4611.965718,N,01258.220444,E,081031.00,A,A*6E
$GPVTG,167.7,T,167.9,M,001.5,N,002.8,K,A*23
$GPGSV,2,1,08,02,33,102,34,04,22,054,42,09,39,144,,12,72,041,44*76
$GPGSV,2,2,08,14,37,276,43,25,61,293,47,29,31,213,41,30,17,279,40*7E
$GPGSA,M,3,04,12,14,25,29,30,,,,,,,2.2,1.5,1.7*31
Trace #107 at position 26.500000
$GPZDA,081030.03,09,10,2011,00,00*65
$GPRMC,081030.00,A,4611.966178,N,01258.220305,E,001.7,169.9,091011,0.2,E,A*39
$GPGGA,081031.00,4611.965718,N,01258.220444,E,1,06,1.5,140.11,M,46.25,M,,*69
$GPGLL,4611.965718,N,01258.220444,E,081031.00,A,A*6E
$GPVTG,167.7,T,167.9,M,001.5,N,002.8,K,A*23
$GPGSV,2,1,08,02,33,102,34,04,22,054,42,09,39,144,,12,72,041,44*76
$GPGSV,2,2,08,14,37,276,43,25,61,293,47,29,31,213,41,30,17,279,40*7E
$GPGSA,M,3,04,12,14,25,29,30,,,,,,,2.2,1.5,1.7*31
Trace #108 at position 26.750000
$GPZDA,081030.03,09,10,2011,00,00*65
$GPRMC,081030.00,A,4611.966178,N,01258.220305,E,001.7,169.9,091011,0.2,E,A*39
$GPGGA,081031.00,4611.965718,N,01258.220444,E,1,06,1.5,140.11,M,46.25,M,,*69
$GPGLL,4611.965718,N,01258.220444,E,081031.00,A,A*6E
$GPVTG,167.7,T,167.9,M,001.5,N,002.8,K,A*23
$GPGSV,2,1,08,02,33,102,34,04,22,054,42,09,39,144,,12,72,041,44*76
$GPGSV,2,2,08,14,37,276,43,25,61,293,47,29,31,213,41,30,17,279,40*7E
$GPGSA,M,3,04,12,14,25,29,30,,,,,,,2.2,1.5,1.7*31
Trace #109 at position 27.000000
$GPZDA,081037.04,09,10,2011,00,00*65
$GPRMC,081037.00,A,4611.963437,N,01258.221390,E,001.5,165.0,091011,0.2,E,A*3F
$GPGGA,081038.00,4611.963320,N,01258.221398,E,1,07,1.2,139.55,M,46.25,M,,*66
$GPGLL,4611.963320,N,01258.221398,E,081038.00,A,A*69
$GPVTG,198.0,T,198.1,M,000.1,N,000.3,K,A*20
$GPGSV,2,1,08,02,33,102,40,04,22,054,41,09,39,144,42,12,72,041,43*77
$GPGSV,2,2,08,14,37,276,43,25,61,293,47,29,31,213,42,30,17,279,40*7D
$GPGSA,M,3,02,04,12,14,25,29,30,,,,,,2.1,1.2,1.7*37
Trace #110 at position 27.250000
$GPZDA,081038.04,09,10,2011,00,00*6A
$GPRMC,081038.00,A,4611.963320,N,01258.221398,E,000.1,198.0,091011,0.2,E,A*3E
$GPGGA,081039.00,4611.963391,N,01258.221338,E,1,07,1.2,139.54,M,46.25,M,,*66
$GPGLL,4611.963391,N,01258.221338,E,081039.00,A,A*68
$GPVTG,332.8,T,333.0,M,000.0,N,000.1,K,A*2B
$GPGSV,2,1,08,02,33,102,41,04,22,054,41,09,39,144,42,12,72,041,43*76
$GPGSV,2,2,08,14,37,276,43,25,61,293,47,29,31,213,43,30,17,279,42*7E
$GPGSA,M,3,02,04,12,14,25,29,30,,,,,,2.1,1.2,1.7*37
Trace #111 at position 27.500000
$GPZDA,081038.04,09,10,2011,00,00*6A
$GPRMC,081038.00,A,4611.963320,N,01258.221398,E,000.1,198.0,091011,0.2,E,A*3E
$GPGGA,081039.00,4611.963391,N,01258.221338,E,1,07,1.2,139.54,M,46.25,M,,*66
$GPGLL,4611.963391,N,01258.221338,E,081039.00,A,A*68
$GPVTG,332.8,T,333.0,M,000.0,N,000.1,K,A*2B
$GPGSV,2,1,08,02,33,102,41,04,22,054,41,09,39,144,42,12,72,041,43*76
$GPGSV,2,2,08,14,37,276,43,25,61,293,47,29,31,213,43,30,17,279,42*7E
$GPGSA,M,3,02,04,12,14,25,29,30,,,,,,2.1,1.2,1.7*37
Trace #112 at position 27.750000
$GPZDA,081039.04,09,10,2011,00,00*6B
$GPRMC,081039.00,A,4611.963391,N,01258.221338,E,000.0,332.8,091011,0.2,E,A*34
$GPGGA,081040.00,4611.963462,N,01258.221311,E,1,06,1.4,139.66,M,46.25,M,,*6E
$GPGLL,4611.963462,N,01258.221311,E,081040.00,A,A*66
$GPVTG,82.2,T,82.4,M,000.0,N,000.1,K,A*24
$GPGSV,2,1,08,02,33,102,41,04,22,054,42,09,39,144,42,12,72,041,43*75
$GPGSV,2,2,08,14,37,276,40,25,61,293,47,29,31,213,44,30,17,279,36*79
$GPGSA,M,3,02,04,12,14,25,29,,,,,,,2.6,1.4,2.2*33
Trace #113 at position 28.000000
$GPZDA,081039.04,09,10,2011,00,00*6B
$GPRMC,081039.00,A,4611.963391,N,01258.221338,E,000.0,332.8,091011,0.2,E,A*34
$GPGGA,081040.00,4611.963462,N,01258.221311,E,1,06,1.4,139.66,M,46.25,M,,*6E
$GPGLL,4611.963462,N,01258.221311,E,081040.00,A,A*66
$GPVTG,82.2,T,82.4,M,000.0,N,000.1,K,A*24
$GPGSV,2,1,08,02,33,102,41,04,22,054,42,09,39,144,42,12,72,041,43*75
$GPGSV,2,2,08,14,37,276,40,25,61,293,47,29,31,213,44,30,17,279,36*79
$GPGSA,M,3,02,04,12,14,25,29,,,,,,,2.6,1.4,2.2*33
Trace #114 at position 28.250000
$GPZDA,081039.04,09,10,2011,00,00*6B
$GPRMC,081039.00,A,4611.963391,N,01258.221338,E,000.0,332.8,091011,0.2,E,A*34
$GPGGA,081040.00,4611.963462,N,01258.221311,E,1,06,1.4,139.66,M,46.25,M,,*6E
$GPGLL,4611.963462,N,01258.221311,E,081040.00,A,A*66
$GPVTG,82.2,T,82.4,M,000.0,N,000.1,K,A*24
$GPGSV,2,1,08,02,33,102,41,04,22,054,42,09,39,144,42,12,72,041,43*75
$GPGSV,2,2,08,14,37,276,40,25,61,293,47,29,31,213,44,30,17,279,36*79
$GPGSA,M,3,02,04,12,14,25,29,,,,,,,2.6,1.4,2.2*33
Trace #115 at position 28.500000
$GPZDA,081039.04,09,10,2011,00,00*6B
