Trace #1 at position 0.000000
$GPZDA,090735.03,09,10,2011,00,00*67
$GPRMC,090735.00,A,4611.954334,N,01258.230243,E,000.2,337.8,091011,0.2,E,A*3E
$GPGGA,090736.00,4611.954307,N,01258.230291,E,1,04,5.2,139.28,M,46.25,M,,*6B
$GPGLL,4611.954307,N,01258.230291,E,090736.00,A,A*69
$GPVTG,153.8,T,153.9,M,000.1,N,000.2,K,A*21
$GPGSV,2,1,07,02,38,071,45,12,52,083,45,14,24,248,35,25,79,003,45*7D
$GPGSV,2,2,07,29,58,227,43,30,38,293,,31,30,312,,,,,*49
$GPGSA,M,3,02,12,25,29,,,,,,,,,8.6,5.2,6.9*35
Trace #2 at position 0.250000
$GPZDA,090737.03,09,10,2011,00,00*65
$GPRMC,090737.00,A,4611.954244,N,01258.230358,E,000.1,168.4,091011,0.2,E,A*36
$GPGGA,090738.00,4611.954184,N,01258.230429,E,1,04,5.2,139.49,M,46.25,M,,*6E
$GPGLL,4611.954184,N,01258.230429,E,090738.00,A,A*6B
$GPVTG,138.7,T,138.9,M,000.1,N,000.2,K,A*2E
$GPGSV,2,1,07,02,38,071,45,12,52,083,44,14,24,248,36,25,79,003,44*7E
$GPGSV,2,2,07,29,58,227,43,30,38,293,,31,30,312,,,,,*49
$GPGSA,M,3,02,12,25,29,,,,,,,,,8.6,5.2,6.9*35
Trace #3 at position 0.500000
$GPZDA,090738.03,09,10,2011,00,00*6A
$GPRMC,090738.00,A,4611.954184,N,01258.230429,E,000.1,138.7,091011,0.2,E,A*31
$GPGGA,090739.00,4611.954126,N,01258.230512,E,1,04,5.2,139.68,M,46.25,M,,*6D
$GPGLL,4611.954126,N,01258.230512,E,090739.00,A,A*6B
$GPVTG,126.3,T,126.5,M,000.1,N,000.2,K,A*26
$GPGSV,2,1,07,02,38,071,44,12,52,083,45,14,24,248,38,25,79,003,44*70
$GPGSV,2,2,07,29,58,227,46,30,38,293,,31,30,312,,,,,*4C
$GPGSA,M,3,02,12,25,29,,,,,,,,,8.6,5.2,6.9*35
Trace #4 at position 0.750000
$GPZDA,090738.03,09,10,2011,00,00*6A
$GPRMC,090738.00,A,4611.954184,N,01258.230429,E,000.1,138.7,091011,0.2,E,A*31
$GPGGA,090739.00,4611.954126,N,01258.230512,E,1,04,5.2,139.68,M,46.25,M,,*6D
$GPGLL,4611.954126,N,01258.230512,E,090739.00,A,A*6B
$GPVTG,126.3,T,126.5,M,000.1,N,000.2,K,A*26
$GPGSV,2,1,07,02,38,071,44,12,52,083,45,14,24,248,38,25,79,003,44*70
$GPGSV,2,2,07,29,58,227,46,30,38,293,,31,30,312,,,,,*4C
$GPGSA,M,3,02,12,25,29,,,,,,,,,8.6,5.2,6.9*35
Trace #5 at position 1.000000
$GPZDA,090739.03,09,10,2011,00,00*6B
$GPRMC,090739.00,A,4611.954126,N,01258.230512,E,000.1,126.3,091011,0.2,E,A*3A
$GPGGA,090740.00,4611.954100,N,01258.230598,E,1,04,5.2,139.84,M,46.25,M,,*67
$GPGLL,4611.954100,N,01258.230598,E,090740.00,A,A*63
$GPVTG,58.5,T,58.7,M,000.2,N,000.3,K,A*20
$GPGSV,2,1,07,02,38,071,45,12,52,083,45,14,24,248,39,25,79,003,46*72
$GPGSV,2,2,07,29,58,227,47,30,38,293,,31,30,312,,,,,*4D
$GPGSA,M,3,02,12,25,29,,,,,,,,,8.6,5.2,6.9*35
Trace #6 at position 1.250000
$GPZDA,090739.03,09,10,2011,00,00*6B
$GPRMC,090739.00,A,4611.954126,N,01258.230512,E,000.1,126.3,091011,0.2,E,A*3A
$GPGGA,090740.00,4611.954100,N,01258.230598,E,1,04,5.2,139.84,M,46.25,M,,*67
$GPGLL,4611.954100,N,01258.230598,E,090740.00,A,A*63
$GPVTG,58.5,T,58.7,M,000.2,N,000.3,K,A*20
$GPGSV,2,1,07,02,38,071,45,12,52,083,45,14,24,248,39,25,79,003,46*72
$GPGSV,2,2,07,29,58,227,47,30,38,293,,31,30,312,,,,,*4D
$GPGSA,M,3,02,12,25,29,,,,,,,,,8.6,5.2,6.9*35
Trace #7 at position 1.500000
$GPZDA,090739.03,09,10,2011,00,00*6B
$GPRMC,090739.00,A,4611.954126,N,01258.230512,E,000.1,126.3,091011,0.2,E,A*3A
$GPGGA,090740.00,4611.954100,N,01258.230598,E,1,04,5.2,139.84,M,46.25,M,,*67
$GPGLL,4611.954100,N,01258.230598,E,090740.00,A,A*63
$GPVTG,58.5,T,58.7,M,000.2,N,000.3,K,A*20
$GPGSV,2,1,07,02,38,071,45,12,52,083,45,14,24,248,39,25,79,003,46*72
$GPGSV,2,2,07,29,58,227,47,30,38,293,,31,30,312,,,,,*4D
$GPGSA,M,3,02,12,25,29,,,,,,,,,8.6,5.2,6.9*35
Trace #8 at position 1.750000
$GPZDA,090740.03,09,10,2011,00,00*65
$GPRMC,090740.00,A,4611.954100,N,01258.230598,E,000.2,58.5,091011,0.2,E,A*0F
$GPGGA,090741.00,4611.954187,N,01258.230526,E,1,04,5.2,139.84,M,46.25,M,,*6C
$GPGLL,4611.954187,N,01258.230526,E,090741.00,A,A*68
$GPVTG,314.5,T,314.6,M,000.9,N,001.7,K,A*2F
$GPGSV,2,1,07,02,38,071,42,12,52,083,45,14,24,248,38,25,79,003,44*76
$GPGSV,2,2,07,29,58,227,46,30,38,293,,31,30,312,,,,,*4C
$GPGSA,M,3,02,12,25,29,,,,,,,,,8.6,5.2,6.9*35
Trace #9 at position 2.000000
$GPZDA,090740.03,09,10,2011,00,00*65
$GPRMC,090740.00,A,4611.954100,N,01258.230598,E,000.2,58.5,091011,0.2,E,A*0F
$GPGGA,090741.00,4611.954187,N,01258.230526,E,1,04,5.2,139.84,M,46.25,M,,*6C
$GPGLL,4611.954187,N,01258.230526,E,090741.00,A,A*68
$GPVTG,314.5,T,314.6,M,000.9,N,001.7,K,A*2F
$GPGSV,2,1,07,02,38,071,42,12,52,083,45,14,24,248,38,25,79,003,44*76
$GPGSV,2,2,07,29,58,227,46,30,38,293,,31,30,312,,,,,*4C
$GPGSA,M,3,02,12,25,29,,,,,,,,,8.6,5.2,6.9*35
Trace #10 at position 2.250000
$GPZDA,090741.03,09,10,2011,00,00*64
$GPRMC,090741.00,A,4611.954187,N,01258.230526,E,000.9,314.5,091011,0.2,E,A*34
$GPGGA,090742.00,4611.954433,N,01258.230347,E,1,04,5.2,139.70,M,46.25,M,,*6F
$GPGLL,4611.954433,N,01258.230347,E,090742.00,A,A*60
$GPVTG,338.9,T,339.0,M,001.3,N,002.5,K,A*2E
$GPGSV,2,1,07,02,38,071,42,12,52,083,42,14,24,248,39,25,79,003,43*77
$GPGSV,2,2,07,29,58,227,46,30,38,293,,31,30,312,,,,,*4C
$GPGSA,M,3,02,12,25,29,,,,,,,,,8.6,5.2,6.9*35
Trace #11 at position 2.500000
$GPZDA,090741.03,09,10,2011,00,00*64
$GPRMC,090741.00,A,4611.954187,N,01258.230526,E,000.9,314.5,091011,0.2,E,A*34
$GPGGA,090742.00,4611.954433,N,01258.230347,E,1,04,5.2,139.70,M,46.25,M,,*6F
$GPGLL,4611.954433,N,01258.230347,E,090742.00,A,A*60
$GPVTG,338.9,T,339.0,M,001.3,N,002.5,K,A*2E
$GPGSV,2,1,07,02,38,071,42,12,52,083,42,14,24,248,39,25,79,003,43*77
$GPGSV,2,2,07,29,58,227,46,30,38,293,,31,30,312,,,,,*4C
$GPGSA,M,3,02,12,25,29,,,,,,,,,8.6,5.2,6.9*35
Trace #12 at position 2.750000
$GPZDA,090741.03,09,10,2011,00,00*64
$GPRMC,090741.00,A,4611.954187,N,01258.230526,E,000.9,314.5,091011,0.2,E,A*34
$GPGGA,090742.00,4611.954433,N,01258.230347,E,1,04,5.2,139.70,M,46.25,M,,*6F
$GPGLL,4611.954433,N,01258.230347,E,090742.00,A,A*60
$GPVTG,338.9,T,339.0,M,001.3,N,002.5,K,A*2E
$GPGSV,2,1,07,02,38,071,42,12,52,083,42,14,24,248,39,25,79,003,43*77
$GPGSV,2,2,07,29,58,227,46,30,38,293,,31,30,312,,,,,*4C
$GPGSA,M,3,02,12,25,29,,,,,,,,,8.6,5.2,6.9*35
Trace #13 at position 3.000000
$GPZDA,090742.03,09,10,2011,00,00*67
$GPRMC,090742.00,A,4611.954433,N,01258.230347,E,001.3,338.9,091011,0.2,E,A*35
$GPGGA,090743.00,4611.954763,N,01258.230178,E,1,04,5.2,139.67,M,46.25,M,,*60
$GPGLL,4611.954763,N,01258.230178,E,090743.00,A,A*69
$GPVTG,334.3,T,334.4,M,001.3,N,002.5,K,A*21
$GPGSV,2,1,07,02,38,071,43,12,52,083,45,14,24,248,39,25,79,003,41*73
$GPGSV,2,2,07,29,58,227,45,30,38,293,38,31,30,312,35,,,,*42
$GPGSA,M,3,02,12,25,29,,,,,,,,,8.6,5.2,6.9*35
Trace #14 at position 3.250000
$GPZDA,090742.03,09,10,2011,00,00*67
$GPRMC,090742.00,A,4611.954433,N,01258.230347,E,001.3,338.9,091011,0.2,E,A*35
$GPGGA,090743.00,4611.954763,N,01258.230178,E,1,04,5.2,139.67,M,46.25,M,,*60
$GPGLL,4611.954763,N,01258.230178,E,090743.00,A,A*69
$GPVTG,334.3,T,334.4,M,001.3,N,002.5,K,A*21
$GPGSV,2,1,07,02,38,071,43,12,52,083,45,14,24,248,39,25,79,003,41*73
$GPGSV,2,2,07,29,58,227,45,30,38,293,38,31,30,312,35,,,,*42
$GPGSA,M,3,02,12,25,29,,,,,,,,,8.6,5.2,6.9*35
Trace #15 at position 3.500000
$GPZDA,090742.03,09,10,2011,00,00*67
$GPRMC,090742.00,A,4611.954433,N,01258.230347,E,001.3,338.9,091011,0.2,E,A*35
$GPGGA,090743.00,4611.954763,N,01258.230178,E,1,04,5.2,139.67,M,46.25,M,,*60
$GPGLL,4611.954763,N,01258.230178,E,090743.00,A,A*69
$GPVTG,334.3,T,334.4,M,001.3,N,002.5,K,A*21
$GPGSV,2,1,07,02,38,071,43,12,52,083,45,14,24,248,39,25,79,003,41*73
$GPGSV,2,2,07,29,58,227,45,30,38,293,38,31,30,312,35,,,,*42
$GPGSA,M,3,02,12,25,29,,,,,,,,,8.6,5.2,6.9*35
Trace #16 at position 3.750000
$GPZDA,090742.03,09,10,2011,00,00*67
$GPRMC,090742.00,A,4611.954433,N,01258.230347,E,001.3,338.9,091011,0.2,E,A*35
$GPGGA,090743.00,4611.954763,N,01258.230178,E,1,04,5.2,139.67,M,46.25,M,,*60
$GPGLL,4611.954763,N,01258.230178,E,090743.00,A,A*69
$GPVTG,334.3,T,334.4,M,001.3,N,002.5,K,A*21
$GPGSV,2,1,07,02,38,071,43,12,52,083,45,14,24,248,39,25,79,003,41*73
$GPGSV,2,2,07,29,58,227,45,30,38,293,38,31,30,312,35,,,,*42
$GPGSA,M,3,02,12,25,29,,,,,,,,,8.6,5.2,6.9*35
Trace #17 at position 4.000000
$GPZDA,090743.04,09,10,2011,00,00*61
$GPRMC,090743.00,A,4611.954763,N,01258.230178,E,001.3,334.3,091011,0.2,E,A*3A
$GPGGA,090744.00,4611.955036,N,01258.229908,E,1,04,5.2,139.74,M,46.25,M,,*64
$GPGLL,4611.955036,N,01258.229908,E,090744.00,A,A*6F
$GPVTG,307.7,T,307.9,M,001.3,N,002.4,K,A*29
$GPGSV,2,1,07,02,38,071,44,12,52,083,45,14,24,248,39,25,79,003,41*74
$GPGSV,2,2,07,29,58,227,45,30,38,293,38,31,30,312,37,,,,*40
$GPGSA,M,3,02,12,25,29,,,,,,,,,8.6,5.2,6.9*35
Trace #18 at position 4.250000
$GPZDA,090743.04,09,10,2011,00,00*61
$GPRMC,090743.00,A,4611.954763,N,01258.230178,E,001.3,334.3,091011,0.2,E,A*3A
$GPGGA,090744.00,4611.955036,N,01258.229908,E,1,04,5.2,139.74,M,46.25,M,,*64
$GPGLL,4611.955036,N,01258.229908,E,090744.00,A,A*6F
$GPVTG,307.7,T,307.9,M,001.3,N,002.4,K,A*29
$GPGSV,2,1,07,02,38,071,44,12,52,083,45,14,24,248,39,25,79,003,41*74
$GPGSV,2,2,07,29,58,227,45,30,38,293,38,31,30,312,37,,,,*40
$GPGSA,M,3,02,12,25,29,,,,,,,,,8.6,5.2,6.9*35
Trace #19 at position 4.500000
$GPZDA,090743.04,09,10,2011,00,00*61
$GPRMC,090743.00,A,4611.954763,N,01258.230178,E,001.3,334.3,091011,0.2,E,A*3A
$GPGGA,090744.00,4611.955036,N,01258.229908,E,1,04,5.2,139.74,M,46.25,M,,*64
$GPGLL,4611.955036,N,01258.229908,E,090744.00,A,A*6F
$GPVTG,307.7,T,307.9,M,001.3,N,002.4,K,A*29
$GPGSV,2,1,07,02,38,071,44,12,52,083,45,14,24,248,39,25,79,003,41*74
$GPGSV,2,2,07,29,58,227,45,30,38,293,38,31,30,312,37,,,,*40
$GPGSA,M,3,02,12,25,29,,,,,,,,,8.6,5.2,6.9*35
Trace #20 at position 4.750000
$GPZDA,090744.03,09,10,2011,00,00*61
$GPRMC,090744.00,A,4611.955036,N,01258.229908,E,001.3,307.7,091011,0.2,E,A*38
$GPGGA,090745.00,4611.955393,N,01258.229706,E,1,04,5.2,139.84,M,46.25,M,,*66
$GPGLL,4611.955393,N,01258.229706,E,090745.00,A,A*62
$GPVTG,350.5,T,350.6,M,001.8,N,003.4,K,A*2E
$GPGSV,2,1,07,02,38,071,44,12,52,083,43,14,24,248,38,25,79,003,45*77
$GPGSV,2,2,07,29,58,227,45,30,38,293,40,31,30,312,36,,,,*4E
$GPGSA,M,3,02,12,25,29,,,,,,,,,8.6,5.2,6.9*35
Trace #21 at position 5.000000
$GPZDA,090744.03,09,10,2011,00,00*61
$GPRMC,090744.00,A,4611.955036,N,01258.229908,E,001.3,307.7,091011,0.2,E,A*38
$GPGGA,090745.00,4611.955393,N,01258.229706,E,1,04,5.2,139.84,M,46.25,M,,*66
$GPGLL,4611.955393,N,01258.229706,E,090745.00,A,A*62
$GPVTG,350.5,T,350.6,M,001.8,N,003.4,K,A*2E
$GPGSV,2,1,07,02,38,071,44,12,52,083,43,14,24,248,38,25,79,003,45*77
$GPGSV,2,2,07,29,58,227,45,30,38,293,40,31,30,312,36,,,,*4E
$GPGSA,M,3,02,12,25,29,,,,,,,,,8.6,5.2,6.9*35
Trace #22 at position 5.250000
$GPZDA,090744.03,09,10,2011,00,00*61
$GPRMC,090744.00,A,4611.955036,N,01258.229908,E,001.3,307.7,091011,0.2,E,A*38
$GPGGA,090745.00,4611.955393,N,01258.229706,E,1,04,5.2,139.84,M,46.25,M,,*66
$GPGLL,4611.955393,N,01258.229706,E,090745.00,A,A*62
$GPVTG,350.5,T,350.6,M,001.8,N,003.4,K,A*2E
$GPGSV,2,1,07,02,38,071,44,12,52,083,43,14,24,248,38,25,79,003,45*77
$GPGSV,2,2,07,29,58,227,45,30,38,293,40,31,30,312,36,,,,*4E
$GPGSA,M,3,02,12,25,29,,,,,,,,,8.6,5.2,6.9*35
Trace #23 at position 5.500000
$GPZDA,090744.03,09,10,2011,00,00*61
$GPRMC,090744.00,A,4611.955036,N,01258.229908,E,001.3,307.7,091011,0.2,E,A*38
$GPGGA,090745.00,4611.955393,N,01258.229706,E,1,04,5.2,139.84,M,46.25,M,,*66
$GPGLL,4611.955393,N,01258.229706,E,090745.00,A,A*62
$GPVTG,350.5,T,350.6,M,001.8,N,003.4,K,A*2E
$GPGSV,2,1,07,02,38,071,44,12,52,083,43,14,24,248,38,25,79,003,45*77
$GPGSV,2,2,07,29,58,227,45,30,38,293,40,31,30,312,36,,,,*4E
$GPGSA,M,3,02,12,25,29,,,,,,,,,8.6,5.2,6.9*35
Trace #24 at position 5.750000
$GPZDA,090745.03,09,10,2011,00,00*60
$GPRMC,090745.00,A,4611.955393,N,01258.229706,E,001.8,350.5,091011,0.2,E,A*3E
$GPGGA,090746.00,4611.955949,N,01258.229612,E,1,04,5.2,139.90,M,46.25,M,,*69
$GPGLL,4611.955949,N,01258.229612,E,090746.00,A,A*68
$GPVTG,348.8,T,349.0,M,002.4,N,004.4,K,A*2C
$GPGSV,2,1,07,02,38,071,44,12,52,083,44,14,24,248,39,25,79,003,44*70
$GPGSV,2,2,07,29,58,227,46,30,38,293,39,31,30,312,37,,,,*42
$GPGSA,M,3,02,12,25,29,,,,,,,,,8.6,5.2,6.9*35
Trace #25 at position 6.000000
$GPZDA,090745.03,09,10,2011,00,00*60
$GPRMC,090745.00,A,4611.955393,N,01258.229706,E,001.8,350.5,091011,0.2,E,A*3E
$GPGGA,090746.00,4611.955949,N,01258.229612,E,1,04,5.2,139.90,M,46.25,M,,*69
$GPGLL,4611.955949,N,01258.229612,E,090746.00,A,A*68
$GPVTG,348.8,T,349.0,M,002.4,N,004.4,K,A*2C
$GPGSV,2,1,07,02,38,071,44,12,52,083,44,14,24,248,39,25,79,003,44*70
$GPGSV,2,2,07,29,58,227,46,30,38,293,39,31,30,312,37,,,,*42
$GPGSA,M,3,02,12,25,29,,,,,,,,,8.6,5.2,6.9*35
Trace #26 at position 6.250000
$GPZDA,090745.03,09,10,2011,00,00*60
$GPRMC,090745.00,A,4611.955393,N,01258.229706,E,001.8,350.5,091011,0.2,E,A*3E
$GPGGA,090746.00,4611.955949,N,01258.229612,E,1,04,5.2,139.90,M,46.25,M,,*69
$GPGLL,4611.955949,N,01258.229612,E,090746.00,A,A*68
$GPVTG,348.8,T,349.0,M,002.4,N,004.4,K,A*2C
$GPGSV,2,1,07,02,38,071,44,12,52,083,44,14,24,248,39,25,79,003,44*70
$GPGSV,2,2,07,29,58,227,46,30,38,293,39,31,30,312,37,,,,*42
$GPGSA,M,3,02,12,25,29,,,,,,,,,8.6,5.2,6.9*35
Trace #27 at position 6.500000
$GPZDA,090745.03,09,10,2011,00,00*60
$GPRMC,090745.00,A,4611.955393,N,01258.229706,E,001.8,350.5,091011,0.2,E,A*3E
$GPGGA,090746.00,4611.955949,N,01258.229612,E,1,04,5.2,139.90,M,46.25,M,,*69
$GPGLL,4611.955949,N,01258.229612,E,090746.00,A,A*68
$GPVTG,348.8,T,349.0,M,002.4,N,004.4,K,A*2C
$GPGSV,2,1,07,02,38,071,44,12,52,083,44,14,24,248,39,25,79,003,44*70
$GPGSV,2,2,07,29,58,227,46,30,38,293,39,31,30,312,37,,,,*42
$GPGSA,M,3,02,12,25,29,,,,,,,,,8.6,5.2,6.9*35
Trace #28 at position 6.750000
$GPZDA,090746.03,09,10,2011,00,00*63
$GPRMC,090746.00,A,4611.955949,N,01258.229612,E,002.4,348.8,091011,0.2,E,A*3F
$GPGGA,090747.00,4611.956649,N,01258.229341,E,1,06,1.9,139.92,M,46.25,M,,*68
$GPGLL,4611.956649,N,01258.229341,E,090747.00,A,A*66
$GPVTG,338.2,T,338.4,M,001.6,N,003.0,K,A*21
$GPGSV,2,1,07,02,38,071,44,12,52,083,44,14,24,248,41,25,79,003,44*7F
$GPGSV,2,2,07,29,58,227,46,30,38,293,39,31,30,312,35,,,,*40
$GPGSA,M,3,02,12,14,25,29,30,,,,,,,3.0,1.9,2.4*38
Trace #29 at position 7.000000
$GPZDA,090746.03,09,10,2011,00,00*63
$GPRMC,090746.00,A,4611.955949,N,01258.229612,E,002.4,348.8,091011,0.2,E,A*3F
$GPGGA,090747.00,4611.956649,N,01258.229341,E,1,06,1.9,139.92,M,46.25,M,,*68
$GPGLL,4611.956649,N,01258.229341,E,090747.00,A,A*66
$GPVTG,338.2,T,338.4,M,001.6,N,003.0,K,A*21
$GPGSV,2,1,07,02,38,071,44,12,52,083,44,14,24,248,41,25,79,003,44*7F
$GPGSV,2,2,07,29,58,227,46,30,38,293,39,31,30,312,35,,,,*40
$GPGSA,M,3,02,12,14,25,29,30,,,,,,,3.0,1.9,2.4*38
Trace #30 at position 7.250000
$GPZDA,090746.03,09,10,2011,00,00*63
$GPRMC,090746.00,A,4611.955949,N,01258.229612,E,002.4,348.8,091011,0.2,E,A*3F
$GPGGA,090747.00,4611.956649,N,01258.229341,E,1,06,1.9,139.92,M,46.25,M,,*68
$GPGLL,4611.956649,N,01258.229341,E,090747.00,A,A*66
$GPVTG,338.2,T,338.4,M,001.6,N,003.0,K,A*21
$GPGSV,2,1,07,02,38,071,44,12,52,083,44,14,24,248,41,25,79,003,44*7F
$GPGSV,2,2,07,29,58,227,46,30,38,293,39,31,30,312,35,,,,*40
$GPGSA,M,3,02,12,14,25,29,30,,,,,,,3.0,1.9,2.4*38
Trace #31 at position 7.500000
$GPZDA,090746.03,09,10,2011,00,00*63
$GPRMC,090746.00,A,4611.955949,N,01258.229612,E,002.4,348.8,091011,0.2,E,A*3F
$GPGGA,090747.00,4611.956649,N,01258.229341,E,1,06,1.9,139.92,M,46.25,M,,*68
$GPGLL,4611.956649,N,01258.229341,E,090747.00,A,A*66
$GPVTG,338.2,T,338.4,M,001.6,N,003.0,K,A*21
$GPGSV,2,1,07,02,38,071,44,12,52,083,44,14,24,248,41,25,79,003,44*7F
$GPGSV,2,2,07,29,58,227,46,30,38,293,39,31,30,312,35,,,,*40
$GPGSA,M,3,02,12,14,25,29,30,,,,,,,3.0,1.9,2.4*38
Trace #32 at position 7.750000
$GPZDA,090747.04,09,10,2011,00,00*65
$GPRMC,090747.00,A,4611.956649,N,01258.229341,E,001.6,338.2,091011,0.2,E,A*3D
$GPGGA,090748.00,4611.957198,N,01258.228990,E,1,06,1.9,139.95,M,46.25,M,,*6D
$GPGLL,4611.957198,N,01258.228990,E,090748.00,A,A*64
$GPVTG,323.5,T,323.6,M,001.6,N,002.9,K,A*2C
$GPGSV,2,1,07,02,38,071,44,12,52,083,44,14,24,248,39,25,79,003,45*71
$GPGSV,2,2,07,29,58,227,46,30,38,293,39,31,30,312,35,,,,*40
$GPGSA,M,3,02,12,14,25,29,30,,,,,,,3.0,1.9,2.4*38
Trace #33 at position 8.000000
$GPZDA,090747.04,09,10,2011,00,00*65
$GPRMC,090747.00,A,4611.956649,N,01258.229341,E,001.6,338.2,091011,0.2,E,A*3D
$GPGGA,090748.00,4611.957198,N,01258.228990,E,1,06,1.9,139.95,M,46.25,M,,*6D
$GPGLL,4611.957198,N,01258.228990,E,090748.00,A,A*64
$GPVTG,323.5,T,323.6,M,001.6,N,002.9,K,A*2C
$GPGSV,2,1,07,02,38,071,44,12,52,083,44,14,24,248,39,25,79,003,45*71
$GPGSV,2,2,07,29,58,227,46,30,38,293,39,31,30,312,35,,,,*40
$GPGSA,M,3,02,12,14,25,29,30,,,,,,,3.0,1.9,2.4*38
Trace #34 at position 8.250000
$GPZDA,090747.04,09,10,2011,00,00*65
$GPRMC,090747.00,A,4611.956649,N,01258.229341,E,001.6,338.2,091011,0.2,E,A*3D
$GPGGA,090748.00,4611.957198,N,01258.228990,E,1,06,1.9,139.95,M,46.25,M,,*6D
$GPGLL,4611.957198,N,01258.228990,E,090748.00,A,A*64
$GPVTG,323.5,T,323.6,M,001.6,N,002.9,K,A*2C
$GPGSV,2,1,07,02,38,071,44,12,52,083,44,14,24,248,39,25,79,003,45*71
$GPGSV,2,2,07,29,58,227,46,30,38,293,39,31,30,312,35,,,,*40
$GPGSA,M,3,02,12,14,25,29,30,,,,,,,3.0,1.9,2.4*38
Trace #35 at position 8.500000
$GPZDA,090747.04,09,10,2011,00,00*65
$GPRMC,090747.00,A,4611.956649,N,01258.229341,E,001.6,338.2,091011,0.2,E,A*3D
$GPGGA,090748.00,4611.957198,N,01258.228990,E,1,06,1.9,139.95,M,46.25,M,,*6D
$GPGLL,4611.957198,N,01258.228990,E,090748.00,A,A*64
$GPVTG,323.5,T,323.6,M,001.6,N,002.9,K,A*2C
$GPGSV,2,1,07,02,38,071,44,12,52,083,44,14,24,248,39,25,79,003,45*71
$GPGSV,2,2,07,29,58,227,46,30,38,293,39,31,30,312,35,,,,*40
$GPGSA,M,3,02,12,14,25,29,30,,,,,,,3.0,1.9,2.4*38
Trace #36 at position 8.750000
$GPZDA,090747.04,09,10,2011,00,00*65
$GPRMC,090747.00,A,4611.956649,N,01258.229341,E,001.6,338.2,091011,0.2,E,A*3D
$GPGGA,090748.00,4611.957198,N,01258.228990,E,1,06,1.9,139.95,M,46.25,M,,*6D
$GPGLL,4611.957198,N,01258.228990,E,090748.00,A,A*64
$GPVTG,323.5,T,323.6,M,001.6,N,002.9,K,A*2C
$GPGSV,2,1,07,02,38,071,44,12,52,083,44,14,24,248,39,25,79,003,45*71
$GPGSV,2,2,07,29,58,227,46,30,38,293,39,31,30,312,35,,,,*40
$GPGSA,M,3,02,12,14,25,29,30,,,,,,,3.0,1.9,2.4*38
Trace #37 at position 9.000000
$GPZDA,090748.04,09,10,2011,00,00*6A
$GPRMC,090748.00,A,4611.957198,N,01258.228990,E,001.6,323.5,091011,0.2,E,A*32
$GPGGA,090749.00,4611.957835,N,01258.228753,E,1,06,1.9,139.90,M,46.25,M,,*66
$GPGLL,4611.957835,N,01258.228753,E,090749.00,A,A*6A
$GPVTG,359.0,T,359.1,M,002.2,N,004.2,K,A*24
$GPGSV,2,1,07,02,38,071,43,12,52,083,45,14,24,248,38,25,79,004,46*72
$GPGSV,2,2,07,29,58,227,46,30,38,293,37,31,30,312,34,,,,*4F
$GPGSA,M,3,02,12,14,25,29,30,,,,,,,3.0,1.9,2.4*38
Trace #38 at position 9.250000
$GPZDA,090748.04,09,10,2011,00,00*6A
$GPRMC,090748.00,A,4611.957198,N,01258.228990,E,001.6,323.5,091011,0.2,E,A*32
$GPGGA,090749.00,4611.957835,N,01258.228753,E,1,06,1.9,139.90,M,46.25,M,,*66
$GPGLL,4611.957835,N,01258.228753,E,090749.00,A,A*6A
$GPVTG,359.0,T,359.1,M,002.2,N,004.2,K,A*24
$GPGSV,2,1,07,02,38,071,43,12,52,083,45,14,24,248,38,25,79,004,46*72
$GPGSV,2,2,07,29,58,227,46,30,38,293,37,31,30,312,34,,,,*4F
$GPGSA,M,3,02,12,14,25,29,30,,,,,,,3.0,1.9,2.4*38
Trace #39 at position 9.500000
$GPZDA,090748.04,09,10,2011,00,00*6A
$GPRMC,090748.00,A,4611.957198,N,01258.228990,E,001.6,323.5,091011,0.2,E,A*32
$GPGGA,090749.00,4611.957835,N,01258.228753,E,1,06,1.9,139.90,M,46.25,M,,*66
$GPGLL,4611.957835,N,01258.228753,E,090749.00,A,A*6A
$GPVTG,359.0,T,359.1,M,002.2,N,004.2,K,A*24
$GPGSV,2,1,07,02,38,071,43,12,52,083,45,14,24,248,38,25,79,004,46*72
$GPGSV,2,2,07,29,58,227,46,30,38,293,37,31,30,312,34,,,,*4F
$GPGSA,M,3,02,12,14,25,29,30,,,,,,,3.0,1.9,2.4*38
Trace #40 at position 9.750000
$GPZDA,090748.04,09,10,2011,00,00*6A
$GPRMC,090748.00,A,4611.957198,N,01258.228990,E,001.6,323.5,091011,0.2,E,A*32
$GPGGA,090749.00,4611.957835,N,01258.228753,E,1,06,1.9,139.90,M,46.25,M,,*66
$GPGLL,4611.957835,N,01258.228753,E,090749.00,A,A*6A
$GPVTG,359.0,T,359.1,M,002.2,N,004.2,K,A*24
$GPGSV,2,1,07,02,38,071,43,12,52,083,45,14,24,248,38,25,79,004,46*72
$GPGSV,2,2,07,29,58,227,46,30,38,293,37,31,30,312,34,,,,*4F
$GPGSA,M,3,02,12,14,25,29,30,,,,,,,3.0,1.9,2.4*38
Trace #41 at position 10.000000
$GPZDA,090749.03,09,10,2011,00,00*6C
$GPRMC,090749.00,A,4611.957835,N,01258.228753,E,002.2,359.0,091011,0.2,E,A*33
$GPGGA,090750.00,4611.958479,N,01258.228562,E,1,06,1.9,139.85,M,46.25,M,,*61
$GPGLL,4611.958479,N,01258.228562,E,090750.00,A,A*69
$GPVTG,335.3,T,335.5,M,001.6,N,002.9,K,A*29
$GPGSV,2,1,07,02,38,071,45,12,52,083,44,14,24,248,39,25,79,004,45*77
$GPGSV,2,2,07,29,58,227,46,30,38,293,38,31,30,312,37,,,,*43
$GPGSA,M,3,02,12,14,25,29,30,,,,,,,3.0,1.9,2.4*38
Trace #42 at position 10.250000
$GPZDA,090749.03,09,10,2011,00,00*6C
$GPRMC,090749.00,A,4611.957835,N,01258.228753,E,002.2,359.0,091011,0.2,E,A*33
$GPGGA,090750.00,4611.958479,N,01258.228562,E,1,06,1.9,139.85,M,46.25,M,,*61
$GPGLL,4611.958479,N,01258.228562,E,090750.00,A,A*69
$GPVTG,335.3,T,335.5,M,001.6,N,002.9,K,A*29
$GPGSV,2,1,07,02,38,071,45,12,52,083,44,14,24,248,39,25,79,004,45*77
$GPGSV,2,2,07,29,58,227,46,30,38,293,38,31,30,312,37,,,,*43
$GPGSA,M,3,02,12,14,25,29,30,,,,,,,3.0,1.9,2.4*38
Trace #43 at position 10.500000
$GPZDA,090749.03,09,10,2011,00,00*6C
$GPRMC,090749.00,A,4611.957835,N,01258.228753,E,002.2,359.0,091011,0.2,E,A*33
$GPGGA,090750.00,4611.958479,N,01258.228562,E,1,06,1.9,139.85,M,46.25,M,,*61
$GPGLL,4611.958479,N,01258.228562,E,090750.00,A,A*69
$GPVTG,335.3,T,335.5,M,001.6,N,002.9,K,A*29
$GPGSV,2,1,07,02,38,071,45,12,52,083,44,14,24,248,39,25,79,004,45*77
$GPGSV,2,2,07,29,58,227,46,30,38,293,38,31,30,312,37,,,,*43
$GPGSA,M,3,02,12,14,25,29,30,,,,,,,3.0,1.9,2.4*38
Trace #44 at position 10.750000
$GPZDA,090749.03,09,10,2011,00,00*6C
$GPRMC,090749.00,A,4611.957835,N,01258.228753,E,002.2,359.0,091011,0.2,E,A*33
$GPGGA,090750.00,4611.958479,N,01258.228562,E,1,06,1.9,139.85,M,46.25,M,,*61
$GPGLL,4611.958479,N,01258.228562,E,090750.00,A,A*69
$GPVTG,335.3,T,335.5,M,001.6,N,002.9,K,A*29
$GPGSV,2,1,07,02,38,071,45,12,52,083,44,14,24,248,39,25,79,004,45*77
$GPGSV,2,2,07,29,58,227,46,30,38,293,38,31,30,312,37,,,,*43
$GPGSA,M,3,02,12,14,25,29,30,,,,,,,3.0,1.9,2.4*38
Trace #45 at position 11.000000
$GPZDA,090749.03,09,10,2011,00,00*6C
$GPRMC,090749.00,A,4611.957835,N,01258.228753,E,002.2,359.0,091011,0.2,E,A*33
$GPGGA,090750.00,4611.958479,N,01258.228562,E,1,06,1.9,139.85,M,46.25,M,,*61
$GPGLL,4611.958479,N,01258.228562,E,090750.00,A,A*69
$GPVTG,335.3,T,335.5,M,001.6,N,002.9,K,A*29
$GPGSV,2,1,07,02,38,071,45,12,52,083,44,14,24,248,39,25,79,004,45*77
$GPGSV,2,2,07,29,58,227,46,30,38,293,38,31,30,312,37,,,,*43
$GPGSA,M,3,02,12,14,25,29,30,,,,,,,3.0,1.9,2.4*38
Trace #46 at position 11.250000
$GPZDA,090750.03,09,10,2011,00,00*64
$GPRMC,090750.00,A,4611.958479,N,01258.228562,E,001.6,335.3,091011,0.2,E,A*3E
$GPGGA,090751.00,4611.959066,N,01258.228367,E,1,06,1.9,139.84,M,46.25,M,,*69
$GPGLL,4611.959066,N,01258.228367,E,090751.00,A,A*60
$GPVTG,358.8,T,358.9,M,001.8,N,003.3,K,A*2B
$GPGSV,2,1,07,02,38,071,44,12,52,083,44,14,24,248,39,25,79,004,44*77
$GPGSV,2,2,07,29,58,227,46,30,38,293,37,31,30,312,36,,,,*4D
$GPGSA,M,3,02,12,14,25,29,30,,,,,,,3.0,1.9,2.4*38
Trace #47 at position 11.500000
$GPZDA,090750.03,09,10,2011,00,00*64
$GPRMC,090750.00,A,4611.958479,N,01258.228562,E,001.6,335.3,091011,0.2,E,A*3E
$GPGGA,090751.00,4611.959066,N,01258.228367,E,1,06,1.9,139.84,M,46.25,M,,*69
$GPGLL,4611.959066,N,01258.228367,E,090751.00,A,A*60
$GPVTG,358.8,T,358.9,M,001.8,N,003.3,K,A*2B
$GPGSV,2,1,07,02,38,071,44,12,52,083,44,14,24,248,39,25,79,004,44*77
$GPGSV,2,2,07,29,58,227,46,30,38,293,37,31,30,312,36,,,,*4D
$GPGSA,M,3,02,12,14,25,29,30,,,,,,,3.0,1.9,2.4*38
Trace #48 at position 11.750000
$GPZDA,090750.03,09,10,2011,00,00*64
$GPRMC,090750.00,A,4611.958479,N,01258.228562,E,001.6,335.3,091011,0.2,E,A*3E
$GPGGA,090751.00,4611.959066,N,01258.228367,E,1,06,1.9,139.84,M,46.25,M,,*69
$GPGLL,4611.959066,N,01258.228367,E,090751.00,A,A*60
$GPVTG,358.8,T,358.9,M,001.8,N,003.3,K,A*2B
$GPGSV,2,1,07,02,38,071,44,12,52,083,44,14,24,248,39,25,79,004,44*77
$GPGSV,2,2,07,29,58,227,46,30,38,293,37,31,30,312,36,,,,*4D
$GPGSA,M,3,02,12,14,25,29,30,,,,,,,3.0,1.9,2.4*38
Trace #49 at position 12.000000
$GPZDA,090750.03,09,10,2011,00,00*64
$GPRMC,090750.00,A,4611.958479,N,01258.228562,E,001.6,335.3,091011,0.2,E,A*3E
$GPGGA,090751.00,4611.959066,N,01258.228367,E,1,06,1.9,139.84,M,46.25,M,,*69
$GPGLL,4611.959066,N,01258.228367,E,090751.00,A,A*60
$GPVTG,358.8,T,358.9,M,001.8,N,003.3,K,A*2B
$GPGSV,2,1,07,02,38,071,44,12,52,083,44,14,24,248,39,25,79,004,44*77
$GPGSV,2,2,07,29,58,227,46,30,38,293,37,31,30,312,36,,,,*4D
$GPGSA,M,3,02,12,14,25,29,30,,,,,,,3.0,1.9,2.4*38
Trace #50 at position 12.250000
$GPZDA,090751.03,09,10,2011,00,00*65
$GPRMC,090751.00,A,4611.959066,N,01258.228367,E,001.8,358.8,091011,0.2,E,A*39
$GPGGA,090752.00,4611.959685,N,01258.228111,E,1,06,1.9,139.88,M,46.25,M,,*6E
$GPGLL,4611.959685,N,01258.228111,E,090752.00,A,A*6B
$GPVTG,330.9,T,331.1,M,002.0,N,003.7,K,A*2C
$GPGSV,2,1,07,02,38,071,45,12,52,083,44,14,24,248,39,25,79,004,44*76
$GPGSV,2,2,07,29,58,227,45,30,38,293,38,31,30,312,35,,,,*42
$GPGSA,M,3,02,12,14,25,29,30,,,,,,,3.0,1.9,2.4*38
Trace #51 at position 12.500000
$GPZDA,090751.03,09,10,2011,00,00*65
$GPRMC,090751.00,A,4611.959066,N,01258.228367,E,001.8,358.8,091011,0.2,E,A*39
$GPGGA,090752.00,4611.959685,N,01258.228111,E,1,06,1.9,139.88,M,46.25,M,,*6E
$GPGLL,4611.959685,N,01258.228111,E,090752.00,A,A*6B
$GPVTG,330.9,T,331.1,M,002.0,N,003.7,K,A*2C
$GPGSV,2,1,07,02,38,071,45,12,52,083,44,14,24,248,39,25,79,004,44*76
$GPGSV,2,2,07,29,58,227,45,30,38,293,38,31,30,312,35,,,,*42
$GPGSA,M,3,02,12,14,25,29,30,,,,,,,3.0,1.9,2.4*38
Trace #52 at position 12.750000
$GPZDA,090751.03,09,10,2011,00,00*65
$GPRMC,090751.00,A,4611.959066,N,01258.228367,E,001.8,358.8,091011,0.2,E,A*39
$GPGGA,090752.00,4611.959685,N,01258.228111,E,1,06,1.9,139.88,M,46.25,M,,*6E
$GPGLL,4611.959685,N,01258.228111,E,090752.00,A,A*6B
$GPVTG,330.9,T,331.1,M,002.0,N,003.7,K,A*2C
$GPGSV,2,1,07,02,38,071,45,12,52,083,44,14,24,248,39,25,79,004,44*76
$GPGSV,2,2,07,29,58,227,45,30,38,293,38,31,30,312,35,,,,*42
$GPGSA,M,3,02,12,14,25,29,30,,,,,,,3.0,1.9,2.4*38
Trace #53 at position 13.000000
$GPZDA,090751.03,09,10,2011,00,00*65
$GPRMC,090751.00,A,4611.959066,N,01258.228367,E,001.8,358.8,091011,0.2,E,A*39
$GPGGA,090752.00,4611.959685,N,01258.228111,E,1,06,1.9,139.88,M,46.25,M,,*6E
$GPGLL,4611.959685,N,01258.228111,E,090752.00,A,A*6B
$GPVTG,330.9,T,331.1,M,002.0,N,003.7,K,A*2C
$GPGSV,2,1,07,02,38,071,45,12,52,083,44,14,24,248,39,25,79,004,44*76
$GPGSV,2,2,07,29,58,227,45,30,38,293,38,31,30,312,35,,,,*42
$GPGSA,M,3,02,12,14,25,29,30,,,,,,,3.0,1.9,2.4*38
Trace #54 at position 13.250000
$GPZDA,090752.03,09,10,2011,00,00*66
$GPRMC,090752.00,A,4611.959685,N,01258.228111,E,002.0,330.9,091011,0.2,E,A*36
$GPGGA,090753.00,4611.960261,N,01258.227761,E,1,06,1.9,139.87,M,46.25,M,,*6A
$GPGLL,4611.960261,N,01258.227761,E,090753.00,A,A*60
$GPVTG,340.1,T,340.2,M,001.7,N,003.2,K,A*27
$GPGSV,2,1,07,02,38,071,45,12,52,083,43,14,24,248,37,25,79,004,44*7F
$GPGSV,2,2,07,29,58,227,46,30,38,294,36,31,30,312,34,,,,*49
$GPGSA,M,3,02,12,14,25,29,30,,,,,,,3.0,1.9,2.4*38
Trace #55 at position 13.500000
$GPZDA,090752.03,09,10,2011,00,00*66
$GPRMC,090752.00,A,4611.959685,N,01258.228111,E,002.0,330.9,091011,0.2,E,A*36
$GPGGA,090753.00,4611.960261,N,01258.227761,E,1,06,1.9,139.87,M,46.25,M,,*6A
$GPGLL,4611.960261,N,01258.227761,E,090753.00,A,A*60
$GPVTG,340.1,T,340.2,M,001.7,N,003.2,K,A*27
$GPGSV,2,1,07,02,38,071,45,12,52,083,43,14,24,248,37,25,79,004,44*7F
$GPGSV,2,2,07,29,58,227,46,30,38,294,36,31,30,312,34,,,,*49
$GPGSA,M,3,02,12,14,25,29,30,,,,,,,3.0,1.9,2.4*38
Trace #56 at position 13.750000
$GPZDA,090752.03,09,10,2011,00,00*66
$GPRMC,090752.00,A,4611.959685,N,01258.228111,E,002.0,330.9,091011,0.2,E,A*36
$GPGGA,090753.00,4611.960261,N,01258.227761,E,1,06,1.9,139.87,M,46.25,M,,*6A
$GPGLL,4611.960261,N,01258.227761,E,090753.00,A,A*60
$GPVTG,340.1,T,340.2,M,001.7,N,003.2,K,A*27
$GPGSV,2,1,07,02,38,071,45,12,52,083,43,14,24,248,37,25,79,004,44*7F
$GPGSV,2,2,07,29,58,227,46,30,38,294,36,31,30,312,34,,,,*49
$GPGSA,M,3,02,12,14,25,29,30,,,,,,,3.0,1.9,2.4*38
Trace #57 at position 14.000000
$GPZDA,090752.03,09,10,2011,00,00*66
$GPRMC,090752.00,A,4611.959685,N,01258.228111,E,002.0,330.9,091011,0.2,E,A*36
$GPGGA,090753.00,4611.960261,N,01258.227761,E,1,06,1.9,139.87,M,46.25,M,,*6A
$GPGLL,4611.960261,N,01258.227761,E,090753.00,A,A*60
$GPVTG,340.1,T,340.2,M,001.7,N,003.2,K,A*27
$GPGSV,2,1,07,02,38,071,45,12,52,083,43,14,24,248,37,25,79,004,44*7F
$GPGSV,2,2,07,29,58,227,46,30,38,294,36,31,30,312,34,,,,*49
$GPGSA,M,3,02,12,14,25,29,30,,,,,,,3.0,1.9,2.4*38
Trace #58 at position 14.250000
$GPZDA,090753.04,09,10,2011,00,00*60
$GPRMC,090753.00,A,4611.960261,N,01258.227761,E,001.7,340.1,091011,0.2,E,A*36
$GPGGA,090754.00,4611.960873,N,01258.227460,E,1,06,1.9,139.76,M,46.25,M,,*68
$GPGLL,4611.960873,N,01258.227460,E,090754.00,A,A*6C
$GPVTG,340.6,T,340.8,M,002.3,N,004.3,K,A*2B
$GPGSV,2,1,07,02,38,071,44,12,52,083,44,14,24,248,37,25,79,004,45*78
$GPGSV,2,2,07,29,58,227,46,30,38,294,37,31,30,312,32,,,,*4E
$GPGSA,M,3,02,12,14,25,29,30,,,,,,,3.0,1.9,2.4*38
Trace #59 at position 14.500000
$GPZDA,090753.04,09,10,2011,00,00*60
$GPRMC,090753.00,A,4611.960261,N,01258.227761,E,001.7,340.1,091011,0.2,E,A*36
$GPGGA,090754.00,4611.960873,N,01258.227460,E,1,06,1.9,139.76,M,46.25,M,,*68
$GPGLL,4611.960873,N,01258.227460,E,090754.00,A,A*6C
$GPVTG,340.6,T,340.8,M,002.3,N,004.3,K,A*2B
$GPGSV,2,1,07,02,38,071,44,12,52,083,44,14,24,248,37,25,79,004,45*78
$GPGSV,2,2,07,29,58,227,46,30,38,294,37,31,30,312,32,,,,*4E
$GPGSA,M,3,02,12,14,25,29,30,,,,,,,3.0,1.9,2.4*38
Trace #60 at position 14.750000
$GPZDA,090753.04,09,10,2011,00,00*60
$GPRMC,090753.00,A,4611.960261,N,01258.227761,E,001.7,340.1,091011,0.2,E,A*36
$GPGGA,090754.00,4611.960873,N,01258.227460,E,1,06,1.9,139.76,M,46.25,M,,*68
$GPGLL,4611.960873,N,01258.227460,E,090754.00,A,A*6C
$GPVTG,340.6,T,340.8,M,002.3,N,004.3,K,A*2B
$GPGSV,2,1,07,02,38,071,44,12,52,083,44,14,24,248,37,25,79,004,45*78
$GPGSV,2,2,07,29,58,227,46,30,38,294,37,31,30,312,32,,,,*4E
$GPGSA,M,3,02,12,14,25,29,30,,,,,,,3.0,1.9,2.4*38
Trace #61 at position 15.000000
$GPZDA,090753.04,09,10,2011,00,00*60
$GPRMC,090753.00,A,4611.960261,N,01258.227761,E,001.7,340.1,091011,0.2,E,A*36
$GPGGA,090754.00,4611.960873,N,01258.227460,E,1,06,1.9,139.76,M,46.25,M,,*68
$GPGLL,4611.960873,N,01258.227460,E,090754.00,A,A*6C
$GPVTG,340.6,T,340.8,M,002.3,N,004.3,K,A*2B
$GPGSV,2,1,07,02,38,071,44,12,52,083,44,14,24,248,37,25,79,004,45*78
$GPGSV,2,2,07,29,58,227,46,30,38,294,37,31,30,312,32,,,,*4E
$GPGSA,M,3,02,12,14,25,29,30,,,,,,,3.0,1.9,2.4*38
Trace #62 at position 15.250000
$GPZDA,090753.04,09,10,2011,00,00*60
$GPRMC,090753.00,A,4611.960261,N,01258.227761,E,001.7,340.1,091011,0.2,E,A*36
$GPGGA,090754.00,4611.960873,N,01258.227460,E,1,06,1.9,139.76,M,46.25,M,,*68
$GPGLL,4611.960873,N,01258.227460,E,090754.00,A,A*6C
$GPVTG,340.6,T,340.8,M,002.3,N,004.3,K,A*2B
$GPGSV,2,1,07,02,38,071,44,12,52,083,44,14,24,248,37,25,79,004,45*78
$GPGSV,2,2,07,29,58,227,46,30,38,294,37,31,30,312,32,,,,*4E
$GPGSA,M,3,02,12,14,25,29,30,,,,,,,3.0,1.9,2.4*38
Trace #63 at position 15.500000
$GPZDA,090754.03,09,10,2011,00,00*60
$GPRMC,090754.00,A,4611.960873,N,01258.227460,E,002.3,340.6,091011,0.2,E,A*3A
$GPGGA,090755.00,4611.961247,N,01258.227260,E,1,05,3.6,139.85,M,46.25,M,,*61
$GPGLL,4611.961247,N,01258.227260,E,090755.00,A,A*67
$GPVTG,332.0,T,332.2,M,001.6,N,003.0,K,A*25
$GPGSV,2,1,07,02,38,071,44,12,52,083,45,14,24,248,37,25,79,004,45*79
$GPGSV,2,2,07,29,58,227,45,30,38,294,35,31,30,312,33,,,,*4E
$GPGSA,M,3,02,12,14,25,29,,,,,,,,4.4,3.6,2.4*35
Trace #64 at position 15.750000
$GPZDA,090754.03,09,10,2011,00,00*60
$GPRMC,090754.00,A,4611.960873,N,01258.227460,E,002.3,340.6,091011,0.2,E,A*3A
$GPGGA,090755.00,4611.961247,N,01258.227260,E,1,05,3.6,139.85,M,46.25,M,,*61
$GPGLL,4611.961247,N,01258.227260,E,090755.00,A,A*67
$GPVTG,332.0,T,332.2,M,001.6,N,003.0,K,A*25
$GPGSV,2,1,07,02,38,071,44,12,52,083,45,14,24,248,37,25,79,004,45*79
$GPGSV,2,2,07,29,58,227,45,30,38,294,35,31,30,312,33,,,,*4E
$GPGSA,M,3,02,12,14,25,29,,,,,,,,4.4,3.6,2.4*35
Trace #65 at position 16.000000
$GPZDA,090754.03,09,10,2011,00,00*60
$GPRMC,090754.00,A,4611.960873,N,01258.227460,E,002.3,340.6,091011,0.2,E,A*3A
$GPGGA,090755.00,4611.961247,N,01258.227260,E,1,05,3.6,139.85,M,46.25,M,,*61
$GPGLL,4611.961247,N,01258.227260,E,090755.00,A,A*67
$GPVTG,332.0,T,332.2,M,001.6,N,003.0,K,A*25
$GPGSV,2,1,07,02,38,071,44,12,52,083,45,14,24,248,37,25,79,004,45*79
$GPGSV,2,2,07,29,58,227,45,30,38,294,35,31,30,312,33,,,,*4E
$GPGSA,M,3,02,12,14,25,29,,,,,,,,4.4,3.6,2.4*35
Trace #66 at position 16.250000
$GPZDA,090754.03,09,10,2011,00,00*60
$GPRMC,090754.00,A,4611.960873,N,01258.227460,E,002.3,340.6,091011,0.2,E,A*3A
$GPGGA,090755.00,4611.961247,N,01258.227260,E,1,05,3.6,139.85,M,46.25,M,,*61
$GPGLL,4611.961247,N,01258.227260,E,090755.00,A,A*67
$GPVTG,332.0,T,332.2,M,001.6,N,003.0,K,A*25
$GPGSV,2,1,07,02,38,071,44,12,52,083,45,14,24,248,37,25,79,004,45*79
$GPGSV,2,2,07,29,58,227,45,30,38,294,35,31,30,312,33,,,,*4E
$GPGSA,M,3,02,12,14,25,29,,,,,,,,4.4,3.6,2.4*35
Trace #67 at position 16.500000
$GPZDA,090755.03,09,10,2011,00,00*61
$GPRMC,090755.00,A,4611.961247,N,01258.227260,E,001.6,332.0,091011,0.2,E,A*34
$GPGGA,090756.00,4611.961617,N,01258.227178,E,1,05,3.6,140.05,M,46.25,M,,*6F
$GPGLL,4611.961617,N,01258.227178,E,090756.00,A,A*6F
$GPVTG,358.0,T,358.1,M,001.9,N,003.6,K,A*2F
$GPGSV,2,1,07,02,38,071,44,12,52,083,45,14,24,248,37,25,79,004,42*7E
$GPGSV,2,2,07,29,58,227,46,30,38,294,34,31,30,312,33,,,,*4C
$GPGSA,M,3,02,12,14,25,29,,,,,,,,4.4,3.6,2.4*35
Trace #68 at position 16.750000
$GPZDA,090755.03,09,10,2011,00,00*61
$GPRMC,090755.00,A,4611.961247,N,01258.227260,E,001.6,332.0,091011,0.2,E,A*34
$GPGGA,090756.00,4611.961617,N,01258.227178,E,1,05,3.6,140.05,M,46.25,M,,*6F
$GPGLL,4611.961617,N,01258.227178,E,090756.00,A,A*6F
$GPVTG,358.0,T,358.1,M,001.9,N,003.6,K,A*2F
$GPGSV,2,1,07,02,38,071,44,12,52,083,45,14,24,248,37,25,79,004,42*7E
$GPGSV,2,2,07,29,58,227,46,30,38,294,34,31,30,312,33,,,,*4C
$GPGSA,M,3,02,12,14,25,29,,,,,,,,4.4,3.6,2.4*35
Trace #69 at position 17.000000
$GPZDA,090755.03,09,10,2011,00,00*61
$GPRMC,090755.00,A,4611.961247,N,01258.227260,E,001.6,332.0,091011,0.2,E,A*34
$GPGGA,090756.00,4611.961617,N,01258.227178,E,1,05,3.6,140.05,M,46.25,M,,*6F
$GPGLL,4611.961617,N,01258.227178,E,090756.00,A,A*6F
$GPVTG,358.0,T,358.1,M,001.9,N,003.6,K,A*2F
$GPGSV,2,1,07,02,38,071,44,12,52,083,45,14,24,248,37,25,79,004,42*7E
$GPGSV,2,2,07,29,58,227,46,30,38,294,34,31,30,312,33,,,,*4C
$GPGSA,M,3,02,12,14,25,29,,,,,,,,4.4,3.6,2.4*35
Trace #70 at position 17.250000
$GPZDA,090755.03,09,10,2011,00,00*61
$GPRMC,090755.00,A,4611.961247,N,01258.227260,E,001.6,332.0,091011,0.2,E,A*34
$GPGGA,090756.00,4611.961617,N,01258.227178,E,1,05,3.6,140.05,M,46.25,M,,*6F
$GPGLL,4611.961617,N,01258.227178,E,090756.00,A,A*6F
$GPVTG,358.0,T,358.1,M,001.9,N,003.6,K,A*2F
$GPGSV,2,1,07,02,38,071,44,12,52,083,45,14,24,248,37,25,79,004,42*7E
$GPGSV,2,2,07,29,58,227,46,30,38,294,34,31,30,312,33,,,,*4C
$GPGSA,M,3,02,12,14,25,29,,,,,,,,4.4,3.6,2.4*35
Trace #71 at position 17.500000
$GPZDA,090756.03,09,10,2011,00,00*62
$GPRMC,090756.00,A,4611.961617,N,01258.227178,E,001.9,358.0,091011,0.2,E,A*3F
$GPGGA,090757.00,4611.962142,N,01258.226975,E,1,05,3.6,140.16,M,46.25,M,,*6C
$GPGLL,4611.962142,N,01258.226975,E,090757.00,A,A*6E
$GPVTG,331.6,T,331.8,M,002.8,N,005.2,K,A*20
$GPGSV,2,1,07,02,38,071,44,12,52,083,44,14,24,248,38,25,79,004,45*77
$GPGSV,2,2,07,29,58,227,46,30,38,294,36,31,30,312,32,,,,*4F
$GPGSA,M,3,02,12,14,25,29,,,,,,,,4.4,3.6,2.4*35
Trace #72 at position 17.750000
$GPZDA,090756.03,09,10,2011,00,00*62
$GPRMC,090756.00,A,4611.961617,N,01258.227178,E,001.9,358.0,091011,0.2,E,A*3F
$GPGGA,090757.00,4611.962142,N,01258.226975,E,1,05,3.6,140.16,M,46.25,M,,*6C
$GPGLL,4611.962142,N,01258.226975,E,090757.00,A,A*6E
$GPVTG,331.6,T,331.8,M,002.8,N,005.2,K,A*20
$GPGSV,2,1,07,02,38,071,44,12,52,083,44,14,24,248,38,25,79,004,45*77
$GPGSV,2,2,07,29,58,227,46,30,38,294,36,31,30,312,32,,,,*4F
$GPGSA,M,3,02,12,14,25,29,,,,,,,,4.4,3.6,2.4*35
Trace #73 at position 18.000000
$GPZDA,090756.03,09,10,2011,00,00*62
$GPRMC,090756.00,A,4611.961617,N,01258.227178,E,001.9,358.0,091011,0.2,E,A*3F
$GPGGA,090757.00,4611.962142,N,01258.226975,E,1,05,3.6,140.16,M,46.25,M,,*6C
$GPGLL,4611.962142,N,01258.226975,E,090757.00,A,A*6E
$GPVTG,331.6,T,331.8,M,002.8,N,005.2,K,A*20
$GPGSV,2,1,07,02,38,071,44,12,52,083,44,14,24,248,38,25,79,004,45*77
$GPGSV,2,2,07,29,58,227,46,30,38,294,36,31,30,312,32,,,,*4F
$GPGSA,M,3,02,12,14,25,29,,,,,,,,4.4,3.6,2.4*35
Trace #74 at position 18.250000
$GPZDA,090756.03,09,10,2011,00,00*62
$GPRMC,090756.00,A,4611.961617,N,01258.227178,E,001.9,358.0,091011,0.2,E,A*3F
$GPGGA,090757.00,4611.962142,N,01258.226975,E,1,05,3.6,140.16,M,46.25,M,,*6C
$GPGLL,4611.962142,N,01258.226975,E,090757.00,A,A*6E
$GPVTG,331.6,T,331.8,M,002.8,N,005.2,K,A*20
$GPGSV,2,1,07,02,38,071,44,12,52,083,44,14,24,248,38,25,79,004,45*77
$GPGSV,2,2,07,29,58,227,46,30,38,294,36,31,30,312,32,,,,*4F
$GPGSA,M,3,02,12,14,25,29,,,,,,,,4.4,3.6,2.4*35
Trace #75 at position 18.500000
$GPZDA,090757.03,09,10,2011,00,00*63
$GPRMC,090757.00,A,4611.962142,N,01258.226975,E,002.8,331.6,091011,0.2,E,A*35
$GPGGA,090758.00,4611.962615,N,01258.226669,E,1,05,3.6,140.25,M,46.25,M,,*64
$GPGLL,4611.962615,N,01258.226669,E,090758.00,A,A*66
$GPVTG,336.8,T,337.0,M,001.6,N,003.0,K,A*2E
$GPGSV,2,1,07,02,38,071,44,12,52,083,44,14,24,248,38,25,79,004,44*76
$GPGSV,2,2,07,29,58,227,46,30,38,294,36,31,30,312,33,,,,*4E
$GPGSA,M,3,02,12,14,25,29,,,,,,,,4.4,3.6,2.4*35
Trace #76 at position 18.750000
$GPZDA,090757.03,09,10,2011,00,00*63
$GPRMC,090757.00,A,4611.962142,N,01258.226975,E,002.8,331.6,091011,0.2,E,A*35
$GPGGA,090758.00,4611.962615,N,01258.226669,E,1,05,3.6,140.25,M,46.25,M,,*64
$GPGLL,4611.962615,N,01258.226669,E,090758.00,A,A*66
$GPVTG,336.8,T,337.0,M,001.6,N,003.0,K,A*2E
$GPGSV,2,1,07,02,38,071,44,12,52,083,44,14,24,248,38,25,79,004,44*76
$GPGSV,2,2,07,29,58,227,46,30,38,294,36,31,30,312,33,,,,*4E
$GPGSA,M,3,02,12,14,25,29,,,,,,,,4.4,3.6,2.4*35
Trace #77 at position 19.000000
$GPZDA,090757.03,09,10,2011,00,00*63
$GPRMC,090757.00,A,4611.962142,N,01258.226975,E,002.8,331.6,091011,0.2,E,A*35
$GPGGA,090758.00,4611.962615,N,01258.226669,E,1,05,3.6,140.25,M,46.25,M,,*64
$GPGLL,4611.962615,N,01258.226669,E,090758.00,A,A*66
$GPVTG,336.8,T,337.0,M,001.6,N,003.0,K,A*2E
$GPGSV,2,1,07,02,38,071,44,12,52,083,44,14,24,248,38,25,79,004,44*76
$GPGSV,2,2,07,29,58,227,46,30,38,294,36,31,30,312,33,,,,*4E
$GPGSA,M,3,02,12,14,25,29,,,,,,,,4.4,3.6,2.4*35
Trace #78 at position 19.250000
$GPZDA,090757.03,09,10,2011,00,00*63
$GPRMC,090757.00,A,4611.962142,N,01258.226975,E,002.8,331.6,091011,0.2,E,A*35
$GPGGA,090758.00,4611.962615,N,01258.226669,E,1,05,3.6,140.25,M,46.25,M,,*64
$GPGLL,4611.962615,N,01258.226669,E,090758.00,A,A*66
$GPVTG,336.8,T,337.0,M,001.6,N,003.0,K,A*2E
$GPGSV,2,1,07,02,38,071,44,12,52,083,44,14,24,248,38,25,79,004,44*76
$GPGSV,2,2,07,29,58,227,46,30,38,294,36,31,30,312,33,,,,*4E
$GPGSA,M,3,02,12,14,25,29,,,,,,,,4.4,3.6,2.4*35
Trace #79 at position 19.500000
$GPZDA,090757.03,09,10,2011,00,00*63
$GPRMC,090757.00,A,4611.962142,N,01258.226975,E,002.8,331.6,091011,0.2,E,A*35
$GPGGA,090758.00,4611.962615,N,01258.226669,E,1,05,3.6,140.25,M,46.25,M,,*64
$GPGLL,4611.962615,N,01258.226669,E,090758.00,A,A*66
$GPVTG,336.8,T,337.0,M,001.6,N,003.0,K,A*2E
$GPGSV,2,1,07,02,38,071,44,12,52,083,44,14,24,248,38,25,79,004,44*76
$GPGSV,2,2,07,29,58,227,46,30,38,294,36,31,30,312,33,,,,*4E
$GPGSA,M,3,02,12,14,25,29,,,,,,,,4.4,3.6,2.4*35
Trace #80 at position 19.750000
$GPZDA,090758.04,09,10,2011,00,00*6B
$GPRMC,090758.00,A,4611.962615,N,01258.226669,E,001.6,336.8,091011,0.2,E,A*39
$GPGGA,090759.00,4611.963128,N,01258.226518,E,1,05,3.6,140.32,M,46.25,M,,*6E
$GPGLL,4611.963128,N,01258.226518,E,090759.00,A,A*6A
$GPVTG,348.6,T,348.8,M,002.7,N,005.1,K,A*2C
$GPGSV,2,1,07,02,38,071,45,12,52,083,44,14,24,248,40,25,79,004,45*79
$GPGSV,2,2,07,29,58,227,45,30,38,294,38,31,30,312,35,,,,*45
$GPGSA,M,3,02,12,14,25,29,,,,,,,,4.4,3.6,2.4*35
Trace #81 at position 20.000000
$GPZDA,090758.04,09,10,2011,00,00*6B
$GPRMC,090758.00,A,4611.962615,N,01258.226669,E,001.6,336.8,091011,0.2,E,A*39
$GPGGA,090759.00,4611.963128,N,01258.226518,E,1,05,3.6,140.32,M,46.25,M,,*6E
$GPGLL,4611.963128,N,01258.226518,E,090759.00,A,A*6A
$GPVTG,348.6,T,348.8,M,002.7,N,005.1,K,A*2C
$GPGSV,2,1,07,02,38,071,45,12,52,083,44,14,24,248,40,25,79,004,45*79
$GPGSV,2,2,07,29,58,227,45,30,38,294,38,31,30,312,35,,,,*45
$GPGSA,M,3,02,12,14,25,29,,,,,,,,4.4,3.6,2.4*35
Trace #82 at position 20.250000
$GPZDA,090758.04,09,10,2011,00,00*6B
$GPRMC,090758.00,A,4611.962615,N,01258.226669,E,001.6,336.8,091011,0.2,E,A*39
$GPGGA,090759.00,4611.963128,N,01258.226518,E,1,05,3.6,140.32,M,46.25,M,,*6E
$GPGLL,4611.963128,N,01258.226518,E,090759.00,A,A*6A
$GPVTG,348.6,T,348.8,M,002.7,N,005.1,K,A*2C
$GPGSV,2,1,07,02,38,071,45,12,52,083,44,14,24,248,40,25,79,004,45*79
$GPGSV,2,2,07,29,58,227,45,30,38,294,38,31,30,312,35,,,,*45
$GPGSA,M,3,02,12,14,25,29,,,,,,,,4.4,3.6,2.4*35
Trace #83 at position 20.500000
$GPZDA,090758.04,09,10,2011,00,00*6B
$GPRMC,090758.00,A,4611.962615,N,01258.226669,E,001.6,336.8,091011,0.2,E,A*39
$GPGGA,090759.00,4611.963128,N,01258.226518,E,1,05,3.6,140.32,M,46.25,M,,*6E
$GPGLL,4611.963128,N,01258.226518,E,090759.00,A,A*6A
$GPVTG,348.6,T,348.8,M,002.7,N,005.1,K,A*2C
$GPGSV,2,1,07,02,38,071,45,12,52,083,44,14,24,248,40,25,79,004,45*79
$GPGSV,2,2,07,29,58,227,45,30,38,294,38,31,30,312,35,,,,*45
$GPGSA,M,3,02,12,14,25,29,,,,,,,,4.4,3.6,2.4*35
Trace #84 at position 20.750000
$GPZDA,090759.03,09,10,2011,00,00*6D
$GPRMC,090759.00,A,4611.963128,N,01258.226518,E,002.7,348.6,091011,0.2,E,A*30
$GPGGA,090800.00,4611.963638,N,01258.226429,E,1,05,3.6,140.34,M,46.25,M,,*6E
$GPGLL,4611.963638,N,01258.226429,E,090800.00,A,A*6C
$GPVTG,351.6,T,351.8,M,001.5,N,002.8,K,A*23
$GPGSV,2,1,07,02,38,071,45,12,52,083,44,14,24,248,39,25,79,004,44*76
$GPGSV,2,2,07,29,58,227,46,30,38,294,38,31,30,312,36,,,,*45
$GPGSA,M,3,02,12,14,25,29,,,,,,,,4.4,3.6,2.4*35
Trace #85 at position 21.000000
$GPZDA,090759.03,09,10,2011,00,00*6D
$GPRMC,090759.00,A,4611.963128,N,01258.226518,E,002.7,348.6,091011,0.2,E,A*30
$GPGGA,090800.00,4611.963638,N,01258.226429,E,1,05,3.6,140.34,M,46.25,M,,*6E
$GPGLL,4611.963638,N,01258.226429,E,090800.00,A,A*6C
$GPVTG,351.6,T,351.8,M,001.5,N,002.8,K,A*23
$GPGSV,2,1,07,02,38,071,45,12,52,083,44,14,24,248,39,25,79,004,44*76
$GPGSV,2,2,07,29,58,227,46,30,38,294,38,31,30,312,36,,,,*45
$GPGSA,M,3,02,12,14,25,29,,,,,,,,4.4,3.6,2.4*35
Trace #86 at position 21.250000
$GPZDA,090759.03,09,10,2011,00,00*6D
$GPRMC,090759.00,A,4611.963128,N,01258.226518,E,002.7,348.6,091011,0.2,E,A*30
$GPGGA,090800.00,4611.963638,N,01258.226429,E,1,05,3.6,140.34,M,46.25,M,,*6E
$GPGLL,4611.963638,N,01258.226429,E,090800.00,A,A*6C
$GPVTG,351.6,T,351.8,M,001.5,N,002.8,K,A*23
$GPGSV,2,1,07,02,38,071,45,12,52,083,44,14,24,248,39,25,79,004,44*76
$GPGSV,2,2,07,29,58,227,46,30,38,294,38,31,30,312,36,,,,*45
$GPGSA,M,3,02,12,14,25,29,,,,,,,,4.4,3.6,2.4*35
Trace #87 at position 21.500000
$GPZDA,090759.03,09,10,2011,00,00*6D
$GPRMC,090759.00,A,4611.963128,N,01258.226518,E,002.7,348.6,091011,0.2,E,A*30
$GPGGA,090800.00,4611.963638,N,01258.226429,E,1,05,3.6,140.34,M,46.25,M,,*6E
$GPGLL,4611.963638,N,01258.226429,E,090800.00,A,A*6C
$GPVTG,351.6,T,351.8,M,001.5,N,002.8,K,A*23
$GPGSV,2,1,07,02,38,071,45,12,52,083,44,14,24,248,39,25,79,004,44*76
$GPGSV,2,2,07,29,58,227,46,30,38,294,38,31,30,312,36,,,,*45
$GPGSA,M,3,02,12,14,25,29,,,,,,,,4.4,3.6,2.4*35
Trace #88 at position 21.750000
$GPZDA,090759.03,09,10,2011,00,00*6D
$GPRMC,090759.00,A,4611.963128,N,01258.226518,E,002.7,348.6,091011,0.2,E,A*30
$GPGGA,090800.00,4611.963638,N,01258.226429,E,1,05,3.6,140.34,M,46.25,M,,*6E
$GPGLL,4611.963638,N,01258.226429,E,090800.00,A,A*6C
$GPVTG,351.6,T,351.8,M,001.5,N,002.8,K,A*23
$GPGSV,2,1,07,02,38,071,45,12,52,083,44,14,24,248,39,25,79,004,44*76
$GPGSV,2,2,07,29,58,227,46,30,38,294,38,31,30,312,36,,,,*45
$GPGSA,M,3,02,12,14,25,29,,,,,,,,4.4,3.6,2.4*35
Trace #89 at position 22.000000
$GPZDA,090800.03,09,10,2011,00,00*6E
$GPRMC,090800.00,A,4611.963638,N,01258.226429,E,001.5,351.6,091011,0.2,E,A*3F
$GPGGA,090801.00,4611.964028,N,01258.226357,E,1,05,3.6,140.53,M,46.25,M,,*60
$GPGLL,4611.964028,N,01258.226357,E,090801.00,A,A*63
$GPVTG,348.8,T,348.9,M,001.7,N,003.1,K,A*26
$GPGSV,2,1,07,02,38,071,44,12,52,083,43,14,24,248,39,25,79,004,43*77
$GPGSV,2,2,07,29,58,227,46,30,38,294,34,31,30,312,31,,,,*4E
$GPGSA,M,3,02,12,14,25,29,,,,,,,,4.4,3.6,2.4*35
Trace #90 at position 22.250000
$GPZDA,090800.03,09,10,2011,00,00*6E
$GPRMC,090800.00,A,4611.963638,N,01258.226429,E,001.5,351.6,091011,0.2,E,A*3F
$GPGGA,090801.00,4611.964028,N,01258.226357,E,1,05,3.6,140.53,M,46.25,M,,*60
$GPGLL,4611.964028,N,01258.226357,E,090801.00,A,A*63
$GPVTG,348.8,T,348.9,M,001.7,N,003.1,K,A*26
$GPGSV,2,1,07,02,38,071,44,12,52,083,43,14,24,248,39,25,79,004,43*77
$GPGSV,2,2,07,29,58,227,46,30,38,294,34,31,30,312,31,,,,*4E
$GPGSA,M,3,02,12,14,25,29,,,,,,,,4.4,3.6,2.4*35
Trace #91 at position 22.500000
$GPZDA,090800.03,09,10,2011,00,00*6E
$GPRMC,090800.00,A,4611.963638,N,01258.226429,E,001.5,351.6,091011,0.2,E,A*3F
$GPGGA,090801.00,4611.964028,N,01258.226357,E,1,05,3.6,140.53,M,46.25,M,,*60
$GPGLL,4611.964028,N,01258.226357,E,090801.00,A,A*63
$GPVTG,348.8,T,348.9,M,001.7,N,003.1,K,A*26
$GPGSV,2,1,07,02,38,071,44,12,52,083,43,14,24,248,39,25,79,004,43*77
$GPGSV,2,2,07,29,58,227,46,30,38,294,34,31,30,312,31,,,,*4E
$GPGSA,M,3,02,12,14,25,29,,,,,,,,4.4,3.6,2.4*35
Trace #92 at position 22.750000
$GPZDA,090800.03,09,10,2011,00,00*6E
$GPRMC,090800.00,A,4611.963638,N,01258.226429,E,001.5,351.6,091011,0.2,E,A*3F
$GPGGA,090801.00,4611.964028,N,01258.226357,E,1,05,3.6,140.53,M,46.25,M,,*60
$GPGLL,4611.964028,N,01258.226357,E,090801.00,A,A*63
$GPVTG,348.8,T,348.9,M,001.7,N,003.1,K,A*26
$GPGSV,2,1,07,02,38,071,44,12,52,083,43,14,24,248,39,25,79,004,43*77
$GPGSV,2,2,07,29,58,227,46,30,38,294,34,31,30,312,31,,,,*4E
$GPGSA,M,3,02,12,14,25,29,,,,,,,,4.4,3.6,2.4*35
Trace #93 at position 23.000000
$GPZDA,090800.03,09,10,2011,00,00*6E
$GPRMC,090800.00,A,4611.963638,N,01258.226429,E,001.5,351.6,091011,0.2,E,A*3F
$GPGGA,090801.00,4611.964028,N,01258.226357,E,1,05,3.6,140.53,M,46.25,M,,*60
$GPGLL,4611.964028,N,01258.226357,E,090801.00,A,A*63
$GPVTG,348.8,T,348.9,M,001.7,N,003.1,K,A*26
$GPGSV,2,1,07,02,38,071,44,12,52,083,43,14,24,248,39,25,79,004,43*77
$GPGSV,2,2,07,29,58,227,46,30,38,294,34,31,30,312,31,,,,*4E
$GPGSA,M,3,02,12,14,25,29,,,,,,,,4.4,3.6,2.4*35
Trace #94 at position 23.250000
$GPZDA,090801.03,09,10,2011,00,00*6F
$GPRMC,090801.00,A,4611.964028,N,01258.226357,E,001.7,348.8,091011,0.2,E,A*34
$GPGGA,090802.00,4611.964496,N,01258.226228,E,1,05,3.6,140.69,M,46.25,M,,*62
$GPGLL,4611.964496,N,01258.226228,E,090802.00,A,A*68
$GPVTG,348.7,T,348.9,M,002.0,N,003.6,K,A*2A
$GPGSV,2,1,07,02,38,071,44,12,52,083,44,14,24,248,39,25,79,004,44*77
$GPGSV,2,2,07,29,58,227,45,30,38,294,34,31,30,312,32,,,,*4E
$GPGSA,M,3,02,12,14,25,29,,,,,,,,4.4,3.6,2.4*35
Trace #95 at position 23.500000
$GPZDA,090801.03,09,10,2011,00,00*6F
$GPRMC,090801.00,A,4611.964028,N,01258.226357,E,001.7,348.8,091011,0.2,E,A*34
$GPGGA,090802.00,4611.964496,N,01258.226228,E,1,05,3.6,140.69,M,46.25,M,,*62
$GPGLL,4611.964496,N,01258.226228,E,090802.00,A,A*68
$GPVTG,348.7,T,348.9,M,002.0,N,003.6,K,A*2A
$GPGSV,2,1,07,02,38,071,44,12,52,083,44,14,24,248,39,25,79,004,44*77
$GPGSV,2,2,07,29,58,227,45,30,38,294,34,31,30,312,32,,,,*4E
$GPGSA,M,3,02,12,14,25,29,,,,,,,,4.4,3.6,2.4*35
Trace #96 at position 23.750000
$GPZDA,090801.03,09,10,2011,00,00*6F
$GPRMC,090801.00,A,4611.964028,N,01258.226357,E,001.7,348.8,091011,0.2,E,A*34
$GPGGA,090802.00,4611.964496,N,01258.226228,E,1,05,3.6,140.69,M,46.25,M,,*62
$GPGLL,4611.964496,N,01258.226228,E,090802.00,A,A*68
$GPVTG,348.7,T,348.9,M,002.0,N,003.6,K,A*2A
$GPGSV,2,1,07,02,38,071,44,12,52,083,44,14,24,248,39,25,79,004,44*77
$GPGSV,2,2,07,29,58,227,45,30,38,294,34,31,30,312,32,,,,*4E
$GPGSA,M,3,02,12,14,25,29,,,,,,,,4.4,3.6,2.4*35
Trace #97 at position 24.000000
$GPZDA,090801.03,09,10,2011,00,00*6F
$GPRMC,090801.00,A,4611.964028,N,01258.226357,E,001.7,348.8,091011,0.2,E,A*34
$GPGGA,090802.00,4611.964496,N,01258.226228,E,1,05,3.6,140.69,M,46.25,M,,*62
$GPGLL,4611.964496,N,01258.226228,E,090802.00,A,A*68
$GPVTG,348.7,T,348.9,M,002.0,N,003.6,K,A*2A
$GPGSV,2,1,07,02,38,071,44,12,52,083,44,14,24,248,39,25,79,004,44*77
$GPGSV,2,2,07,29,58,227,45,30,38,294,34,31,30,312,32,,,,*4E
$GPGSA,M,3,02,12,14,25,29,,,,,,,,4.4,3.6,2.4*35
Trace #98 at position 24.250000
$GPZDA,090802.03,09,10,2011,00,00*6C
$GPRMC,090802.00,A,4611.964496,N,01258.226228,E,002.0,348.7,091011,0.2,E,A*34
$GPGGA,090803.00,4611.965006,N,01258.226005,E,1,05,3.6,140.72,M,46.25,M,,*68
$GPGLL,4611.965006,N,01258.226005,E,090803.00,A,A*68
$GPVTG,337.9,T,338.1,M,002.1,N,003.8,K,A*2C
$GPGSV,2,1,07,02,38,071,45,12,52,083,44,14,24,248,38,25,79,004,45*76
$GPGSV,2,2,07,29,58,227,45,30,38,294,37,31,30,312,35,,,,*4A
$GPGSA,M,3,02,12,14,25,29,,,,,,,,4.4,3.6,2.4*35
Trace #99 at position 24.500000
$GPZDA,090802.03,09,10,2011,00,00*6C
$GPRMC,090802.00,A,4611.964496,N,01258.226228,E,002.0,348.7,091011,0.2,E,A*34
$GPGGA,090803.00,4611.965006,N,01258.226005,E,1,05,3.6,140.72,M,46.25,M,,*68
$GPGLL,4611.965006,N,01258.226005,E,090803.00,A,A*68
$GPVTG,337.9,T,338.1,M,002.1,N,003.8,K,A*2C
$GPGSV,2,1,07,02,38,071,45,12,52,083,44,14,24,248,38,25,79,004,45*76
$GPGSV,2,2,07,29,58,227,45,30,38,294,37,31,30,312,35,,,,*4A
$GPGSA,M,3,02,12,14,25,29,,,,,,,,4.4,3.6,2.4*35
Trace #100 at position 24.750000
$GPZDA,090802.03,09,10,2011,00,00*6C
$GPRMC,090802.00,A,4611.964496,N,01258.226228,E,002.0,348.7,091011,0.2,E,A*34
$GPGGA,090803.00,4611.965006,N,01258.226005,E,1,05,3.6,140.72,M,46.25,M,,*68
$GPGLL,4611.965006,N,01258.226005,E,090803.00,A,A*68
$GPVTG,337.9,T,338.1,M,002.1,N,003.8,K,A*2C
$GPGSV,2,1,07,02,38,071,45,12,52,083,44,14,24,248,38,25,79,004,45*76
$GPGSV,2,2,07,29,58,227,45,30,38,294,37,31,30,312,35,,,,*4A
$GPGSA,M,3,02,12,14,25,29,,,,,,,,4.4,3.6,2.4*35
Trace #101 at position 25.000000
$GPZDA,090802.03,09,10,2011,00,00*6C
$GPRMC,090802.00,A,4611.964496,N,01258.226228,E,002.0,348.7,091011,0.2,E,A*34
$GPGGA,090803.00,4611.965006,N,01258.226005,E,1,05,3.6,140.72,M,46.25,M,,*68
$GPGLL,4611.965006,N,01258.226005,E,090803.00,A,A*68
$GPVTG,337.9,T,338.1,M,002.1,N,003.8,K,A*2C
$GPGSV,2,1,07,02,38,071,45,12,52,083,44,14,24,248,38,25,79,004,45*76
$GPGSV,2,2,07,29,58,227,45,30,38,294,37,31,30,312,35,,,,*4A
$GPGSA,M,3,02,12,14,25,29,,,,,,,,4.4,3.6,2.4*35
Trace #102 at position 25.250000
$GPZDA,090803.03,09,10,2011,00,00*6D
$GPRMC,090803.00,A,4611.965006,N,01258.226005,E,002.1,337.9,091011,0.2,E,A*33
$GPGGA,090804.00,4611.965614,N,01258.225750,E,1,05,3.6,140.76,M,46.25,M,,*6A
$GPGLL,4611.965614,N,01258.225750,E,090804.00,A,A*6E
$GPVTG,348.9,T,349.1,M,002.7,N,005.0,K,A*2A
$GPGSV,2,1,07,02,38,071,45,12,52,083,45,14,24,248,38,25,79,004,45*77
$GPGSV,2,2,07,29,58,227,46,30,38,294,36,31,30,312,35,,,,*48
$GPGSA,M,3,02,12,14,25,29,,,,,,,,4.4,3.6,2.4*35
Trace #103 at position 25.500000
$GPZDA,090803.03,09,10,2011,00,00*6D
$GPRMC,090803.00,A,4611.965006,N,01258.226005,E,002.1,337.9,091011,0.2,E,A*33
$GPGGA,090804.00,4611.965614,N,01258.225750,E,1,05,3.6,140.76,M,46.25,M,,*6A
$GPGLL,4611.965614,N,01258.225750,E,090804.00,A,A*6E
$GPVTG,348.9,T,349.1,M,002.7,N,005.0,K,A*2A
$GPGSV,2,1,07,02,38,071,45,12,52,083,45,14,24,248,38,25,79,004,45*77
$GPGSV,2,2,07,29,58,227,46,30,38,294,36,31,30,312,35,,,,*48
$GPGSA,M,3,02,12,14,25,29,,,,,,,,4.4,3.6,2.4*35
Trace #104 at position 25.750000
$GPZDA,090803.03,09,10,2011,00,00*6D
$GPRMC,090803.00,A,4611.965006,N,01258.226005,E,002.1,337.9,091011,0.2,E,A*33
$GPGGA,090804.00,4611.965614,N,01258.225750,E,1,05,3.6,140.76,M,46.25,M,,*6A
$GPGLL,4611.965614,N,01258.225750,E,090804.00,A,A*6E
$GPVTG,348.9,T,349.1,M,002.7,N,005.0,K,A*2A
$GPGSV,2,1,07,02,38,071,45,12,52,083,45,14,24,248,38,25,79,004,45*77
$GPGSV,2,2,07,29,58,227,46,30,38,294,36,31,30,312,35,,,,*48
$GPGSA,M,3,02,12,14,25,29,,,,,,,,4.4,3.6,2.4*35
Trace #105 at position 26.000000
$GPZDA,090803.03,09,10,2011,00,00*6D
$GPRMC,090803.00,A,4611.965006,N,01258.226005,E,002.1,337.9,091011,0.2,E,A*33
$GPGGA,090804.00,4611.965614,N,01258.225750,E,1,05,3.6,140.76,M,46.25,M,,*6A
$GPGLL,4611.965614,N,01258.225750,E,090804.00,A,A*6E
$GPVTG,348.9,T,349.1,M,002.7,N,005.0,K,A*2A
$GPGSV,2,1,07,02,38,071,45,12,52,083,45,14,24,248,38,25,79,004,45*77
$GPGSV,2,2,07,29,58,227,46,30,38,294,36,31,30,312,35,,,,*48
$GPGSA,M,3,02,12,14,25,29,,,,,,,,4.4,3.6,2.4*35
Trace #106 at position 26.250000
$GPZDA,090803.03,09,10,2011,00,00*6D
$GPRMC,090803.00,A,4611.965006,N,01258.226005,E,002.1,337.9,091011,0.2,E,A*33
$GPGGA,090804.00,4611.965614,N,01258.225750,E,1,05,3.6,140.76,M,46.25,M,,*6A
$GPGLL,4611.965614,N,01258.225750,E,090804.00,A,A*6E
$GPVTG,348.9,T,349.1,M,002.7,N,005.0,K,A*2A
$GPGSV,2,1,07,02,38,071,45,12,52,083,45,14,24,248,38,25,79,004,45*77
$GPGSV,2,2,07,29,58,227,46,30,38,294,36,31,30,312,35,,,,*48
$GPGSA,M,3,02,12,14,25,29,,,,,,,,4.4,3.6,2.4*35
Trace #107 at position 26.500000
$GPZDA,090804.03,09,10,2011,00,00*6A
$GPRMC,090804.00,A,4611.965614,N,01258.225750,E,002.7,348.9,091011,0.2,E,A*3B
$GPGGA,090805.00,4611.966272,N,01258.225504,E,1,05,3.6,140.81,M,46.25,M,,*67
$GPGLL,4611.966272,N,01258.225504,E,090805.00,A,A*6B
$GPVTG,343.3,T,343.5,M,002.4,N,004.4,K,A*23
$GPGSV,2,1,07,02,38,071,45,12,52,084,44,14,24,248,38,25,79,004,45*71
$GPGSV,2,2,07,29,58,227,46,30,38,294,36,31,30,312,34,,,,*49
$GPGSA,M,3,02,12,14,25,29,,,,,,,,4.4,3.6,2.4*35
Trace #108 at position 26.750000
$GPZDA,090804.03,09,10,2011,00,00*6A
$GPRMC,090804.00,A,4611.965614,N,01258.225750,E,002.7,348.9,091011,0.2,E,A*3B
$GPGGA,090805.00,4611.966272,N,01258.225504,E,1,05,3.6,140.81,M,46.25,M,,*67
$GPGLL,4611.966272,N,01258.225504,E,090805.00,A,A*6B
$GPVTG,343.3,T,343.5,M,002.4,N,004.4,K,A*23
$GPGSV,2,1,07,02,38,071,45,12,52,084,44,14,24,248,38,25,79,004,45*71
$GPGSV,2,2,07,29,58,227,46,30,38,294,36,31,30,312,34,,,,*49
$GPGSA,M,3,02,12,14,25,29,,,,,,,,4.4,3.6,2.4*35
Trace #109 at position 27.000000
$GPZDA,090804.03,09,10,2011,00,00*6A
$GPRMC,090804.00,A,4611.965614,N,01258.225750,E,002.7,348.9,091011,0.2,E,A*3B
$GPGGA,090805.00,4611.966272,N,01258.225504,E,1,05,3.6,140.81,M,46.25,M,,*67
$GPGLL,4611.966272,N,01258.225504,E,090805.00,A,A*6B
$GPVTG,343.3,T,343.5,M,002.4,N,004.4,K,A*23
$GPGSV,2,1,07,02,38,071,45,12,52,084,44,14,24,248,38,25,79,004,45*71
$GPGSV,2,2,07,29,58,227,46,30,38,294,36,31,30,312,34,,,,*49
$GPGSA,M,3,02,12,14,25,29,,,,,,,,4.4,3.6,2.4*35
Trace #110 at position 27.250000
$GPZDA,090804.03,09,10,2011,00,00*6A
$GPRMC,090804.00,A,4611.965614,N,01258.225750,E,002.7,348.9,091011,0.2,E,A*3B
$GPGGA,090805.00,4611.966272,N,01258.225504,E,1,05,3.6,140.81,M,46.25,M,,*67
$GPGLL,4611.966272,N,01258.225504,E,090805.00,A,A*6B
$GPVTG,343.3,T,343.5,M,002.4,N,004.4,K,A*23
$GPGSV,2,1,07,02,38,071,45,12,52,084,44,14,24,248,38,25,79,004,45*71
$GPGSV,2,2,07,29,58,227,46,30,38,294,36,31,30,312,34,,,,*49
$GPGSA,M,3,02,12,14,25,29,,,,,,,,4.4,3.6,2.4*35
Trace #111 at position 27.500000
$GPZDA,090805.03,09,10,2011,00,00*6B
$GPRMC,090805.00,A,4611.966272,N,01258.225504,E,002.4,343.3,091011,0.2,E,A*3C
$GPGGA,090806.00,4611.966844,N,01258.225240,E,1,05,3.6,140.82,M,46.25,M,,*6F
$GPGLL,4611.966844,N,01258.225240,E,090806.00,A,A*60
$GPVTG,341.8,T,342.0,M,002.1,N,004.0,K,A*2F
$GPGSV,2,1,07,02,38,071,44,12,52,084,43,14,24,248,39,25,79,004,45*76
$GPGSV,2,2,07,29,58,227,45,30,38,294,39,31,30,312,35,,,,*44
$GPGSA,M,3,02,12,14,25,29,,,,,,,,4.4,3.6,2.4*35
Trace #112 at position 27.750000
$GPZDA,090805.03,09,10,2011,00,00*6B
$GPRMC,090805.00,A,4611.966272,N,01258.225504,E,002.4,343.3,091011,0.2,E,A*3C
$GPGGA,090806.00,4611.966844,N,01258.225240,E,1,05,3.6,140.82,M,46.25,M,,*6F
$GPGLL,4611.966844,N,01258.225240,E,090806.00,A,A*60
$GPVTG,341.8,T,342.0,M,002.1,N,004.0,K,A*2F
$GPGSV,2,1,07,02,38,071,44,12,52,084,43,14,24,248,39,25,79,004,45*76
$GPGSV,2,2,07,29,58,227,45,30,38,294,39,31,30,312,35,,,,*44
$GPGSA,M,3,02,12,14,25,29,,,,,,,,4.4,3.6,2.4*35
Trace #113 at position 28.000000
$GPZDA,090805.03,09,10,2011,00,00*6B
$GPRMC,090805.00,A,4611.966272,N,01258.225504,E,002.4,343.3,091011,0.2,E,A*3C
$GPGGA,090806.00,4611.966844,N,01258.225240,E,1,05,3.6,140.82,M,46.25,M,,*6F
$GPGLL,4611.966844,N,01258.225240,E,090806.00,A,A*60
$GPVTG,341.8,T,342.0,M,002.1,N,004.0,K,A*2F
$GPGSV,2,1,07,02,38,071,44,12,52,084,43,14,24,248,39,25,79,004,45*76
$GPGSV,2,2,07,29,58,227,45,30,38,294,39,31,30,312,35,,,,*44
$GPGSA,M,3,02,12,14,25,29,,,,,,,,4.4,3.6,2.4*35
Trace #114 at position 28.250000
$GPZDA,090806.03,09,10,2011,00,00*68
$GPRMC,090806.00,A,4611.966844,N,01258.225240,E,002.1,341.8,091011,0.2,E,A*3B
$GPGGA,090807.00,4611.967321,N,01258.224877,E,1,05,3.6,140.91,M,46.25,M,,*6A
$GPGLL,4611.967321,N,01258.224877,E,090807.00,A,A*67
$GPVTG,320.2,T,320.4,M,001.9,N,003.6,K,A*28
$GPGSV,2,1,07,02,38,071,44,12,52,084,43,14,24,248,40,25,79,004,44*79
$GPGSV,2,2,07,29,58,227,45,30,38,294,37,31,30,312,35,,,,*4A
$GPGSA,M,3,02,12,14,25,29,,,,,,,,4.4,3.6,2.4*35
Trace #115 at position 28.500000
$GPZDA,090806.03,09,10,2011,00,00*68
$GPRMC,090806.00,A,4611.966844,N,01258.225240,E,002.1,341.8,091011,0.2,E,A*3B
$GPGGA,090807.00,4611.967321,N,01258.224877,E,1,05,3.6,140.91,M,46.25,M,,*6A
$GPGLL,4611.967321,N,01258.224877,E,090807.00,A,A*67
$GPVTG,320.2,T,320.4,M,001.9,N,003.6,K,A*28
$GPGSV,2,1,07,02,38,071,44,12,52,084,43,14,24,248,40,25,79,004,44*79
$GPGSV,2,2,07,29,58,227,45,30,38,294,37,31,30,312,35,,,,*4A
$GPGSA,M,3,02,12,14,25,29,,,,,,,,4.4,3.6,2.4*35
Trace #116 at position 28.750000
$GPZDA,090806.03,09,10,2011,00,00*68
$GPRMC,090806.00,A,4611.966844,N,01258.225240,E,002.1,341.8,091011,0.2,E,A*3B
$GPGGA,090807.00,4611.967321,N,01258.224877,E,1,05,3.6,140.91,M,46.25,M,,*6A
$GPGLL,4611.967321,N,01258.224877,E,090807.00,A,A*67
$GPVTG,320.2,T,320.4,M,001.9,N,003.6,K,A*28
$GPGSV,2,1,07,02,38,071,44,12,52,084,43,14,24,248,40,25,79,004,44*79
$GPGSV,2,2,07,29,58,227,45,30,38,294,37,31,30,312,35,,,,*4A
$GPGSA,M,3,02,12,14,25,29,,,,,,,,4.4,3.6,2.4*35
Trace #117 at position 29.000000
$GPZDA,090807.03,09,10,2011,00,00*69
$GPRMC,090807.00,A,4611.967321,N,01258.224877,E,001.9,320.2,091011,0.2,E,A*3A
$GPGGA,090808.00,4611.967847,N,01258.224519,E,1,05,3.6,141.06,M,46.25,M,,*64
$GPGLL,4611.967847,N,01258.224519,E,090808.00,A,A*66
