Trace #1 at position 0.000000
$GPZDA,085750.04,08,10,2011,00,00*66
$GPRMC,085750.00,A,4611.975987,N,01258.208328,E,000.0,139.0,081011,0.2,E,A*38
$GPGGA,085751.00,4611.976012,N,01258.208119,E,1,06,1.5,138.13,M,46.25,M,,*69
$GPGLL,4611.976012,N,01258.208119,E,085751.00,A,A*63
$GPVTG,296.0,T,296.2,M,000.1,N,000.2,K,A*22
$GPGSV,2,1,08,02,38,079,37,09,19,151,30,12,57,076,29,14,28,253,46*74
$GPGSV,2,2,08,25,76,334,48,29,51,223,44,30,33,290,46,31,25,313,45*7C
$GPGSA,M,3,02,14,25,29,30,31,,,,,,,2.9,1.5,2.5*3C
Trace #2 at position 0.250000
$GPZDA,085754.04,08,10,2011,00,00*62
$GPRMC,085754.00,A,4611.976056,N,01258.207666,E,000.2,88.3,081011,0.2,E,A*00
$GPGGA,085755.00,4611.976071,N,01258.207590,E,1,07,1.4,138.96,M,46.25,M,,*6F
$GPGLL,4611.976071,N,01258.207590,E,085755.00,A,A*68
$GPVTG,290.5,T,290.7,M,000.0,N,000.1,K,A*20
$GPGSV,2,1,08,02,38,079,42,09,19,151,29,12,57,076,40,14,28,253,43*74
$GPGS58.207590,E,000.0,290.5,081011,0.2,E,A*31
$GPGGA,085756.00,4611.976079,N,01258.207481,E,1,07,1.4,139.13,M,46.25,M,,*69
$GPGLL,4611.976079,N,01258.207481,E,085756.00,A,A*62
$GPVTG,222.4,T,222.5,M,000.0,N,000.1,K,A*23
$GPGSV,2,1,08,02,38,079,42,09,19,151,29,12,57,076,39,14,28,253,44*7D
$GPGSV,2,2,08,25,76,334,51,29,51,223,46,30,33,290,46,31,25,313,38*7C
$GPGSA,M,3,02,12,14,25,29,30,31,,,,,,2.9,1.4,2.5*3E
Trace #3 at position 0.500000
$GPZDA,085757.04,08,10,2011,00,00*61
$GPRMC,085757.00,A,4611.976087,N,01258.207392,E,000.0,29.6,081011,0.2,E,A*0D
$GPGGA,085758.00,4611.976095,N,01258.207319,E,1,07,1.4,139.37,M,46.25,M,,*65
$GPGLL,4611.976095,N,01258.207319,E,085758.00,A,A*68
$GPVTG,170.2,T,170.4,M,000.0,N,000.0,K,A*25
$GPGSV,2,1,08,02,38,079,43,09,19,151,28,12,57,076,39,14,28,253,44*7D
$GPGSV,2,2,08,25,76,334,50,29,51,223,45,30,34,290,46,31,25,313,38*79
$GPGSA,M,3,02,12,14,25,29,30,31,,,,,,2.9,1.4,2.5*3E
Trace #4 at position 0.750000
$GPZDA,085758.04,08,10,2011,00,00*6E
$GPRMC,085758.00,A,4611.976095,N,01258.207319,E,000.0,170.2,081011,0.2,E,A*3B
$GPGGA,085759.00,4611.976108,N,01258.207252,E,1,07,1.4,139.48,M,46.25,M,,*67
$GPGLL,4611.976108,N,01258.207252,E,085759.00,A,A*62
$GPVTG,349.5,T,349.6,M,000.0,N,000.1,K,A*21
$GPGSV,2,1,08,02,38,079,43,09,19,151,25,12,57,076,38,14,28,253,43*76
$GPGSV,2,2,08,25,76,334,50,29,51,223,45,30,34,290,46,31,25,313,38*79
$GPGSA,M,3,02,12,14,25,29,30,31,,,,,,2.9,1.4,2.5*3E
Trace #5 at position 1.000000
$GPZDA,085759.04,08,10,2011,00,00*6F
$GPRMC,085759.00,A,4611.976108,N,01258.207252,E,000.0,349.5,081011,0.2,E,A*3E
$GPGGA,085800.00,4611.976122,N,01258.207198,E,1,07,1.4,139.56,M,46.25,M,,*66
$GPGLL,4611.976122,N,01258.207198,E,085800.00,A,A*6C
$GPVTG,73.2,T,73.3,M,000.0,N,000.1,K,A*23
$GPGSV,2,1,08,02,38,079,44,09,19,151,,12,57,076,41,14,28,253,43*78
$GPGSV,2,2,08,25,76,334,49,29,51,223,45,30,34,290,44,31,25,313,37*7C
$GPGSA,M,3,02,12,14,25,29,30,31,,,,,,2.9,1.4,2.5*3E
Trace #6 at position 1.250000
$GPZDA,085800.04,08,10,2011,00,00*6C
$GPRMC,085800.00,A,4611.976122,N,01258.207198,E,000.0,73.2,081011,0.2,E,A*0D
$GPGGA,085801.00,4611.976109,N,01258.207141,E,1,07,1.4,139.63,M,46.25,M,,*6C
$GPGLL,4611.976109,N,01258.207141,E,085801.00,A,A*60
$GPVTG,197.7,T,197.9,M,000.2,N,000.3,K,A*2C
$GPGSV,2,1,08,02,38,079,42,09,19,151,,12,57,076,44,14,28,253,42*7A
$GPGSV,2,2,08,25,76,334,49,29,51,223,46,30,34,290,44,31,25,313,38*70
$GPGSA,M,3,02,12,14,25,29,30,31,,,,,,2.9,1.4,2.5*3E
Trace #7 at position 1.500000
$GPZDA,085800.04,08,10,2011,00,00*6C
$GPRMC,085800.00,A,4611.976122,N,01258.207198,E,000.0,73.2,081011,0.2,E,A*0D
$GPGGA,085801.00,4611.976109,N,01258.207141,E,1,07,1.4,139.63,M,46.25,M,,*6C
$GPGLL,4611.976109,N,01258.207141,E,085801.00,A,A*60
$GPVTG,197.7,T,197.9,M,000.2,N,000.3,K,A*2C
$GPGSV,2,1,08,02,38,079,42,09,19,151,,12,57,076,44,14,28,253,42*7A
$GPGSV,2,2,08,25,76,334,49,29,51,223,46,30,34,290,44,31,25,313,38*70
$GPGSA,M,3,02,12,14,25,29,30,31,,,,,,2.9,1.4,2.5*3E
Trace #8 at position 1.750000
$GPZDA,085801.04,08,10,2011,00,00*6D
$GPRMC,085801.00,A,4611.976109,N,01258.207141,E,000.2,197.7,081011,0.2,E,A*3D
$GPGGA,085802.00,4611.976099,N,01258.207096,E,1,07,1.4,139.69,M,46.25,M,,*66
$GPGLL,4611.976099,N,01258.207096,E,085802.00,A,A*60
$GPVTG,27.2,T,27.4,M,000.1,N,000.2,K,A*26
$GPGSV,2,1,08,02,38,079,42,09,19,151,,12,57,076,43,14,28,253,42*7D
$GPGSV,2,2,08,25,76,335,49,29,51,223,46,30,34,290,45,31,25,313,38*70
$GPGSA,M,3,02,12,14,25,29,30,31,,,,,,2.9,1.4,2.5*3E
Trace #9 at position 2.000000
$GPZDA,085802.04,08,10,2011,00,00*6E
$GPRMC,085802.00,A,4611.976099,N,01258.207096,E,000.1,27.2,081011,0.2,E,A*01
$GPGGA,085803.00,4611.976035,N,01258.207085,E,1,07,1.4,139.73,M,46.25,M,,*68
$GPGLL,4611.976035,N,01258.207085,E,085803.00,A,A*65
$GPVTG,169.3,T,169.5,M,000.5,N,001.0,K,A*21
$GPGSV,2,1,08,02,38,079,42,09,19,151,,12,57,076,43,14,28,253,43*7C
$GPGSV,2,2,08,25,76,335,49,29,51,223,46,30,34,290,45,31,25,313,38*70
$GPGSA,M,3,02,12,14,25,29,30,31,,,,,,2.9,1.4,2.5*3E
Trace #10 at position 2.250000
$GPZDA,085803.04,08,10,2011,00,00*6F
$GPRMC,085803.00,A,4611.976035,N,01258.207085,E,000.5,169.3,081011,0.2,E,A*3A
$GPGGA,085804.00,4611.975939,N,01258.207026,E,1,07,1.4,139.79,M,46.25,M,,*6A
$GPGLL,4611.975939,N,01258.207026,E,085804.00,A,A*6D
$GPVTG,244.1,T,244.3,M,000.3,N,000.5,K,A*27
$GPGSV,2,1,08,02,38,079,41,09,19,151,,12,57,076,42,14,28,253,42*7F
$GPGSV,2,2,08,25,76,335,49,29,51,223,46,30,34,290,46,31,25,313,38*73
$GPGSA,M,3,02,12,14,25,29,30,31,,,,,,2.9,1.4,2.5*3E
Trace #11 at position 2.500000
$GPZDA,085803.04,08,10,2011,00,00*6F
$GPRMC,085803.00,A,4611.976035,N,01258.207085,E,000.5,169.3,081011,0.2,E,A*3A
$GPGGA,085804.00,4611.975939,N,01258.207026,E,1,07,1.4,139.79,M,46.25,M,,*6A
$GPGLL,4611.975939,N,01258.207026,E,085804.00,A,A*6D
$GPVTG,244.1,T,244.3,M,000.3,N,000.5,K,A*27
$GPGSV,2,1,08,02,38,079,41,09,19,151,,12,57,076,42,14,28,253,42*7F
$GPGSV,2,2,08,25,76,335,49,29,51,223,46,30,34,290,46,31,25,313,38*73
$GPGSA,M,3,02,12,14,25,29,30,31,,,,,,2.9,1.4,2.5*3E
Trace #12 at position 2.750000
$GPZDA,085804.04,08,10,2011,00,00*68
$GPRMC,085804.00,A,4611.975939,N,01258.207026,E,000.3,244.1,081011,0.2,E,A*3A
$GPGGA,085805.00,4611.975876,N,01258.206943,E,1,07,1.4,139.90,M,46.25,M,,*6D
$GPGLL,4611.975876,N,01258.206943,E,085805.00,A,A*6D
$GPVTG,207.4,T,207.6,M,000.2,N,000.5,K,A*26
$GPGSV,2,1,08,02,38,079,41,09,19,151,,12,57,076,42,14,28,253,42*7F
$GPGSV,2,2,08,25,76,335,50,29,51,223,44,30,34,290,45,31,25,313,38*7A
$GPGSA,M,3,02,12,14,25,29,30,31,,,,,,2.9,1.4,2.5*3E
Trace #13 at position 3.000000
$GPZDA,085804.04,08,10,2011,00,00*68
$GPRMC,085804.00,A,4611.975939,N,01258.207026,E,000.3,244.1,081011,0.2,E,A*3A
$GPGGA,085805.00,4611.975876,N,01258.206943,E,1,07,1.4,139.90,M,46.25,M,,*6D
$GPGLL,4611.975876,N,01258.206943,E,085805.00,A,A*6D
$GPVTG,207.4,T,207.6,M,000.2,N,000.5,K,A*26
$GPGSV,2,1,08,02,38,079,41,09,19,151,,12,57,076,42,14,28,253,42*7F
$GPGSV,2,2,08,25,76,335,50,29,51,223,44,30,34,290,45,31,25,313,38*7A
$GPGSA,M,3,02,12,14,25,29,30,31,,,,,,2.9,1.4,2.5*3E
Trace #14 at position 3.250000
$GPZDA,085805.04,08,10,2011,00,00*69
$GPRMC,085805.00,A,4611.975876,N,01258.206943,E,000.2,207.4,081011,0.2,E,A*39
$GPGGA,085806.00,4611.975841,N,01258.206956,E,1,07,1.4,140.01,M,46.25,M,,*68
$GPGLL,4611.975841,N,01258.206956,E,085806.00,A,A*6E
$GPVTG,52.1,T,52.3,M,000.2,N,000.4,K,A*27
$GPGSV,2,1,08,02,38,079,42,09,19,151,,12,57,076,43,14,28,253,42*7D
$GP31,,,,,,2.9,1.4,2.5*3E
$GPZDA,085806.04,08,10,2011,00,00*6A
$GPRMC,085806.00,A,4611.975841,N,01258.206956,E,000.2,52.1,081011,0.2,E,A*0D
$GPGGA,085807.00,4611.975764,N,01258.207023,E,1,07,1.4,140.08,M,46.25,M,,*62
$GPGLL,4611.975764,N,01258.207023,E,085807.00,A,A*6D
$GPVTG,159.3,T,159.4,M,000.5,N,000.8,K,A*29
$GPGSV,2,1,08,02,38,079,40,09,19,151,,12,57,076,43,14,28,253,42*7F
$GPGSV,2,2,08,25,76,335,50,29,52,223,44,30,34,290,45,31,25,313,42*74
$GPGSA,M,3,02,12,14,25,29,30,31,,,,,,2.9,1.4,2.5*3E
Trace #15 at position 3.500000
$GPZ10,2011,00,00*6B
$GPRMC,085807.00,A,4611.975764,N,01258.207023,E,000.5,159.3,081011,0.2,E,A*31
$GPGGA,085808.00,4611.975607,N,01258.207017,E,1,07,1.4,140.08,M,46.25,M,,*6E
$GPGLL,4611.975607,N,01258.207017,E,085808.00,A,A*61
$GPVTG,207.0,T,207.1,M,000.5,N,001.0,K,A*26
$GPGSV,2,1,08,02,38,079,41,09,19,151,,12,57,076,42,14,28,253,42*7F
$GPGSV,2,2,08,25,76,335,50,29,52,223,44,30,34,290,44,31,25,313,40*77
$GPGSA,M,3,02,12,14,25,29,30,31,,,,,,2.9,1.4,2.5*3E
Trace #16 at position 3.750000
$GPZDA,085808.04,08,10,2011,00,00*64
$GPRMC,08$GPGGA,085809.00,4611.975419,N,01258.207019,E,1,07,1.4,140.05,M,46.25,M,,*61
$GPGLL,4611.975419,N,01258.207019,E,085809.00,A,A*63
$GPVTG,168.8,T,168.9,M,000.7,N,001.3,K,A*27
$GPGSV,2,1,08,02,38,079,40,09,19,151,,12,57,076,42,14,28,253,43*7F
$GPGSV,2,2,08,25,76,335,50,29,52,223,45,30,34,290,45,31,25,313,41*76
$GPGSA,M,3,02,12,14,25,29,30,31,,,,,,2.9,1.4,2.5*3E
Trace #17 at position 4.000000
$GPZDA,085809.04,08,10,2011,00,00*65
$GPRMC,085809.00,A,4611.975419,N,01258.207019,E,000.7,168.8,081011,0.2,E,A*34
$GPGGA,085810.00,4611.975191,N,01258.207053,E,1,07,1.4,140.04,M,46.25,M,,*63
$GPGLL,4611.975191,N,01258.207053,E,085810.00,A,A*60
$GPVTG,188.1,T,188.3,M,000.8,N,001.5,K,A*2D
$GPGSV,2,1,08,02,38,079,41,09,19,151,,12,57,076,44,14,28,253,43*78
$GPGSV,2,2,08,25,76,335,49,29,52,223,45,30,34,290,45,31,25,313,41*7E
$GPGSA,M,3,02,12,14,25,29,30,31,,,,,,2.9,1.4,2.5*3E
Trace #18 at position 4.250000
$GPZDA,085810.04,08,10,2011,00,00*6D
$GPRMC,085810.00,A,4611.975191,N,01258.207053,E,000.8,188.1,081011,0.2,E,A*3F
$GPGGA,085811.00,4611.974961,N,01258.207079,E,1,07,1.4,140.00,M,46.25,M,,*68
$GPGLL,4611.974961,N,01258.207079,E,085811.00,A,A*6F
$GPVTG,175.4,T,175.5,M,000.7,N,001.4,K,A*20
$GPGSV,2,1,08,02,38,079,41,09,19,151,,12,57,076,43,14,28,253,43*7F
$GPGSV,2,2,08,25,76,335,50,29,52,223,45,30,34,290,44,31,25,313,41*77
$GPGSA,M,3,02,12,14,25,29,30,31,,,,,,2.9,1.4,2.5*3E
Trace #19 at position 4.500000
$GPZDA,085811.04,08,10,2011,00,00*6C
$GPRMC,085811.00,A,4611.974961,N,01258.207079,E,000.7,175.4,081011,0.2,E,A*38
$GPGGA,085812.00,4611.974771,N,01258.207149,E,1,07,1.4,139.96,M,46.25,M,,*67
$GPGLL,4611.974771,N,01258.207149,E,085812.00,A,A*61
$GPVTG,168.9,T,169.0,M,000.6,N,001.1,K,A*2D
$GPGSV,2,1,08,02,38,079,42,09,19,151,,12,57,076,41,14,28,253,44*79
$GPGSV,2,2,08,25,76,335,49,29,52,223,45,30,34,290,44,31,25,313,40*7E
$GPGSA,M,3,02,12,14,25,29,30,31,,,,,,2.9,1.4,2.5*3E
Trace #20 at position 4.750000
$GPZDA,085812.04,08,10,2011,00,00*6F
$GPRMC,085812.00,A,4611.974771,N,01258.207149,E,000.6,168.9,081011,0.2,E,A*36
$GPGGA,085813.00,4611.974586,N,01258.207235,E,1,07,1.4,139.94,M,46.25,M,,*66
$GPGLL,4611.974586,N,01258.207235,E,085813.00,A,A*62
$GPVTG,167.1,T,167.2,M,000.7,N,001.4,K,A*22
$GPGSV,2,1,08,02,38,079,40,09,19,151,,12,57,076,41,14,28,253,44*7B
$GPGSV,2,2,08,25,76,335,49,29,52,223,46,30,34,290,45,31,25,313,41*7D
$GPGSA,M,3,02,12,14,25,29,30,31,,,,,,2.9,1.4,2.5*3E
Trace #21 at position 5.000000
$GPZDA,085813.04,08,10,2011,00,00*6E
$GPRMC,085813.00,A,4611.974586,N,01258.207235,E,000.7,167.1,081011,0.2,E,A*33
$GPGGA,085814.00,4611.974406,N,01258.207375,E,1,07,1.4,139.92,M,46.25,M,,*6B
$GPGLL,4611.974406,N,01258.207375,E,085814.00,A,A*69
$GPVTG,145.2,T,145.3,M,000.7,N,001.3,K,A*27
$GPGSV,2,1,08,02,38,079,43,09,19,151,,12,57,076,42,14,28,253,41*7E
$GPGSV,2,2,08,25,76,335,48,29,52,223,45,30,34,290,44,31,25,313,40*7F
$GPGSA,M,3,02,12,14,25,29,30,31,,,,,,2.9,1.4,2.5*3E
Trace #22 at position 5.250000
$GPZDA,085814.04,08,10,2011,00,00*69
$GPRMC,085814.00,A,4611.974406,N,01258.207375,E,000.7,145.2,081011,0.2,E,A*3B
$GPGGA,085815.00,4611.974184,N,01258.207506,E,1,07,1.4,139.89,M,46.25,M,,*6D
$GPGLL,4611.974184,N,01258.207506,E,085815.00,A,A*65
$GPVTG,171.1,T,171.3,M,001.1,N,002.1,K,A*22
$GPGSV,2,1,08,02,38,079,43,09,19,151,,12,57,076,44,14,28,253,41*78
$GPGSV,2,2,08,25,76,335,48,29,52,223,45,30,34,290,44,31,25,313,40*7F
$GPGSA,M,3,02,12,14,25,29,30,31,,,,,,2.9,1.4,2.5*3E
Trace #23 at position 5.500000
$GPZDA,085814.04,08,10,2011,00,00*69
$GPRMC,085814.00,A,4611.974406,N,01258.207375,E,000.7,145.2,081011,0.2,E,A*3B
$GPGGA,085815.00,4611.974184,N,01258.207506,E,1,07,1.4,139.89,M,46.25,M,,*6D
$GPGLL,4611.974184,N,01258.207506,E,085815.00,A,A*65
$GPVTG,171.1,T,171.3,M,001.1,N,002.1,K,A*22
$GPGSV,2,1,08,02,38,079,43,09,19,151,,12,57,076,44,14,28,253,41*78
$GPGSV,2,2,08,25,76,335,48,29,52,223,45,30,34,290,44,31,25,313,40*7F
$GPGSA,M,3,02,12,14,25,29,30,31,,,,,,2.9,1.4,2.5*3E
Trace #24 at position 5.750000
$GPZDA,085815.04,08,10,2011,00,00*68
$GPRMC,085815.00,A,4611.974184,N,01258.207506,E,001.1,171.1,081011,0.2,E,A*34
$GPGGA,085816.00,4611.974030,N,01258.207592,E,1,07,1.4,139.90,M,46.25,M,,*65
$GPGLL,4611.974030,N,01258.207592,E,085816.00,A,A*65
$GPVTG,116.0,T,116.2,M,000.2,N,000.4,K,A*27
$GPGSV,2,1,08,02,38,079,38,09,19,151,,12,57,076,42,14,28,253,42*71
$GPGSV,2,2,08,25,76,335,49,29,52,223,45,30,34,290,46,31,25,313,44*78
$GPGSA,M,3,02,12,14,25,29,30,31,,,,,,2.9,1.4,2.5*3E
Trace #25 at position 6.000000
$GPZDA,085816.04,08,10,2011,00,00*6B
$GPRMC,085816.00,A,4611.974030,N,01258.207592,E,000.2,116.0,081011,0.2,E,A*36
$GPGGA,085817.00,4611.973954,N,01258.207706,E,1,07,1.4,139.93,M,46.25,M,,*64
$GPGLL,4611.973954,N,01258.207706,E,085817.00,A,A*67
$GPVTG,145.8,T,145.9,M,000.6,N,001.1,K,A*24
$GPGSV,2,1,08,02,38,079,41,09,19,151,,12,57,076,42,14,28,253,41*7C
$GPGSV,2,2,08,25,76,335,49,29,52,223,45,30,34,290,46,31,25,313,43*7F
$GPGSA,M,3,02,12,14,25,29,30,31,,,,,,2.9,1.4,2.5*3E
Trace #26 at position 6.250000
$GPZDA,085816.04,08,10,2011,00,00*6B
$GPRMC,085816.00,A,4611.974030,N,01258.207592,E,000.2,116.0,081011,0.2,E,A*36
$GPGGA,085817.00,4611.973954,N,01258.207706,E,1,07,1.4,139.93,M,46.25,M,,*64
$GPGLL,4611.973954,N,01258.207706,E,085817.00,A,A*67
$GPVTG,145.8,T,145.9,M,000.6,N,001.1,K,A*24
$GPGSV,2,1,08,02,38,079,41,09,19,151,,12,57,076,42,14,28,253,41*7C
$GPGSV,2,2,08,25,76,335,49,29,52,223,45,30,34,290,46,31,25,313,43*7F
$GPGSA,M,3,02,12,14,25,29,30,31,,,,,,2.9,1.4,2.5*3E
Trace #27 at position 6.500000
$GPZDA,085817.04,08,10,2011,00,00*6A
$GPRMC,085817.00,A,4611.973954,N,01258.207706,E,000.6,145.8,081011,0.2,E,A*3E
$GPGGA,085818.00,4611.973893,N,01258.207822,E,1,07,1.4,139.98,M,46.25,M,,*63
$GPGLL,4611.973893,N,01258.207822,E,085818.00,A,A*6B
$GPVTG,79.5,T,79.6,M,000.3,N,000.5,K,A*26
$GPGSV,2,1,08,02,38,079,41,09,19,151,,12,57,076,42,14,28,253,41*7C
$GPGSV,2,2,08,25,76,335,48,29,52,223,45,30,34,290,46,31,25,313,44*79
$GPGSA,M,3,02,12,14,25,29,30,31,,,,,,2.9,1.4,2.5*3E
Trace #28 at position 6.750000
$GPZDA,085817.04,08,10,2011,00,00*6A
$GPRMC,085817.00,A,4611.973954,N,01258.207706,E,000.6,145.8,081011,0.2,E,A*3E
$GPGGA,085818.00,4611.973893,N,01258.207822,E,1,07,1.4,139.98,M,46.25,M,,*63
$GPGLL,4611.973893,N,01258.207822,E,085818.00,A,A*6B
$GPVTG,79.5,T,79.6,M,000.3,N,000.5,K,A*26
$GPGSV,2,1,08,02,38,079,41,09,19,151,,12,57,076,42,14,28,253,41*7C
$GPGSV,2,2,08,25,76,335,48,29,52,223,45,30,34,290,46,31,25,313,44*79
$GPGSA,M,3,02,12,14,25,29,30,31,,,,,,2.9,1.4,2.5*3E
Trace #29 at position 7.000000
$GPZDA,085817.04,08,10,2011,00,00*6A
$GPRMC,085817.00,A,4611.973954,N,01258.207706,E,000.6,145.8,081011,0.2,E,A*3E
$GPGGA,085818.00,4611.973893,N,01258.207822,E,1,07,1.4,139.98,M,46.25,M,,*63
$GPGLL,4611.973893,N,01258.207822,E,085818.00,A,A*6B
$GPVTG,79.5,T,79.6,M,000.3,N,000.5,K,A*26
$GPGSV,2,1,08,02,38,079,41,09,19,151,,12,57,076,42,14,28,253,41*7C
$GPGSV,2,2,08,25,76,335,48,29,52,223,45,30,34,290,46,31,25,313,44*79
$GPGSA,M,3,02,12,14,25,29,30,31,,,,,,2.9,1.4,2.5*3E
Trace #30 at position 7.250000
$GPZDA,085818.04,08,10,2011,00,00*65
$GPRMC,085818.00,A,4611.973893,N,01258.207822,E,000.3,79.5,081011,0.2,E,A*04
$GPGGA,085819.00,4611.973754,N,01258.207901,E,1,07,1.4,140.07,M,46.25,M,,*6E
$GPGLL,4611.973754,N,01258.207901,E,085819.00,A,A*6E
$GPVTG,170.8,T,170.9,M,001.0,N,001.9,K,A*2B
$GPGSV,2,1,08,02,38,079,40,09,19,151,,12,57,076,41,14,28,253,42*7D
$GPGSV,2,2,08,25,76,335,49,2,M,3,02,12,14,25,29,30,31,,,,,,2.9,1.4,2.5*3E
$GPZDA,085819.04,08,10,2011,00,00*64
$GPRMC,085819.00,A,4611.973754,N,01258.207901,E,001.0,170.8,081011,0.2,E,A*36
$GPGGA,085820.00,4611.973584,N,01258.207999,E,1,07,1.4,140.11,M,46.25,M,,*6D
$GPGLL,4611.973584,N,01258.207999,E,085820.00,A,A*6A
$GPVTG,121.5,T,121.7,M,000.5,N,000.8,K,A*2C
$GPGSV,2,1,08,02,38,079,40,09,19,151,,12,57,076,40,14,28,253,41*7F
$GPGSV,2,2,08,25,76,335,49,29,52,223,45,30,34,290,45,31,25,313,44*7B
$GPGSA,M,3,02,12,14,25,29,30,31,,$GPGGA,085821.00,4611.973475,N,01258.208068,E,1,07,1.4,140.09,M,46.25,M,,*62
Trace #31 at position 7.500000
$GPGLL,4611.973475,N,01258.208068,E,085821.00,A,A*6C
$GPVTG,177.9,T,178.1,M,000.5,N,001.0,K,A*20
$GPGSV,2,1,08,02,38,079,41,09,19,151,,12,57,076,41,14,28,253,42*7C
$GPGSV,2,2,08,25,76,335,49,29,52,223,44,30,34,290,45,31,25,313,43*7D
$GPGSA,M,3,02,12,14,25,29,30,31,,,,,,2.9,1.4,2.5*3E
Trace #32 at position 7.750000
$GPGLL,4611.973475,N,01258.208068,E,085821.00,A,A*6C
$GPVTG,177.9,T,178.1,M,000.5,N,001.0,K,A*20
$GPGSV,2,1,08,02,38,079,41,09,19,151,,12,57,076,41,14,28,253,42*7C
$GPGSV,2,2,08,25,76,335,49,29,52,223,44,30,34,290,45,31,25,313,43*7D
$GPGSA,M,3,02,12,14,25,29,30,31,,,,,,2.9,1.4,2.5*3E
Trace #33 at position 8.000000
$GPZDA,085821.04,08,10,2011,00,00*6F
$GPRMC,085821.00,A,4611.973475,N,01258.208068,E,000.5,177.9,081011,0.2,E,A*36
$GPGGA,085822.00,4611.973280,N,01258.208134,E,1,07,1.4,140.05,M,46.25,M,,*69
$GPGLL,4611.973280,N,01258.208134,E,085822.00,A,A*6B
$GPVTG,157.0,T,157.2,M,000.9,N,001.7,K,A*2E
$GPGSV,2,1,08,02,38,079,41,09,19,151,,12,57,076,41,14,28,253,43*7D
$GPGSV,2,2,08,25,76,335,49,29,52,223,45,30,34,290,46,31,25,313,43*7F
$GPGSA,M,3,02,12,14,25,29,30,31,,,,,,2.9,1.4,2.5*3E
Trace #34 at position 8.250000
$GPZDA,085822.04,08,10,2011,00,00*6C
$GPRMC,085822.00,A,4611.973280,N,01258.208134,E,000.9,157.0,081011,0.2,E,A*36
$GPGGA,085823.00,4611.973093,N,01258.208304,E,1,07,1.4,140.06,M,46.25,M,,*6A
$GPGLL,4611.973093,N,01258.208304,E,085823.00,A,A*6B
$GPVTG,131.5,T,131.6,M,000.8,N,001.4,K,A*2D
$GPGSV,2,1,08,02,38,079,40,09,19,151,,12,57,076,42,14,28,253,42*7E
$GPGSV,2,2,08,25,76,335,49,29,52,223,45,30,34,290,46,31,25,313,45*79
$GPGSA,M,3,02,12,14,25,29,30,31,,,,,,2.9,1.4,2.5*3E
Trace #35 at position 8.500000
$GPZDA,085822.04,08,10,2011,00,00*6C
$GPRMC,085822.00,A,4611.973280,N,01258.208134,E,000.9,157.0,081011,0.2,E,A*36
$GPGGA,085823.00,4611.973093,N,01258.208304,E,1,07,1.4,140.06,M,46.25,M,,*6A
$GPGLL,4611.973093,N,01258.208304,E,085823.00,A,A*6B
$GPVTG,131.5,T,131.6,M,000.8,N,001.4,K,A*2D
$GPGSV,2,1,08,02,38,079,40,09,19,151,,12,57,076,42,14,28,253,42*7E
$GPGSV,2,2,08,25,76,335,49,29,52,223,45,30,34,290,46,31,25,313,45*79
$GPGSA,M,3,02,12,14,25,29,30,31,,,,,,2.9,1.4,2.5*3E
Trace #36 at position 8.750000
$GPZDA,085823.04,08,10,2011,00,00*6D
$GPRMC,085823.00,A,4611.973093,N,01258.208304,E,000.8,131.5,081011,0.2,E,A*32
$GPGGA,085824.00,4611.972951,N,01258.208484,E,1,07,1.4,140.01,M,46.25,M,,*63
$GPGLL,4611.972951,N,01258.208484,E,085824.00,A,A*65
$GPVTG,132.8,T,132.9,M,000.7,N,001.2,K,A*26
$GPGSV,2,1,08,02,38,079,39,09,19,151,,12,57,076,43,14,28,253,42*71
$GPGSV,2,2,08,25,76,335,49,29,52,223,43,30,34,290,45,31,25,313,43*7A
$GPGSA,M,3,02,12,14,25,29,30,31,,,,,,2.9,1.4,2.5*3E
Trace #37 at position 9.000000
$GPZDA,085823.04,08,10,2011,00,00*6D
$GPRMC,085823.00,A,4611.973093,N,01258.208304,E,000.8,131.5,081011,0.2,E,A*32
$GPGGA,085824.00,4611.972951,N,01258.208484,E,1,07,1.4,140.01,M,46.25,M,,*63
$GPGLL,4611.972951,N,01258.208484,E,085824.00,A,A*65
$GPVTG,132.8,T,132.9,M,000.7,N,001.2,K,A*26
$GPGSV,2,1,08,02,38,079,39,09,19,151,,12,57,076,43,14,28,253,42*71
$GPGSV,2,2,08,25,76,335,49,29,52,223,43,30,34,290,45,31,25,313,43*7A
$GPGSA,M,3,02,12,14,25,29,30,31,,,,,,2.9,1.4,2.5*3E
Trace #38 at position 9.250000
$GPZDA,085824.04,08,10,2011,00,00*6A
$GPRMC,085824.00,A,4611.972951,N,01258.208484,E,000.7,132.8,081011,0.2,E,A*3D
$GPGGA,085825.00,4611.972793,N,01258.208526,E,1,07,1.4,140.01,M,46.25,M,,*6B
$GPGLL,4611.972793,N,01258.208526,E,085825.00,A,A*6D
$GPVTG,196.9,T,197.1,M,000.6,N,001.1,K,A*2C
$GPGSV,2,1,08,02,38,079,41,09,19,151,,12,57,076,44,14,28,253,42*79
$GPGSV,2,2,08,25,76,335,49,29,52,223,43,30,34,290,43,31,25,313,44*7B
$GPGSA,M,3,02,12,14,25,29,30,31,,,,,,2.9,1.4,2.5*3E
Trace #39 at position 9.500000
$GPZDA,085824.04,08,10,2011,00,00*6A
$GPRMC,085824.00,A,4611.972951,N,01258.208484,E,000.7,132.8,081011,0.2,E,A*3D
$GPGGA,085825.00,4611.972793,N,01258.208526,E,1,07,1.4,140.01,M,46.25,M,,*6B
$GPGLL,4611.972793,N,01258.208526,E,085825.00,A,A*6D
$GPVTG,196.9,T,197.1,M,000.6,N,001.1,K,A*2C
$GPGSV,2,1,08,02,38,079,41,09,19,151,,12,57,076,44,14,28,253,42*79
$GPGSV,2,2,08,25,76,335,49,29,52,223,43,30,34,290,43,31,25,313,44*7B
$GPGSA,M,3,02,12,14,25,29,30,31,,,,,,2.9,1.4,2.5*3E
Trace #40 at position 9.750000
$GPZDA,085825.04,08,10,2011,00,00*6B
$GPRMC,085825.00,A,4611.972793,N,01258.208526,E,000.6,196.9,081011,0.2,E,A*3B
$GPGGA,085826.00,4611.972601,N,01258.208538,E,1,07,1.4,140.03,M,46.25,M,,*6F
$GPGLL,4611.972601,N,01258.208538,E,085826.00,A,A*6B
$GPVTG,156.3,T,156.4,M,000.7,N,001.4,K,A*26
$GPGSV,2,1,08,02,38,079,41,09,19,151,,12,57,076,43,14,28,253,42*7E
$GPGSV,2,2,08,25,76,335,49,29,52,223,44,30,34,290,44,31,25,313,42*7D
$GPGSA,M,3,02,12,14,25,29,30,31,,,,,,2.9,1.4,2.5*3E
Trace #41 at position 10.000000
$GPZDA,085825.04,08,10,2011,00,00*6B
$GPRMC,085825.00,A,4611.972793,N,01258.208526,E,000.6,196.9,081011,0.2,E,A*3B
$GPGGA,085826.00,4611.972601,N,01258.208538,E,1,07,1.4,140.03,M,46.25,M,,*6F
$GPGLL,4611.972601,N,01258.208538,E,085826.00,A,A*6B
$GPVTG,156.3,T,156.4,M,000.7,N,001.4,K,A*26
$GPGSV,2,1,08,02,38,079,41,09,19,151,,12,57,076,43,14,28,253,42*7E
$GPGSV,2,2,08,25,76,335,49,29,52,223,44,30,34,290,44,31,25,313,42*7D
$GPGSA,M,3,02,12,14,25,29,30,31,,,,,,2.9,1.4,2.5*3E
Trace #42 at position 10.250000
$GPZDA,085826.04,08,10,2011,00,00*68
$GPRMC,085826.00,A,4611.972601,N,01258.208538,E,000.7,156.3,081011,0.2,E,A*3A
$GPGGA,085827.00,4611.972414,N,01258.208708,E,1,07,1.4,139.96,M,46.25,M,,*6B
$GPGLL,4611.972414,N,01258.208708,E,085827.00,A,A*6D
$GPVTG,127.2,T,127.3,M,000.9,N,001.6,K,A*2C
$GPGSV,2,1,08,02,38,079,41,09,19,151,,12,57,076,41,14,28,253,43*7D
$GPGSV,2,2,08,25,76,335,49,29,52,223,45,30,34,290,45,31,25,313,43*7C
$GPGSA,M,3,02,12,14,25,29,30,31,,,,,,2.9,1.4,2.5*3E
Trace #43 at position 10.500000
$GPZDA,085826.04,08,10,2011,00,00*68
$GPRMC,085826.00,A,4611.972601,N,01258.208538,E,000.7,156.3,081011,0.2,E,A*3A
$GPGGA,085827.00,4611.972414,N,01258.208708,E,1,07,1.4,139.96,M,46.25,M,,*6B
$GPGLL,4611.972414,N,01258.208708,E,085827.00,A,A*6D
$GPVTG,127.2,T,127.3,M,000.9,N,001.6,K,A*2C
$GPGSV,2,1,08,02,38,079,41,09,19,151,,12,57,076,41,14,28,253,43*7D
$GPGSV,2,2,08,25,76,335,49,29,52,223,45,30,34,290,45,31,25,313,43*7C
$GPGSA,M,3,02,12,14,25,29,30,31,,,,,,2.9,1.4,2.5*3E
Trace #44 at position 10.750000
$GPZDA,085827.04,08,10,2011,00,00*69
$GPRMC,085827.00,A,4611.972414,N,01258.208708,E,000.9,127.2,081011,0.2,E,A*35
$GPGGA,085828.00,4611.972164,N,01258.208858,E,1,07,1.4,139.94,M,46.25,M,,*6E
$GPGLL,4611.972164,N,01258.208858,E,085828.00,A,A*6A
$GPVTG,168.8,T,168.9,M,001.2,N,002.2,K,A*21
$GPGSV,2,1,08,02,38,079,40,09,19,151,,12,57,076,41,14,28,253,42*7D
$GPGSV,2,2,08,25,76,335,49,29,52,223,44,30,34,290,45,31,25,313,43*7D
$GPGSA,M,3,02,12,14,25,29,30,31,,,,,,2.9,1.4,2.5*3E
Trace #45 at position 11.000000
$GPZDA,085828.04,08,10,2011,00,00*66
$GPRMC,085828.00,A,4611.972164,N,01258.208858,E,001.2,168.8,081011,0.2,E,A*39
$GPGGA,085829.00,4611.971861,N,01258.208962,E,1,07,1.4,139.88,M,46.25,M,,*65
$GPGLL,4611.971861,N,01258.208962,E,085829.00,A,A*6C
$GPVTG,154.8,T,154.9,M,001.1,N,002.0,K,A*20
$GPGSV,2,1,08,02,38,079,40,09,19,151,,12,57,076,42,14,28,253,42*7E
$GPGSV,2,2,08,25,76,335,49,29,52,223,44,30,34,290,45,31,25,313,43*7D
$GPGSA,M,3,02,12,14,25,29,30,31,,,,,,2.9,1.4,2.5*3E
Trace #46 at position 11.250000
$GPZDA,085828.04,08,10,2011,00,00*66
$GPRMC,085828.00,A,4611.972164,N,01258.208858,E,001.2,168.8,081011,0.2,E,A*39
$GPGGA,085829.00,4611.971861,N,01258.208962,E,1,07,1.4,139.88,M,46.25,M,,*65
$GPGLL,4611.971861,N,01258.208962,E,085829.00,A,A*6C
$GPVTG,154.8,T,154.9,M,001.1,N,002.0,K,A*20
$GPGSV,2,1,08,02,38,079,40,09,19,151,,12,57,076,42,14,28,253,42*7E
$GPGSV,2,2,08,25,76,335,49,29,52,223,44,30,34,290,45,31,25,313,43*7D
$GPGSA,M,3,02,12,14,25,29,30,31,,,,,,2.9,1.4,2.5*3E
Trace #47 at position 11.500000
$GPZDA,085829.04,08,10,2011,00,00*67
$GPRMC,085829.00,A,4611.971861,N,01258.208962,E,001.1,154.8,081011,0.2,E,A*33
$GPGGA,085830.00,4611.971601,N,01258.209063,E,1,07,1.4,139.85,M,46.25,M,,*61
$GPGLL,4611.971601,N,01258.209063,E,085830.00,A,A*65
$GPVTG,166.9,T,167.0,M,000.9,N,001.6,K,A*25
$GPGSV,2,1,08,02,38,079,40,09,19,151,,12,57,077,41,14,28,253,43*7D
$GPGSV,2,2,08,25,76,335,49,29,52,223,45,30,34,290,46,31,25,313,44*78
$GPGSA,M,3,02,12,14,25,29,30,31,,,,,,2.9,1.4,2.5*3E
Trace #48 at position 11.750000
$GPZDA,085829.04,08,10,2011,00,00*67
$GPRMC,085829.00,A,4611.971861,N,01258.208962,E,001.1,154.8,081011,0.2,E,A*33
$GPGGA,085830.00,4611.971601,N,01258.209063,E,1,07,1.4,139.85,M,46.25,M,,*61
$GPGLL,4611.971601,N,01258.209063,E,085830.00,A,A*65
$GPVTG,166.9,T,167.0,M,000.9,N,001.6,K,A*25
$GPGSV,2,1,08,02,38,079,40,09,19,151,,12,57,077,41,14,28,253,43*7D
$GPGSV,2,2,08,25,76,335,49,29,52,223,45,30,34,290,46,31,25,313,44*78
$GPGSA,M,3,02,12,14,25,29,30,31,,,,,,2.9,1.4,2.5*3E
Trace #49 at position 12.000000
$GPZDA,085830.04,08,10,2011,00,00*6F
$GPRMC,085830.00,A,4611.971601,N,01258.209063,E,000.9,166.9,081011,0.2,E,A*33
$GPGGA,085831.00,4611.971406,N,01258.209139,E,1,07,1.4,139.88,M,46.25,M,,*66
$GPGLL,4611.971406,N,01258.209139,E,085831.00,A,A*6F
$GPVTG,146.1,T,146.3,M,000.6,N,001.1,K,A*27
$GPGSV,2,1,08,02,38,079,40,09,19,151,,12,57,077,40,14,28,253,43*7C
$GPGSV,2,2,08,25,76,335,40,34,290,46,31,25,313,44*7B
$GPGSA,M,3,02,12,14,25,29,30,31,,,,,,2.9,1.4,2.5*3E
Trace #50 at position 12.250000
$GPZDA,085830.04,08,10,2011,00,00*6F
$GPRMC,085830.00,A,4611.971601,N,01258.209063,E,000.9,166.9,081011,0.2,E,A*33
$GPGGA,085831.00,4611.971406,N,01258.209139,E,1,07,1.4,139.88,M,46.25,M,,*66
$GPGLL,4611.971406,N,01258.209139,E,085831.00,A,A*6F
$GPVTG,146.1,T,146.3,M,000.6,N,001.1,K,A*27
$GPGSV,2,1,08,02,38,079,40,09,19,151,,12,57,077,40,14,28,253,43*7C
$GPGSV,2,2,08,25,76,335,40,34,290,46,31,25,313,44*7B
$GPGSA,M,3,02,12,14,25,29,30,31,,,,,,2.9,1.4,2.5*3E
Trace #51 at position 12.500000
$GPZDA,085830.04,08,10,2011,00,00*6F
$GPRMC,085830.00,A,4611.971601,N,01258.209063,E,000.9,166.9,081011,0.2,E,A*33
$GPGGA,085831.00,4611.971406,N,01258.209139,E,1,07,1.4,139.88,M,46.25,M,,*66
$GPGLL,4611.971406,N,01258.209139,E,085831.00,A,A*6F
$GPVTG,146.1,T,146.3,M,000.6,N,001.1,K,A*27
$GPGSV,2,1,08,02,38,079,40,09,19,151,,12,57,077,40,14,28,253,43*7C
$GPGSV,2,2,08,25,76,335,40,34,290,46,31,25,313,44*7B
$GPGSA,M,3,02,12,14,25,29,30,31,,,,,,2.9,1.4,2.5*3E
Trace #52 at position 12.750000
$GPZDA,085831.04,08,10,2011,00,00*6E
$GPRMC,085831.00,A,4611.971406,N,01258.209139,E,000.6,146.1,081011,0.2,E,A*3C
$GPGGA,085832.00,4611.971218,N,01258.209264,E,1,07,1.4,139.85,M,46.25,M,,*6A
$GPGLL,4611.971218,N,01258.209264,E,085832.00,A,A*6E
$GPVTG,150.1,T,150.3,M,000.9,N,001.7,K,A*2E
$GPGSV,2,1,08,02,38,079,38,09,19,151,,12,57,077,39,14,28,253,43*7D
$GPGSV,2,2,08,25,76,335,49,29,52,223,46,30,34,290,46,31,25,313,45*7A5832.04,08,10,2011,00,00*6D
$GPRMC,085832.00,A,4611.971218,N,01258.209264,E,000.9,150.1,081011,0.2,E,A*35
$GPGGA,085833.00,4611.970983,N,01258.209322,E,1,07,1.4,139.89,M,46.25,M,,*6C
$GPGLL,4611.970983,N,01258.209322,E,085833.00,A,A*64
$GPVTG,181.2,T,181.3,M,000.8,N,001.5,K,A*2E
$GPGSV,2,1,08,02,38,079,38,09,19,151,,12,57,077,38,14,28,253,44*7B
$GPGSV,2,2,08,25,76,335,49,29,52,223,45,30,34,290,47,31,25,313,45*78
$GPGSA,M,3,02,12,14,25,29,30,31,,,,,,2.9,1.4,2.5*3E
Trace #53 at position 13.000000
$GPZDA,085833.04,08,10,2011,00,00*6C,N,01258.209322,E,000.8,181.2,081011,0.2,E,A*31
$GPGGA,085834.00,4611.970715,N,01258.209318,E,1,07,1.4,139.97,M,46.25,M,,*6C
$GPGLL,4611.970715,N,01258.209318,E,085834.00,A,A*6B
$GPVTG,176.0,T,176.1,M,001.1,N,002.0,K,A*20
$GPGSV,2,1,08,02,38,079,37,09,19,151,,12,57,077,38,14,28,253,44*74
$GPGSV,2,2,08,25,76,335,50,29,52,223,46,30,34,290,47,31,25,313,45*73
$GPGSA,M,3,02,12,14,25,29,30,31,,,,,,2.9,1.4,2.5*3E
Trace #54 at position 13.250000
$GPZDA,085834.04,08,10,2011,00,00*6B
$GPRMC,085834.00,A,4611.970715,N,01258.209318,E,001.1,176$GPGGA,085835.00,4611.970454,N,01258.209462,E,1,07,1.4,139.97,M,46.25,M,,*61
$GPGLL,4611.970454,N,01258.209462,E,085835.00,A,A*66
$GPVTG,137.8,T,137.9,M,001.1,N,002.0,K,A*20
$GPGSV,2,1,08,02,38,079,37,09,19,151,,12,57,077,38,14,28,253,44*74
$GPGSV,2,2,08,25,76,335,49,29,52,223,46,30,34,290,46,31,25,313,44*7B
$GPGSA,M,3,02,12,14,25,29,30,31,,,,,,2.9,1.4,2.5*3E
Trace #55 at position 13.500000
$GPZDA,085834.04,08,10,2011,00,00*6B
$GPRMC,085834.00,A,4611.970715,N,01258.209318,E,001.1,176$GPGGA,085835.00,4611.970454,N,01258.209462,E,1,07,1.4,139.97,M,46.25,M,,*61
$GPGLL,4611.970454,N,01258.209462,E,085835.00,A,A*66
$GPVTG,137.8,T,137.9,M,001.1,N,002.0,K,A*20
$GPGSV,2,1,08,02,38,079,37,09,19,151,,12,57,077,38,14,28,253,44*74
$GPGSV,2,2,08,25,76,335,49,29,52,223,46,30,34,290,46,31,25,313,44*7B
$GPGSA,M,3,02,12,14,25,29,30,31,,,,,,2.9,1.4,2.5*3E
Trace #56 at position 13.750000
$GPZDA,085835.04,08,10,2011,00,00*6A
$GPRMC,085835.00,A,4611.970454,N,01258.209462,E,001.1,137.8,081011,0.2,E,A*3C
$GPGGA,085836.00,4611.970268,N,01258.209599,E,1,07,1.4,139.95,M,46.25,M,,*6C
$GPGLL,4611.970268,N,01258.209599,E,085836.00,A,A*69
$GPVTG,172.1,T,172.2,M,000.5,N,001.0,K,A*24
$GPGSV,2,1,08,02,38,079,38,09,19,151,30,12,57,077,39,14,28,253,43*7E
$GPGSV,2,2,08,25,76,335,50,29,52,223,46,30,34,290,46,31,25,313,45*72
$GPGSA,M,3,02,12,14,25,29,30,31,,,,,,2.9,1.4,2.5*3E
Trace #57 at position 14.000000
$GPZDA,085835.04,08,10,2011,00,00*6A
$GPRMC,085835.00,A,4611.970454,N,01258.209462,E,001.1,137.8,081011,0.2,E,A*3C
$GPGGA,085836.00,4611.970268,N,01258.209599,E,1,07,1.4,139.95,M,46.25,M,,*6C
$GPGLL,4611.970268,N,01258.209599,E,085836.00,A,A*69
$GPVTG,172.1,T,172.2,M,000.5,N,001.0,K,A*24
$GPGSV,2,1,08,02,38,079,38,09,19,151,30,12,57,077,39,14,28,253,43*7E
$GPGSV,2,2,08,25,76,335,50,29,52,223,46,30,34,290,46,31,25,313,45*72
$GPGSA,M,3,02,12,14,25,29,30,31,,,,,,2.9,1.4,2.5*3E
Trace #58 at position 14.250000
$GPZDA,085836.04,08,10,2011,00,00*69
$GPRMC,085836.00,A,4611.970268,N,01258.209599,E,000.5,172.1,081011,0.2,E,A*3E
$GPGGA,085837.00,4611.970047,N,01258.209654,E,1,07,1.4,139.94,M,46.25,M,,*61
$GPGLL,4611.970047,N,01258.209654,E,085837.00,A,A*65
$GPVTG,165.4,T,165.6,M,001.1,N,002.0,K,A*23
$GPGSV,2,1,08,02,38,079,39,09,19,151,29,12,57,077,38,14,28,253,44*71
$GPGSV,2,2,08,25,76,335,49,29,52,223,47,30,34,290,46,31,25,313,44*7A
$GPGSA,M,3,02,12,14,25,29,30,31,,,,,,2.9,1.4,2.5*3E
Trace #59 at position 14.500000
$GPZDA,085836.04,08,10,2011,00,00*69
$GPRMC,085836.00,A,4611.970268,N,01258.209599,E,000.5,172.1,081011,0.2,E,A*3E
$GPGGA,085837.00,4611.970047,N,01258.209654,E,1,07,1.4,139.94,M,46.25,M,,*61
$GPGLL,4611.970047,N,01258.209654,E,085837.00,A,A*65
$GPVTG,165.4,T,165.6,M,001.1,N,002.0,K,A*23
$GPGSV,2,1,08,02,38,079,39,09,19,151,29,12,57,077,38,14,28,253,44*71
$GPGSV,2,2,08,25,76,335,49,29,52,223,47,30,34,290,46,31,25,313,44*7A
$GPGSA,M,3,02,12,14,25,29,30,31,,,,,,2.9,1.4,2.5*3E
Trace #60 at position 14.750000
$GPZDA,085837.04,08,10,2011,00,00*68
$GPRMC,085837.00,A,4611.970047,N,01258.209654,E,001.1,165.4,081011,0.2,E,A*34
$GPGGA,085838.00,4611.969804,N,01258.209677,E,1,07,1.4,140.00,M,46.25,M,,*6B
$GPGLL,4611.969804,N,01258.209677,E,085838.00,A,A*6C
$GPVTG,186.9,T,187.0,M,000.8,N,001.4,K,A*26
$GPGSV,2,1,08,02,38,079,38,09,19,151,29,12,57,077,39,14,28,253,43*76
$GPGSV,2,2,08,25,76,336,49,29,52,223,46,30,34,290,46,31,25,313,44*78
$GPGSA,M,3,02,12,14,25,29,30,31,,,,,,2.9,1.4,2.5*3E
Trace #61 at position 15.000000
$GPZDA,085838.04,08,10,2011,00,00*67
$GPRMC,085838.00,A,4611.969804,N,01258.209677,E,000.8,186.9,081011,0.2,E,A*35
$GPGGA,085839.00,4611.969657,N,01258.209745,E,1,07,1.4,140.04,M,46.25,M,,*66
$GPGLL,4611.969657,N,01258.209745,E,085839.00,A,A*65
$GPVTG,124.7,T,124.8,M,000.6,N,001.1,K,A*2A
$GPGSV,2,1,08,02,38,079,38,09,19,151,30,12,57,077,37,14,28,253,44*77
$GPGSV,2,2,08,25,76,336,49,29,52,223,46,30,34,290,47,31,25,313,45*78
$GPGSA,M,3,02,12,14,25,29,30,31,,,,,,2.9,1.4,2.5*3E
Trace #62 at position 15.250000
$GPZDA,085839.04,08,10,2011,00,00*66
$GPRMC,085839.00,A,4611.969657,N,01258.209745,E,000.6,124.7,081011,0.2,E,A*34
$GPGGA,085840.00,4611.969466,N,01258.209846,E,1,07,1.4,140.02,M,46.25,M,,*62
$GPGLL,4611.969466,N,01258.209846,E,085840.00,A,A*67
$GPVTG,174.1,T,174.2,M,001.1,N,002.0,K,A*22
$GPGSV,2,1,08,02,38,079,38,09,19,151,29,12,57,077,38,14,28,253,44*70
$GPGSV,2,2,08,25,76,336,49,29,52,223,46,30,34,290,46,31,25,313,44*78
$GPGSA,M,3,02,12,14,25,29,30,31,,,,,,2.9,1.4,2.5*3E
Trace #63 at position 15.500000
$GPZDA,085839.04,08,10,2011,00,00*66
$GPRMC,085839.00,A,4611.969657,N,01258.209745,E,000.6,124.7,081011,0.2,E,A*34
$GPGGA,085840.00,4611.969466,N,01258.209846,E,1,07,1.4,140.02,M,46.25,M,,*62
$GPGLL,4611.969466,N,01258.209846,E,085840.00,A,A*67
$GPVTG,174.1,T,174.2,M,001.1,N,002.0,K,A*22
$GPGSV,2,1,08,02,38,079,38,09,19,151,29,12,57,077,38,14,28,253,44*70
$GPGSV,2,2,08,25,76,336,49,29,52,223,46,30,34,290,46,31,25,313,44*78
$GPGSA,M,3,02,12,14,25,29,30,31,,,,,,2.9,1.4,2.5*3E
Trace #64 at position 15.750000
$GPZDA,085840.04,08,10,2011,00,00*68
$GPRMC,085840.00,A,4611.969466,N,01258.209846,E,001.1,174.1,081011,0.2,E,A*33
$GPGGA,085841.00,4611.969187,N,01258.209894,E,1,07,1.4,140.04,M,46.25,M,,*60
$GPGLL,4611.969187,N,01258.209894,E,085841.00,A,A*63
$GPVTG,172.0,T,172.2,M,001.1,N,002.0,K,A*23
$GPGSV,2,1,08,02,38,079,39,09,19,151,28,12,57,077,39,14,28,253,43*76
$GPGSV,2,2,08,25,76,336,50,29,52,223,46,30,34,290,45,31,25,313,44*73
$GPGSA,M,3,02,12,14,25,29,30,31,,,,,,2.9,1.4,2.5*3E
Trace #65 at position 16.000000
$GPZDA,085840.04,08,10,2011,00,00*68
$GPRMC,085840.00,A,4611.969466,N,01258.209846,E,001.1,174.1,081011,0.2,E,A*33
$GPGGA,085841.00,4611.969187,N,01258.209894,E,1,07,1.4,140.04,M,46.25,M,,*60
$GPGLL,4611.969187,N,01258.209894,E,085841.00,A,A*63
$GPVTG,172.0,T,172.2,M,001.1,N,002.0,K,A*23
$GPGSV,2,1,08,02,38,079,39,09,19,151,28,12,57,077,39,14,28,253,43*76
$GPGSV,2,2,08,25,76,336,50,29,52,223,46,30,34,290,45,31,25,313,44*73
$GPGSA,M,3,02,12,14,25,29,30,31,,,,,,2.9,1.4,2.5*3E
Trace #66 at position 16.250000
$GPZDA,085841.04,08,10,2011,00,00*69
$GPRMC,085841.00,A,4611.969187,N,01258.209894,E,001.1,172.0,081011,0.2,E,A*30
$GPGGA,085842.00,4611.968939,N,01258.210041,E,1,07,1.4,140.02,M,46.25,M,,*61
$GPGLL,4611.968939,N,01258.210041,E,085842.00,A,A*64
$GPVTG,142.4,T,142.6,M,001.1,N,002.0,K,A*23
$GPGSV,2,1,08,02,38,079,39,09,19,151,28,12,57,077,37,14,28,253,45*7E
$GPGSV,2,2,08,25,76,336,50,29,52,223,46,30,34,290,46,31,25,313,45*71
$GPGSA,M,3,02,12,14,25,29,30,31,,,,,,2.9,1.4,2.5*3E
Trace #67 at position 16.500000
$GPZDA,085841.04,08,10,2011,00,00*69
$GPRMC,085841.00,A,4611.969187,N,01258.209894,E,001.1,172.0,081011,0.2,E,A*30
$GPGGA,085842.00,4611.968939,N,01258.210041,E,1,07,1.4,140.02,M,46.25,M,,*61
$GPGLL,4611.968939,N,01258.210041,E,085842.00,A,A*64
$GPVTG,142.4,T,142.6,M,001.1,N,002.0,K,A*23
$GPGSV,2,1,08,02,38,079,39,09,19,151,28,12,57,077,37,14,28,253,45*7E
$GPGSV,2,2,08,25,76,336,50,29,52,223,46,30,34,290,46,31,25,313,45*71
$GPGSA,M,3,02,12,14,25,29,30,31,,,,,,2.9,1.4,2.5*3E
Trace #68 at position 16.750000
$GPZDA,085842.04,08,10,2011,00,00*6A
$GPRMC,085842.00,A,4611.968939,N,01258.210041,E,001.1,142.4,081011,0.2,E,A*30
$GPGGA,085843.00,4611.968733,N,01258.210247,E,1,07,1.4,140.05,M,46.25,M,,*67
$GPGLL,4611.968733,N,01258.210247,E,085843.00,A,A*65
$GPVTG,147.0,T,147.2,M,000.9,N,001.6,K,A*2F
$GPGSV,2,1,08,02,38,079,39,09,19,151,28,12,57,077,37,14,28,253,45*7E
$GPGSV,2,2,08,25,76,336,50,29,52,223,45,30,34,290,46,31,25,313,44*73
$GPGSA,M,3,02,12,14,25,29,30,31,,,,,,2.9,1.4,2.5*3E
Trace #69 at position 17.000000
$GPZDA,085842.04,08,10,2011,00,00*6A
$GPRMC,085842.00,A,4611.968939,N,01258.210041,E,001.1,142.4,081011,0.2,E,A*30
$GPGGA,085843.00,4611.968733,N,01258.210247,E,1,07,1.4,140.05,M,46.25,M,,*67
$GPGLL,4611.968733,N,01258.210247,E,085843.00,A,A*65
$GPVTG,147.0,T,147.2,M,000.9,N,001.6,K,A*2F
$GPGSV,2,1,08,02,38,079,39,09,19,151,28,12,57,077,37,14,28,253,45*7E
$GPGSV,2,2,08,25,76,336,50,29,52,223,45,30,34,290,46,31,25,313,44*73
$GPGSA,M,3,02,12,14,25,29,30,31,,,,,,2.9,1.4,2.5*3E
Trace #70 at position 17.250000
$GPZDA,085842.04,08,10,2011,00,00*6A
$GPRMC,085842.00,A,4611.968939,N,01258.210041,E,001.1,142.4,081011,0.2,E,A*30
$GPGGA,085843.00,4611.968733,N,01258.210247,E,1,07,1.4,140.05,M,46.25,M,,*67
$GPGLL,4611.968733,N,01258.210247,E,085843.00,A,A*65
$GPVTG,147.0,T,147.2,M,000.9,N,001.6,K,A*2F
$GPGSV,2,1,08,02,38,079,39,09,19,151,28,12,57,077,37,14,28,253,45*7E
$GPGSV,2,2,08,25,76,336,50,29,52,223,45,30,34,290,46,31,25,313,44*73
$GPGSA,M,3,02,12,14,25,29,30,31,,,,,,2.9,1.4,2.5*3E
Trace #71 at position 17.500000
$GPZDA,085843.04,08,10,2011,00,00*6B
$GPRMC,085843.00,A,4611.968733,N,01258.210247,E,000.9,147.0,081011,0.2,E,A*39
$GPGGA,085844.00,4611.968532,N,01258.210219,E,1,07,1.4,140.15,M,46.25,M,,*69
$GPGLL,4611.968532,N,01258.210219,E,085844.00,A,A*6A
$GPVTG,213.7,T,213.8,M,001.0,N,001.8,K,A*24
$GPGSV,2,1,08,02,38,079,39,09,19,151,29,12,57,077,*6C
$GPRMC,085844.00,A,4611.968532,N,01258.210219,E,001.0,213.7,081011,0.2,E,A*3B
$GPGGA,085845.00,4611.968286,N,01258.210017,E,1,07,1.4,140.15,M,46.25,M,,*6C
$GPGLL,4611.968286,N,01258.210017,E,085845.00,A,A*6F
$GPVTG,206.8,T,207.0,M,001.2,N,002.3,K,A*28
$GPGSV,2,1,08,02,38,079,39,09,19,151,29,12,57,077,40,14,28,253,44*7E
$GPGSV,2,2,08,25,76,336,49,29,52,223,45,30,34,290,46,31,25,313,44*7B
$GPGSA,M,3,02,12,14,25,29,30,31,,,,,,2.9,1.4,2.5*3E
Trace #72 at position 17.750000
$GPZDA,085843.04,08,10,2011,00,00*6B
$GPRMC,085843.00,A,4611.968733,N,01258.210247,E,000.9,147.0,081011,0.2,E,A*39
$GPGGA,085844.00,4611.968532,N,01258.210219,E,1,07,1.4,140.15,M,46.25,M,,*69
$GPGLL,4611.968532,N,01258.210219,E,085844.00,A,A*6A
$GPVTG,213.7,T,213.8,M,001.0,N,001.8,K,A*24
$GPGSV,2,1,08,02,38,079,39,09,19,151,29,12,57,077,*6C
$GPRMC,085844.00,A,4611.968532,N,01258.210219,E,001.0,213.7,081011,0.2,E,A*3B
$GPGGA,085845.00,4611.968286,N,01258.210017,E,1,07,1.4,140.15,M,46.25,M,,*6C
$GPGLL,4611.968286,N,01258.210017,E,085845.00,A,A*6F
$GPVTG,206.8,T,207.0,M,001.2,N,002.3,K,A*28
$GPGSV,2,1,08,02,38,079,39,09,19,151,29,12,57,077,40,14,28,253,44*7E
$GPGSV,2,2,08,25,76,336,49,29,52,223,45,30,34,290,46,31,25,313,44*7B
$GPGSA,M,3,02,12,14,25,29,30,31,,,,,,2.9,1.4,2.5*3E
Trace #73 at position 18.000000
$GPZDA,085845.04,08,10,2011,00,00*6D
$GPRMC,085845.00,A,4$GPGGA,085846.00,4611.968053,N,01258.210013,E,1,07,1.4,140.10,M,46.25,M,,*64
$GPGLL,4611.968053,N,01258.210013,E,085846.00,A,A*62
$GPVTG,156.0,T,156.2,M,000.9,N,001.7,K,A*2E
$GPGSV,2,1,08,02,38,079,39,09,19,151,25,12,57,077,38,14,28,253,44*7D
$GPGSV,2,2,08,25,76,336,49,29,52,223,45,30,34,290,47,31,25,313,45*7B
$GPGSA,M,3,02,12,14,25,29,30,31,,,,,,2.9,1.4,2.5*3E
Trace #74 at position 18.250000
$GPZDA,085846.04,08,10,2011,00,00*6E
$GPRMC,085846.00,A,4611.968053,N,01258.210013,E,000.9,156.0,081011,0.2,E,A*3E
$GPGGA,085847.00,4611.967934,N,01258.210234,E,1,07,1.4,140.20,M,46.25,M,,*66
$GPGLL,4611.967934,N,01258.210234,E,085847.00,A,A*63
$GPVTG,101.9,T,102.0,M,000.6,N,001.2,K,A*2C
$GPGSV,2,1,08,02,38,079,41,09,19,151,28,12,57,077,39,14,28,253,45*7F
$GPGSV,2,2,08,25,76,336,49,29,52,223,46,30,34,290,47,31,25,313,45*78
$GPGSA,M,3,02,12,14,25,29,30,31,,,,,,2.9,1.4,2.5*3E
Trace #75 at position 18.500000
$GPZDA,085846.04,08,10,2011,00,00*6E
$GPRMC,085846.00,A,4611.968053,N,01258.210013,E,000.9,156.0,081011,0.2,E,A*3E
$GPGGA,085847.00,4611.967934,N,01258.210234,E,1,07,1.4,140.20,M,46.25,M,,*66
$GPGLL,4611.967934,N,01258.210234,E,085847.00,A,A*63
$GPVTG,101.9,T,102.0,M,000.6,N,001.2,K,A*2C
$GPGSV,2,1,08,02,38,079,41,09,19,151,28,12,57,077,39,14,28,253,45*7F
$GPGSV,2,2,08,25,76,336,49,29,52,223,46,30,34,290,47,31,25,313,45*78
$GPGSA,M,3,02,12,14,25,29,30,31,,,,,,2.9,1.4,2.5*3E
Trace #76 at position 18.750000
$GPZDA,085847.04,08,10,2011,00,00*6F
$GPRMC,085847.00,A,4611.967934,N,01258.210234,E,000.6,101.9,081011,0.2,E,A*3B
$GPGGA,085848.00,4611.967816,N,01258.210575,E,1,07,1.4,140.25,M,46.25,M,,*6F
$GPGLL,4611.967816,N,01258.210575,E,085848.00,A,A*6F
$GPVTG,122.5,T,122.6,M,001.3,N,002.5,K,A*25
$GPGSV,2,1,08,02,38,079,39,09,19,151,28,12,57,077,40,14,28,253,44*7F
$GPGSV,2,2,08,25,76,336,49,29,52,223,46,30,34,290,47,31,25,313,45*78
$GPGSA,M,3,02,12,14,25,29,30,31,,,,,,2.9,1.4,2.5*3E
Trace #77 at position 19.000000
$GPZDA,085847.04,08,10,2011,00,00*6F
$GPRMC,085847.00,A,4611.967934,N,01258.210234,E,000.6,101.9,081011,0.2,E,A*3B
$GPGGA,085848.00,4611.967816,N,01258.210575,E,1,07,1.4,140.25,M,46.25,M,,*6F
$GPGLL,4611.967816,N,01258.210575,E,085848.00,A,A*6F
$GPVTG,122.5,T,122.6,M,001.3,N,002.5,K,A*25
$GPGSV,2,1,08,02,38,079,39,09,19,151,28,12,57,077,40,14,28,253,44*7F
$GPGSV,2,2,08,25,76,336,49,29,52,223,46,30,34,290,47,31,25,313,45*78
$GPGSA,M,3,02,12,14,25,29,30,31,,,,,,2.9,1.4,2.5*3E
Trace #78 at position 19.250000
$GPZDA,085848.04,08,10,2011,00,00*60
$GPRMC,085848.00,A,4611.967816,N,01258.210575,E,001.3,122.5,081011,0.2,E,A*3E
$GPGGA,085849.00,4611.967611,N,01258.210893,E,1,07,1.4,140.20,M,46.25,M,,*67
$GPGLL,4611.967611,N,01258.210893,E,085849.00,A,A*62
$GPVTG,136.7,T,136.9,M,001.0,N,001.9,K,A*24
$GPGSV,2,1,08,02,38,079,39,09,19,151,25,12,57,077,38,14,28,253,45*7C
$GPGSV,2,2,08,25,76,336,49,29,52,223,45,30,34,290,47,31,25,313,44*7A
$GPGSA,M,3,02,12,14,25,29,30,31,,,,,,2.9,1.4,2.5*3E
Trace #79 at position 19.500000
$GPZDA,085849.04,08,10,2011,00,00*61
$GPRMC,085849.00,A,4611.967611,N,01258.210893,E,001.0,136.7,081011,0.2,E,A*37
$GPGGA,085850.00,4611.967420,N,01258.211040,E,1,07,1.4,140.13,M,46.25,M,,*68
$GPGLL,4611.967420,N,01258.211040,E,085850.00,A,A*6D
$GPVTG,152.6,T,152.7,M,000.6,N,001.2,K,A*27
$GPGSV,2,1,08,02,38,079,37,09,19,151,26,12,57,077,41,14,28,253,44*7E
$GPGSV,2,2,08,25,76,336,49,29,52,223,46,30,34,290,46,31,25,313,45*79
$GPGSA,M,3,02,12,14,25,29,30,31,,,,,,2.9,1.4,2.5*3E
Trace #80 at position 19.750000
$GPZDA,085849.04,08,10,2011,00,00*61
$GPRMC,085849.00,A,4611.967611,N,01258.210893,E,001.0,136.7,081011,0.2,E,A*37
$GPGGA,085850.00,4611.967420,N,01258.211040,E,1,07,1.4,140.13,M,46.25,M,,*68
$GPGLL,4611.967420,N,01258.211040,E,085850.00,A,A*6D
$GPVTG,152.6,T,152.7,M,000.6,N,001.2,K,A*27
$GPGSV,2,1,08,02,38,079,37,09,19,151,26,12,57,077,41,14,28,253,44*7E
$GPGSV,2,2,08,25,76,336,49,29,52,223,46,30,34,290,46,31,25,313,45*79
$GPGSA,M,3,02,12,14,25,29,30,31,,,,,,2.9,1.4,2.5*3E
Trace #81 at position 20.000000
$GPZDA,085850.04,08,10,2011,00,00*69
$GPRMC,085850.00,A,4611.967420,N,01258.211040,E,000.6,152.6,081011,0.2,E,A*3C
$GPGGA,085851.00,4611.967180,N,01258.211131,E,1,07,1.4,140.02,M,46.25,M,,*61
$GPGLL,4611.967180,N,01258.211131,E,085851.00,A,A*64
$GPVTG,158.2,T,158.4,M,001.2,N,002.2,K,A*26
$GPGSV,2,1,08,02,38,079,37,09,19,151,28,12,57,077,39,14,28,253,44*7F
$GPGSV,2,2,08,25,76,336,49,29,52,223,46,30,34,290,47,31,25,313,44*79
$GPGSA,M,3,02,12,14,25,29,30,31,,,,,,2.9,1.4,2.5*3E
Trace #82 at position 20.250000
$GPZDA,085850.04,08,10,2011,00,00*69
$GPRMC,085850.00,A,4611.967420,N,01258.211040,E,000.6,152.6,081011,0.2,E,A*3C
$GPGGA,085851.00,4611.967180,N,01258.211131,E,1,07,1.4,140.02,M,46.25,M,,*61
$GPGLL,4611.967180,N,01258.211131,E,085851.00,A,A*64
$GPVTG,158.2,T,158.4,M,001.2,N,002.2,K,A*26
$GPGSV,2,1,08,02,38,079,37,09,19,151,28,12,57,077,39,14,28,253,44*7F
$GPGSV,2,2,08,25,76,336,49,29,52,223,46,30,34,290,47,31,25,313,44*79
$GPGSA,M,3,02,12,14,25,29,30,31,,,,,,2.9,1.4,2.5*3E
Trace #83 at position 20.500000
$GPZDA,085851.04,08,10,2011,00,00*68
$GPRMC,085851.00,A,4611.967180,N,01258.211131,E,001.2,158.2,081011,0.2,E,A*3E
$GPGGA,085852.00,4611.966968,N,01258.211287,E,1,07,1.4,139.98,M,46.25,M,,*6E
$GPGLL,4611.966968,N,01258.211287,E,085852.00,A,A*66
$GPVTG,121.5,T,121.6,M,000.8,N,001.5,K,A*2C
$GPGSV,2,1,08,02,38,079,40,09,19,151,26,12,57,077,39,14,28,253,44*71
$GPGSV,2,2,08,25,76,336,49,29,52,223,46,30,34,290,46,31,25,313,45*79
$GPGSA,M,3,02,12,14,25,29,30,31,,,,,,2.9,1.4,2.5*3E
Trace #84 at position 20.750000
$GPZDA,085851.04,08,10,2011,00,00*68
$GPRMC,085851.00,A,4611.967180,N,01258.211131,E,001.2,158.2,081011,0.2,E,A*3E
$GPGGA,085852.00,4611.966968,N,01258.211287,E,1,07,1.4,139.98,M,46.25,M,,*6E
$GPGLL,4611.966968,N,01258.211287,E,085852.00,A,A*66
$GPVTG,121.5,T,121.6,M,000.8,N,001.5,K,A*2C
$GPGSV,2,1,08,02,38,079,40,09,19,151,26,12,57,077,39,14,28,253,44*71
$GPGSV,2,2,08,25,76,336,49,29,52,223,46,30,34,290,46,31,25,313,45*79
$GPGSA,M,3,02,12,14,25,29,30,31,,,,,,2.9,1.4,2.5*3E
Trace #85 at position 21.000000
$GPZDA,085852.04,08,10,2011,00,00*6B
$GPRMC,085852.00,A,4611.966968,N,01258.211287,E,000.8,121.5,081011,0.2,E,A*3E
$GPGGA,085853.00,4611.966776,N,01258.211445,E,1,06,1.5,139.98,M,46.25,M,,*66
$GPGLL,4611.966776,N,01258.211445,E,085853.00,A,A*6E
$GPVTG,151.5,T,151.7,M,001.0,N,001.9,K,A*28
$GPGSV,2,1,08,02,38,079,38,09,19,151,27,12,57,077,36,14,28,253,45*71
$GPGSV,2,2,08,25,76,336,49,29,52,223,46,30,34,290,46,31,25,313,45*79
$GPGSA,M,3,02,14,25,29,30,31,,,,,,,2.9,1.5,2.5*3C
Trace #86 at position 21.250000
$GPZDA,085852.04,08,10,2011,00,00*6B
$GPRMC,085852.00,A,4611.966968,N,01258.211287,E,000.8,121.5,081011,0.2,E,A*3E
$GPGGA,085853.00,4611.966776,N,01258.211445,E,1,06,1.5,139.98,M,46.25,M,,*66
$GPGLL,4611.966776,N,01258.211445,E,085853.00,A,A*6E
$GPVTG,151.5,T,151.7,M,001.0,N,001.9,K,A*28
$GPGSV,2,1,08,02,38,079,38,09,19,151,27,12,57,077,36,14,28,253,45*71
$GPGSV,2,2,08,25,76,336,49,29,52,223,46,30,34,290,46,31,25,313,45*79
$GPGSA,M,3,02,14,25,29,30,31,,,,,,,2.9,1.5,2.5*3C
Trace #87 at position 21.500000
$GPZDA,085853.04,08,10,2011,00,00*6A
$GPRMC,085853.00,A,4611.966776,N,01258.211445,E,001.0,151.5,081011,0.2,E,A*38
$GPGGA,085854.00,4611.966540,N,01258.211669,E,1,06,1.5,139.94,M,46.25,M,,*66
$GPGLL,4611.966540,N,01258.211669,E,085854.00,A,A*62
$GPVTG,124.7,T,124.8,M,001.3,N,002.4,K,A*28
$GPGSV,2,1,08,02,38,079,37,09,19,151,28,12,57,077,37,14,28,253,45*70
$GPGSV,2,2,08,25,76,336,50,29,52,223,46,30,34,290,47,31,25,313,44*71
$GPGSA,M,3,02,14,25,29,30,31,,,,,,,2.9,1.5,2.5*3C
Trace #88 at position 21.750000
$GPZDA,085853.04,08,10,2011,00,00*6A
$GPRMC,085853.00,A,4611.966776,N,01258.211445,E,001.0,151.5,081011,0.2,E,A*38
$GPGGA,085854.00,4611.966540,N,01258.211669,E,1,06,1.5,139.94,M,46.25,M,,*66
$GPGLL,4611.966540,N,01258.211669,E,085854.00,A,A*62
$GPVTG,124.7,T,124.8,M,001.3,N,002.4,K,A*28
$GPGSV,2,1,08,02,38,079,37,09,19,151,28,12,57,077,37,14,28,253,45*70
$GPGSV,2,2,08,25,76,336,50,29,52,223,46,30,34,290,47,31,25,313,44*71
$GPGSA,M,3,02,14,25,29,30,31,,,,,,,2.9,1.5,2.5*3C
Trace #89 at position 22.000000
$GPZDA,085854.04,08,10,2011,00,00*6D
$GPRMC,085854.00,A,4611.966540,N,01258.211669,E,001.3,124.7,081011,0.2,E,A*37
$GPGGA,085855.00,4611.966357,N,01258.211804,E,1,06,1.5,139.93,M,46.25,M,,*65
$GPGLL,4611.966357,N,01258.211804,E,085855.00,A,A*66
$GPVTG,167.4,T,167.5,M,000.5,N,000.9,K,A*2E
$GPGSV,2,1,08,02,38,079,40,09,19,151,28,12,57,077,39,14,28,253,45*7E
$GPGSV,2,2,08,25,76,336,49,29,52,223,47,30,34,290,47,31,25,313,44*78
$GPGSA,M,3,02,14,25,29,30,31,,,,,,,2.9,1.5,2.5*3C
Trace #90 at position 22.250000
$GPZDA,085855.04,08,10,2011,00,00*6C
$GPRMC,085855.00,A,4611.966357,N,01258.211804,E,000.5,167.4,081011,0.2,E,A*30
$GPGGA,085856.00,4611.966171,N,01258.211767,E,1,07,1.4,139.99,M,46.25,M,,*60
$GPGLL,4611.966171,N,01258.211767,E,085856.00,A,A*69
$GPVTG,171.0,T,171.2,M,000.8,N,001.5,K,A*2D
$GPGSV,2,1,08,02,38,079,40,09,19,151,26,12,57,077,39,14,28,253,44*71
$GPGSV,2,2,08,25,76,336,49,29,52,223,45,30,34,290,46,31,25,313,43*7C
$GPGSA,M,3,02,12,14,25,29,30,31,,,,,,2.9,1.4,2.5*3E
Trace #91 at position 22.500000
$GPZDA,085855.04,08,10,2011,00,00*6C
$GPRMC,085855.00,A,4611.966357,N,01258.211804,E,000.5,167.4,081011,0.2,E,A*30
$GPGGA,085856.00,4611.966171,N,01258.211767,E,1,07,1.4,139.99,M,46.25,M,,*60
$GPGLL,4611.966171,N,01258.211767,E,085856.00,A,A*69
$GPVTG,171.0,T,171.2,M,000.8,N,001.5,K,A*2D
$GPGSV,2,1,08,02,38,079,40,09,19,151,26,12,57,077,39,14,28,253,44*71
$GPGSV,2,2,08,25,76,336,49,29,52,223,45,30,34,290,46,31,25,313,43*7C
$GPGSA,M,3,02,12,14,25,29,30,31,,,,,,2.9,1.4,2.5*3E
Trace #92 at position 22.750000
$GPZDA,085855.04,08,10,2011,00,00*6C
$GPRMC,085855.00,A,4611.966357,N,01258.211804,E,000.5,167.4,081011,0.2,E,A*30
$GPGGA,085856.00,4611.966171,N,01258.211767,E,1,07,1.4,139.99,M,46.25,M,,*60
$GPGLL,4611.966171,N,01258.211767,E,085856.00,A,A*69
$GPVTG,171.0,T,171.2,M,000.8,N,001.5,K,A*2D
$GPGSV,2,1,08,02,38,079,40,09,19,151,26,12,57,077,39,14,28,253,44*71
$GPGSV,2,2,08,25,76,336,49,29,52,223,45,30,34,290,46,31,25,313,43*7C
$GPGSA,M,3,02,12,14,25,29,30,31,,,,,,2.9,1.4,2.5*3E
Trace #93 at position 23.000000
$GPZDA,085855.04,08,10,2011,00,00*6C
$GPRMC,085855.00,A,4611.966357,N,01258.211804,E,000.5,167.4,081011,0.2,E,A*30
$GPGGA,085856.00,4611.966171,N,01258.211767,E,1,07,1.4,139.99,M,46.25,M,,*60
$GPGLL,4611.966171,N,01258.211767,E,085856.00,A,A*69
$GPVTG,171.0,T,171.2,M,000.8,N,001.5,K,A*2D
$GPGSV,2,1,08,02,38,079,40,09,19,151,26,12,57,077,39,14,28,253,44*71
$GPGSV,2,2,08,25,76,336,49,29,52,223,45,30,34,290,46,31,25,313,43*7C
$GPGSA,M,3,02,12,14,25,29,30,31,,,,,,2.9,1.4,2.5*3E
Trace #94 at position 23.250000
$GPZDA,085856.04,08,10,2011,00,00*6F
$GPRMC,085856.00,A,4611.966171,N,01258.211767,E,000.8,171.0,081011,0.2,E,A*31
$GPGGA,085857.00,4611.965900,N,01258.211657,E,1,07,1.4,139.94,M,46.25,M,,*63
$GPGLL,4611.965900,N,01258.211657,E,085857.00,A,A*67
$GPVTG,198.8,T,199.0,M,001.2,N,002.3,K,A*28
$GPGSV,2,1,08,02,38,079,40,09,19,151,,12,57,077,40,14,28,253,44*7B
$GPGSV,2,2,08,25,76,336,49,29,52,2234611.965900,N,01258.211657,E,001.2,198.8,081011,0.2,E,A*3B
$GPGGA,085858.00,4611.965592,N,01258.211610,E,1,07,1.4,139.81,M,46.25,M,,*6C
$GPGLL,4611.965592,N,01258.211610,E,085858.00,A,A*6C
$GPVTG,164.3,T,164.4,M,001.1,N,002.1,K,A*27
$GPGSV,2,1,08,02,38,079,38,09,19,151,,12,57,077,40,14,28,253,44*74
$GPGSV,2,2,08,25,76,336,49,29,52,223,46,30,34,291,46,31,25,313,44*79
$GPGSA,M,3,02,12,14,25,29,30,31,,,,,,2.9,1.4,2.5*3E
Trace #95 at position 23.500000
$GPZDA,085856.04,08,10,2011,00,00*6F
$GPRMC,085856.00,A,4611.966171,N,01258.211767,E,000.8,171.0,081011,0.2,E,A*31
$GPGGA,085857.00,4611.965900,N,01258.211657,E,1,07,1.4,139.94,M,46.25,M,,*63
$GPGLL,4611.965900,N,01258.211657,E,085857.00,A,A*67
$GPVTG,198.8,T,199.0,M,001.2,N,002.3,K,A*28
$GPGSV,2,1,08,02,38,079,40,09,19,151,,12,57,077,40,14,28,253,44*7B
$GPGSV,2,2,08,25,76,336,49,29,52,2234611.965900,N,01258.211657,E,001.2,198.8,081011,0.2,E,A*3B
$GPGGA,085858.00,4611.965592,N,01258.211610,E,1,07,1.4,139.81,M,46.25,M,,*6C
$GPGLL,4611.965592,N,01258.211610,E,085858.00,A,A*6C
$GPVTG,164.3,T,164.4,M,001.1,N,002.1,K,A*27
$GPGSV,2,1,08,02,38,079,38,09,19,151,,12,57,077,40,14,28,253,44*74
$GPGSV,2,2,08,25,76,336,49,29,52,223,46,30,34,291,46,31,25,313,44*79
$GPGSA,M,3,02,12,14,25,29,30,31,,,,,,2.9,1.4,2.5*3E
Trace #96 at position 23.750000
$GPZDA,085858.04,08,10,2011,00,00*61
$GPRMC,085858.00,A,4611.965592,N,01258.211610,$GPGGA,085859.00,4611.965401,N,01258.211672,E,1,07,1.4,139.84,M,46.25,M,,*67
$GPGLL,4611.965401,N,01258.211672,E,085859.00,A,A*62
$GPVTG,156.9,T,157.0,M,000.3,N,000.6,K,A*2E
$GPGSV,2,1,08,02,38,079,38,09,19,151,,12,57,077,38,14,28,253,45*7A
$GPGSV,2,2,08,25,76,336,49,29,52,223,46,30,34,291,47,31,25,313,44*78
$GPGSA,M,3,02,12,14,25,29,30,31,,,,,,2.9,1.4,2.5*3E
Trace #97 at position 24.000000
$GPZDA,085859.04,08,10,2011,00,00*60
$GPRMC,085859.00,A,4611.965401,N,01258.211672,E,000.3,156.9,081011,0.2,E,A*3D
$GPGGA,085900.00,4611.965236,N,01258.211743,E,1,07,1.4,139.83,M,46.25,M,,*6C
$GPGLL,4611.965236,N,01258.211743,E,085900.00,A,A*6E
$GPVTG,158.0,T,158.2,M,000.9,N,001.6,K,A*2F
$GPGSV,2,1,08,02,38,079,41,09,19,151,,12,57,077,40,14,28,253,45*7B
$GPGSV,2,2,08,25,76,336,48,29,52,223,46,30,34,291,46,31,25,313,43*7F
$GPGSA,M,3,02,12,14,25,29,30,31,,,,,,2.9,1.4,2.5*3E
Trace #98 at position 24.250000
$GPZDA,085859.04,08,10,2011,00,00*60
$GPRMC,085859.00,A,4611.965401,N,01258.211672,E,000.3,156.9,081011,0.2,E,A*3D
$GPGGA,085900.00,4611.965236,N,01258.211743,E,1,07,1.4,139.83,M,46.25,M,,*6C
$GPGLL,4611.965236,N,01258.211743,E,085900.00,A,A*6E
$GPVTG,158.0,T,158.2,M,000.9,N,001.6,K,A*2F
$GPGSV,2,1,08,02,38,079,41,09,19,151,,12,57,077,40,14,28,253,45*7B
$GPGSV,2,2,08,25,76,336,48,29,52,223,46,30,34,291,46,31,25,313,43*7F
$GPGSA,M,3,02,12,14,25,29,30,31,,,,,,2.9,1.4,2.5*3E
Trace #99 at position 24.500000
$GPZDA,085900.04,08,10,2011,00,00*6D
$GPRMC,085900.00,A,4611.965236,N,01258.211743,E,000.9,158.0,081011,0.2,E,A*3C
$GPGGA,085901.00,4611.965090,N,01258.211942,E,1,07,1.4,139.85,M,46.25,M,,*6A
$GPGLL,4611.965090,N,01258.211942,E,085901.00,A,A*6E
$GPVTG,95.8,T,96.0,M,000.9,N,001.6,K,A*26
$GPGSV,2,1,08,02,38,079,42,09,19,151,,12,57,077,40,14,28,253,43*7E
$GPGSV,2,2,08,25,76,336,49,29,52,223,45,30,34,291,45,31,25,313,43*7E
$GPGSA,M,3,02,12,14,25,29,30,31,,,,,,2.9,1.4,2.5*3E
Trace #100 at position 24.750000
$GPZDA,085901.04,08,10,2011,00,00*6C
$GPRMC,085901.00,A,4611.965090,N,01258.211942,E,000.9,95.8,081011,0.2,E,A*04
$GPGGA,085902.00,4611.964923,N,01258.212210,E,1,07,1.4,139.85,M,46.25,M,,*66
$GPGLL,4611.964923,N,01258.212210,E,085902.00,A,A*62
$GPVTG,139.5,T,139.7,M,001.2,N,002.3,K,A*23
$GPGSV,2,1,08,02,38,078,39,09,19,151,,12,57,077,39,14,28,253,44*7A
$GPGSV,2,2,08,25,76,336,50,29,52,223,46,30,34,291,47,31,25,313,44*70
$GPGSA,M,3,02,12,14,25,29,30,31,,,,,,2.9,1.4,2.5*3E
Trace #101 at position 25.000000
$GPZDA,085902.04,08,10,2011,00,00*6F
$GPRMC,085902.00,A,4611.964923,N,01258.212210,E,001.2,139.5,081011,0.2,E,A*38
$GPGGA,085903.00,4611.964581,N,01258.212369,E,1,07,1.4,139.73,M,46.25,M,,*65
$GPGLL,4611.964581,N,01258.212369,E,085903.00,A,A*68
$GPVTG,166.3,T,166.5,M,001.4,N,002.7,K,A*25
$GPGSV,2,1,08,02,38,078,38,09,19,151,,12,57,077,39,14,28,253,44*7B
$GPGSV,2,2,08,25,76,336,50,29,52,223,46,30,34,291,46,31,25,313,44*71
$GPGSA,M,3,02,12,14,25,29,30,31,,,,,,2.9,1.4,2.5*3E
Trace #102 at position 25.250000
$GPZDA,085907.04,08,10,2011,00,00*6A
$GPRMC,085907.00,A,4611.963571,N,01258.212680,E,000.4,108.8,081011,0.2,E,A*34
$GPGGA,085908.00,4611.963499,N,01258.212791,E,1,07,1.4,139.72,M,46.25,M,,*63
$GPGLL,4611.963499,N,01258.212791,E,085908.00,A,A*6F
$GPVTG,124.9,T,125.1,M,000.6,N,001.1,K,A*2C
$GPGSV,2,1,08,02,38,078,39,09,19,151,,12,57,077,38,14,28,253,45*7A
$GPGSV,2,2,08,25,76,336,49,29,52,223,45,30,34,291,47,31,25,313,44*7B
$GPGSA,M,3,02,12,14,25,29,30,31,,,,,,2.9,1.4,2.5*3E
Trace #103 at position 25.500000
$GPZDA,085907.04,08,10,2011,00,00*6A
$GPRMC,085907.00,A,4611.963571,N,01258.212680,E,000.4,108.8,081011,0.2,E,A*34
$GPGGA,085908.00,4611.963499,N,01258.212791,E,1,07,1.4,139.72,M,46.25,M,,*63
$GPGLL,4611.963499,N,01258.212791,E,085908.00,A,A*6F
$GPVTG,124.9,T,125.1,M,000.6,N,001.1,K,A*2C
$GPGSV,2,1,08,02,38,078,39,09,19,151,,12,57,077,38,14,28,253,45*7A
$GPGSV,2,2,08,25,76,336,49,29,52,223,45,30,34,291,47,31,25,313,44*7B
$GPGSA,M,3,02,12,14,25,29,30,31,,,,,,2.9,1.4,2.5*3E
Trace #104 at position 25.750000
$GPZDA,085908.04,08,10,2011,00,00*65
$GPRMC,085908.00,A,4611.963499,N,01258.212791,E,000.6,124.9,081011,0.2,E,A*30
$GPGGA,085909.00,4611.963383,N,01258.212790,E,1,07,1.4,139.82,M,46.25,M,,*60
$GPGLL,4611.963383,N,01258.212790,E,085909.00,A,A*63
$GPVTG,211.6,T,211.8,M,000.5,N,000.9,K,A*21
$GPGSV,2,1,08,02,38,078,38,09,19,151,,12,57,077,38,14,28,253,45*7B
$GPGSV,2,2,08,25,76,336,50,213,43*75
$GPGSA,M,3,02,12,14,25,29,30,31,,,,,,2.9,1.4,2.5*3E
Trace #105 at position 26.000000
$GPZDA,085909.04,08,10,2011,00,00*64
$GPRMC,085909.00,A,4611.963383,N,01258.212790,E,000.5,211.6,081011,0.2,E,A*35
$GPGGA,085910.00,4611.963327,N,01258.212708,E,1,07,1.4,139.87,M,46.25,M,,*62
$GPGLL,4611.963327,N,01258.212708,E,085910.00,A,A*64
$GPVTG,11.7,T,11.9,M,000.0,N,000.1,K,A*2C
$GPGSV,2,1,08,02,38,078,41,09,19,151,,12,57,077,38,14,28,253,45*75
$GPGSV,2,2,08,25,76,337,49,29,52,223,45,30,34,291,47,31,25,313,43*7D
$GPGSA,M,3,02,12,14,00*6C
Trace #106 at position 26.250000
$GPZDA,085909.04,08,10,2011,00,00*64
$GPRMC,085909.00,A,4611.963383,N,01258.212790,E,000.5,211.6,081011,0.2,E,A*35
$GPGGA,085910.00,4611.963327,N,01258.212708,E,1,07,1.4,139.87,M,46.25,M,,*62
$GPGLL,4611.963327,N,01258.212708,E,085910.00,A,A*64
$GPVTG,11.7,T,11.9,M,000.0,N,000.1,K,A*2C
$GPGSV,2,1,08,02,38,078,41,09,19,151,,12,57,077,38,14,28,253,45*75
$GPGSV,2,2,08,25,76,337,49,29,52,223,45,30,34,291,47,31,25,313,43*7D
$GPGSA,M,3,02,12,14,00*6C
Trace #107 at position 26.500000
$GPRMC,085910.00,A,4611.963327,N,01258.212708,E,000.0,11.7,081011,0.2,E,A*04
$GPGGA,085911.00,4611.963320,N,01258.212694,E,1,07,1.4,139.85,M,46.25,M,,*62
$GPGLL,4611.963320,N,01258.212694,E,085911.00,A,A*66
$GPVTG,118.4,T,118.5,M,000.1,N,000.2,K,A*21
$GPGSV,2,1,08,02,38,078,37,09,19,151,,12,57,077,36,14,28,253,46*79
$GPGSV,2,2,08,25,76,337,48,29,52,223,46,30,34,291,46,31,25,313,44*79
$GPGSA,M,3,02,12,14,25,29,30,31,,,,,,2.9,1.4,2.5*3E
Trace #108 at position 26.750000
$GPRMC,085910.00,A,4611.963327,N,01258.212708,E,000.0,11.7,081011,0.2,E,A*04
$GPGGA,085911.00,4611.963320,N,01258.212694,E,1,07,1.4,139.85,M,46.25,M,,*62
$GPGLL,4611.963320,N,01258.212694,E,085911.00,A,A*66
$GPVTG,118.4,T,118.5,M,000.1,N,000.2,K,A*21
$GPGSV,2,1,08,02,38,078,37,09,19,151,,12,57,077,36,14,28,253,46*79
$GPGSV,2,2,08,25,76,337,48,29,52,223,46,30,34,291,46,31,25,313,44*79
$GPGSA,M,3,02,12,14,25,29,30,31,,,,,,2.9,1.4,2.5*3E
Trace #109 at position 27.000000
$GPZDA,085911.04,08,10,2011,00,00*6D
$GPRMC,085911.00,A,41,118.4,081011,0.2,E,A*3C
$GPGGA,085912.00,4611.963313,N,01258.212679,E,1,07,1.4,139.83,M,46.25,M,,*64
$GPGLL,4611.963313,N,01258.212679,E,085912.00,A,A*66
$GPVTG,338.5,T,338.6,M,000.0,N,000.1,K,A*21
$GPGSV,2,1,08,02,38,078,41,09,19,151,,12,57,077,38,14,28,253,46*76
$GPGSV,2,2,08,25,76,337,48,29,52,223,45,30,34,291,47,31,25,313,44*7B
$GPGSA,M,3,02,12,14,25,29,30,31,,,,,,2.9,1.4,2.5*3E
Trace #110 at position 27.250000
$GPZDA,085911.04,08,10,2011,00,00*6D
$GPRMC,085911.00,A,41,118.4,081011,0.2,E,A*3C
$GPGGA,085912.00,4611.963313,N,01258.212679,E,1,07,1.4,139.83,M,46.25,M,,*64
$GPGLL,4611.963313,N,01258.212679,E,085912.00,A,A*66
$GPVTG,338.5,T,338.6,M,000.0,N,000.1,K,A*21
$GPGSV,2,1,08,02,38,078,41,09,19,151,,12,57,077,38,14,28,253,46*76
$GPGSV,2,2,08,25,76,337,48,29,52,223,45,30,34,291,47,31,25,313,44*7B
$GPGSA,M,3,02,12,14,25,29,30,31,,,,,,2.9,1.4,2.5*3E
Trace #111 at position 27.500000
$GPZDA,085912.04,08,10,2011,00,00*6E
