Trace #1 at position 0.000000
$GPZDA,132611.03,06,10,2011,00,00*66
$GPRMC,132611.00,A,4611.963346,N,01258.206263,E,000.8,358.8,061011,0.2,$GPGGA,132612.00,4611.963197,N,01258.206273,E,1,04,29.1,120.73,M,46.25,M,,*58
$GPGLL,4611.963197,N,01258.206273,E,132612.00,A,A*61
$GPVTG,1.7,T,1.9,M,000.3,N,000.5,K,A*2B
$GPGSV,3,1,09,19,09,282,34,16,58,291,37,18,43,127,,29,18,095,*7C
$GPGSV,3,2,09,30,20,161,,21,66,061,32,22,21,169,,03,38,293,42*78
$GPGSV,3,3,09,06,54,296,39,,,,,,,,,,,,*40
$GPGSA,M,3,16,21,03,06,,,,,,,,,33.0,29.1,15.6*07
Trace #2 at position 0.250000
$GPZDA,132617.03,06,10,2011,00,00*60
$GPRMC,132617.00,A,4611.963075,N,01258.206178,E,000.8,4.5,061011,0.2,E,A*31
$GPGGA,132618.00,4611.963166,N,01258.206229,E,1,04,28.7,120.80,M,46.25,M,,*58
$GPGLL,4611.963166,N,01258.206229,E,132618.00,A,A*6A
$GPVTG,1.5,T,1.6,M,001.4,N,002.6,K,A*21
$GPGSV,3,1,09,19,09,282,29,16,58,291,42,18,43,127,,29,18,095,*72
$GPGSV,3,2,09,72
$GPGSV,3,3,09,06,54,296,42,,,,,,,,,,,,*4C
$GPGSA,M,3,16,21,03,06,,,,,,,,,32.7,28.7,15.6*06
Trace #3 at position 0.500000
$GPZDA,132617.03,06,10,2011,00,00*60
$GPRMC,132617.00,A,4611.963075,N,01258.206178,E,000.8,4.5,061011,0.2,E,A*31
$GPGGA,132618.00,4611.963166,N,01258.206229,E,1,04,28.7,120.80,M,46.25,M,,*58
$GPGLL,4611.963166,N,01258.206229,E,132618.00,A,A*6A
$GPVTG,1.5,T,1.6,M,001.4,N,002.6,K,A*21
$GPGSV,3,1,09,19,09,282,29,16,58,291,42,18,43,127,,29,18,095,*72
$GPGSV,3,2,09,72
$GPGSV,3,3,09,06,54,296,42,,,,,,,,,,,,*4C
$GPGSA,M,3,16,21,03,06,,,,,,,,,32.7,28.7,15.6*06
Trace #4 at position 0.750000
$GPZDA,132618.03,06,10,2011,00,00*6F
$GPRMC,132618.00,A,4611.963166,N,01258.206229,E,001.4,1.5,061011,0.2,E,A*32
$GPGGA,132619.00,4611.963020,N,01258.206288,E,1,04,28.6,120.47,M,46.25,M,,*5B
$GPGLL,4611.963020,N,01258.206288,E,132619.00,A,A*63
$GPVTG,171.1,T,171.3,M,000.8,N,001.5,K,A*2D
$GPGSV,3,1,09,19,10,282,28,16,59,291,42,18,43,127,,29,18,095,*7A
$GPGSV,3,2,09,30,20,161,,21,66,061,38,22,21,169,,03,38,216,21,03,06,,,,,,,,,32.5,28.6,15.5*06
$GPZDA,132619.03,06,10,2011,00,00*6E
$GPRMC,132619.00,A,4611.963020,N,01258.206288,E,000.8,171.1,061011,0.2,E,A*34
$GPGGA,132620.00,4611.962546,N,01258.206371,E,1,04,28.6,119.81,M,46.25,M,,*52
$GPGLL,4611.962546,N,01258.206371,E,132620.00,A,A*6A
$GPVTG,172.0,T,172.2,M,001.4,N,002.6,K,A*20
$GPGSV,3,1,09,19,10,282,29,16,59,291,41,18,43,127,,29,18,095,*78
$GPGSV,3,2,09,30,20,161,,21,66,061,37,22,21,169,,03,38,293,41*7E
$GPGSV,3,3,09,06,54,296,40,,,,,,,,,,,,*4E
$GP06,10,2011,00,00*64
$GPRMC,132620.00,A,4611.962546,N,01258.206371,E,001.4,172.0,061011,0.2,E,A*32
$GPGGA,132621.00,4611.962134,N,01258.206435,E,1,04,28.5,119.29,M,46.25,M,,*54
$GPGLL,4611.962134,N,01258.206435,E,132621.00,A,A*6D
$GPVTG,173.8,T,174.0,M,000.6,N,001.2,K,A*29
$GPGSV,3,1,09,19,10,282,31,16,59,291,40,18,43,127,,29,18,095,*70
$GPGSV,3,2,09,30,20,161,,21,66,061,39,22,21,169,,03,38,293,41*70
$GPGSV,3,3,09,06,54,296,41,,,,,,,,,,,,*4F
$GPGSA,M,3,16,21,03,06,,,,,,,,,32.4,28.5,15.5*04
Trace #5 at position 1.000000
$GPZDA,13258.206435,E,000.6,173.8,061011,0.2,E,A*3F
$GPGGA,132622.00,4611.961955,N,01258.206463,E,1,04,28.5,119.06,M,46.25,M,,*55
$GPGLL,4611.961955,N,01258.206463,E,132622.00,A,A*61
$GPVTG,53.0,T,53.2,M,000.1,N,000.1,K,A*21
$GPGSV,3,1,09,19,10,282,33,16,59,291,40,18,43,127,,29,18,095,33*72
$GPGSV,3,2,09,30,20,161,,21,66,061,39,22,21,169,,03,38,293,40*71
$GPGSV,3,3,09,06,54,296,40,,,,,,,,,,,,*4E
$GPGSA,M,3,16,21,03,06,,,,,,,,,32.4,28.5,15.5*04
Trace #6 at position 1.250000
$GPZDA,13258.206435,E,000.6,173.8,061011,0.2,E,A*3F
$GPGGA,132622.00,4611.961955,N,01258.206463,E,1,04,28.5,119.06,M,46.25,M,,*55
$GPGLL,4611.961955,N,01258.206463,E,132622.00,A,A*61
$GPVTG,53.0,T,53.2,M,000.1,N,000.1,K,A*21
$GPGSV,3,1,09,19,10,282,33,16,59,291,40,18,43,127,,29,18,095,33*72
$GPGSV,3,2,09,30,20,161,,21,66,061,39,22,21,169,,03,38,293,40*71
$GPGSV,3,3,09,06,54,296,40,,,,,,,,,,,,*4E
$GPGSA,M,3,16,21,03,06,,,,,,,,,32.4,28.5,15.5*04
Trace #7 at position 1.500000
$GPZDA,132622.03,06,10,2011,00,00*66
$GPRMC,132622.00,A,4611.961$GPGGA,132623.00,4611.961846,N,01258.206478,E,1,04,28.4,118.97,M,46.25,M,,*55
$GPGLL,4611.961846,N,01258.206478,E,132623.00,A,A*69
$GPVTG,173.6,T,173.8,M,000.1,N,000.2,K,A*2E
$GPGSV,3,1,09,19,10,282,34,16,59,291,40,18,43,127,,29,18,095,33*75
$GPGSV,3,2,09,30,20,161,,21,66,061,39,22,21,169,,03,38,293,40*71
$GPGSV,3,3,09,06,54,296,40,,,,,,,,,,,,*4E
$GPGSA,M,3,16,21,03,06,,,,,,,,,32.3,28.4,15.5*02
Trace #8 at position 1.750000
$GPZDA,132623.03,06,10,2011,00,00*67
$GPRMC,132623.00,A,4611.961846,N,01258.206478,E,000.1,173.6,061011,0.$GPGGA,132624.00,4611.961649,N,01258.206466,E,1,04,28.4,118.85,M,46.25,M,,*5F
$GPGLL,4611.961649,N,01258.206466,E,132624.00,A,A*60
$GPVTG,188.3,T,188.5,M,000.7,N,001.2,K,A*21
$GPGSV,3,1,09,19,10,282,33,16,59,291,40,18,43,127,,29,18,095,31*70
$GPGSV,3,2,09,30,20,161,,21,66,061,40,22,21,169,,03,38,293,40*7F
$GPGSV,3,3,09,06,54,296,41,,,,,,,,,,,,*4F
$GPGSA,M,3,16,21,03,06,,,,,,,,,32.3,28.4,15.5*02
Trace #9 at position 2.000000
$GPZDA,132624.03,06,10,2011,00,00*60
$GPRMC,132624.00,A,4611.961649,N,01258.206466,E,000.7,188.3,061011,0.$GPGGA,132625.00,4611.961208,N,01258.206455,E,1,04,28.2,118.55,M,46.25,M,,*54
$GPGLL,4611.961208,N,01258.206455,E,132625.00,A,A*60
$GPVTG,179.4,T,179.5,M,002.2,N,004.1,K,A*27
$GPGSV,3,1,09,19,10,282,32,16,59,291,41,18,43,127,,29,18,095,34*75
$GPGSV,3,2,09,30,20,161,,21,66,061,40,22,21,169,,03,38,293,40*7F
$GPGSV,3,3,09,06,54,296,41,,,,,,,,,,,,*4F
$GPGSA,M,3,16,21,03,06,,,,,,,,,32.2,28.2,15.5*05
Trace #10 at position 2.250000
$GPZDA,132624.03,06,10,2011,00,00*60
$GPRMC,132624.00,A,4611.961649,N,01258.206466,E,000.7,188.3,061011,0.$GPGGA,132625.00,4611.961208,N,01258.206455,E,1,04,28.2,118.55,M,46.25,M,,*54
$GPGLL,4611.961208,N,01258.206455,E,132625.00,A,A*60
$GPVTG,179.4,T,179.5,M,002.2,N,004.1,K,A*27
$GPGSV,3,1,09,19,10,282,32,16,59,291,41,18,43,127,,29,18,095,34*75
$GPGSV,3,2,09,30,20,161,,21,66,061,40,22,21,169,,03,38,293,40*7F
$GPGSV,3,3,09,06,54,296,41,,,,,,,,,,,,*4F
$GPGSA,M,3,16,21,03,06,,,,,,,,,32.2,28.2,15.5*05
Trace #11 at position 2.500000
$GPZDA,132625.03,06,10,2011,00,00*61
$GPRMC,132625.00,A,4611.961208,N,01258.206455,E,002.2,179.4,061011,0.$GPGGA,132626.00,4611.962735,N,01258.206384,E,1,05,9.4,120.58,M,46.25,M,,*66
$GPGLL,4611.962735,N,01258.206384,E,132626.00,A,A*60
$GPVTG,172.8,T,172.9,M,000.7,N,001.4,K,A*20
$GPGSV,3,1,09,19,10,282,34,16,59,291,40,18,43,127,,29,18,095,33*75
$GPGSV,3,2,09,30,20,161,,21,66,061,41,22,21,169,,03,38,293,42*7C
$GPGSV,3,3,09,06,54,296,40,,,,,,,,,,,,*4E
$GPGSA,M,3,16,29,21,03,06,,,,,,,,9.8,9.4,3.1*3A
Trace #12 at position 2.750000
$GPZDA,132626.03,06,10,2011,00,00*62
$GPRMC,132626.00,A,4611.962735,N,01258.206384,E,000.7,172.8,061011,0.2,$GPGGA,132627.00,4611.963959,N,01258.206314,E,1,05,9.3,122.24,M,46.25,M,,*65
$GPGLL,4611.963959,N,01258.206314,E,132627.00,A,A*6D
$GPVTG,193.1,T,193.2,M,000.6,N,001.1,K,A*26
$GPGSV,3,1,09,19,10,282,33,16,59,291,40,18,43,127,,29,18,095,33*72
$GPGSV,3,2,09,30,20,161,,21,66,061,41,22,21,169,,03,38,293,41*7F
$GPGSV,3,3,09,06,54,296,41,,,,,,,,,,,,*4F
$GPGSA,M,3,16,29,21,03,06,,,,,,,,9.8,9.3,3.1*3D
Trace #13 at position 3.000000
$GPZDA,132626.03,06,10,2011,00,00*62
$GPRMC,132626.00,A,4611.962735,N,01258.206384,E,000.7,172.8,061011,0.2,$GPGGA,132627.00,4611.963959,N,01258.206314,E,1,05,9.3,122.24,M,46.25,M,,*65
$GPGLL,4611.963959,N,01258.206314,E,132627.00,A,A*6D
$GPVTG,193.1,T,193.2,M,000.6,N,001.1,K,A*26
$GPGSV,3,1,09,19,10,282,33,16,59,291,40,18,43,127,,29,18,095,33*72
$GPGSV,3,2,09,30,20,161,,21,66,061,41,22,21,169,,03,38,293,41*7F
$GPGSV,3,3,09,06,54,296,41,,,,,,,,,,,,*4F
$GPGSA,M,3,16,29,21,03,06,,,,,,,,9.8,9.3,3.1*3D
Trace #14 at position 3.250000
$GPZDA,132626.03,06,10,2011,00,00*62
$GPRMC,132626.00,A,4611.962735,N,01258.206384,E,000.7,172.8,061011,0.2,$GPGGA,132627.00,4611.963959,N,01258.206314,E,1,05,9.3,122.24,M,46.25,M,,*65
$GPGLL,4611.963959,N,01258.206314,E,132627.00,A,A*6D
$GPVTG,193.1,T,193.2,M,000.6,N,001.1,K,A*26
$GPGSV,3,1,09,19,10,282,33,16,59,291,40,18,43,127,,29,18,095,33*72
$GPGSV,3,2,09,30,20,161,,21,66,061,41,22,21,169,,03,38,293,41*7F
$GPGSV,3,3,09,06,54,296,41,,,,,,,,,,,,*4F
$GPGSA,M,3,16,29,21,03,06,,,,,,,,9.8,9.3,3.1*3D
Trace #15 at position 3.500000
$GPZDA,132627.03,06,10,2011,00,00*63
$GPRMC,132627.00,A,4611.963959,N,01258.206314,E,000.6,193.1,061011,0.2,$GPGGA,132628.00,4611.965074,N,01258.206253,E,1,05,9.3,123.70,M,46.25,M,,*68
$GPGLL,4611.965074,N,01258.206253,E,132628.00,A,A*60
$GPVTG,168.2,T,168.4,M,000.4,N,000.8,K,A*29
$GPGSV,3,1,09,19,10,282,33,16,59,291,40,18,43,127,,29,18,095,35*74
$GPGSV,3,2,09,30,20,161,,21,66,061,42,22,21,169,,03,38,293,41*7C
$GPGSV,3,3,09,06,54,296,42,,,,,,,,,,,,*4C
$GPGSA,M,3,16,29,21,03,06,,,,,,,,9.8,9.3,3.1*3D
Trace #16 at position 3.750000
$GPZDA,132629.03,06,10,2011,00,00*6D
$GPRMC,132629.00,A,4611.966045,N,01258.206237,E,000.7,177.0,061011,0.2,E,A*3D
$GPGGA,1,*66
$GPGLL,4611.966887,N,01258.206229,E,132630.00,A,A*63
$GPVTG,169.9,T,170.1,M,000.6,N,001.1,K,A*25
$GPGSV,3,1,09,19,10,282,35,16,59,291,39,18,43,127,,29,18,095,34*7D
$GPGSV,3,2,09,30,20,161,,21,66,061,41,22,21,169,,03,39,293,40*7F
$GPGSV,3,3,09,06,54,296,40,,,,,,,,,,,,*4E
$GPGSA,M,3,16,29,21,03,06,,,,,,,,9.8,9.3,3.1*3D
Trace #17 at position 4.000000
$GPZDA,132630.03,06,10,2011,00,00*65
$GPRMC,132630.00,A,4611.966887,N,01258.206229,E,000.6,169.9,061011,0.2,E,A*3B
$GPGGA,132631.00,4611.967711,N,01258.206254,E,1,05,9.3,126.95,M,,N,000.4,K,A*2A
$GPGSV,3,1,09,19,10,282,30,16,59,291,39,18,43,127,,29,18,095,31*7D
$GPGSV,3,2,09,30,20,161,,21,66,061,40,22,21,169,,03,39,293,40*7E
$GPGSV,3,3,09,06,54,296,41,,,,,,,,,,,,*4F
$GPGSA,M,3,16,29,21,03,06,,,,,,,,9.8,9.3,3.1*3D
Trace #18 at position 4.250000
$GPZDA,132631.03,06,10,2011,00,00*64
$GPRMC,132631.00,A,4611.967711,N,01258.206254,E,000.2,122.7,061011,0.2,E,A*34
$GPGGA,132632.00,4611.968427,N,01258.206322,E,1,05,9.3,127.83,M,46.25,M,,*63
$GPGLL,4611.968427,N,01258.206322,E,132632.00,A,A*63
$GPVTG,157.1,T,157.2GPGSV,3,3,09,06,54,296,41,,,,,,,,,,,,*4F
$GPGSA,M,3,16,29,21,03,06,,,,,,,,9.8,9.3,3.1*3D
Trace #19 at position 4.500000
$GPZDA,132631.03,06,10,2011,00,00*64
$GPRMC,132631.00,A,4611.967711,N,01258.206254,E,000.2,122.7,061011,0.2,E,A*34
$GPGGA,132632.00,4611.968427,N,01258.206322,E,1,05,9.3,127.83,M,46.25,M,,*63
$GPGLL,4611.968427,N,01258.206322,E,132632.00,A,A*63
$GPVTG,157.1,T,157.2GPGSV,3,3,09,06,54,296,41,,,,,,,,,,,,*4F
$GPGSA,M,3,16,29,21,03,06,,,,,,,,9.8,9.3,3.1*3D
Trace #20 at position 4.750000
$GPZDA,132631.03,06,10,2011,00,00*64
$GPRMC,132631.00,A,4611.967711,N,01258.206254,E,000.2,122.7,061011,0.2,E,A*34
$GPGGA,132632.00,4611.968427,N,01258.206322,E,1,05,9.3,127.83,M,46.25,M,,*63
$GPGLL,4611.968427,N,01258.206322,E,132632.00,A,A*63
$GPVTG,157.1,T,157.2GPGSV,3,3,09,06,54,296,41,,,,,,,,,,,,*4F
$GPGSA,M,3,16,29,21,03,06,,,,,,,,9.8,9.3,3.1*3D
Trace #21 at position 5.000000
$GPZDA,132632.03,06,10,2011,00,00*67
$GPRMC,132632.00,A,4611.968427,N,01258.206322,E,000.7,157.1,061011,0.2,E,A*3F
$GPGGA,132633.00,4611.968964,N,01258.206365,E,1,05,9.3,128.61,M,46.25,M,,*68
$GPGLL,4611.968964,N,01258.206365,E,132633.00,A,A*6B
$GPVTG,178.2,T,178.3,M,000.8,N,001.5,K,A*2E
$GPGSV,3,1,09,19,10,282,30,16,59,291,40,18,43,127,,29,18,095,32*70
$GPGSV,3,2,09,30,20,161,,21,66,061,40,22,21,169,,03,39,293,29,21,03,06,,,,,,,,9.8,9.3,3.1*3D
$GPZDA,132633.03,06,10,2011,00,00*66
$GPRMC,132633.00,A,4611.968964,N,01258.206365,E,000.8,178.2,061011,0.2,E,A*36
$GPGGA,132634.00,4611.969489,N,01258.206384,E,1,05,9.3,129.59,M,46.25,M,,*65
$GPGLL,4611.969489,N,01258.206384,E,132634.00,A,A*6C
$GPVTG,176.8,T,176.9,M,001.2,N,002.2,K,A*21
$GPGSV,3,1,09,19,10,282,32,16,59,291,40,18,43,127,,29,18,095,32*72
$GPGSV,3,2,09,30,20,161,,21,66,061,40,22,21,169,,03,39,293,39*70
$GPGSV,3,3,09,06,54,296,42,,,,,,,,,,,,*4C
$GPGSA0,2011,00,00*61
Trace #22 at position 5.250000
$GPZDA,132632.03,06,10,2011,00,00*67
$GPRMC,132632.00,A,4611.968427,N,01258.206322,E,000.7,157.1,061011,0.2,E,A*3F
$GPGGA,132633.00,4611.968964,N,01258.206365,E,1,05,9.3,128.61,M,46.25,M,,*68
$GPGLL,4611.968964,N,01258.206365,E,132633.00,A,A*6B
$GPVTG,178.2,T,178.3,M,000.8,N,001.5,K,A*2E
$GPGSV,3,1,09,19,10,282,30,16,59,291,40,18,43,127,,29,18,095,32*70
$GPGSV,3,2,09,30,20,161,,21,66,061,40,22,21,169,,03,39,293,29,21,03,06,,,,,,,,9.8,9.3,3.1*3D
$GPZDA,132633.03,06,10,2011,00,00*66
$GPRMC,132633.00,A,4611.968964,N,01258.206365,E,000.8,178.2,061011,0.2,E,A*36
$GPGGA,132634.00,4611.969489,N,01258.206384,E,1,05,9.3,129.59,M,46.25,M,,*65
$GPGLL,4611.969489,N,01258.206384,E,132634.00,A,A*6C
$GPVTG,176.8,T,176.9,M,001.2,N,002.2,K,A*21
$GPGSV,3,1,09,19,10,282,32,16,59,291,40,18,43,127,,29,18,095,32*72
$GPGSV,3,2,09,30,20,161,,21,66,061,40,22,21,169,,03,39,293,39*70
$GPGSV,3,3,09,06,54,296,42,,,,,,,,,,,,*4C
$GPGSA0,2011,00,00*61
Trace #23 at position 5.500000
$GPRMC,132634.00,A,4611.969489,N,01258.206384,E,001.2,176.8,061011,0.2,E,A*3E
$GPGGA,132635.00,4611.969917,N,01258.206531,E,1,05,9.2,130.51,M,46.25,M,,*67
$GPGLL,4611.969917,N,01258.206531,E,132635.00,A,A*6F
$GPVTG,140.5,T,140.7,M,001.1,N,002.1,K,A*22
$GPGSV,3,1,09,19,10,282,31,16,59,291,40,18,43,127,,29,18,095,32*71
$GPGSV,3,2,09,30,20,161,,21,66,061,40,22,21,169,,03,39,293,40*7E
$GPGSV,3,3,09,06,54,296,42,,,,,,,,,,,,*4C
$GPGSA,M,3,16,29,21,03,06,,,,,,,,9.7,9.2,3.1*33
Trace #24 at position 5.750000
$GPRMC,132634.00,A,4611.969489,N,01258.206384,E,001.2,176.8,061011,0.2,E,A*3E
$GPGGA,132635.00,4611.969917,N,01258.206531,E,1,05,9.2,130.51,M,46.25,M,,*67
$GPGLL,4611.969917,N,01258.206531,E,132635.00,A,A*6F
$GPVTG,140.5,T,140.7,M,001.1,N,002.1,K,A*22
$GPGSV,3,1,09,19,10,282,31,16,59,291,40,18,43,127,,29,18,095,32*71
$GPGSV,3,2,09,30,20,161,,21,66,061,40,22,21,169,,03,39,293,40*7E
$GPGSV,3,3,09,06,54,296,42,,,,,,,,,,,,*4C
$GPGSA,M,3,16,29,21,03,06,,,,,,,,9.7,9.2,3.1*33
Trace #25 at position 6.000000
$GPZDA,132635$GPGGA,132636.00,4611.968632,N,01258.206727,E,1,04,27.6,129.11,M,46.25,M,,*5D
$GPGLL,4611.968632,N,01258.206727,E,132636.00,A,A*60
$GPVTG,336.0,T,336.1,M,000.3,N,000.6,K,A*27
$GPGSV,3,1,09,19,10,282,30,16,59,291,41,18,43,127,,29,18,095,29*7B
$GPGSV,3,2,09,30,20,161,,21,66,061,40,22,21,169,,03,39,293,40*7E
$GPGSV,3,3,09,06,54,296,41,,,,,,,,,,,,*4F
$GPGSA,M,3,16,21,03,06,,,,,,,,,31.6,27.6,15.4*08
Trace #26 at position 6.250000
$GPZDA,132635$GPGGA,132636.00,4611.968632,N,01258.206727,E,1,04,27.6,129.11,M,46.25,M,,*5D
$GPGLL,4611.968632,N,01258.206727,E,132636.00,A,A*60
$GPVTG,336.0,T,336.1,M,000.3,N,000.6,K,A*27
$GPGSV,3,1,09,19,10,282,30,16,59,291,41,18,43,127,,29,18,095,29*7B
$GPGSV,3,2,09,30,20,161,,21,66,061,40,22,21,169,,03,39,293,40*7E
$GPGSV,3,3,09,06,54,296,41,,,,,,,,,,,,*4F
$GPGSA,M,3,16,21,03,06,,,,,,,,,31.6,27.6,15.4*08
Trace #27 at position 6.500000
$GPZDA,132636.03,06,10,2011,00,00*63
$GPRMC,132636.00,A,4611.968632,N,01258.206727,E,000.3,336.0,061011,0.$GPGGA,132637.00,4611.967586,N,01258.206781,E,1,04,27.5,127.94,M,46.25,M,,*53
$GPGLL,4611.967586,N,01258.206781,E,132637.00,A,A*6E
$GPVTG,310.2,T,310.3,M,000.1,N,000.1,K,A*22
$GPGSV,3,1,09,19,10,282,31,16,59,291,41,18,43,127,,29,18,095,30*72
$GPGSV,3,2,09,30,20,161,,21,66,061,40,22,21,169,,03,39,293,40*7E
$GPGSV,3,3,09,06,54,296,41,,,,,,,,,,,,*4F
$GPGSA,M,3,16,21,03,06,,,,,,,,,31.5,27.5,15.4*08
Trace #28 at position 6.750000
$GPZDA,132636.03,06,10,2011,00,00*63
$GPRMC,132636.00,A,4611.968632,N,01258.206727,E,000.3,336.0,061011,0.$GPGGA,132637.00,4611.967586,N,01258.206781,E,1,04,27.5,127.94,M,46.25,M,,*53
$GPGLL,4611.967586,N,01258.206781,E,132637.00,A,A*6E
$GPVTG,310.2,T,310.3,M,000.1,N,000.1,K,A*22
$GPGSV,3,1,09,19,10,282,31,16,59,291,41,18,43,127,,29,18,095,30*72
$GPGSV,3,2,09,30,20,161,,21,66,061,40,22,21,169,,03,39,293,40*7E
$GPGSV,3,3,09,06,54,296,41,,,,,,,,,,,,*4F
$GPGSA,M,3,16,21,03,06,,,,,,,,,31.5,27.5,15.4*08
Trace #29 at position 7.000000
$GPZDA,132636.03,06,10,2011,00,00*63
$GPRMC,132636.00,A,4611.968632,N,01258.206727,E,000.3,336.0,061011,0.$GPGGA,132637.00,4611.967586,N,01258.206781,E,1,04,27.5,127.94,M,46.25,M,,*53
$GPGLL,4611.967586,N,01258.206781,E,132637.00,A,A*6E
$GPVTG,310.2,T,310.3,M,000.1,N,000.1,K,A*22
$GPGSV,3,1,09,19,10,282,31,16,59,291,41,18,43,127,,29,18,095,30*72
$GPGSV,3,2,09,30,20,161,,21,66,061,40,22,21,169,,03,39,293,40*7E
$GPGSV,3,3,09,06,54,296,41,,,,,,,,,,,,*4F
$GPGSA,M,3,16,21,03,06,,,,,,,,,31.5,27.5,15.4*08
Trace #30 at position 7.250000
$GPZDA,132637.03,06,10,2011,00,00*62
$GPRMC,132637.00,A,4611.967586,N,01258.206781,E,000.1,310.2,061011,0.$GPGGA,132638.00,4611.966653,N,01258.206918,E,1,04,27.5,127.12,M,46.25,M,,*56
$GPGLL,4611.966653,N,01258.206918,E,132638.00,A,A*65
$GPVTG,58.0,T,58.1,M,000.4,N,000.7,K,A*21
$GPGSV,3,1,09,19,10,282,30,16,59,291,40,18,43,127,,29,18,095,31*73
$GPGSV,3,2,09,30,20,161,,21,66,061,39,22,21,169,,03,39,293,39*7E
$GPGSV,3,3,09,06,54,296,41,,,,,,,,,,,,*4F
$GPGSA,M,3,16,21,03,06,,,,,,,,,31.5,27.5,15.4*08
Trace #31 at position 7.500000
$GPZDA,132637.03,06,10,2011,00,00*62
$GPRMC,132637.00,A,4611.967586,N,01258.206781,E,000.1,310.2,061011,0.$GPGGA,132638.00,4611.966653,N,01258.206918,E,1,04,27.5,127.12,M,46.25,M,,*56
$GPGLL,4611.966653,N,01258.206918,E,132638.00,A,A*65
$GPVTG,58.0,T,58.1,M,000.4,N,000.7,K,A*21
$GPGSV,3,1,09,19,10,282,30,16,59,291,40,18,43,127,,29,18,095,31*73
$GPGSV,3,2,09,30,20,161,,21,66,061,39,22,21,169,,03,39,293,39*7E
$GPGSV,3,3,09,06,54,296,41,,,,,,,,,,,,*4F
$GPGSA,M,3,16,21,03,06,,,,,,,,,31.5,27.5,15.4*08
Trace #32 at position 7.750000
$GPZDA,132637.03,06,10,2011,00,00*62
$GPRMC,132637.00,A,4611.967586,N,01258.206781,E,000.1,310.2,061011,0.$GPGGA,132638.00,4611.966653,N,01258.206918,E,1,04,27.5,127.12,M,46.25,M,,*56
$GPGLL,4611.966653,N,01258.206918,E,132638.00,A,A*65
$GPVTG,58.0,T,58.1,M,000.4,N,000.7,K,A*21
$GPGSV,3,1,09,19,10,282,30,16,59,291,40,18,43,127,,29,18,095,31*73
$GPGSV,3,2,09,30,20,161,,21,66,061,39,22,21,169,,03,39,293,39*7E
$GPGSV,3,3,09,06,54,296,41,,,,,,,,,,,,*4F
$GPGSA,M,3,16,21,03,06,,,,,,,,,31.5,27.5,15.4*08
Trace #33 at position 8.000000
$GPZDA,132638.03,06,10,2011,00,00*6D
$GPRMC,132638.00,A,4611.966653,N,01258.206918,E,000.4,58.0,061011,0.2,E$GPGGA,132639.00,4611.965688,N,01258.207105,E,1,04,27.4,126.37,M,46.25,M,,*50
$GPGLL,4611.965688,N,01258.207105,E,132639.00,A,A*64
$GPVTG,163.3,T,163.5,M,000.9,N,001.7,K,A*2A
$GPGSV,3,1,09,19,10,282,32,16,59,291,41,18,43,127,,29,18,095,30*71
$GPGSV,3,2,09,30,20,161,,21,66,061,39,22,21,169,,03,39,293,39*7E
$GPGSV,3,3,09,06,54,296,41,,,,,,,,,,,,*4F
$GPGSA,M,3,16,21,03,06,,,,,,,,,31.4,27.4,15.4*08
Trace #34 at position 8.250000
$GPZDA,132638.03,06,10,2011,00,00*6D
$GPRMC,132638.00,A,4611.966653,N,01258.206918,E,000.4,58.0,061011,0.2,E$GPGGA,132639.00,4611.965688,N,01258.207105,E,1,04,27.4,126.37,M,46.25,M,,*50
$GPGLL,4611.965688,N,01258.207105,E,132639.00,A,A*64
$GPVTG,163.3,T,163.5,M,000.9,N,001.7,K,A*2A
$GPGSV,3,1,09,19,10,282,32,16,59,291,41,18,43,127,,29,18,095,30*71
$GPGSV,3,2,09,30,20,161,,21,66,061,39,22,21,169,,03,39,293,39*7E
$GPGSV,3,3,09,06,54,296,41,,,,,,,,,,,,*4F
$GPGSA,M,3,16,21,03,06,,,,,,,,,31.4,27.4,15.4*08
Trace #35 at position 8.500000
$GPZDA,132638.03,06,10,2011,00,00*6D
$GPRMC,132638.00,A,4611.966653,N,01258.206918,E,000.4,58.0,061011,0.2,E$GPGGA,132639.00,4611.965688,N,01258.207105,E,1,04,27.4,126.37,M,46.25,M,,*50
$GPGLL,4611.965688,N,01258.207105,E,132639.00,A,A*64
$GPVTG,163.3,T,163.5,M,000.9,N,001.7,K,A*2A
$GPGSV,3,1,09,19,10,282,32,16,59,291,41,18,43,127,,29,18,095,30*71
$GPGSV,3,2,09,30,20,161,,21,66,061,39,22,21,169,,03,39,293,39*7E
$GPGSV,3,3,09,06,54,296,41,,,,,,,,,,,,*4F
$GPGSA,M,3,16,21,03,06,,,,,,,,,31.4,27.4,15.4*08
Trace #36 at position 8.750000
$GPZDA,132639.03,06,10,2011,00,00*6C
$GPRMC,132639.00,A,4611.965688,N,01258.207105,E,000.9,163.3,061011,0.$GPGGA,132640.00,4611.964800,N,01258.207231,E,1,04,27.4,125.58,M,46.25,M,,*5F
$GPGLL,4611.964800,N,01258.207231,E,132640.00,A,A*61
$GPVTG,28.9,T,29.1,M,000.1,N,000.2,K,A*29
$GPGSV,3,1,09,19,10,282,29,16,59,291,40,18,43,127,,29,18,095,31*7B
$GPGSV,3,2,09,30,20,161,,21,66,061,39,22,21,169,34,03,39,293,40*77
$GPGSV,3,3,09,06,54,296,41,,,,,,,,,,,,*4F
$GPGSA,M,3,16,21,03,06,,,,,,,,,31.4,27.4,15.4*08
Trace #37 at position 9.000000
$GPZDA,132639.03,06,10,2011,00,00*6C
$GPRMC,132639.00,A,4611.965688,N,01258.207105,E,000.9,163.3,061011,0.$GPGGA,132640.00,4611.964800,N,01258.207231,E,1,04,27.4,125.58,M,46.25,M,,*5F
$GPGLL,4611.964800,N,01258.207231,E,132640.00,A,A*61
$GPVTG,28.9,T,29.1,M,000.1,N,000.2,K,A*29
$GPGSV,3,1,09,19,10,282,29,16,59,291,40,18,43,127,,29,18,095,31*7B
$GPGSV,3,2,09,30,20,161,,21,66,061,39,22,21,169,34,03,39,293,40*77
$GPGSV,3,3,09,06,54,296,41,,,,,,,,,,,,*4F
$GPGSA,M,3,16,21,03,06,,,,,,,,,31.4,27.4,15.4*08
Trace #38 at position 9.250000
$GPZDA,132640.03,06,10,2011,00,00*62
$GPRMC,132640.00,A,4611.964800,N,01258.207231,E,000.1,28.9,061011,0.2$GPGGA,132641.00,4611.963899,N,01258.207371,E,1,04,27.3,124.79,M,46.25,M,,*59
$GPGLL,4611.963899,N,01258.207371,E,132641.00,A,A*62
$GPVTG,168.8,T,169.0,M,001.6,N,003.0,K,A*2E
$GPGSV,3,1,09,19,10,282,30,16,59,291,41,18,43,127,,29,17,095,31*7D
$GPGSV,3,2,09,30,20,161,31,21,66,061,38,22,21,169,34,03,39,293,39*7A
$GPGSV,3,3,09,06,54,296,41,,,,,,,,,,,,*4F
$GPGSA,M,3,16,21,03,06,,,,,,,,,31.3,27.3,15.3*0F
Trace #39 at position 9.500000
$GPZDA,132640.03,06,10,2011,00,00*62
$GPRMC,132640.00,A,4611.964800,N,01258.207231,E,000.1,28.9,061011,0.2$GPGGA,132641.00,4611.963899,N,01258.207371,E,1,04,27.3,124.79,M,46.25,M,,*59
$GPGLL,4611.963899,N,01258.207371,E,132641.00,A,A*62
$GPVTG,168.8,T,169.0,M,001.6,N,003.0,K,A*2E
$GPGSV,3,1,09,19,10,282,30,16,59,291,41,18,43,127,,29,17,095,31*7D
$GPGSV,3,2,09,30,20,161,31,21,66,061,38,22,21,169,34,03,39,293,39*7A
$GPGSV,3,3,09,06,54,296,41,,,,,,,,,,,,*4F
$GPGSA,M,3,16,21,03,06,,,,,,,,,31.3,27.3,15.3*0F
Trace #40 at position 9.750000
$GPZDA,132641.03,06,10,2011,00,00*63
$GPRMC,132641.00,A,4611.963899,N,01258.207371,E,001.6,168.8,0610104,27.3,123.93,M,46.25,M,,*50
$GPGLL,4611.962737,N,01258.207556,E,132642.00,A,A*68
$GPVTG,172.9,T,173.1,M,002.7,N,005.0,K,A*2A
$GPGSV,3,1,09,19,10,282,32,16,59,291,40,18,43,127,,29,17,095,*7C
$GPGSV,3,2,09,30,20,161,,21,66,061,39,22,21,169,34,03,39,293,40*77
$GPGSV,3,3,09,06,54,296,40,,,,,,,,,,,,*4E
$GPGSA,M,3,16,21,03,06,,,,,,,,,31.3,27.3,15.3*0F
Trace #41 at position 10.000000
$GPZDA,132642.03,06,10,2011,00,00*60
$GPRMC,132642.00,A,4611.962737,N,01258.207556,E,002.7,172.9,061011,0.2,E,A*39
$GPGGA,132643.00,4611.963547,N,01258.243.00,A,A*61
$GPVTG,153.6,T,153.8,M,001.7,N,003.1,K,A*29
$GPGSV,3,1,09,19,10,282,33,16,59,291,40,18,43,127,,29,17,095,*7D
$GPGSV,3,2,09,30,20,161,,21,66,061,39,22,21,169,35,03,39,293,39*78
$GPGSV,3,3,09,06,54,296,40,,,,,,,,,,,,*4E
$GPGSA,M,3,16,21,22,03,06,,,,,,,,6.7,3.5,5.8*35
Trace #42 at position 10.250000
$GPZDA,132642.03,06,10,2011,00,00*60
$GPRMC,132642.00,A,4611.962737,N,01258.207556,E,002.7,172.9,061011,0.2,E,A*39
$GPGGA,132643.00,4611.963547,N,01258.243.00,A,A*61
$GPVTG,153.6,T,153.8,M,001.7,N,003.1,K,A*29
$GPGSV,3,1,09,19,10,282,33,16,59,291,40,18,43,127,,29,17,095,*7D
$GPGSV,3,2,09,30,20,161,,21,66,061,39,22,21,169,35,03,39,293,39*78
$GPGSV,3,3,09,06,54,296,40,,,,,,,,,,,,*4E
$GPGSA,M,3,16,21,22,03,06,,,,,,,,6.7,3.5,5.8*35
Trace #43 at position 10.500000
$GPZDA,132643.04,06,10,2011,00,00*66
$GPRMC,132643.00,A,4611.963547,N,01258.207749,E,001.7,153.6,061011,0.2,E,A*3F
$GPGGA,132644.00,4611.962430,N,01258.208062,E,1,04,27.2,124.25,M,46.25,M,,*54
$GPGLL,4611.962430,N,01258.2080,31*75
$GPGSV,3,2,09,30,20,161,,21,66,061,39,22,21,169,36,03,39,293,40*75
$GPGSV,3,3,09,06,54,296,40,,,,,,,,,,,,*4E
$GPGSA,M,3,16,21,03,06,,,,,,,,,31.2,27.2,15.3*0F
Trace #44 at position 10.750000
$GPZDA,132643.04,06,10,2011,00,00*66
$GPRMC,132643.00,A,4611.963547,N,01258.207749,E,001.7,153.6,061011,0.2,E,A*3F
$GPGGA,132644.00,4611.962430,N,01258.208062,E,1,04,27.2,124.25,M,46.25,M,,*54
$GPGLL,4611.962430,N,01258.2080,31*75
$GPGSV,3,2,09,30,20,161,,21,66,061,39,22,21,169,36,03,39,293,40*75
$GPGSV,3,3,09,06,54,296,40,,,,,,,,,,,,*4E
$GPGSA,M,3,16,21,03,06,,,,,,,,,31.2,27.2,15.3*0F
Trace #45 at position 11.000000
$GPZDA,132643.04,06,10,2011,00,00*66
$GPRMC,132643.00,A,4611.963547,N,01258.207749,E,001.7,153.6,061011,0.2,E,A*3F
$GPGGA,132644.00,4611.962430,N,01258.208062,E,1,04,27.2,124.25,M,46.25,M,,*54
$GPGLL,4611.962430,N,01258.2080,31*75
$GPGSV,3,2,09,30,20,161,,21,66,061,39,22,21,169,36,03,39,293,40*75
$GPGSV,3,3,09,06,54,296,40,,,,,,,,,,,,*4E
$GPGSA,M,3,16,21,03,06,,,,,,,,,31.2,27.2,15.3*0F
Trace #46 at position 11.250000
$GPZDA,132644.03,06,10,2011,00,00*66
$GPRMC,132644.00,A,4611.962430,N,01258.208062,E,003.2,167.0,061011,0.2,E,A*3F
$GPGGA,132645.00,4611.963172,N,01258.208259,E,1,05,3.5,125.31,M,46.25,M,,*69
$GPGLL,4611.963172,N,01258.208259,E,132645.00,A,A*6E
$GPVTG,159.5,T,159.7,M,001.4,N,002.7,K,A*21
$GPGSV,3,1,09,19,10,282,30,16,59,291,40,18,43,12711.963172,N,01258.208259,E,001.4,159.5,061011,0.2,E,A*3A
$GPGGA,132646.00,4611.963831,N,01258.208386,E,1,05,3.5,126.13,M,46.25,M,,*64
$GPGLL,4611.963831,N,01258.208386,E,132646.00,A,A*60
$GPVTG,161.7,T,161.8,M,001.1,N,002.0,K,A*2E
$GPGSV,3,1,09,19,10,282,30,16,59,291,40,18,43,127,,29,17,095,32*7F
$GPGSV,3,2,09,30,20,161,31,21,66,061,38,22,21,169,34,03,39,293,40*74
$GPGSV,3,3,09,06,54,296,41,,,,,,,,,,,,*4F
$GPGSA,M,3,16,21,22,03,06,,,,,,,,6.7,3.5,5.8*35
Trace #47 at position 11.500000
$GPZDA,132644.03,06,10,2011,00,00*66
$GPRMC,132644.00,A,4611.962430,N,01258.208062,E,003.2,167.0,061011,0.2,E,A*3F
$GPGGA,132645.00,4611.963172,N,01258.208259,E,1,05,3.5,125.31,M,46.25,M,,*69
$GPGLL,4611.963172,N,01258.208259,E,132645.00,A,A*6E
$GPVTG,159.5,T,159.7,M,001.4,N,002.7,K,A*21
$GPGSV,3,1,09,19,10,282,30,16,59,291,40,18,43,12711.963172,N,01258.208259,E,001.4,159.5,061011,0.2,E,A*3A
$GPGGA,132646.00,4611.963831,N,01258.208386,E,1,05,3.5,126.13,M,46.25,M,,*64
$GPGLL,4611.963831,N,01258.208386,E,132646.00,A,A*60
$GPVTG,161.7,T,161.8,M,001.1,N,002.0,K,A*2E
$GPGSV,3,1,09,19,10,282,30,16,59,291,40,18,43,127,,29,17,095,32*7F
$GPGSV,3,2,09,30,20,161,31,21,66,061,38,22,21,169,34,03,39,293,40*74
$GPGSV,3,3,09,06,54,296,41,,,,,,,,,,,,*4F
$GPGSA,M,3,16,21,22,03,06,,,,,,,,6.7,3.5,5.8*35
Trace #48 at position 11.750000
$GPZDA,132646.03,06,10,2011,00,00*64
$GPRMC,13$GPGGA,132647.00,4611.964418,N,01258.208464,E,1,05,3.5,126.99,M,46.25,M,,*6C
$GPGLL,4611.964418,N,01258.208464,E,132647.00,A,A*6A
$GPVTG,169.7,T,169.8,M,001.2,N,002.2,K,A*2F
$GPGSV,3,1,09,19,10,282,32,16,59,291,40,18,43,127,,29,17,095,32*7D
$GPGSV,3,2,09,30,20,161,31,21,66,061,39,22,21,169,36,03,39,293,39*79
$GPGSV,3,3,09,06,54,296,41,,,,,,,,,,,,*4F
$GPGSA,M,3,16,21,22,03,06,,,,,,,,6.7,3.5,5.8*35
Trace #49 at position 12.000000
$GPZDA,132646.03,06,10,2011,00,00*64
$GPRMC,13$GPGGA,132647.00,4611.964418,N,01258.208464,E,1,05,3.5,126.99,M,46.25,M,,*6C
$GPGLL,4611.964418,N,01258.208464,E,132647.00,A,A*6A
$GPVTG,169.7,T,169.8,M,001.2,N,002.2,K,A*2F
$GPGSV,3,1,09,19,10,282,32,16,59,291,40,18,43,127,,29,17,095,32*7D
$GPGSV,3,2,09,30,20,161,31,21,66,061,39,22,21,169,36,03,39,293,39*79
$GPGSV,3,3,09,06,54,296,41,,,,,,,,,,,,*4F
$GPGSA,M,3,16,21,22,03,06,,,,,,,,6.7,3.5,5.8*35
Trace #50 at position 12.250000
$GPZDA,132647.03,06,10,2011,00,00*65
$GPRMC,132647.00,A,4611.964418,N,01258.208464,E,001.2,169.7,061011,$GPGGA,132648.00,4611.964884,N,01258.208607,E,1,05,3.5,127.78,M,46.25,M,,*63
$GPGLL,4611.964884,N,01258.208607,E,132648.00,A,A*6B
$GPVTG,153.1,T,153.3,M,001.5,N,002.8,K,A*2F
$GPGSV,3,1,09,19,10,282,31,16,59,291,40,18,43,127,,29,17,095,31*7D
$GPGSV,3,2,09,30,20,161,,21,66,061,39,22,21,169,36,03,39,293,40*75
$GPGSV,3,3,09,06,54,296,42,,,,,,,,,,,,*4C
$GPGSA,M,3,16,21,22,03,06,,,,,,,,6.7,3.5,5.8*35
Trace #51 at position 12.500000
$GPZDA,132647.03,06,10,2011,00,00*65
$GPRMC,132647.00,A,4611.964418,N,01258.208464,E,001.2,169.7,061011,$GPGGA,132648.00,4611.964884,N,01258.208607,E,1,05,3.5,127.78,M,46.25,M,,*63
$GPGLL,4611.964884,N,01258.208607,E,132648.00,A,A*6B
$GPVTG,153.1,T,153.3,M,001.5,N,002.8,K,A*2F
$GPGSV,3,1,09,19,10,282,31,16,59,291,40,18,43,127,,29,17,095,31*7D
$GPGSV,3,2,09,30,20,161,,21,66,061,39,22,21,169,36,03,39,293,40*75
$GPGSV,3,3,09,06,54,296,42,,,,,,,,,,,,*4C
$GPGSA,M,3,16,21,22,03,06,,,,,,,,6.7,3.5,5.8*35
Trace #52 at position 12.750000
$GPZDA,132648.04,06,10,2011,00,00*6D
$GPRMC,132648.00,A,4611.964884,N,01258.208607,E,001.5,153.1,061011,0.$GPGGA,132649.00,4611.965320,N,01258.208784,E,1,05,3.4,128.43,M,46.25,M,,*6A
$GPGLL,4611.965320,N,01258.208784,E,132649.00,A,A*64
$GPVTG,154.3,T,154.5,M,001.0,N,001.9,K,A*2C
$GPGSV,3,1,09,19,10,282,,16,59,291,40,18,43,127,,29,17,095,31*7F
$GPGSV,3,2,09,30,20,161,29,21,66,061,39,22,21,169,36,03,39,293,40*7E
$GPGSV,3,3,09,06,54,296,41,,,,,,,,,,,,*4F
$GPGSA,M,3,16,21,22,03,06,,,,,,,,6.7,3.4,5.7*3B
Trace #53 at position 13.000000
$GPZDA,132648.04,06,10,2011,00,00*6D
$GPRMC,132648.00,A,4611.964884,N,01258.208607,E,001.5,153.1,061011,0.$GPGGA,132649.00,4611.965320,N,01258.208784,E,1,05,3.4,128.43,M,46.25,M,,*6A
$GPGLL,4611.965320,N,01258.208784,E,132649.00,A,A*64
$GPVTG,154.3,T,154.5,M,001.0,N,001.9,K,A*2C
$GPGSV,3,1,09,19,10,282,,16,59,291,40,18,43,127,,29,17,095,31*7F
$GPGSV,3,2,09,30,20,161,29,21,66,061,39,22,21,169,36,03,39,293,40*7E
$GPGSV,3,3,09,06,54,296,41,,,,,,,,,,,,*4F
$GPGSA,M,3,16,21,22,03,06,,,,,,,,6.7,3.4,5.7*3B
Trace #54 at position 13.250000
$GPZDA,132648.04,06,10,2011,00,00*6D
$GPRMC,132648.00,A,4611.964884,N,01258.208607,E,001.5,153.1,061011,0.$GPGGA,132649.00,4611.965320,N,01258.208784,E,1,05,3.4,128.43,M,46.25,M,,*6A
$GPGLL,4611.965320,N,01258.208784,E,132649.00,A,A*64
$GPVTG,154.3,T,154.5,M,001.0,N,001.9,K,A*2C
$GPGSV,3,1,09,19,10,282,,16,59,291,40,18,43,127,,29,17,095,31*7F
$GPGSV,3,2,09,30,20,161,29,21,66,061,39,22,21,169,36,03,39,293,40*7E
$GPGSV,3,3,09,06,54,296,41,,,,,,,,,,,,*4F
$GPGSA,M,3,16,21,22,03,06,,,,,,,,6.7,3.4,5.7*3B
Trace #55 at position 13.500000
$GPZDA,132649.03,06,10,2011,00,00*6B
$GPRMC,132649.00,A,4611.965320,N,01258.208784,E,001.0,154.3,061011,0.$GPGGA,132650.00,4611.965749,N,01258.208892,E,1,05,3.4,128.99,M,46.25,M,,*66
$GPGLL,4611.965749,N,01258.208892,E,132650.00,A,A*6F
$GPVTG,159.2,T,159.4,M,000.9,N,001.7,K,A*2A
$GPGSV,3,1,09,19,10,282,29,16,59,291,40,18,43,127,,29,17,095,*76
$GPGSV,3,2,09,30,20,161,32,21,66,061,39,22,21,169,36,03,39,293,40*74
$GPGSV,3,3,09,06,54,296,41,,,,,,,,,,,,*4F
$GPGSA,M,3,16,21,22,03,06,,,,,,,,6.7,3.4,5.7*3B
Trace #56 at position 13.750000
$GPZDA,132649.03,06,10,2011,00,00*6B
$GPRMC,132649.00,A,4611.965320,N,01258.208784,E,001.0,154.3,061011,0.$GPGGA,132650.00,4611.965749,N,01258.208892,E,1,05,3.4,128.99,M,46.25,M,,*66
$GPGLL,4611.965749,N,01258.208892,E,132650.00,A,A*6F
$GPVTG,159.2,T,159.4,M,000.9,N,001.7,K,A*2A
$GPGSV,3,1,09,19,10,282,29,16,59,291,40,18,43,127,,29,17,095,*76
$GPGSV,3,2,09,30,20,161,32,21,66,061,39,22,21,169,36,03,39,293,40*74
$GPGSV,3,3,09,06,54,296,41,,,,,,,,,,,,*4F
$GPGSA,M,3,16,21,22,03,06,,,,,,,,6.7,3.4,5.7*3B
Trace #57 at position 14.000000
$GPZDA,132650.03,06,10,2011,00,00*63
$GPRMC,132650.00,A,4611.965749,N,01258.208892,E,000.9,159.2,061011,0.$GPGGA,132651.00,4611.966146,N,01258.209022,E,1,05,3.4,129.47,M,46.25,M,,*6D
$GPGLL,4611.966146,N,01258.209022,E,132651.00,A,A*66
$GPVTG,138.3,T,138.5,M,000.9,N,001.6,K,A*2B
$GPGSV,3,1,09,19,10,282,29,16,59,290,40,18,43,127,,29,17,095,29*7C
$GPGSV,3,2,09,30,19,162,31,21,66,061,39,22,21,169,36,03,39,293,41*7F
$GPGSV,3,3,09,06,54,296,41,,,,,,,,,,,,*4F
$GPGSA,M,3,16,21,22,03,06,,,,,,,,6.7,3.4,5.7*3B
Trace #58 at position 14.250000
$GPZDA,132650.03,06,10,2011,00,00*63
$GPRMC,132650.00,A,4611.965749,N,01258.208892,E,000.9,159.2,061011,0.$GPGGA,132651.00,4611.966146,N,01258.209022,E,1,05,3.4,129.47,M,46.25,M,,*6D
$GPGLL,4611.966146,N,01258.209022,E,132651.00,A,A*66
$GPVTG,138.3,T,138.5,M,000.9,N,001.6,K,A*2B
$GPGSV,3,1,09,19,10,282,29,16,59,290,40,18,43,127,,29,17,095,29*7C
$GPGSV,3,2,09,30,19,162,31,21,66,061,39,22,21,169,36,03,39,293,41*7F
$GPGSV,3,3,09,06,54,296,41,,,,,,,,,,,,*4F
$GPGSA,M,3,16,21,22,03,06,,,,,,,,6.7,3.4,5.7*3B
Trace #59 at position 14.500000
$GPZDA,132650.03,06,10,2011,00,00*63
$GPRMC,132650.00,A,4611.965749,N,01258.208892,E,000.9,159.2,061011,0.$GPGGA,132651.00,4611.966146,N,01258.209022,E,1,05,3.4,129.47,M,46.25,M,,*6D
$GPGLL,4611.966146,N,01258.209022,E,132651.00,A,A*66
$GPVTG,138.3,T,138.5,M,000.9,N,001.6,K,A*2B
$GPGSV,3,1,09,19,10,282,29,16,59,290,40,18,43,127,,29,17,095,29*7C
$GPGSV,3,2,09,30,19,162,31,21,66,061,39,22,21,169,36,03,39,293,41*7F
$GPGSV,3,3,09,06,54,296,41,,,,,,,,,,,,*4F
$GPGSA,M,3,16,21,22,03,06,,,,,,,,6.7,3.4,5.7*3B
Trace #60 at position 14.750000
$GPZDA,132651.03,06,10,2011,00,00*62
$GPRMC,132651.00,A,4611.966146,N,01258.209022,E,000.9,138.3,061011,,4611.966538,N,01258.209100,E,1,05,3.4,130.00,M,46.25,M,,*69
$GPGLL,4611.966538,N,01258.209100,E,132652.00,A,A*69
$GPVTG,175.1,T,175.3,M,001.4,N,002.5,K,A*23
$GPGSV,3,1,09,19,10,282,30,16,59,290,40,18,43,127,,29,17,095,29*74
$GPGSV,3,2,09,30,19,162,32,21,66,061,39,22,21,169,33,03,39,293,40*78
$GPGSV,3,3,09,06,54,296,41,,,,,,,,,,,,*4F
$GPGSA,M,3,16,21,22,03,06,,,,,,,,6.7,3.4,5.7*3B
Trace #61 at position 15.000000
$GPZDA,132652.03,06,10,2011,00,00*61
$GPRMC,132652.00,A,4611.966538,N,01258.209100,E,001.4,175.1,061011,0.2,E,A*37
$GPG$GPVTG,163.0,T,163.1,M,000.9,N,001.7,K,A*2D
$GPGSV,3,1,09,19,10,282,31,16,59,290,40,18,43,127,,29,17,095,30*7D
$GPGSV,3,2,09,30,19,162,,21,66,061,38,22,21,169,34,03,39,293,39*71
$GPGSV,3,3,09,06,54,296,40,,,,,,,,,,,,*4E
$GPGSA,M,3,16,21,22,03,06,,,,,,,,6.7,3.4,5.7*3B
Trace #62 at position 15.250000
$GPZDA,132652.03,06,10,2011,00,00*61
$GPRMC,132652.00,A,4611.966538,N,01258.209100,E,001.4,175.1,061011,0.2,E,A*37
$GPG$GPVTG,163.0,T,163.1,M,000.9,N,001.7,K,A*2D
$GPGSV,3,1,09,19,10,282,31,16,59,290,40,18,43,127,,29,17,095,30*7D
$GPGSV,3,2,09,30,19,162,,21,66,061,38,22,21,169,34,03,39,293,39*71
$GPGSV,3,3,09,06,54,296,40,,,,,,,,,,,,*4E
$GPGSA,M,3,16,21,22,03,06,,,,,,,,6.7,3.4,5.7*3B
Trace #63 at position 15.500000
$GPZDA,132653.04,06,10,2011,00,00*67
$GPRMC,132653.00,A,4611.966827,N,01258.209132,E,000.9,163.0,061011,0.2,E,A*3E
$GPGGA,132654.00,4611.967103,N,01258.209188,E,1,05,3.4,131.09,M,46.25,M,,*6A
$GPGLL,4611.967103,N,01258.209188,E,132654.02,16,59,290,40,18,43,127,,29,17,095,31*7F
$GPGSV,3,2,09,30,19,162,34,21,66,061,39,22,21,169,34,03,39,293,40*79
$GPGSV,3,3,09,06,54,296,41,,,,,,,,,,,,*4F
$GPGSA,M,3,16,21,22,03,06,,,,,,,,6.7,3.4,5.7*3B
Trace #64 at position 15.750000
$GPZDA,132653.04,06,10,2011,00,00*67
$GPRMC,132653.00,A,4611.966827,N,01258.209132,E,000.9,163.0,061011,0.2,E,A*3E
$GPGGA,132654.00,4611.967103,N,01258.209188,E,1,05,3.4,131.09,M,46.25,M,,*6A
$GPGLL,4611.967103,N,01258.209188,E,132654.02,16,59,290,40,18,43,127,,29,17,095,31*7F
$GPGSV,3,2,09,30,19,162,34,21,66,061,39,22,21,169,34,03,39,293,40*79
$GPGSV,3,3,09,06,54,296,41,,,,,,,,,,,,*4F
$GPGSA,M,3,16,21,22,03,06,,,,,,,,6.7,3.4,5.7*3B
Trace #65 at position 16.000000
$GPZDA,132653.04,06,10,2011,00,00*67
$GPRMC,132653.00,A,4611.966827,N,01258.209132,E,000.9,163.0,061011,0.2,E,A*3E
$GPGGA,132654.00,4611.967103,N,01258.209188,E,1,05,3.4,131.09,M,46.25,M,,*6A
$GPGLL,4611.967103,N,01258.209188,E,132654.02,16,59,290,40,18,43,127,,29,17,095,31*7F
$GPGSV,3,2,09,30,19,162,34,21,66,061,39,22,21,169,34,03,39,293,40*79
$GPGSV,3,3,09,06,54,296,41,,,,,,,,,,,,*4F
$GPGSA,M,3,16,21,22,03,06,,,,,,,,6.7,3.4,5.7*3B
Trace #66 at position 16.250000
$GPZDA,132653.04,06,10,2011,00,00*67
$GPRMC,132653.00,A,4611.966827,N,01258.209132,E,000.9,163.0,061011,0.2,E,A*3E
$GPGGA,132654.00,4611.967103,N,01258.209188,E,1,05,3.4,131.09,M,46.25,M,,*6A
$GPGLL,4611.967103,N,01258.209188,E,132654.02,16,59,290,40,18,43,127,,29,17,095,31*7F
$GPGSV,3,2,09,30,19,162,34,21,66,061,39,22,21,169,34,03,39,293,40*79
$GPGSV,3,3,09,06,54,296,41,,,,,,,,,,,,*4F
$GPGSA,M,3,16,21,22,03,06,,,,,,,,6.7,3.4,5.7*3B
Trace #67 at position 16.500000
$GPZDA,132654.03,06,10,2011,00,00*67
$GPRMC,132654.00,A,4611.967103,N,01258.209188,E,001.0,166.5,061011,0.2,E,A*3E
$GPGGA,132655.00,4611.967339,N,01258.209198,E,1,06,3.4,131.49,M,46.25,M,,*66
$GPGLL,4611.967339,N,01258.209198,E,132655.00,A,A*69
$GPVTG,191.7,T,191.8,M,000.6,N,001.1,K,A*2A
$GPGSV,3,1,09.4,5.5*38
$GPZDA,132655.04,06,10,2011,00,00*61
$GPRMC,132655.00,A,4611.967339,N,01258.209198,E,000.6,191.7,061011,0.2,E,A*38
$GPGGA,132656.00,4611.967556,N,01258.209213,E,1,06,3.4,131.82,M,46.25,M,,*6D
$GPGLL,4611.967556,N,01258.209213,E,132656.00,A,A*65
$GPVTG,164.9,T,165.0,M,000.7,N,001.2,K,A*2F
$GPGSV,3,1,09,19,10,282,30,16,59,290,40,18,43,127,,29,17,095,32*7E
$GPGSV,3,2,09,30,19,162,32,21,66,061,39,22,21,169,36,03,39,293,40*7D
$GPGSV,3,3,09,06,54,296,41,,,,,,,,,,,,*4F
$GPGSA,M,3,16,30,21,22,03,$GPGGA,132657.00,4611.967707,N,01258.209279,E,1,06,3.4,132.19,M,46.25,M,,*67
Trace #68 at position 16.750000
$GPGLL,4611.967707,N,01258.209279,E,132657.00,A,A*6E
$GPVTG,169.5,T,169.7,M,000.6,N,001.2,K,A*24
$GPGSV,3,1,09,19,10,282,30,16,59,290,40,18,43,127,,29,17,095,31*7D
$GPGSV,3,2,09,30,19,162,32,21,66,061,39,22,21,169,36,03,39,293,40*7D
$GPGSV,3,3,09,06,54,296,41,,,,,,,,,,,,*4F
$GPGSA,M,3,16,30,21,22,03,06,,,,,,,6.5,3.4,5.5*38
Trace #69 at position 17.000000
$GPGLL,4611.967707,N,01258.209279,E,132657.00,A,A*6E
$GPVTG,169.5,T,169.7,M,000.6,N,001.2,K,A*24
$GPGSV,3,1,09,19,10,282,30,16,59,290,40,18,43,127,,29,17,095,31*7D
$GPGSV,3,2,09,30,19,162,32,21,66,061,39,22,21,169,36,03,39,293,40*7D
$GPGSV,3,3,09,06,54,296,41,,,,,,,,,,,,*4F
$GPGSA,M,3,16,30,21,22,03,06,,,,,,,6.5,3.4,5.5*38
Trace #70 at position 17.250000
$GPGLL,4611.967707,N,01258.209279,E,132657.00,A,A*6E
$GPVTG,169.5,T,169.7,M,000.6,N,001.2,K,A*24
$GPGSV,3,1,09,19,10,282,30,16,59,290,40,18,43,127,,29,17,095,31*7D
$GPGSV,3,2,09,30,19,162,32,21,66,061,39,22,21,169,36,03,39,293,40*7D
$GPGSV,3,3,09,06,54,296,41,,,,,,,,,,,,*4F
$GPGSA,M,3,16,30,21,22,03,06,,,,,,,6.5,3.4,5.5*38
Trace #71 at position 17.500000
$GPZDA,132657.03,06,10,2011,00,00*64
$GPRMC,132657.00,A,4611.967707,N,01258.209279,E,000.6,169.5,06101$GPGGA,132658.00,4611.967765,N,01258.209381,E,1,06,3.4,132.48,M,46.25,M,,*6E
$GPGLL,4611.967765,N,01258.209381,E,132658.00,A,A*63
$GPVTG,161.0,T,161.1,M,001.0,N,001.9,K,A*2B
$GPGSV,3,1,09,19,10,282,,16,59,290,40,18,43,127,,29,17,095,31*7E
$GPGSV,3,2,09,30,19,162,31,21,66,061,39,22,21,169,36,03,39,293,39*70
$GPGSV,3,3,09,06,54,296,40,,,,,,,,,,,,*4E
$GPGSA,M,3,16,30,21,22,03,06,,,,,,,6.5,3.4,5.5*38
Trace #72 at position 17.750000
$GPZDA,132657.03,06,10,2011,00,00*64
$GPRMC,132657.00,A,4611.967707,N,01258.209279,E,000.6,169.5,06101$GPGGA,132658.00,4611.967765,N,01258.209381,E,1,06,3.4,132.48,M,46.25,M,,*6E
$GPGLL,4611.967765,N,01258.209381,E,132658.00,A,A*63
$GPVTG,161.0,T,161.1,M,001.0,N,001.9,K,A*2B
$GPGSV,3,1,09,19,10,282,,16,59,290,40,18,43,127,,29,17,095,31*7E
$GPGSV,3,2,09,30,19,162,31,21,66,061,39,22,21,169,36,03,39,293,39*70
$GPGSV,3,3,09,06,54,296,40,,,,,,,,,,,,*4E
$GPGSA,M,3,16,30,21,22,03,06,,,,,,,6.5,3.4,5.5*38
Trace #73 at position 18.000000
$GPZDA,132658.04,06,10,2011,00,00*6C
$GPRMC,132658.00,A,4611.967765,N,01258.209381,E,001.0,161.0,061011,$GPGGA,132659.00,4611.967782,N,01258.209538,E,1,05,3.4,132.88,M,46.25,M,,*6D
$GPGLL,4611.967782,N,01258.209538,E,132659.00,A,A*6F
$GPVTG,145.9,T,146.1,M,000.9,N,001.7,K,A*27
$GPGSV,3,1,09,19,10,282,,16,59,290,40,18,43,127,,29,17,095,33*7C
$GPGSV,3,2,09,30,19,162,29,21,66,061,39,22,21,169,32,03,39,293,40*73
$GPGSV,3,3,09,06,54,296,41,,,,,,,,,,,,*4F
$GPGSA,M,3,16,21,22,03,06,,,,,,,,6.7,3.4,5.7*3B
Trace #74 at position 18.250000
$GPZDA,132658.04,06,10,2011,00,00*6C
$GPRMC,132658.00,A,4611.967765,N,01258.209381,E,001.0,161.0,061011,$GPGGA,132659.00,4611.967782,N,01258.209538,E,1,05,3.4,132.88,M,46.25,M,,*6D
$GPGLL,4611.967782,N,01258.209538,E,132659.00,A,A*6F
$GPVTG,145.9,T,146.1,M,000.9,N,001.7,K,A*27
$GPGSV,3,1,09,19,10,282,,16,59,290,40,18,43,127,,29,17,095,33*7C
$GPGSV,3,2,09,30,19,162,29,21,66,061,39,22,21,169,32,03,39,293,40*73
$GPGSV,3,3,09,06,54,296,41,,,,,,,,,,,,*4F
$GPGSA,M,3,16,21,22,03,06,,,,,,,,6.7,3.4,5.7*3B
Trace #75 at position 18.500000
$GPZDA,132659.03,06,10,2011,00,00*6A
$GPRMC,132659.00,A,4611.967782,N,01258.209538,E,000.9,145.9,061011,0.$GPGGA,132700.00,4611.967758,N,01258.209659,E,1,05,3.4,133.23,M,46.25,M,,*63
$GPGLL,4611.967758,N,01258.209659,E,132700.00,A,A*61
$GPVTG,169.9,T,170.0,M,001.0,N,001.9,K,A*2B
$GPGSV,3,1,09,19,10,282,,16,59,290,40,18,43,127,,29,17,095,31*7E
$GPGSV,3,2,09,30,19,162,30,21,66,061,39,22,21,169,33,03,39,293,40*7A
$GPGSV,3,3,09,06,54,296,41,,,,,,,,,,,,*4F
$GPGSA,M,3,16,21,22,03,06,,,,,,,,6.7,3.4,5.7*3B
Trace #76 at position 18.750000
$GPZDA,132659.03,06,10,2011,00,00*6A
$GPRMC,132659.00,A,4611.967782,N,01258.209538,E,000.9,145.9,061011,0.$GPGGA,132700.00,4611.967758,N,01258.209659,E,1,05,3.4,133.23,M,46.25,M,,*63
$GPGLL,4611.967758,N,01258.209659,E,132700.00,A,A*61
$GPVTG,169.9,T,170.0,M,001.0,N,001.9,K,A*2B
$GPGSV,3,1,09,19,10,282,,16,59,290,40,18,43,127,,29,17,095,31*7E
$GPGSV,3,2,09,30,19,162,30,21,66,061,39,22,21,169,33,03,39,293,40*7A
$GPGSV,3,3,09,06,54,296,41,,,,,,,,,,,,*4F
$GPGSA,M,3,16,21,22,03,06,,,,,,,,6.7,3.4,5.7*3B
Trace #77 at position 19.000000
$GPZDA,132700.03,06,10,2011,00,00*67
$GPRMC,132700.00,A,4611.967758,N,01258.209659,E,001.0,169.9,061011,0.$GPGGA,132701.00,4611.965770,N,01258.209770,E,1,04,26.2,131.37,M,46.25,M,,*57
$GPGLL,4611.965770,N,01258.209770,E,132701.00,A,A*62
$GPVTG,177.9,T,178.1,M,002.1,N,003.8,K,A*2C
$GPGSV,3,1,09,19,10,282,,16,59,290,40,18,43,127,,29,17,095,31*7E
$GPGSV,3,2,09,30,19,162,28,21,66,061,37,22,21,169,27,03,39,293,40*78
$GPGSV,3,3,09,06,54,296,41,,,,,,,,,,,,*4F
$GPGSA,M,3,16,21,03,06,,,,,,,,,30.3,26.2,15.2*0F
Trace #78 at position 19.250000
$GPZDA,132700.03,06,10,2011,00,00*67
$GPRMC,132700.00,A,4611.967758,N,01258.209659,E,001.0,169.9,061011,0.$GPGGA,132701.00,4611.965770,N,01258.209770,E,1,04,26.2,131.37,M,46.25,M,,*57
$GPGLL,4611.965770,N,01258.209770,E,132701.00,A,A*62
$GPVTG,177.9,T,178.1,M,002.1,N,003.8,K,A*2C
$GPGSV,3,1,09,19,10,282,,16,59,290,40,18,43,127,,29,17,095,31*7E
$GPGSV,3,2,09,30,19,162,28,21,66,061,37,22,21,169,27,03,39,293,40*78
$GPGSV,3,3,09,06,54,296,41,,,,,,,,,,,,*4F
$GPGSA,M,3,16,21,03,06,,,,,,,,,30.3,26.2,15.2*0F
Trace #79 at position 19.500000
$GPZDA,132701.03,06,10,2011,00,00*66
$GPRMC,132701.00,A,4611.965770,N,01258.209770,E,002.1,177.9,061011,$GPGGA,132702.00,4611.964101,N,01258.209895,E,1,04,26.2,129.71,M,46.25,M,,*5A
$GPGLL,4611.964101,N,01258.209895,E,132702.00,A,A*64
$GPVTG,99.3,T,99.4,M,000.2,N,000.5,K,A*23
$GPGSV,3,1,09,19,10,282,,16,59,290,40,18,43,127,,29,17,095,30*7F
$GPGSV,3,2,09,30,19,162,32,21,66,061,38,22,21,169,31,03,39,293,40*7B
$GPGSV,3,3,09,06,54,296,41,,,,,,,,,,,,*4F
$GPGSA,M,3,16,21,03,06,,,,,,,,,30.3,26.2,15.2*0F
Trace #80 at position 19.750000
$GPZDA,132701.03,06,10,2011,00,00*66
$GPRMC,132701.00,A,4611.965770,N,01258.209770,E,002.1,177.9,061011,$GPGGA,132702.00,4611.964101,N,01258.209895,E,1,04,26.2,129.71,M,46.25,M,,*5A
$GPGLL,4611.964101,N,01258.209895,E,132702.00,A,A*64
$GPVTG,99.3,T,99.4,M,000.2,N,000.5,K,A*23
$GPGSV,3,1,09,19,10,282,,16,59,290,40,18,43,127,,29,17,095,30*7F
$GPGSV,3,2,09,30,19,162,32,21,66,061,38,22,21,169,31,03,39,293,40*7B
$GPGSV,3,3,09,06,54,296,41,,,,,,,,,,,,*4F
$GPGSA,M,3,16,21,03,06,,,,,,,,,30.3,26.2,15.2*0F
Trace #81 at position 20.000000
$GPZDA,132702.03,06,10,2011,00,00*65
$GPRMC,132702.00,A,4611.964101,N,01258.209895,E,000.2,99.3,061011,0.21258.210083,E,1,04,26.1,128.51,M,46.25,M,,*5E
$GPGLL,4611.962721,N,01258.210083,E,132703.00,A,A*60
$GPVTG,157.2,T,157.3,M,001.1,N,002.0,K,A*20
$GPGSV,3,1,09,19,10,282,,16,59,290,41,18,43,126,,29,17,096,32*7E
$GPGSV,3,2,09,30,19,162,31,21,66,061,38,22,21,169,32,03,39,293,39*75
$GPGSV,3,3,09,06,54,296,40,,,,,,,,,,,,*4E
$GPGSA,M,3,16,21,03,06,,,,,,,,,30.2,26.1,15.2*0D
Trace #82 at position 20.250000
$GPZDA,132702.03,06,10,2011,00,00*65
$GPRMC,132702.00,A,4611.964101,N,01258.209895,E,000.2,99.3,061011,0.21258.210083,E,1,04,26.1,128.51,M,46.25,M,,*5E
$GPGLL,4611.962721,N,01258.210083,E,132703.00,A,A*60
$GPVTG,157.2,T,157.3,M,001.1,N,002.0,K,A*20
$GPGSV,3,1,09,19,10,282,,16,59,290,41,18,43,126,,29,17,096,32*7E
$GPGSV,3,2,09,30,19,162,31,21,66,061,38,22,21,169,32,03,39,293,39*75
$GPGSV,3,3,09,06,54,296,40,,,,,,,,,,,,*4E
$GPGSA,M,3,16,21,03,06,,,,,,,,,30.2,26.1,15.2*0D
Trace #83 at position 20.500000
$GPZDA,132702.03,06,10,2011,00,00*65
$GPRMC,132702.00,A,4611.964101,N,01258.209895,E,000.2,99.3,061011,0.21258.210083,E,1,04,26.1,128.51,M,46.25,M,,*5E
$GPGLL,4611.962721,N,01258.210083,E,132703.00,A,A*60
$GPVTG,157.2,T,157.3,M,001.1,N,002.0,K,A*20
$GPGSV,3,1,09,19,10,282,,16,59,290,41,18,43,126,,29,17,096,32*7E
$GPGSV,3,2,09,30,19,162,31,21,66,061,38,22,21,169,32,03,39,293,39*75
$GPGSV,3,3,09,06,54,296,40,,,,,,,,,,,,*4E
$GPGSA,M,3,16,21,03,06,,,,,,,,,30.2,26.1,15.2*0D
Trace #84 at position 20.750000
$GPZDA,132703.03,06,10,2011,00,00*64
$GPRMC,132703.00,A,4611.962721,N,01258.210083,E,001.1,157.2,061011,0.2,E,A*38
$GPGGA,132704.00,461L,4611.961417,N,01258.210202,E,132704.00,A,A*69
$GPVTG,190.2,T,190.4,M,000.5,N,001.0,K,A*21
$GPGSV,3,1,09,19,10,282,,16,59,290,41,18,43,126,,29,17,096,31*7D
$GPGSV,3,2,09,30,19,162,31,21,66,061,39,22,21,169,32,03,39,293,39*74
$GPGSV,3,3,09,06,54,296,40,,,,,,,,,,,,*4E
$GPGSA,M,3,16,21,03,06,,,,,,,,,30.2,26.1,15.2*0D
Trace #85 at position 21.000000
$GPZDA,132704.03,06,10,2011,00,00*63
$GPRMC,132704.00,A,4611.961417,N,01258.210202,E,000.5,190.2,061011,0.2,E,A*3F
$GPGGA,132705.00,4611.960344,N,01258.210226,E,1,04,26.0,126.58,M,46.25,M5,K,A*2B
$GPGSV,3,1,09,19,10,282,,16,59,290,40,18,43,126,,29,17,096,33*7E
$GPGSV,3,2,09,30,19,162,30,21,66,061,39,22,21,169,,03,39,293,40*7A
$GPGSV,3,3,09,06,54,296,41,,,,,,,,,,,,*4F
$GPGSA,M,3,16,21,03,06,,,,,,,,,30.1,26.0,15.2*0F
Trace #86 at position 21.250000
$GPZDA,132704.03,06,10,2011,00,00*63
$GPRMC,132704.00,A,4611.961417,N,01258.210202,E,000.5,190.2,061011,0.2,E,A*3F
$GPGGA,132705.00,4611.960344,N,01258.210226,E,1,04,26.0,126.58,M,46.25,M5,K,A*2B
$GPGSV,3,1,09,19,10,282,,16,59,290,40,18,43,126,,29,17,096,33*7E
$GPGSV,3,2,09,30,19,162,30,21,66,061,39,22,21,169,,03,39,293,40*7A
$GPGSV,3,3,09,06,54,296,41,,,,,,,,,,,,*4F
$GPGSA,M,3,16,21,03,06,,,,,,,,,30.1,26.0,15.2*0F
Trace #87 at position 21.500000
$GPZDA,132705.03,06,10,2011,00,00*62
$GPRMC,132705.00,A,4611.960344,N,01258.210226,E,000.3,203.7,061011,0.2,E,A*32
$GPGGA,132706.00,4611.959301,N,01258.210367,E,1,04,26.0,125.77,M,46.25,M,,*54
$GPGLL,4611.959301,N,01258.210367,E,132706.00,A,A*62
$GPVTG,157.7,T,157.8,M,00,21,169,,03,39,293,39*7B
$GPGSV,3,3,09,06,54,296,40,,,,,,,,,,,,*4E
$GPGSA,M,3,16,21,03,06,,,,,,,,,30.1,26.0,15.2*0F
Trace #88 at position 21.750000
$GPZDA,132705.03,06,10,2011,00,00*62
$GPRMC,132705.00,A,4611.960344,N,01258.210226,E,000.3,203.7,061011,0.2,E,A*32
$GPGGA,132706.00,4611.959301,N,01258.210367,E,1,04,26.0,125.77,M,46.25,M,,*54
$GPGLL,4611.959301,N,01258.210367,E,132706.00,A,A*62
$GPVTG,157.7,T,157.8,M,00,21,169,,03,39,293,39*7B
$GPGSV,3,3,09,06,54,296,40,,,,,,,,,,,,*4E
$GPGSA,M,3,16,21,03,06,,,,,,,,,30.1,26.0,15.2*0F
Trace #89 at position 22.000000
$GPZDA,132706.03,06,10,2011,00,00*61
$GPRMC,132706.00,A,4611.959301,N,01258.210367,E,001.3,157.7,061011,0.2,E,A*3D
$GPGGA,132707.00,4611.958359,N,01258.210567,E,1,04,25.9,125.14,M,46.25,M,,*50
$GPGLL,4611.958359,N,01258.210567,E,132707.00,A,A*69
$GPVTG,134.0,T,134.2,M,000.4,N,000.7,K,A*22
$GPGSV,3,1,09,19,10,282,,16,59,290,40,18,43,126,,29,17,096,31*7C
$GPGSV,3,2,09,30,19,162,29,21,66,,,,,,,,,,,,*4E
$GPGSA,M,3,16,21,03,06,,,,,,,,,30.0,25.9,15.1*07
Trace #90 at position 22.250000
$GPZDA,132706.03,06,10,2011,00,00*61
$GPRMC,132706.00,A,4611.959301,N,01258.210367,E,001.3,157.7,061011,0.2,E,A*3D
$GPGGA,132707.00,4611.958359,N,01258.210567,E,1,04,25.9,125.14,M,46.25,M,,*50
$GPGLL,4611.958359,N,01258.210567,E,132707.00,A,A*69
$GPVTG,134.0,T,134.2,M,000.4,N,000.7,K,A*22
$GPGSV,3,1,09,19,10,282,,16,59,290,40,18,43,126,,29,17,096,31*7C
$GPGSV,3,2,09,30,19,162,29,21,66,,,,,,,,,,,,*4E
$GPGSA,M,3,16,21,03,06,,,,,,,,,30.0,25.9,15.1*07
Trace #91 at position 22.500000
$GPZDA,132706.03,06,10,2011,00,00*61
$GPRMC,132706.00,A,4611.959301,N,01258.210367,E,001.3,157.7,061011,0.2,E,A*3D
$GPGGA,132707.00,4611.958359,N,01258.210567,E,1,04,25.9,125.14,M,46.25,M,,*50
$GPGLL,4611.958359,N,01258.210567,E,132707.00,A,A*69
$GPVTG,134.0,T,134.2,M,000.4,N,000.7,K,A*22
$GPGSV,3,1,09,19,10,282,,16,59,290,40,18,43,126,,29,17,096,31*7C
$GPGSV,3,2,09,30,19,162,29,21,66,,,,,,,,,,,,*4E
$GPGSA,M,3,16,21,03,06,,,,,,,,,30.0,25.9,15.1*07
Trace #92 at position 22.750000
$GPZDA,132706.03,06,10,2011,00,00*61
$GPRMC,132706.00,A,4611.959301,N,01258.210367,E,001.3,157.7,061011,0.2,E,A*3D
$GPGGA,132707.00,4611.958359,N,01258.210567,E,1,04,25.9,125.14,M,46.25,M,,*50
$GPGLL,4611.958359,N,01258.210567,E,132707.00,A,A*69
$GPVTG,134.0,T,134.2,M,000.4,N,000.7,K,A*22
$GPGSV,3,1,09,19,10,282,,16,59,290,40,18,43,126,,29,17,096,31*7C
$GPGSV,3,2,09,30,19,162,29,21,66,,,,,,,,,,,,*4E
$GPGSA,M,3,16,21,03,06,,,,,,,,,30.0,25.9,15.1*07
Trace #93 at position 23.000000
$GPZDA,132706.03,06,10,2011,00,00*61
$GPRMC,132706.00,A,4611.959301,N,01258.210367,E,001.3,157.7,061011,0.2,E,A*3D
$GPGGA,132707.00,4611.958359,N,01258.210567,E,1,04,25.9,125.14,M,46.25,M,,*50
$GPGLL,4611.958359,N,01258.210567,E,132707.00,A,A*69
$GPVTG,134.0,T,134.2,M,000.4,N,000.7,K,A*22
$GPGSV,3,1,09,19,10,282,,16,59,290,40,18,43,126,,29,17,096,31*7C
$GPGSV,3,2,09,30,19,162,29,21,66,,,,,,,,,,,,*4E
$GPGSA,M,3,16,21,03,06,,,,,,,,,30.0,25.9,15.1*07
Trace #94 at position 23.250000
$GPZDA,132707.03,06,10,2011,00,00*60
$GPRMC,132707.00,A,4611.958359,N,01258.210567,E,000.4,134.0,061011,0.2,E,A*32
$GPGGA,132708.00,4611.957692,N,01258.210711,E,1,04,25.9,124.63,M,46.25,M,,*50
$GPGLL,4611.957692,N,01258.210711,E,132708.00,A,A*68
$GPVTG,33.3,T,33.5,M,000.4,N,000.8,K,A*29
$GPGSV,3,1,09,19,10,282,,16,59,290,41,18,43,126,,29,17,096,31*7D
$GPGSV,3,2,09,30,19,162,31,21,66,061,40,22,21,169,34,03,39,293,40*72
$GPGSV,3,3,09,065.9,15.1*07
$GPZDA,132708.03,06,10,2011,00,00*6F
$GPRMC,132708.00,A,4611.957692,N,01258.210711,E,000.4,33.3,061011,0.2,E,A*06
$GPGGA,132709.00,4611.958718,N,01258.210815,E,1,05,3.4,125.95,M,46.25,M,,*66
$GPGLL,4611.958718,N,01258.210815,E,132709.00,A,A*6E
$GPVTG,162.2,T,162.4,M,001.4,N,002.6,K,A*24
$GPGSV,3,1,09,19,10,282,,16,59,290,41,18,43,126,,29,17,096,30*7C
$GPGSV,3,2,09,30,19,162,31,21,66,061,39,22,21,169,33,03,39,293,39*75
$GPGSV,3,3,09,06,54,296,39,,,,,,,,,,,,*40
$GPGSA,M,3,16,21,22,03,06,,$GPGGA,132710.00,4611.959181,N,01258.210916,E,1,05,3.4,126.82,M,46.25,M,,*6E
Trace #95 at position 23.500000
$GPZDA,132707.03,06,10,2011,00,00*60
$GPRMC,132707.00,A,4611.958359,N,01258.210567,E,000.4,134.0,061011,0.2,E,A*32
$GPGGA,132708.00,4611.957692,N,01258.210711,E,1,04,25.9,124.63,M,46.25,M,,*50
$GPGLL,4611.957692,N,01258.210711,E,132708.00,A,A*68
$GPVTG,33.3,T,33.5,M,000.4,N,000.8,K,A*29
$GPGSV,3,1,09,19,10,282,,16,59,290,41,18,43,126,,29,17,096,31*7D
$GPGSV,3,2,09,30,19,162,31,21,66,061,40,22,21,169,34,03,39,293,40*72
$GPGSV,3,3,09,065.9,15.1*07
$GPZDA,132708.03,06,10,2011,00,00*6F
$GPRMC,132708.00,A,4611.957692,N,01258.210711,E,000.4,33.3,061011,0.2,E,A*06
$GPGGA,132709.00,4611.958718,N,01258.210815,E,1,05,3.4,125.95,M,46.25,M,,*66
$GPGLL,4611.958718,N,01258.210815,E,132709.00,A,A*6E
$GPVTG,162.2,T,162.4,M,001.4,N,002.6,K,A*24
$GPGSV,3,1,09,19,10,282,,16,59,290,41,18,43,126,,29,17,096,30*7C
$GPGSV,3,2,09,30,19,162,31,21,66,061,39,22,21,169,33,03,39,293,39*75
$GPGSV,3,3,09,06,54,296,39,,,,,,,,,,,,*40
$GPGSA,M,3,16,21,22,03,06,,$GPGGA,132710.00,4611.959181,N,01258.210916,E,1,05,3.4,126.82,M,46.25,M,,*6E
Trace #96 at position 23.750000
$GPGLL,4611.959181,N,01258.210916,E,132710.00,A,A*63
$GPVTG,173.0,T,173.1,M,001.5,N,002.8,K,A*2C
$GPGSV,3,1,09,19,10,282,,16,59,290,40,18,43,126,,29,17,096,31*7C
$GPGSV,3,2,09,30,19,162,29,21,66,061,40,22,21,169,32,03,39,293,40*7D
$GPGSV,3,3,09,06,54,296,40,,,,,,,,,,,,*4E
$GPGSA,M,3,16,21,22,03,06,,,,,,,,6.7,3.4,5.7*3B
Trace #97 at position 24.000000
$GPZDA,132710.03,06,10,2011,00,00*66
$GPRMC,132710.00,A,4611.959181,N,01258.210916,E,001.5,173.0,061011,0.$GPGGA,132711.00,4611.958106,N,01258.211134,E,1,04,25.7,125.94,M,46.25,M,,*5A
$GPGLL,4611.958106,N,01258.211134,E,132711.00,A,A*65
$GPVTG,151.6,T,151.8,M,001.6,N,002.9,K,A*21
$GPGSV,3,1,09,19,10,282,,16,59,290,41,18,43,126,,29,17,096,31*7D
$GPGSV,3,2,09,30,19,162,28,21,66,061,40,22,21,169,30,03,39,293,40*7E
$GPGSV,3,3,09,06,54,296,40,,,,,,,,,,,,*4E
$GPGSA,M,3,16,21,03,06,,,,,,,,,29.8,25.7,15.1*09
Trace #98 at position 24.250000
$GPZDA,132712.03,06,10,2011,00,00*64
$GPRMC,132712.00,A,4611.957078,N,01258.211456,E,001.2,139.9,061011,$GPGGA,132713.00,4611.956376,N,01258.211717,E,1,04,25.6,124.81,M,46.25,M,,*50
$GPGLL,4611.956376,N,01258.211717,E,132713.00,A,A*6B
$GPVTG,41.3,T,41.4,M,000.8,N,001.4,K,A*29
$GPGSV,3,1,09,19,10,282,,16,59,290,40,18,43,126,,29,17,096,31*7C
$GPGSV,3,2,09,30,19,162,28,21,66,061,39,22,21,169,,03,39,293,40*73
$GPGSV,3,3,09,06,54,296,41,,,,,,,,,,,,*4F
$GPGSA,M,3,16,21,03,06,,,,,,,,,29.7,25.6,15.1*07
Trace #99 at position 24.500000
$GPZDA,132713.03,06,10,2011,00,00*65
$GPRMC,132713.00,A,4611.956376,N,01258.211717,E,000.8,41.3,061011,0.2,E$GPGGA,132714.00,4611.955800,N,01258.211976,E,1,04,25.6,124.34,M,46.25,M,,*59
$GPGLL,4611.955800,N,01258.211976,E,132714.00,A,A*6C
$GPVTG,115.7,T,115.9,M,001.0,N,001.8,K,A*25
$GPGSV,3,1,09,19,10,282,,16,59,290,39,18,43,126,,29,17,096,*70
$GPGSV,3,2,09,30,19,162,25,21,66,061,38,22,21,169,25,03,39,293,40*78
$GPGSV,3,3,09,06,54,296,41,,,,,,,,,,,,*4F
$GPGSA,M,3,16,21,03,06,,,,,,,,,29.7,25.6,15.1*07
Trace #100 at position 24.750000
$GPZDA,132713.03,06,10,2011,00,00*65
$GPRMC,132713.00,A,4611.956376,N,01258.211717,E,000.8,41.3,061011,0.2,E$GPGGA,132714.00,4611.955800,N,01258.211976,E,1,04,25.6,124.34,M,46.25,M,,*59
$GPGLL,4611.955800,N,01258.211976,E,132714.00,A,A*6C
$GPVTG,115.7,T,115.9,M,001.0,N,001.8,K,A*25
$GPGSV,3,1,09,19,10,282,,16,59,290,39,18,43,126,,29,17,096,*70
$GPGSV,3,2,09,30,19,162,25,21,66,061,38,22,21,169,25,03,39,293,40*78
$GPGSV,3,3,09,06,54,296,41,,,,,,,,,,,,*4F
$GPGSA,M,3,16,21,03,06,,,,,,,,,29.7,25.6,15.1*07
Trace #101 at position 25.000000
$GPZDA,132714.03,06,10,2011,00,00*62
$GPRMC,132714.00,A,4611.955800,N,01258.211976,E,001.0,115.7,061011,0.,46.25,M,,*5E
$GPGLL,4611.954992,N,01258.212071,E,132715.00,A,A*6B
$GPVTG,191.7,T,191.8,M,001.5,N,002.8,K,A*22
$GPGSV,3,1,09,19,10,282,,16,59,290,40,18,43,126,,29,17,096,31*7C
$GPGSV,3,2,09,30,19,162,,21,66,061,39,22,21,169,,03,39,293,40*79
$GPGSV,3,3,09,06,54,296,41,,,,,,,,,,,,*4F
$GPGSA,M,3,16,21,03,06,,,,,,,,,29.6,25.5,15.1*05
Trace #102 at position 25.250000
$GPZDA,132714.03,06,10,2011,00,00*62
$GPRMC,132714.00,A,4611.955800,N,01258.211976,E,001.0,115.7,061011,0.,46.25,M,,*5E
$GPGLL,4611.954992,N,01258.212071,E,132715.00,A,A*6B
$GPVTG,191.7,T,191.8,M,001.5,N,002.8,K,A*22
$GPGSV,3,1,09,19,10,282,,16,59,290,40,18,43,126,,29,17,096,31*7C
$GPGSV,3,2,09,30,19,162,,21,66,061,39,22,21,169,,03,39,293,40*79
$GPGSV,3,3,09,06,54,296,41,,,,,,,,,,,,*4F
$GPGSA,M,3,16,21,03,06,,,,,,,,,29.6,25.5,15.1*05
Trace #103 at position 25.500000
$GPZDA,132715.03,06,10,2011,00,00*63
$GPRMC,132715.00,A,4611.954992,N,01258.212071,E,001.5,191.7,061011,0.2,E,A*38
$GPGGA,132716.00,4611.954395,N,01258.212112,E,1,04,25.5,K,A*22
$GPGSV,3,1,09,19,10,282,,16,59,290,40,18,43,126,,29,17,096,31*7C
$GPGSV,3,2,09,30,19,162,,21,66,061,40,22,21,169,,03,39,293,40*77
$GPGSV,3,3,09,06,54,296,40,,,,,,,,,,,,*4E
$GPGSA,M,3,16,21,03,06,,,,,,,,,29.6,25.5,15.1*05
Trace #104 at position 25.750000
$GPZDA,132715.03,06,10,2011,00,00*63
$GPRMC,132715.00,A,4611.954992,N,01258.212071,E,001.5,191.7,061011,0.2,E,A*38
$GPGGA,132716.00,4611.954395,N,01258.212112,E,1,04,25.5,K,A*22
$GPGSV,3,1,09,19,10,282,,16,59,290,40,18,43,126,,29,17,096,31*7C
$GPGSV,3,2,09,30,19,162,,21,66,061,40,22,21,169,,03,39,293,40*77
$GPGSV,3,3,09,06,54,296,40,,,,,,,,,,,,*4E
$GPGSA,M,3,16,21,03,06,,,,,,,,,29.6,25.5,15.1*05
Trace #105 at position 26.000000
$GPZDA,132716.03,06,10,2011,00,00*60
$GPRMC,132716.00,A,4611.954395,N,01258.212112,E,000.9,39.7,061011,0.2,E,A*0C
$GPGGA,132717.00,4611.953966,N,01258.212360,E,1,04,25.4,123.13,M,46.25,M,,*53
$GPGLL,4611.953966,N,01258.212360,E,132717.00,A,A*66
$GPVTG,119.3,T,119.5,M,001.0,N061,39,22,21,169,,03,39,293,40*79
$GPGSV,3,3,09,06,54,296,40,,,,,,,,,,,,*4E
$GPGSA,M,3,16,21,03,06,,,,,,,,,29.5,25.4,15.1*07
Trace #106 at position 26.250000
$GPZDA,132716.03,06,10,2011,00,00*60
$GPRMC,132716.00,A,4611.954395,N,01258.212112,E,000.9,39.7,061011,0.2,E,A*0C
$GPGGA,132717.00,4611.953966,N,01258.212360,E,1,04,25.4,123.13,M,46.25,M,,*53
$GPGLL,4611.953966,N,01258.212360,E,132717.00,A,A*66
$GPVTG,119.3,T,119.5,M,001.0,N061,39,22,21,169,,03,39,293,40*79
$GPGSV,3,3,09,06,54,296,40,,,,,,,,,,,,*4E
$GPGSA,M,3,16,21,03,06,,,,,,,,,29.5,25.4,15.1*07
Trace #107 at position 26.500000
$GPZDA,132717.03,06,10,2011,00,00*61
$GPRMC,132717.00,A,4611.953966,N,01258.212360,E,001.0,119.3,061011,0.2,E,A*34
$GPGGA,132718.00,4611.953564,N,01258.212484,E,1,04,25.4,122.71,M,46.25,M,,*5A
$GPGLL,4611.953564,N,01258.212484,E,132718.00,A,A*6A
$GPVTG,359.5,T,359.6,M,000.4,N,000.7,K,A*23
$GPGSV,3,1,09,19,10,282,,16,59,290,40,18,43,126,,29,17,096,31*7C
$GPGSV,3,2,09,30,19,16296,40,,,,,,,,,,,,*4E
$GPGSA,M,3,16,21,03,06,,,,,,,,,29.5,25.4,15.1*07
Trace #108 at position 26.750000
$GPZDA,132717.03,06,10,2011,00,00*61
$GPRMC,132717.00,A,4611.953966,N,01258.212360,E,001.0,119.3,061011,0.2,E,A*34
$GPGGA,132718.00,4611.953564,N,01258.212484,E,1,04,25.4,122.71,M,46.25,M,,*5A
$GPGLL,4611.953564,N,01258.212484,E,132718.00,A,A*6A
$GPVTG,359.5,T,359.6,M,000.4,N,000.7,K,A*23
$GPGSV,3,1,09,19,10,282,,16,59,290,40,18,43,126,,29,17,096,31*7C
$GPGSV,3,2,09,30,19,16296,40,,,,,,,,,,,,*4E
$GPGSA,M,3,16,21,03,06,,,,,,,,,29.5,25.4,15.1*07
Trace #109 at position 27.000000
$GPZDA,132717.03,06,10,2011,00,00*61
$GPRMC,132717.00,A,4611.953966,N,01258.212360,E,001.0,119.3,061011,0.2,E,A*34
$GPGGA,132718.00,4611.953564,N,01258.212484,E,1,04,25.4,122.71,M,46.25,M,,*5A
$GPGLL,4611.953564,N,01258.212484,E,132718.00,A,A*6A
$GPVTG,359.5,T,359.6,M,000.4,N,000.7,K,A*23
$GPGSV,3,1,09,19,10,282,,16,59,290,40,18,43,126,,29,17,096,31*7C
$GPGSV,3,2,09,30,19,16296,40,,,,,,,,,,,,*4E
$GPGSA,M,3,16,21,03,06,,,,,,,,,29.5,25.4,15.1*07
Trace #110 at position 27.250000
$GPZDA,132717.03,06,10,2011,00,00*61
$GPRMC,132717.00,A,4611.953966,N,01258.212360,E,001.0,119.3,061011,0.2,E,A*34
$GPGGA,132718.00,4611.953564,N,01258.212484,E,1,04,25.4,122.71,M,46.25,M,,*5A
$GPGLL,4611.953564,N,01258.212484,E,132718.00,A,A*6A
$GPVTG,359.5,T,359.6,M,000.4,N,000.7,K,A*23
$GPGSV,3,1,09,19,10,282,,16,59,290,40,18,43,126,,29,17,096,31*7C
$GPGSV,3,2,09,30,19,16296,40,,,,,,,,,,,,*4E
