Trace #1 at position 0.000000
$GPZDA,102915.03,08,10,2011,00,00*60
$GPRMC,102915.00,A,4611.952413,N,01258.221514,E,000.1,245.1,081011,0.2,E,A*36
$GPGGA,102916.00,4611.952426,N,01258.221522,E,1,04,6.3,136.92,M,46.25,M,,*6C
$GPGLL,4611.952426,N,01258.221522,E,102916.00,A,A*62
$GPVTG,259.8,T,259.9,M,000.1,N,000.1,K,A*22
$GPGSV,2,1,07,21,28,186,34,02,18,044,45,12,23,112,46,25,57,109,48*75
$GPGSV,2,2,07,29,82,008,38,30,74,307,32,31,52,278,,,,,*41
$GPGSA,M,3,02,12,25,29,,,,,,,,,9.0,6.3,6.4*3D
Trace #2 at position 0.250000
$GPZDA,102918.03,08,10,2011,00,00*6D
$GPRMC,102918.00,A,4611.952456,N,01258.221619,E,000.2,240.2,081011,0.2,E,A*31
$GPGGA,102919.00,4611.952464,N,01258.221645,E,1,04,6.3,137.14,M,46.25,M,,*68
$GPGLL,4611.952464,N,01258.221645,E,102919.00,A,A*69
$GPVTG,68.8,T,69.0,M,000.1,N,000.1,K,A*2A
$GPGSV,2,1,07,21,28,186,35,02,18,044,45,12,23,112,46,25,57,109,48*74
$GPGSV,2,2,07,29,82,008,39,30,74,307,33,31,52,278,,,,,*41
$GPGSA,M,3,02,12,25,29,,,,,,,,,9.0,6.3,6.4*3D
Trace #3 at position 0.500000
$GPZDA,102918.03,08,10,2011,00,00*6D
$GPRMC,102918.00,A,4611.952456,N,01258.221619,E,000.2,240.2,081011,0.2,E,A*31
$GPGGA,102919.00,4611.952464,N,01258.221645,E,1,04,6.3,137.14,M,46.25,M,,*68
$GPGLL,4611.952464,N,01258.221645,E,102919.00,A,A*69
$GPVTG,68.8,T,69.0,M,000.1,N,000.1,K,A*2A
$GPGSV,2,1,07,21,28,186,35,02,18,044,45,12,23,112,46,25,57,109,48*74
$GPGSV,2,2,07,29,82,008,39,30,74,307,33,31,52,278,,,,,*41
$GPGSA,M,3,02,12,25,29,,,,,,,,,9.0,6.3,6.4*3D
Trace #4 at position 0.750000
$GPZDA,102919.03,08,10,2011,00,00*6C
$GPRMC,102919.00,A,4611.952464,N,01258.221645,E,000.1,68.8,081011,0.2,E,A*09
$GPGGA,102920.00,4611.952567,N,01258.221654,E,1,04,6.3,137.20,M,46.25,M,,*67
$GPGLL,4611.952567,N,01258.221654,E,102920.00,A,A*61
$GPVTG,341.2,T,341.4,M,000.7,N,001.3,K,A*20
$GPGSV,2,1,07,21,28,186,38,02,18,044,47,12,23,112,46,25,57,109,46*75
$GPGSV,2,2,07,29,82,008,41,30,74,307,33,31,52,278,,,,,*4E
$GPGSA,M,3,02,12,25,29,,,,,,,,,9.0,6.3,6.4*3D
Trace #5 at position 1.000000
$GPZDA,102919.03,08,10,2011,00,00*6C
$GPRMC,102919.00,A,4611.952464,N,01258.221645,E,000.1,68.8,081011,0.2,E,A*09
$GPGGA,102920.00,4611.952567,N,01258.221654,E,1,04,6.3,137.20,M,46.25,M,,*67
$GPGLL,4611.952567,N,01258.221654,E,102920.00,A,A*61
$GPVTG,341.2,T,341.4,M,000.7,N,001.3,K,A*20
$GPGSV,2,1,07,21,28,186,38,02,18,044,47,12,23,112,46,25,57,109,46*75
$GPGSV,2,2,07,29,82,008,41,30,74,307,33,31,52,278,,,,,*4E
$GPGSA,M,3,02,12,25,29,,,,,,,,,9.0,6.3,6.4*3D
Trace #6 at position 1.250000
$GPZDA,102920.03,08,10,2011,00,00*66
$GPRMC,102920.00,A,4611.952567,N,01258.221654,E,000.7,341.2,081011,0.2,E,A*35
$GPGGA,102921.00,4611.952774,N,01258.221718,E,1,05,1.8,137.39,M,46.25,M,,*6A
$GPGLL,4611.952774,N,01258.221718,E,102921.00,A,A*69
$GPVTG,351.3,T,351.4,M,000.6,N,001.0,K,A*23
$GPGSV,2,1,07,21,28,186,41,02,18,044,47,12,23,112,44,25,57,109,47*78
$GPGSV,2,2,07,29,82,008,39,30,74,307,33,31,52,278,,,,,*41
$GPGSA,M,3,21,02,12,25,29,,,,,,,,2.7,1.8,2.0*3E
Trace #7 at position 1.500000
$GPZDA,102920.03,08,10,2011,00,00*66
$GPRMC,102920.00,A,4611.952567,N,01258.221654,E,000.7,341.2,081011,0.2,E,A*35
$GPGGA,102921.00,4611.952774,N,01258.221718,E,1,05,1.8,137.39,M,46.25,M,,*6A
$GPGLL,4611.952774,N,01258.221718,E,102921.00,A,A*69
$GPVTG,351.3,T,351.4,M,000.6,N,001.0,K,A*23
$GPGSV,2,1,07,21,28,186,41,02,18,044,47,12,23,112,44,25,57,109,47*78
$GPGSV,2,2,07,29,82,008,39,30,74,307,33,31,52,278,,,,,*41
$GPGSA,M,3,21,02,12,25,29,,,,,,,,2.7,1.8,2.0*3E
Trace #8 at position 1.750000
$GPZDA,102921.03,08,10,2011,00,00*67
$GPRMC,102921.00,A,4611.952774,N,01258.221718,E,000.6,351.3,081011,0.2,E,A*3C
$GPGGA,102922.00,4611.953061,N,01258.221762,E,1,05,1.8,137.61,M,46.25,M,,*6B
$GPGLL,4611.953061,N,01258.221762,E,102922.00,A,A*65
$GPVTG,349.2,T,349.3,M,001.3,N,002.4,K,A*26
$GPGSV,2,1,07,21,29,186,41,02,18,044,47,12,23,112,43,25,57,109,48*71
$GPGSV,2,2,07,29,82,008,38,30,74,307,34,31,52,278,,,,,*47
$GPGSA,M,3,21,02,12,25,29,,,,,,,,2.7,1.8,2.0*3E
Trace #9 at position 2.000000
$GPZDA,102921.03,08,10,2011,00,00*67
$GPRMC,102921.00,A,4611.952774,N,01258.221718,E,000.6,351.3,081011,0.2,E,A*3C
$GPGGA,102922.00,4611.953061,N,01258.221762,E,1,05,1.8,137.61,M,46.25,M,,*6B
$GPGLL,4611.953061,N,01258.221762,E,102922.00,A,A*65
$GPVTG,349.2,T,349.3,M,001.3,N,002.4,K,A*26
$GPGSV,2,1,07,21,29,186,41,02,18,044,47,12,23,112,43,25,57,109,48*71
$GPGSV,2,2,07,29,82,008,38,30,74,307,34,31,52,278,,,,,*47
$GPGSA,M,3,21,02,12,25,29,,,,,,,,2.7,1.8,2.0*3E
Trace #10 at position 2.250000
$GPZDA,102922.03,08,10,2011,00,00*64
$GPRMC,102922.00,A,4611.953061,N,01258.221762,E,001.3,349.2,081011,0.2,E,A*3C
$GPGGA,102923.00,4611.953387,N,01258.221774,E,1,05,1.8,137.79,M,46.25,M,,*6F
$GPGLL,4611.953387,N,01258.221774,E,102923.00,A,A*68
$GPVTG,350.1,T,350.3,M,001.0,N,001.8,K,A*29
$GPGSV,2,1,07,21,29,186,42,02,18,044,49,12,23,112,42,25,57,109,48*7D
$GPGSV,2,2,07,29,82,008,39,30,74,307,32,31,52,278,,,,,*40
$GPGSA,M,3,21,02,12,25,29,,,,,,,,2.7,1.8,2.0*3E
Trace #11 at position 2.500000
$GPZDA,102922.03,08,10,2011,00,00*64
$GPRMC,102922.00,A,4611.953061,N,01258.221762,E,001.3,349.2,081011,0.2,E,A*3C
$GPGGA,102923.00,4611.953387,N,01258.221774,E,1,05,1.8,137.79,M,46.25,M,,*6F
$GPGLL,4611.953387,N,01258.221774,E,102923.00,A,A*68
$GPVTG,350.1,T,350.3,M,001.0,N,001.8,K,A*29
$GPGSV,2,1,07,21,29,186,42,02,18,044,49,12,23,112,42,25,57,109,48*7D
$GPGSV,2,2,07,29,82,008,39,30,74,307,32,31,52,278,,,,,*40
$GPGSA,M,3,21,02,12,25,29,,,,,,,,2.7,1.8,2.0*3E
Trace #12 at position 2.750000
$GPZDA,102923.03,08,10,2011,00,00*65
$GPRMC,102923.00,A,4611.953387,N,01258.221774,E,001.0,350.1,081011,0.2,E,A*39
$GPGGA,102924.00,4611.953671,N,01258.221658,E,1,05,1.8,137.96,M,46.25,M,,*6A
$GPGLL,4611.953671,N,01258.221658,E,102924.00,A,A*6C
$GPVTG,319.6,T,319.8,M,001.3,N,002.4,K,A*29
$GPGSV,2,1,07,21,29,186,41,02,18,044,48,12,23,112,43,25,57,109,47*71
$GPGSV,2,2,07,29,82,008,41,30,74,307,25,31,52,278,,,,,*49
$GPGSA,M,3,21,02,12,25,29,,,,,,,,2.7,1.8,2.0*3E
Trace #13 at position 3.000000
$GPZDA,102923.03,08,10,2011,00,00*65
$GPRMC,102923.00,A,4611.953387,N,01258.221774,E,001.0,350.1,081011,0.2,E,A*39
$GPGGA,102924.00,4611.953671,N,01258.221658,E,1,05,1.8,137.96,M,46.25,M,,*6A
$GPGLL,4611.953671,N,01258.221658,E,102924.00,A,A*6C
$GPVTG,319.6,T,319.8,M,001.3,N,002.4,K,A*29
$GPGSV,2,1,07,21,29,186,41,02,18,044,48,12,23,112,43,25,57,109,47*71
$GPGSV,2,2,07,29,82,008,41,30,74,307,25,31,52,278,,,,,*49
$GPGSA,M,3,21,02,12,25,29,,,,,,,,2.7,1.8,2.0*3E
Trace #14 at position 3.250000
$GPZDA,102924.03,08,10,2011,00,00*62
$GPRMC,102924.00,A,4611.953671,N,01258.221658,E,001.3,319.6,081011,0.2,E,A*34
$GPGGA,102925.00,4611.953891,N,01258.221597,E,1,05,1.8,138.21,M,46.25,M,,*68
$GPGLL,4611.953891,N,01258.221597,E,102925.00,A,A*6D
$GPVTG,15.0,T,15.2,M,000.5,N,000.9,K,A*2D
$GPGSV,2,1,07,21,29,186,41,02,18,044,47,12,23,112,45,25,57,109,43*7C
$GPGSV,2,2,07,29,82,008,41,30,74,307,32,31,52,278,,,,,*4F
$GPGSA,M,3,21,02,12,25,29,,,,,,,,2.7,1.8,2.0*3E
Trace #15 at position 3.500000
$GPZDA,102924.03,08,10,2011,00,00*62
$GPRMC,102924.00,A,4611.953671,N,01258.221658,E,001.3,319.6,081011,0.2,E,A*34
$GPGGA,102925.00,4611.953891,N,01258.221597,E,1,05,1.8,138.21,M,46.25,M,,*68
$GPGLL,4611.953891,N,01258.221597,E,102925.00,A,A*6D
$GPVTG,15.0,T,15.2,M,000.5,N,000.9,K,A*2D
$GPGSV,2,1,07,21,29,186,41,02,18,044,47,12,23,112,45,25,57,109,43*7C
$GPGSV,2,2,07,29,82,008,41,30,74,307,32,31,52,278,,,,,*4F
$GPGSA,M,3,21,02,12,25,29,,,,,,,,2.7,1.8,2.0*3E
Trace #16 at position 3.750000
$GPZDA,102924.03,08,10,2011,00,00*62
$GPRMC,102924.00,A,4611.953671,N,01258.221658,E,001.3,319.6,081011,0.2,E,A*34
$GPGGA,102925.00,4611.953891,N,01258.221597,E,1,05,1.8,138.21,M,46.25,M,,*68
$GPGLL,4611.953891,N,01258.221597,E,102925.00,A,A*6D
$GPVTG,15.0,T,15.2,M,000.5,N,000.9,K,A*2D
$GPGSV,2,1,07,21,29,186,41,02,18,044,47,12,23,112,45,25,57,109,43*7C
$GPGSV,2,2,07,29,82,008,41,30,74,307,32,31,52,278,,,,,*4F
$GPGSA,M,3,21,02,12,25,29,,,,,,,,2.7,1.8,2.0*3E
Trace #17 at position 4.000000
$GPZDA,102925.03,08,10,2011,00,00*63
$GPRMC,102925.00,A,4611.953891,N,01258.221597,E,000.5,15.0,081011,0.2,E,A*0B
$GPGGA,102926.00,4611.954137,N,01258.221646,E,1,05,1.8,138.44,M,46.25,M,,*65
$GPGLL,4611.954137,N,01258.221646,E,102926.00,A,A*63
$GPVTG,350.0,T,350.1,M,001.2,N,002.2,K,A*21
$GPGSV,2,1,07,21,29,186,41,02,18,044,49,12,23,112,43,25,57,109,43*74
$GPGSV,2,2,07,29,82,008,40,30,74,307,25,31,52,278,,,,,*48
$GPGSA,M,3,21,02,12,25,29,,,,,,,,2.7,1.8,2.0*3E
Trace #18 at position 4.250000
$GPZDA,102925.03,08,10,2011,00,00*63
$GPRMC,102925.00,A,4611.953891,N,01258.221597,E,000.5,15.0,081011,0.2,E,A*0B
$GPGGA,102926.00,4611.954137,N,01258.221646,E,1,05,1.8,138.44,M,46.25,M,,*65
$GPGLL,4611.954137,N,01258.221646,E,102926.00,A,A*63
$GPVTG,350.0,T,350.1,M,001.2,N,002.2,K,A*21
$GPGSV,2,1,07,21,29,186,41,02,18,044,49,12,23,112,43,25,57,109,43*74
$GPGSV,2,2,07,29,82,008,40,30,74,307,25,31,52,278,,,,,*48
$GPGSA,M,3,21,02,12,25,29,,,,,,,,2.7,1.8,2.0*3E
Trace #19 at position 4.500000
$GPZDA,102926.03,08,10,2011,00,00*60
$GPRMC,102926.00,A,4611.954137,N,01258.221646,E,001.2,350.0,081011,0.2,E,A*31
$GPGGA,102927.00,4611.954383,N,01258.221700,E,1,05,1.8,138.46,M,46.25,M,,*68
$GPGLL,4611.954383,N,01258.221700,E,102927.00,A,A*6C
$GPVTG,20.6,T,20.7,M,000.5,N,000.9,K,A*2E
$GPGSV,2,1,07,21,29,186,41,02,18,044,47,12,23,112,45,25,57,109,46*79
$GPGSV,2,2,07,29,82,008,40,30,74,307,32,31,52,278,,,,,*4E
$GPGSA,M,3,21,02,12,25,29,,,,,,,,2.7,1.8,2.0*3E
Trace #20 at position 4.750000
$GPZDA,102926.03,08,10,2011,00,00*60
$GPRMC,102926.00,A,4611.954137,N,01258.221646,E,001.2,350.0,081011,0.2,E,A*31
$GPGGA,102927.00,4611.954383,N,01258.221700,E,1,05,1.8,138.46,M,46.25,M,,*68
$GPGLL,4611.954383,N,01258.221700,E,102927.00,A,A*6C
$GPVTG,20.6,T,20.7,M,000.5,N,000.9,K,A*2E
$GPGSV,2,1,07,21,29,186,41,02,18,044,47,12,23,112,45,25,57,109,46*79
$GPGSV,2,2,07,29,82,008,40,30,74,307,32,31,52,278,,,,,*4E
$GPGSA,M,3,21,02,12,25,29,,,,,,,,2.7,1.8,2.0*3E
Trace #21 at position 5.000000
$GPZDA,102927.03,08,10,2011,00,00*61
$GPRMC,102927.00,A,4611.954383,N,01258.221700,E,000.5,20.6,081011,0.2,E,A*0A
$GPGGA,102928.00,4611.954727,N,01258.221783,E,1,05,1.8,138.62,M,46.25,M,,*60
$GPGLL,4611.954727,N,01258.221783,E,102928.00,A,A*62
$GPVTG,2.8,T,2.9,M,001.9,N,003.5,K,A*2C
$GPGSV,2,1,07,21,29,186,37,02,18,044,47,12,23,112,46,25,57,109,47*7A
$GPGSV,2,2,07,29,82,008,40,30,74,307,32,31,52,278,,,,,*4E
$GPGSA,M,3,21,02,12,25,29,,,,,,,,2.7,1.8,2.0*3E
Trace #22 at position 5.250000
$GPZDA,102927.03,08,10,2011,00,00*61
$GPRMC,102927.00,A,4611.954383,N,01258.221700,E,000.5,20.6,081011,0.2,E,A*0A
$GPGGA,102928.00,4611.954727,N,01258.221783,E,1,05,1.8,138.62,M,46.25,M,,*60
$GPGLL,4611.954727,N,01258.221783,E,102928.00,A,A*62
$GPVTG,2.8,T,2.9,M,001.9,N,003.5,K,A*2C
$GPGSV,2,1,07,21,29,186,37,02,18,044,47,12,23,112,46,25,57,109,47*7A
$GPGSV,2,2,07,29,82,008,40,30,74,307,32,31,52,278,,,,,*4E
$GPGSA,M,3,21,02,12,25,29,,,,,,,,2.7,1.8,2.0*3E
Trace #23 at position 5.500000
$GPZDA,102927.03,08,10,2011,00,00*61
$GPRMC,102927.00,A,4611.954383,N,01258.221700,E,000.5,20.6,081011,0.2,E,A*0A
$GPGGA,102928.00,4611.954727,N,01258.221783,E,1,05,1.8,138.62,M,46.25,M,,*60
$GPGLL,4611.954727,N,01258.221783,E,102928.00,A,A*62
$GPVTG,2.8,T,2.9,M,001.9,N,003.5,K,A*2C
$GPGSV,2,1,07,21,29,186,37,02,18,044,47,12,23,112,46,25,57,109,47*7A
$GPGSV,2,2,07,29,82,008,40,30,74,307,32,31,52,278,,,,,*4E
$GPGSA,M,3,21,02,12,25,29,,,,,,,,2.7,1.8,2.0*3E
Trace #24 at position 5.750000
$GPZDA,102928.03,08,10,2011,00,00*6E
$GPRMC,102928.00,A,4611.954727,N,01258.221783,E,001.9,2.8,081011,0.2,E,A*37
$GPGGA,102929.00,4611.955190,N,01258.221737,E,1,05,1.8,138.80,M,46.25,M,,*69
$GPGLL,4611.955190,N,01258.221737,E,102929.00,A,A*67
$GPVTG,343.0,T,343.2,M,001.5,N,002.7,K,A*20
$GPGSV,2,1,07,21,29,186,39,02,18,044,48,12,23,112,42,25,57,109,46*7E
$GPGSV,2,2,07,29,82,008,40,30,74,307,30,31,52,278,,,,,*4C
$GPGSA,M,3,21,02,12,25,29,,,,,,,,2.7,1.8,2.0*3E
Trace #25 at position 6.000000
$GPZDA,102928.03,08,10,2011,00,00*6E
$GPRMC,102928.00,A,4611.954727,N,01258.221783,E,001.9,2.8,081011,0.2,E,A*37
$GPGGA,102929.00,4611.955190,N,01258.221737,E,1,05,1.8,138.80,M,46.25,M,,*69
$GPGLL,4611.955190,N,01258.221737,E,102929.00,A,A*67
$GPVTG,343.0,T,343.2,M,001.5,N,002.7,K,A*20
$GPGSV,2,1,07,21,29,186,39,02,18,044,48,12,23,112,42,25,57,109,46*7E
$GPGSV,2,2,07,29,82,008,40,30,74,307,30,31,52,278,,,,,*4C
$GPGSA,M,3,21,02,12,25,29,,,,,,,,2.7,1.8,2.0*3E
Trace #26 at position 6.250000
$GPZDA,102929.03,08,10,2011,00,00*6F
$GPRMC,102929.00,A,4611.955190,N,01258.221737,E,001.5,343.0,081011,0.2,E,A*30
$GPGGA,102930.00,4611.955547,N,01258.221620,E,1,05,1.8,138.87,M,46.25,M,,*6F
$GPGLL,4611.955547,N,01258.221620,E,102930.00,A,A*66
$GPVTG,347.4,T,347.6,M,001.2,N,002.2,K,A*22
$GPGSV,2,1,07,21,29,186,41,02,18,044,48,12,23,112,47,25,57,109,47*75
$GPGSV,2,2,07,29,82,008,39,30,74,307,30,31,52,278,,,,,*42
$GPGSA,M,3,21,02,12,25,29,,,,,,,,2.7,1.8,2.0*3E
Trace #27 at position 6.500000
$GPZDA,102929.03,08,10,2011,00,00*6F
$GPRMC,102929.00,A,4611.955190,N,01258.221737,E,001.5,343.0,081011,0.2,E,A*30
$GPGGA,102930.00,4611.955547,N,01258.221620,E,1,05,1.8,138.87,M,46.25,M,,*6F
$GPGLL,4611.955547,N,01258.221620,E,102930.00,A,A*66
$GPVTG,347.4,T,347.6,M,001.2,N,002.2,K,A*22
$GPGSV,2,1,07,21,29,186,41,02,18,044,48,12,23,112,47,25,57,109,47*75
$GPGSV,2,2,07,29,82,008,39,30,74,307,30,31,52,278,,,,,*42
$GPGSA,M,3,21,02,12,25,29,,,,,,,,2.7,1.8,2.0*3E
Trace #28 at position 6.750000
$GPZDA,102929.03,08,10,2011,00,00*6F
$GPRMC,102929.00,A,4611.955190,N,01258.221737,E,001.5,343.0,081011,0.2,E,A*30
$GPGGA,102930.00,4611.955547,N,01258.221620,E,1,05,1.8,138.87,M,46.25,M,,*6F
$GPGLL,4611.955547,N,01258.221620,E,102930.00,A,A*66
$GPVTG,347.4,T,347.6,M,001.2,N,002.2,K,A*22
$GPGSV,2,1,07,21,29,186,41,02,18,044,48,12,23,112,47,25,57,109,47*75
$GPGSV,2,2,07,29,82,008,39,30,74,307,30,31,52,278,,,,,*42
$GPGSA,M,3,21,02,12,25,29,,,,,,,,2.7,1.8,2.0*3E
Trace #29 at position 7.000000
$GPZDA,102930.03,08,10,2011,00,00*67
$GPRMC,102930.00,A,4611.955547,N,01258.221620,E,001.2,347.4,081011,0.2,E,A*36
$GPGGA,102931.00,4611.955870,N,01258.221466,E,1,05,1.8,138.88,M,46.25,M,,*68
$GPGLL,4611.955870,N,01258.221466,E,102931.00,A,A*6E
$GPVTG,330.6,T,330.8,M,001.3,N,002.4,K,A*29
$GPGSV,2,1,07,21,29,186,42,02,18,044,48,12,23,112,46,25,57,109,46*76
$GPGSV,2,2,07,29,82,008,40,30,74,307,30,31,52,278,,,,,*4C
$GPGSA,M,3,21,02,12,25,29,,,,,,,,2.7,1.8,2.0*3E
Trace #30 at position 7.250000
$GPZDA,102930.03,08,10,2011,00,00*67
$GPRMC,102930.00,A,4611.955547,N,01258.221620,E,001.2,347.4,081011,0.2,E,A*36
$GPGGA,102931.00,4611.955870,N,01258.221466,E,1,05,1.8,138.88,M,46.25,M,,*68
$GPGLL,4611.955870,N,01258.221466,E,102931.00,A,A*6E
$GPVTG,330.6,T,330.8,M,001.3,N,002.4,K,A*29
$GPGSV,2,1,07,21,29,186,42,02,18,044,48,12,23,112,46,25,57,109,46*76
$GPGSV,2,2,07,29,82,008,40,30,74,307,30,31,52,278,,,,,*4C
$GPGSA,M,3,21,02,12,25,29,,,,,,,,2.7,1.8,2.0*3E
Trace #31 at position 7.500000
$GPZDA,102930.03,08,10,2011,00,00*67
$GPRMC,102930.00,A,4611.955547,N,01258.221620,E,001.2,347.4,081011,0.2,E,A*36
$GPGGA,102931.00,4611.955870,N,01258.221466,E,1,05,1.8,138.88,M,46.25,M,,*68
$GPGLL,4611.955870,N,01258.221466,E,102931.00,A,A*6E
$GPVTG,330.6,T,330.8,M,001.3,N,002.4,K,A*29
$GPGSV,2,1,07,21,29,186,42,02,18,044,48,12,23,112,46,25,57,109,46*76
$GPGSV,2,2,07,29,82,008,40,30,74,307,30,31,52,278,,,,,*4C
$GPGSA,M,3,21,02,12,25,29,,,,,,,,2.7,1.8,2.0*3E
Trace #32 at position 7.750000
$GPZDA,102931.03,08,10,2011,00,00*66
$GPRMC,102931.00,A,4611.955870,N,01258.221466,E,001.3,330.6,081011,0.2,E,A*3D
$GPGGA,102932.00,4611.956203,N,01258.221234,E,1,05,1.8,138.90,M,46.25,M,,*6E
$GPGLL,4611.956203,N,01258.221234,E,102932.00,A,A*61
$GPVTG,330.1,T,330.2,M,001.4,N,002.7,K,A*20
$GPGSV,2,1,07,21,29,186,41,02,18,044,49,12,23,112,46,25,57,109,46*74
$GPGSV,2,2,07,29,82,008,40,30,74,307,32,31,52,278,,,,,*4E
$GPGSA,M,3,21,02,12,25,29,,,,,,,,2.7,1.8,2.0*3E
Trace #33 at position 8.000000
$GPZDA,102931.03,08,10,2011,00,00*66
$GPRMC,102931.00,A,4611.955870,N,01258.221466,E,001.3,330.6,081011,0.2,E,A*3D
$GPGGA,102932.00,4611.956203,N,01258.221234,E,1,05,1.8,138.90,M,46.25,M,,*6E
$GPGLL,4611.956203,N,01258.221234,E,102932.00,A,A*61
$GPVTG,330.1,T,330.2,M,001.4,N,002.7,K,A*20
$GPGSV,2,1,07,21,29,186,41,02,18,044,49,12,23,112,46,25,57,109,46*74
$GPGSV,2,2,07,29,82,008,40,30,74,307,32,31,52,278,,,,,*4E
$GPGSA,M,3,21,02,12,25,29,,,,,,,,2.7,1.8,2.0*3E
Trace #34 at position 8.250000
$GPZDA,102931.03,08,10,2011,00,00*66
$GPRMC,102931.00,A,4611.955870,N,01258.221466,E,001.3,330.6,081011,0.2,E,A*3D
$GPGGA,102932.00,4611.956203,N,01258.221234,E,1,05,1.8,138.90,M,46.25,M,,*6E
$GPGLL,4611.956203,N,01258.221234,E,102932.00,A,A*61
$GPVTG,330.1,T,330.2,M,001.4,N,002.7,K,A*20
$GPGSV,2,1,07,21,29,186,41,02,18,044,49,12,23,112,46,25,57,109,46*74
$GPGSV,2,2,07,29,82,008,40,30,74,307,32,31,52,278,,,,,*4E
$GPGSA,M,3,21,02,12,25,29,,,,,,,,2.7,1.8,2.0*3E
Trace #35 at position 8.500000
$GPZDA,102932.03,08,10,2011,00,00*65
$GPRMC,102932.00,A,4611.956203,N,01258.221234,E,001.4,330.1,081011,0.2,E,A*32
$GPGGA,102933.00,4611.956596,N,01258.221050,E,1,05,1.8,138.96,M,46.25,M,,*62
$GPGLL,4611.956596,N,01258.221050,E,102933.00,A,A*6B
$GPVTG,345.8,T,346.0,M,001.6,N,003.0,K,A*2C
$GPGSV,2,1,07,21,29,186,39,02,18,044,49,12,23,112,47,25,57,109,46*7A
$GPGSV,2,2,07,29,82,008,40,30,74,307,29,31,52,278,,,,,*44
$GPGSA,M,3,21,02,12,25,29,,,,,,,,2.7,1.8,2.0*3E
Trace #36 at position 8.750000
$GPZDA,102932.03,08,10,2011,00,00*65
$GPRMC,102932.00,A,4611.956203,N,01258.221234,E,001.4,330.1,081011,0.2,E,A*32
$GPGGA,102933.00,4611.956596,N,01258.221050,E,1,05,1.8,138.96,M,46.25,M,,*62
$GPGLL,4611.956596,N,01258.221050,E,102933.00,A,A*6B
$GPVTG,345.8,T,346.0,M,001.6,N,003.0,K,A*2C
$GPGSV,2,1,07,21,29,186,39,02,18,044,49,12,23,112,47,25,57,109,46*7A
$GPGSV,2,2,07,29,82,008,40,30,74,307,29,31,52,278,,,,,*44
$GPGSA,M,3,21,02,12,25,29,,,,,,,,2.7,1.8,2.0*3E
Trace #37 at position 9.000000
$GPZDA,102933.03,08,10,2011,00,00*64
$GPRMC,102933.00,A,4611.956596,N,01258.221050,E,001.6,345.8,081011,0.2,E,A*31
$GPGGA,102934.00,4611.957022,N,01258.220837,E,1,05,1.8,139.02,M,46.25,M,,*6A
$GPGLL,4611.957022,N,01258.220837,E,102934.00,A,A*6F
$GPVTG,330.3,T,330.4,M,001.8,N,003.4,K,A*2A
$GPGSV,2,1,07,21,29,186,43,02,18,044,49,12,23,112,47,25,57,109,45*74
$GPGSV,2,2,07,29,82,009,39,30,74,307,,31,52,278,,,,,*40
$GPGSA,M,3,21,02,12,25,29,,,,,,,,2.7,1.8,2.0*3E
Trace #38 at position 9.250000
$GPZDA,102933.03,08,10,2011,00,00*64
$GPRMC,102933.00,A,4611.956596,N,01258.221050,E,001.6,345.8,081011,0.2,E,A*31
$GPGGA,102934.00,4611.957022,N,01258.220837,E,1,05,1.8,139.02,M,46.25,M,,*6A
$GPGLL,4611.957022,N,01258.220837,E,102934.00,A,A*6F
$GPVTG,330.3,T,330.4,M,001.8,N,003.4,K,A*2A
$GPGSV,2,1,07,21,29,186,43,02,18,044,49,12,23,112,47,25,57,109,45*74
$GPGSV,2,2,07,29,82,009,39,30,74,307,,31,52,278,,,,,*40
$GPGSA,M,3,21,02,12,25,29,,,,,,,,2.7,1.8,2.0*3E
Trace #39 at position 9.500000
$GPZDA,102933.03,08,10,2011,00,00*64
$GPRMC,102933.00,A,4611.956596,N,01258.221050,E,001.6,345.8,081011,0.2,E,A*31
$GPGGA,102934.00,4611.957022,N,01258.220837,E,1,05,1.8,139.02,M,46.25,M,,*6A
$GPGLL,4611.957022,N,01258.220837,E,102934.00,A,A*6F
$GPVTG,330.3,T,330.4,M,001.8,N,003.4,K,A*2A
$GPGSV,2,1,07,21,29,186,43,02,18,044,49,12,23,112,47,25,57,109,45*74
$GPGSV,2,2,07,29,82,009,39,30,74,307,,31,52,278,,,,,*40
$GPGSA,M,3,21,02,12,25,29,,,,,,,,2.7,1.8,2.0*3E
Trace #40 at position 9.750000
$GPZDA,102934.03,08,10,2011,00,00*63
$GPRMC,102934.00,A,4611.957022,N,01258.220837,E,001.8,330.3,081011,0.2,E,A*32
$GPGGA,102935.00,4611.957386,N,01258.220590,E,1,05,1.8,139.16,M,46.25,M,,*63
$GPGLL,4611.957386,N,01258.220590,E,102935.00,A,A*63
$GPVTG,330.8,T,330.9,M,001.3,N,002.5,K,A*27
$GPGSV,2,1,07,21,29,186,42,02,18,044,48,12,23,112,50,25,57,109,44*73
$GPGSV,2,2,07,29,82,009,39,30,74,307,31,31,52,278,,,,,*42
$GPGSA,M,3,21,02,12,25,29,,,,,,,,2.7,1.8,2.0*3E
Trace #41 at position 10.000000
$GPZDA,102934.03,08,10,2011,00,00*63
$GPRMC,102934.00,A,4611.957022,N,01258.220837,E,001.8,330.3,081011,0.2,E,A*32
$GPGGA,102935.00,4611.957386,N,01258.220590,E,1,05,1.8,139.16,M,46.25,M,,*63
$GPGLL,4611.957386,N,01258.220590,E,102935.00,A,A*63
$GPVTG,330.8,T,330.9,M,001.3,N,002.5,K,A*27
$GPGSV,2,1,07,21,29,186,42,02,18,044,48,12,23,112,50,25,57,109,44*73
$GPGSV,2,2,07,29,82,009,39,30,74,307,31,31,52,278,,,,,*42
$GPGSA,M,3,21,02,12,25,29,,,,,,,,2.7,1.8,2.0*3E
Trace #42 at position 10.250000
$GPZDA,102935.03,08,10,2011,00,00*62
$GPRMC,102935.00,A,4611.957386,N,01258.220590,E,001.3,330.8,081011,0.2,E,A*3E
$GPGGA,102936.00,4611.957731,N,01258.220524,E,1,05,1.8,139.17,M,46.25,M,,*66
$GPGLL,4611.957731,N,01258.220524,E,102936.00,A,A*67
$GPVTG,1.9,T,2.0,M,001.4,N,002.7,K,A*29
$GPGSV,2,1,07,21,29,186,41,02,18,044,47,12,23,112,47,25,57,109,46*7B
$GPGSV,2,2,07,29,82,009,40,30,74,307,33,31,52,278,,,,,*4E
$GPGSA,M,3,21,02,12,25,29,,,,,,,,2.7,1.8,2.0*3E
Trace #43 at position 10.500000
$GPZDA,102935.03,08,10,2011,00,00*62
$GPRMC,102935.00,A,4611.957386,N,01258.220590,E,001.3,330.8,081011,0.2,E,A*3E
$GPGGA,102936.00,4611.957731,N,01258.220524,E,1,05,1.8,139.17,M,46.25,M,,*66
$GPGLL,4611.957731,N,01258.220524,E,102936.00,A,A*67
$GPVTG,1.9,T,2.0,M,001.4,N,002.7,K,A*29
$GPGSV,2,1,07,21,29,186,41,02,18,044,47,12,23,112,47,25,57,109,46*7B
$GPGSV,2,2,07,29,82,009,40,30,74,307,33,31,52,278,,,,,*4E
$GPGSA,M,3,21,02,12,25,29,,,,,,,,2.7,1.8,2.0*3E
Trace #44 at position 10.750000
$GPZDA,102935.03,08,10,2011,00,00*62
$GPRMC,102935.00,A,4611.957386,N,01258.220590,E,001.3,330.8,081011,0.2,E,A*3E
$GPGGA,102936.00,4611.957731,N,01258.220524,E,1,05,1.8,139.17,M,46.25,M,,*66
$GPGLL,4611.957731,N,01258.220524,E,102936.00,A,A*67
$GPVTG,1.9,T,2.0,M,001.4,N,002.7,K,A*29
$GPGSV,2,1,07,21,29,186,41,02,18,044,47,12,23,112,47,25,57,109,46*7B
$GPGSV,2,2,07,29,82,009,40,30,74,307,33,31,52,278,,,,,*4E
$GPGSA,M,3,21,02,12,25,29,,,,,,,,2.7,1.8,2.0*3E
Trace #45 at position 11.000000
$GPZDA,102936.03,08,10,2011,00,00*61
$GPRMC,102936.00,A,4611.957731,N,01258.220524,E,001.4,1.9,081011,0.2,E,A*3D
$GPGGA,102937.00,4611.958105,N,01258.220587,E,1,05,1.8,139.09,M,46.25,M,,*6F
$GPGLL,4611.958105,N,01258.220587,E,102937.00,A,A*61
$GPVTG,4.6,T,4.7,M,001.4,N,002.6,K,A*23
$GPGSV,2,1,07,21,29,186,43,02,18,044,47,12,23,112,50,25,57,109,45*7C
$GPGSV,2,2,07,29,82,009,38,30,74,307,28,31,52,278,,,,,*4B
$GPGSA,M,3,21,02,12,25,29,,,,,,,,2.7,1.8,2.0*3E
Trace #46 at position 11.250000
$GPZDA,102936.03,08,10,2011,00,00*61
$GPRMC,102936.00,A,4611.957731,N,01258.220524,E,001.4,1.9,081011,0.2,E,A*3D
$GPGGA,102937.00,4611.958105,N,01258.220587,E,1,05,1.8,139.09,M,46.25,M,,*6F
$GPGLL,4611.958105,N,01258.220587,E,102937.00,A,A*61
$GPVTG,4.6,T,4.7,M,001.4,N,002.6,K,A*23
$GPGSV,2,1,07,21,29,186,43,02,18,044,47,12,23,112,50,25,57,109,45*7C
$GPGSV,2,2,07,29,82,009,38,30,74,307,28,31,52,278,,,,,*4B
$GPGSA,M,3,21,02,12,25,29,,,,,,,,2.7,1.8,2.0*3E
Trace #47 at position 11.500000
$GPZDA,102936.03,08,10,2011,00,00*61
$GPRMC,102936.00,A,4611.957731,N,01258.220524,E,001.4,1.9,081011,0.2,E,A*3D
$GPGGA,102937.00,4611.958105,N,01258.220587,E,1,05,1.8,139.09,M,46.25,M,,*6F
$GPGLL,4611.958105,N,01258.220587,E,102937.00,A,A*61
$GPVTG,4.6,T,4.7,M,001.4,N,002.6,K,A*23
$GPGSV,2,1,07,21,29,186,43,02,18,044,47,12,23,112,50,25,57,109,45*7C
$GPGSV,2,2,07,29,82,009,38,30,74,307,28,31,52,278,,,,,*4B
$GPGSA,M,3,21,02,12,25,29,,,,,,,,2.7,1.8,2.0*3E
Trace #48 at position 11.750000
$GPZDA,102937.03,08,10,2011,00,00*60
$GPRMC,102937.00,A,4611.958105,N,01258.220587,E,001.4,4.6,081011,0.2,E,A*31
$GPGGA,102938.00,4611.958370,N,01258.220466,E,1,05,1.8,139.19,M,46.25,M,,*6F
$GPGLL,4611.958370,N,01258.220466,E,102938.00,A,A*60
$GPVTG,306.7,T,306.9,M,001.0,N,001.9,K,A*24
$GPGSV,2,1,07,21,29,186,39,02,18,044,48,12,23,112,47,25,57,109,47*7A
$GPGSV,2,2,07,29,82,009,41,30,74,307,,31,52,277,,,,,*40
$GPGSA,M,3,21,02,12,25,29,,,,,,,,2.7,1.8,2.0*3E
Trace #49 at position 12.000000
$GPZDA,102938.03,08,10,2011,00,00*6F
$GPRMC,102938.00,A,4611.958370,N,01258.220466,E,001.0,306.7,081011,0.2,E,A*34
$GPGGA,102939.00,4611.958650,N,01258.220249,E,1,05,1.8,139.27,M,46.25,M,,*6F
$GPGLL,4611.958650,N,01258.220249,E,102939.00,A,A*6D
$GPVTG,343.2,T,343.3,M,001.5,N,002.8,K,A*2C
$GPGSV,2,1,07,21,29,186,39,02,18,044,49,12,23,112,47,25,57,109,46*7A
$GPGSV,2,2,07,29,82,009,42,30,74,307,,31,52,277,,,,,*43
$GPGSA,M,3,21,02,12,25,29,,,,,,,,2.7,1.8,2.0*3E
Trace #50 at position 12.250000
$GPZDA,102938.03,08,10,2011,00,00*6F
$GPRMC,102938.00,A,4611.958370,N,01258.220466,E,001.0,306.7,081011,0.2,E,A*34
$GPGGA,102939.00,4611.958650,N,01258.220249,E,1,05,1.8,139.27,M,46.25,M,,*6F
$GPGLL,4611.958650,N,01258.220249,E,102939.00,A,A*6D
$GPVTG,343.2,T,343.3,M,001.5,N,002.8,K,A*2C
$GPGSV,2,1,07,21,29,186,39,02,18,044,49,12,23,112,47,25,57,109,46*7A
$GPGSV,2,2,07,29,82,009,42,30,74,307,,31,52,277,,,,,*43
$GPGSA,M,3,21,02,12,25,29,,,,,,,,2.7,1.8,2.0*3E
Trace #51 at position 12.500000
$GPZDA,102938.03,08,10,2011,00,00*6F
$GPRMC,102938.00,A,4611.958370,N,01258.220466,E,001.0,306.7,081011,0.2,E,A*34
$GPGGA,102939.00,4611.958650,N,01258.220249,E,1,05,1.8,139.27,M,46.25,M,,*6F
$GPGLL,4611.958650,N,01258.220249,E,102939.00,A,A*6D
$GPVTG,343.2,T,343.3,M,001.5,N,002.8,K,A*2C
$GPGSV,2,1,07,21,29,186,39,02,18,044,49,12,23,112,47,25,57,109,46*7A
$GPGSV,2,2,07,29,82,009,42,30,74,307,,31,52,277,,,,,*43
$GPGSA,M,3,21,02,12,25,29,,,,,,,,2.7,1.8,2.0*3E
Trace #52 at position 12.750000
$GPZDA,102939.03,08,10,2011,00,00*6E
$GPRMC,102939.00,A,4611.958650,N,01258.220249,E,001.5,343.2,081011,0.2,E,A*38
$GPGGA,102940.00,4611.958984,N,01258.220099,E,1,05,1.8,139.22,M,46.25,M,,*6D
$GPGLL,4611.958984,N,01258.220099,E,102940.00,A,A*6A
$GPVTG,335.3,T,335.4,M,001.2,N,002.2,K,A*27
$GPGSV,2,1,07,21,29,186,41,02,18,044,49,12,23,112,47,25,57,109,45*76
$GPGSV,2,2,07,29,82,009,39,30,74,307,,31,52,277,,,,,*4F
$GPGSA,M,3,21,02,12,25,29,,,,,,,,2.7,1.8,2.0*3E
Trace #53 at position 13.000000
$GPZDA,102939.03,08,10,2011,00,00*6E
$GPRMC,102939.00,A,4611.958650,N,01258.220249,E,001.5,343.2,081011,0.2,E,A*38
$GPGGA,102940.00,4611.958984,N,01258.220099,E,1,05,1.8,139.22,M,46.25,M,,*6D
$GPGLL,4611.958984,N,01258.220099,E,102940.00,A,A*6A
$GPVTG,335.3,T,335.4,M,001.2,N,002.2,K,A*27
$GPGSV,2,1,07,21,29,186,41,02,18,044,49,12,23,112,47,25,57,109,45*76
$GPGSV,2,2,07,29,82,009,39,30,74,307,,31,52,277,,,,,*4F
$GPGSA,M,3,21,02,12,25,29,,,,,,,,2.7,1.8,2.0*3E
Trace #54 at position 13.250000
$GPZDA,102940.03,08,10,2011,00,00*60
$GPRMC,102940.00,A,4611.958984,N,01258.220099,E,001.2,335.3,081011,0.2,E,A*38
$GPGGA,102941.00,4611.959296,N,01258.219924,E,1,05,1.8,139.19,M,46.25,M,,*68
$GPGLL,4611.959296,N,01258.219924,E,102941.00,A,A*67
$GPVTG,335.7,T,335.9,M,001.4,N,002.6,K,A*2C
$GPGSV,2,1,07,21,29,186,40,02,18,044,48,12,23,112,47,25,57,109,44*77
$GPGSV,2,2,07,29,82,009,40,30,74,307,29,31,52,277,,,,,*4A
$GPGSA,M,3,21,02,12,25,29,,,,,,,,2.7,1.8,2.0*3E
Trace #55 at position 13.500000
$GPZDA,102941.03,08,10,2011,00,00*61
$GPRMC,102941.00,A,4611.959296,N,01258.219924,E,001.4,335.7,081011,0.2,E,A*37
$GPGGA,102942.00,4611.959612,N,01258.219847,E,1,05,1.8,139.18,M,46.25,M,,*66
$GPGLL,4611.959612,N,01258.219847,E,102942.00,A,A*68
$GPVTG,358.8,T,359.0,M,001.2,N,002.2,K,A*29
$GPGSV,2,1,07,21,29,186,41,02,18,044,48,12,23,112,46,25,57,109,43*70
$GPGSV,2,2,07,29,82,009,37,30,74,307,32,31,52,277,31,,,,*42
$GPGSA,M,3,21,02,12,25,29,,,,,,,,2.7,1.8,2.0*3E
Trace #56 at position 13.750000
$GPZDA,102941.03,08,10,2011,00,00*61
$GPRMC,102941.00,A,4611.959296,N,01258.219924,E,001.4,335.7,081011,0.2,E,A*37
$GPGGA,102942.00,4611.959612,N,01258.219847,E,1,05,1.8,139.18,M,46.25,M,,*66
$GPGLL,4611.959612,N,01258.219847,E,102942.00,A,A*68
$GPVTG,358.8,T,359.0,M,001.2,N,002.2,K,A*29
$GPGSV,2,1,07,21,29,186,41,02,18,044,48,12,23,112,46,25,57,109,43*70
$GPGSV,2,2,07,29,82,009,37,30,74,307,32,31,52,277,31,,,,*42
$GPGSA,M,3,21,02,12,25,29,,,,,,,,2.7,1.8,2.0*3E
Trace #57 at position 14.000000
$GPZDA,102942.03,08,10,2011,00,00*62
$GPRMC,102942.00,A,4611.959612,N,01258.219847,E,001.2,358.8,081011,0.2,E,A*3A
$GPGGA,102943.00,4611.959904,N,01258.219881,E,1,05,1.8,139.24,M,46.25,M,,*6A
$GPGLL,4611.959904,N,01258.219881,E,102943.00,A,A*6B
$GPVTG,2.5,T,2.6,M,001.2,N,002.2,K,A*23
$GPGSV,2,1,07,21,29,186,37,02,18,044,48,12,23,112,46,25,57,109,43*71
$GPGSV,2,2,07,29,82,009,38,30,74,307,25,31,52,277,27,,,,*4C
$GPGSA,M,3,21,02,12,25,29,,,,,,,,2.7,1.8,2.0*3E
Trace #58 at position 14.250000
$GPZDA,102942.03,08,10,2011,00,00*62
$GPRMC,102942.00,A,4611.959612,N,01258.219847,E,001.2,358.8,081011,0.2,E,A*3A
$GPGGA,102943.00,4611.959904,N,01258.219881,E,1,05,1.8,139.24,M,46.25,M,,*6A
$GPGLL,4611.959904,N,01258.219881,E,102943.00,A,A*6B
$GPVTG,2.5,T,2.6,M,001.2,N,002.2,K,A*23
$GPGSV,2,1,07,21,29,186,37,02,18,044,48,12,23,112,46,25,57,109,43*71
$GPGSV,2,2,07,29,82,009,38,30,74,307,25,31,52,277,27,,,,*4C
$GPGSA,M,3,21,02,12,25,29,,,,,,,,2.7,1.8,2.0*3E
Trace #59 at position 14.500000
$GPZDA,102943.03,08,10,2011,00,00*63
$GPRMC,102943.00,A,4611.959904,N,01258.219881,E,001.2,2.5,081011,0.2,E,A*38
$GPGGA,102944.00,4611.960056,N,01258.220307,E,1,05,1.8,138.91,M,46.25,M,,*69
$GPGLL,4611.960056,N,01258.220307,E,102944.00,A,A*67
$GPVTG,86.3,T,86.5,M,002.2,N,004.1,K,A*20
$GPGSV,2,1,07,21,29,186,40,02,18,044,47,12,23,112,47,25,57,109,45*79
$GPGSV,2,2,07,29,82,009,39,30,74,307,,31,52,277,27,,,,*4A
$GPGSA,M,3,21,02,12,25,29,,,,,,,,2.7,1.8,2.0*3E
Trace #60 at position 14.750000
$GPZDA,102943.03,08,10,2011,00,00*63
$GPRMC,102943.00,A,4611.959904,N,01258.219881,E,001.2,2.5,081011,0.2,E,A*38
$GPGGA,102944.00,4611.960056,N,01258.220307,E,1,05,1.8,138.91,M,46.25,M,,*69
$GPGLL,4611.960056,N,01258.220307,E,102944.00,A,A*67
$GPVTG,86.3,T,86.5,M,002.2,N,004.1,K,A*20
$GPGSV,2,1,07,21,29,186,40,02,18,044,47,12,23,112,47,25,57,109,45*79
$GPGSV,2,2,07,29,82,009,39,30,74,307,,31,52,277,27,,,,*4A
$GPGSA,M,3,21,02,12,25,29,,,,,,,,2.7,1.8,2.0*3E
Trace #61 at position 15.000000
$GPZDA,102944.03,08,10,2011,00,00*64
$GPRMC,102944.00,A,4611.960056,N,01258.220307,E,002.2,86.3,081011,0.2,E,A*0D
$GPGGA,102945.00,4611.960183,N,01258.220617,E,1,05,1.8,138.70,M,46.25,M,,*6A
$GPGLL,4611.960183,N,01258.220617,E,102945.00,A,A*6B
$GPVTG,344.3,T,344.5,M,000.9,N,001.7,K,A*2A
$GPGSV,2,1,07,21,29,186,37,02,18,044,46,12,23,112,46,25,57,109,45*79
$GPGSV,2,2,07,29,82,009,41,30,74,307,32,31,52,277,,,,,*41
$GPGSA,M,3,21,02,12,25,29,,,,,,,,2.7,1.8,2.0*3E
Trace #62 at position 15.250000
$GPZDA,102944.03,08,10,2011,00,00*64
$GPRMC,102944.00,A,4611.960056,N,01258.220307,E,002.2,86.3,081011,0.2,E,A*0D
$GPGGA,102945.00,4611.960183,N,01258.220617,E,1,05,1.8,138.70,M,46.25,M,,*6A
$GPGLL,4611.960183,N,01258.220617,E,102945.00,A,A*6B
$GPVTG,344.3,T,344.5,M,000.9,N,001.7,K,A*2A
$GPGSV,2,1,07,21,29,186,37,02,18,044,46,12,23,112,46,25,57,109,45*79
$GPGSV,2,2,07,29,82,009,41,30,74,307,32,31,52,277,,,,,*41
$GPGSA,M,3,21,02,12,25,29,,,,,,,,2.7,1.8,2.0*3E
Trace #63 at position 15.500000
$GPZDA,102945.03,08,10,2011,00,00*65
$GPRMC,102945.00,A,4611.960183,N,01258.220617,E,000.9,344.3,081011,0.2,E,A*35
$GPGGA,102946.00,4611.960417,N,01258.220424,E,1,05,1.8,138.87,M,46.25,M,,*6B
$GPGLL,4611.960417,N,01258.220424,E,102946.00,A,A*62
$GPVTG,336.9,T,337.0,M,000.9,N,001.7,K,A*24
$GPGSV,2,1,07,21,29,186,39,02,18,044,47,12,23,112,45,25,57,109,43*73
$GPGSV,2,2,07,29,82,009,40,30,74,307,29,31,52,277,,,,,*4A
$GPGSA,M,3,21,02,12,25,29,,,,,,,,2.7,1.8,2.0*3E
Trace #64 at position 15.750000
$GPZDA,102946.03,08,10,2011,00,00*66
$GPRMC,102946.00,A,4611.960417,N,01258.220424,E,000.9,336.9,081011,0.2,E,A*33
$GPGGA,102947.00,4611.960636,N,01258.220275,E,1,05,1.8,138.88,M,46.25,M,,*66
$GPGLL,4611.960636,N,01258.220275,E,102947.00,A,A*60
$GPVTG,355.4,T,355.5,M,000.8,N,001.5,K,A*2E
$GPGSV,2,1,07,21,29,186,40,02,18,044,46,12,23,112,46,25,57,109,46*7A
$GPGSV,2,2,07,29,82,009,40,30,74,307,35,31,52,277,,,,,*47
$GPGSA,M,3,21,02,12,25,29,,,,,,,,2.7,1.8,2.0*3E
Trace #65 at position 16.000000
$GPZDA,102946.03,08,10,2011,00,00*66
$GPRMC,102946.00,A,4611.960417,N,01258.220424,E,000.9,336.9,081011,0.2,E,A*33
$GPGGA,102947.00,4611.960636,N,01258.220275,E,1,05,1.8,138.88,M,46.25,M,,*66
$GPGLL,4611.960636,N,01258.220275,E,102947.00,A,A*60
$GPVTG,355.4,T,355.5,M,000.8,N,001.5,K,A*2E
$GPGSV,2,1,07,21,29,186,40,02,18,044,46,12,23,112,46,25,57,109,46*7A
$GPGSV,2,2,07,29,82,009,40,30,74,307,35,31,52,277,,,,,*47
$GPGSA,M,3,21,02,12,25,29,,,,,,,,2.7,1.8,2.0*3E
Trace #66 at position 16.250000
$GPZDA,102946.03,08,10,2011,00,00*66
$GPRMC,102946.00,A,4611.960417,N,01258.220424,E,000.9,336.9,081011,0.2,E,A*33
$GPGGA,102947.00,4611.960636,N,01258.220275,E,1,05,1.8,138.88,M,46.25,M,,*66
$GPGLL,4611.960636,N,01258.220275,E,102947.00,A,A*60
$GPVTG,355.4,T,355.5,M,000.8,N,001.5,K,A*2E
$GPGSV,2,1,07,21,29,186,40,02,18,044,46,12,23,112,46,25,57,109,46*7A
$GPGSV,2,2,07,29,82,009,40,30,74,307,35,31,52,277,,,,,*47
$GPGSA,M,3,21,02,12,25,29,,,,,,,,2.7,1.8,2.0*3E
Trace #67 at position 16.500000
$GPZDA,102947.03,08,10,2011,00,00*67
$GPRMC,102947.00,A,4611.960636,N,01258.220275,E,000.8,355.4,081011,0.2,E,A*38
$GPGGA,102948.00,4611.960890,N,01258.220075,E,1,05,1.8,138.96,M,46.25,M,,*66
$GPGLL,4611.960890,N,01258.220075,E,102948.00,A,A*6F
$GPVTG,328.6,T,328.8,M,001.4,N,002.6,K,A*2C
$GPGSV,2,1,07,21,29,186,41,02,18,044,48,12,23,112,47,25,57,109,44*76
$GPGSV,2,2,07,29,82,009,40,30,74,307,28,31,52,277,,,,,*4B
$GPGSA,M,3,21,02,12,25,29,,,,,,,,2.7,1.8,2.0*3E
Trace #68 at position 16.750000
$GPZDA,102948.03,08,10,2011,00,00*68
$GPRMC,102948.00,A,4611.960890,N,01258.220075,E,001.4,328.6,081011,0.2,E,A*32
$GPGGA,102949.00,4611.961123,N,01258.219828,E,1,05,1.8,139.22,M,46.25,M,,*63
$GPGLL,4611.961123,N,01258.219828,E,102949.00,A,A*64
$GPVTG,329.4,T,329.6,M,000.7,N,001.3,K,A*24
$GPGSV,2,1,07,21,29,186,41,02,18,044,47,12,23,112,47,25,57,109,46*7B
$GPGSV,2,2,07,29,82,009,39,30,74,307,,31,52,277,,,,,*4F
$GPGSA,M,3,21,02,12,25,29,,,,,,,,2.7,1.8,2.0*3E
Trace #69 at position 17.000000
$GPZDA,102948.03,08,10,2011,00,00*68
$GPRMC,102948.00,A,4611.960890,N,01258.220075,E,001.4,328.6,081011,0.2,E,A*32
$GPGGA,102949.00,4611.961123,N,01258.219828,E,1,05,1.8,139.22,M,46.25,M,,*63
$GPGLL,4611.961123,N,01258.219828,E,102949.00,A,A*64
$GPVTG,329.4,T,329.6,M,000.7,N,001.3,K,A*24
$GPGSV,2,1,07,21,29,186,41,02,18,044,47,12,23,112,47,25,57,109,46*7B
$GPGSV,2,2,07,29,82,009,39,30,74,307,,31,52,277,,,,,*4F
$GPGSA,M,3,21,02,12,25,29,,,,,,,,2.7,1.8,2.0*3E
Trace #70 at position 17.250000
$GPZDA,102949.03,08,10,2011,00,00*69
$GPRMC,102949.00,A,4611.961123,N,01258.219828,E,000.7,329.4,081011,0.2,E,A*38
$GPGGA,102950.00,4611.961358,N,01258.219698,E,1,05,1.8,139.28,M,46.25,M,,*6A
$GPGLL,4611.961358,N,01258.219698,E,102950.00,A,A*67
$GPVTG,351.0,T,351.2,M,001.2,N,002.2,K,A*22
$GPGSV,2,1,07,21,29,186,40,02,18,044,48,12,23,112,47,25,57,109,45*76
$GPGSV,2,2,07,29,82,009,40,30,74,307,,31,52,277,,,,,*41
$GPGSA,M,3,21,02,12,25,29,,,,,,,,2.7,1.8,2.0*3E
Trace #71 at position 17.500000
$GPZDA,102950.03,08,10,2011,00,00*61
$GPRMC,102950.00,A,4611.961358,N,01258.219698,E,001.2,351.0,081011,0.2,E,A*34
$GPGGA,102951.00,4611.961568,N,01258.219500,E,1,05,1.8,139.22,M,46.25,M,,*66
$GPGLL,4611.961568,N,01258.219500,E,102951.00,A,A*61
$GPVTG,301.7,T,301.8,M,000.9,N,001.6,K,A*22
$GPGSV,2,1,07,21,29,186,40,02,18,044,48,12,23,112,46,25,57,109,45*77
$GPGSV,2,2,07,29,82,009,38,30,74,307,,31,52,277,,,,,*4E
$GPGSA,M,3,21,02,12,25,29,,,,,,,,2.7,1.8,2.0*3E
Trace #72 at position 17.750000
$GPZDA,102950.03,08,10,2011,00,00*61
$GPRMC,102950.00,A,4611.961358,N,01258.219698,E,001.2,351.0,081011,0.2,E,A*34
$GPGGA,102951.00,4611.961568,N,01258.219500,E,1,05,1.8,139.22,M,46.25,M,,*66
$GPGLL,4611.961568,N,01258.219500,E,102951.00,A,A*61
$GPVTG,301.7,T,301.8,M,000.9,N,001.6,K,A*22
$GPGSV,2,1,07,21,29,186,40,02,18,044,48,12,23,112,46,25,57,109,45*77
$GPGSV,2,2,07,29,82,009,38,30,74,307,,31,52,277,,,,,*4E
$GPGSA,M,3,21,02,12,25,29,,,,,,,,2.7,1.8,2.0*3E
Trace #73 at position 18.000000
$GPZDA,102951.03,08,10,2011,00,00*60
$GPRMC,102951.00,A,4611.961568,N,01258.219500,E,000.9,301.7,081011,0.2,E,A*3A
$GPGGA,102952.00,4611.961682,N,01258.219391,E,1,05,1.8,139.30,M,46.25,M,,*6F
$GPGLL,4611.961682,N,01258.219391,E,102952.00,A,A*6B
$GPVTG,29.8,T,29.9,M,000.5,N,000.9,K,A*2E
$GPGSV,2,1,07,21,29,186,41,02,18,044,47,12,23,112,47,25,57,109,44*79
$GPGSV,2,2,07,29,82,009,41,30,74,307,,31,52,277,32,,,,*41
$GPGSA,M,3,21,02,12,25,29,,,,,,,,2.7,1.8,2.0*3E
Trace #74 at position 18.250000
$GPZDA,102951.03,08,10,2011,00,00*60
$GPRMC,102951.00,A,4611.961568,N,01258.219500,E,000.9,301.7,081011,0.2,E,A*3A
$GPGGA,102952.00,4611.961682,N,01258.219391,E,1,05,1.8,139.30,M,46.25,M,,*6F
$GPGLL,4611.961682,N,01258.219391,E,102952.00,A,A*6B
$GPVTG,29.8,T,29.9,M,000.5,N,000.9,K,A*2E
$GPGSV,2,1,07,21,29,186,41,02,18,044,47,12,23,112,47,25,57,109,44*79
$GPGSV,2,2,07,29,82,009,41,30,74,307,,31,52,277,32,,,,*41
$GPGSA,M,3,21,02,12,25,29,,,,,,,,2.7,1.8,2.0*3E
Trace #75 at position 18.500000
$GPZDA,102951.03,08,10,2011,00,00*60
$GPRMC,102951.00,A,4611.961568,N,01258.219500,E,000.9,301.7,081011,0.2,E,A*3A
$GPGGA,102952.00,4611.961682,N,01258.219391,E,1,05,1.8,139.30,M,46.25,M,,*6F
$GPGLL,4611.961682,N,01258.219391,E,102952.00,A,A*6B
$GPVTG,29.8,T,29.9,M,000.5,N,000.9,K,A*2E
$GPGSV,2,1,07,21,29,186,41,02,18,044,47,12,23,112,47,25,57,109,44*79
$GPGSV,2,2,07,29,82,009,41,30,74,307,,31,52,277,32,,,,*41
$GPGSA,M,3,21,02,12,25,29,,,,,,,,2.7,1.8,2.0*3E
Trace #76 at position 18.750000
$GPZDA,102952.03,08,10,2011,00,00*63
$GPRMC,102952.00,A,4611.961682,N,01258.219391,E,000.5,29.8,081011,0.2,E,A*0A
$GPGGA,102953.00,4611.961901,N,01258.219333,E,1,05,1.8,139.26,M,46.25,M,,*65
$GPGLL,4611.961901,N,01258.219333,E,102953.00,A,A*66
$GPVTG,338.3,T,338.4,M,001.3,N,002.3,K,A*27
$GPGSV,2,1,07,21,29,186,42,02,18,044,49,12,23,112,46,25,57,109,45*74
$GPGSV,2,2,07,29,82,009,38,30,74,307,,31,52,277,34,,,,*49
$GPGSA,M,3,21,02,12,25,29,,,,,,,,2.7,1.8,2.0*3E
Trace #77 at position 19.000000
$GPZDA,102952.03,08,10,2011,00,00*63
$GPRMC,102952.00,A,4611.961682,N,01258.219391,E,000.5,29.8,081011,0.2,E,A*0A
$GPGGA,102953.00,4611.961901,N,01258.219333,E,1,05,1.8,139.26,M,46.25,M,,*65
$GPGLL,4611.961901,N,01258.219333,E,102953.00,A,A*66
$GPVTG,338.3,T,338.4,M,001.3,N,002.3,K,A*27
$GPGSV,2,1,07,21,29,186,42,02,18,044,49,12,23,112,46,25,57,109,45*74
$GPGSV,2,2,07,29,82,009,38,30,74,307,,31,52,277,34,,,,*49
$GPGSA,M,3,21,02,12,25,29,,,,,,,,2.7,1.8,2.0*3E
Trace #78 at position 19.250000
$GPZDA,102953.03,08,10,2011,00,00*62
$GPRMC,102953.00,A,4611.961901,N,01258.219333,E,001.3,338.3,081011,0.2,E,A*38
$GPGGA,102954.00,4611.962238,N,01258.219188,E,1,05,1.8,139.25,M,46.25,M,,*61
$GPGLL,4611.962238,N,01258.219188,E,102954.00,A,A*61
$GPVTG,350.3,T,350.4,M,001.3,N,002.5,K,A*21
$GPGSV,2,1,07,21,29,186,40,02,18,044,48,12,23,112,46,25,57,109,46*74
$GPGSV,2,2,07,29,82,009,40,30,74,307,,31,52,277,31,,,,*43
$GPGSA,M,3,21,02,12,25,29,,,,,,,,2.7,1.8,2.0*3E
Trace #79 at position 19.500000
$GPZDA,102953.03,08,10,2011,00,00*62
$GPRMC,102953.00,A,4611.961901,N,01258.219333,E,001.3,338.3,081011,0.2,E,A*38
$GPGGA,102954.00,4611.962238,N,01258.219188,E,1,05,1.8,139.25,M,46.25,M,,*61
$GPGLL,4611.962238,N,01258.219188,E,102954.00,A,A*61
$GPVTG,350.3,T,350.4,M,001.3,N,002.5,K,A*21
$GPGSV,2,1,07,21,29,186,40,02,18,044,48,12,23,112,46,25,57,109,46*74
$GPGSV,2,2,07,29,82,009,40,30,74,307,,31,52,277,31,,,,*43
$GPGSA,M,3,21,02,12,25,29,,,,,,,,2.7,1.8,2.0*3E
Trace #80 at position 19.750000
$GPZDA,102954.03,08,10,2011,00,00*65
$GPRMC,102954.00,A,4611.962238,N,01258.219188,E,001.3,350.3,081011,0.2,E,A*31
$GPGGA,102955.00,4611.962511,N,01258.219126,E,1,05,1.8,139.33,M,46.25,M,,*6F
$GPGLL,4611.962511,N,01258.219126,E,102955.00,A,A*68
$GPVTG,356.3,T,356.4,M,000.7,N,001.4,K,A*26
$GPGSV,2,1,07,21,29,186,37,02,18,044,48,12,23,112,45,25,57,109,46*77
$GPGSV,2,2,07,29,82,009,40,30,74,307,,31,52,277,29,,,,*4A
$GPGSA,M,3,21,02,12,25,29,,,,,,,,2.7,1.8,2.0*3E
Trace #81 at position 20.000000
$GPZDA,102954.03,08,10,2011,00,00*65
$GPRMC,102954.00,A,4611.962238,N,01258.219188,E,001.3,350.3,081011,0.2,E,A*31
$GPGGA,102955.00,4611.962511,N,01258.219126,E,1,05,1.8,139.33,M,46.25,M,,*6F
$GPGLL,4611.962511,N,01258.219126,E,102955.00,A,A*68
$GPVTG,356.3,T,356.4,M,000.7,N,001.4,K,A*26
$GPGSV,2,1,07,21,29,186,37,02,18,044,48,12,23,112,45,25,57,109,46*77
$GPGSV,2,2,07,29,82,009,40,30,74,307,,31,52,277,29,,,,*4A
$GPGSA,M,3,21,02,12,25,29,,,,,,,,2.7,1.8,2.0*3E
Trace #82 at position 20.250000
$GPZDA,102955.03,08,10,2011,00,00*64
$GPRMC,102955.00,A,4611.962511,N,01258.219126,E,000.7,356.3,081011,0.2,E,A*3B
$GPGGA,102956.00,4611.962725,N,01258.219122,E,1,05,1.8,139.38,M,46.25,M,,*66
$GPGLL,4611.962725,N,01258.219122,E,102956.00,A,A*6A
$GPVTG,9.0,T,9.2,M,000.9,N,001.6,K,A*2F
$GPGSV,2,1,07,21,29,186,39,02,18,044,48,12,23,112,45,25,57,109,47*78
$GPGSV,2,2,07,29,82,009,39,30,74,307,,31,52,277,,,,,*4F
$GPGSA,M,3,21,02,12,25,29,,,,,,,,2.7,1.8,2.0*3E
Trace #83 at position 20.500000
$GPZDA,102955.03,08,10,2011,00,00*64
$GPRMC,102955.00,A,4611.962511,N,01258.219126,E,000.7,356.3,081011,0.2,E,A*3B
$GPGGA,102956.00,4611.962725,N,01258.219122,E,1,05,1.8,139.38,M,46.25,M,,*66
$GPGLL,4611.962725,N,01258.219122,E,102956.00,A,A*6A
$GPVTG,9.0,T,9.2,M,000.9,N,001.6,K,A*2F
$GPGSV,2,1,07,21,29,186,39,02,18,044,48,12,23,112,45,25,57,109,47*78
$GPGSV,2,2,07,29,82,009,39,30,74,307,,31,52,277,,,,,*4F
$GPGSA,M,3,21,02,12,25,29,,,,,,,,2.7,1.8,2.0*3E
Trace #84 at position 20.750000
$GPZDA,102956.03,08,10,2011,00,00*67
$GPRMC,102956.00,A,4611.962725,N,01258.219122,E,000.9,9.0,081011,0.2,E,A*3D
$GPGGA,102957.00,4611.962956,N,01258.218986,E,1,05,1.8,139.51,M,46.25,M,,*65
$GPGLL,4611.962956,N,01258.218986,E,102957.00,A,A*66
$GPVTG,319.0,T,319.1,M,001.1,N,002.0,K,A*20
$GPGSV,2,1,07,21,29,186,40,02,18,044,48,12,23,112,45,25,57,109,46*77
$GPGSV,2,2,07,29,82,009,39,30,74,307,,31,52,277,,,,,*4F
$GPGSA,M,3,21,02,12,25,29,,,,,,,,2.7,1.8,2.0*3E
Trace #85 at position 21.000000
$GPZDA,102956.03,08,10,2011,00,00*67
$GPRMC,102956.00,A,4611.962725,N,01258.219122,E,000.9,9.0,081011,0.2,E,A*3D
$GPGGA,102957.00,4611.962956,N,01258.218986,E,1,05,1.8,139.51,M,46.25,M,,*65
$GPGLL,4611.962956,N,01258.218986,E,102957.00,A,A*66
$GPVTG,319.0,T,319.1,M,001.1,N,002.0,K,A*20
$GPGSV,2,1,07,21,29,186,40,02,18,044,48,12,23,112,45,25,57,109,46*77
$GPGSV,2,2,07,29,82,009,39,30,74,307,,31,52,277,,,,,*4F
$GPGSA,M,3,21,02,12,25,29,,,,,,,,2.7,1.8,2.0*3E
Trace #86 at position 21.250000
$GPZDA,102957.03,08,10,2011,00,00*66
$GPRMC,102957.00,A,4611.962956,N,01258.218986,E,001.1,319.0,081011,0.2,E,A*3A
$GPGGA,102958.00,4611.963182,N,01258.218777,E,1,05,1.8,139.60,M,46.25,M,,*68
$GPGLL,4611.963182,N,01258.218777,E,102958.00,A,A*69
$GPVTG,338.6,T,338.8,M,000.8,N,001.5,K,A*21
$GPGSV,2,1,07,21,29,186,40,02,18,044,49,12,23,112,44,25,57,109,47*76
$GPGSV,2,2,07,29,82,010,39,30,74,307,,31,52,277,,,,,*47
$GPGSA,M,3,21,02,12,25,29,,,,,,,,2.7,1.8,2.0*3E
Trace #87 at position 21.500000
$GPZDA,102957.03,08,10,2011,00,00*66
$GPRMC,102957.00,A,4611.962956,N,01258.218986,E,001.1,319.0,081011,0.2,E,A*3A
$GPGGA,102958.00,4611.963182,N,01258.218777,E,1,05,1.8,139.60,M,46.25,M,,*68
$GPGLL,4611.963182,N,01258.218777,E,102958.00,A,A*69
$GPVTG,338.6,T,338.8,M,000.8,N,001.5,K,A*21
$GPGSV,2,1,07,21,29,186,40,02,18,044,49,12,23,112,44,25,57,109,47*76
$GPGSV,2,2,07,29,82,010,39,30,74,307,,31,52,277,,,,,*47
$GPGSA,M,3,21,02,12,25,29,,,,,,,,2.7,1.8,2.0*3E
Trace #88 at position 21.750000
$GPZDA,102958.03,08,10,2011,00,00*69
$GPRMC,102958.00,A,4611.963182,N,01258.218777,E,000.8,338.6,081011,0.2,E,A*38
$GPGGA,102959.00,4611.963362,N,01258.218699,E,1,05,1.8,139.68,M,46.25,M,,*6C
$GPGLL,4611.963362,N,01258.218699,E,102959.00,A,A*65
$GPVTG,356.6,T,356.7,M,000.4,N,000.8,K,A*2E
$GPGSV,2,1,07,21,29,186,39,02,18,044,48,12,23,112,45,25,57,109,46*79
$GPGSV,2,2,07,29,82,010,39,30,74,307,,31,52,277,,,,,*47
$GPGSA,M,3,21,02,12,25,29,,,,,,,,2.7,1.8,2.0*3E
Trace #89 at position 22.000000
$GPZDA,102958.03,08,10,2011,00,00*69
$GPRMC,102958.00,A,4611.963182,N,01258.218777,E,000.8,338.6,081011,0.2,E,A*38
$GPGGA,102959.00,4611.963362,N,01258.218699,E,1,05,1.8,139.68,M,46.25,M,,*6C
$GPGLL,4611.963362,N,01258.218699,E,102959.00,A,A*65
$GPVTG,356.6,T,356.7,M,000.4,N,000.8,K,A*2E
$GPGSV,2,1,07,21,29,186,39,02,18,044,48,12,23,112,45,25,57,109,46*79
$GPGSV,2,2,07,29,82,010,39,30,74,307,,31,52,277,,,,,*47
$GPGSA,M,3,21,02,12,25,29,,,,,,,,2.7,1.8,2.0*3E
Trace #90 at position 22.250000
$GPZDA,102959.03,08,10,2011,00,00*68
$GPRMC,102959.00,A,4611.963362,N,01258.218699,E,000.4,356.6,081011,0.2,E,A*30
$GPGGA,103000.00,4611.963575,N,01258.218628,E,1,05,1.8,139.78,M,46.25,M,,*63
$GPGLL,4611.963575,N,01258.218628,E,103000.00,A,A*6B
$GPVTG,344.6,T,344.8,M,001.0,N,001.9,K,A*24
$GPGSV,2,1,07,21,29,186,39,02,18,044,48,12,23,112,45,25,57,109,48*77
$GPGSV,2,2,07,29,82,010,42,30,74,307,,31,52,277,,,,,*4B
$GPGSA,M,3,21,02,12,25,29,,,,,,,,2.7,1.8,2.0*3E
Trace #91 at position 22.500000
$GPZDA,103000.03,08,10,2011,00,00*6C
$GPRMC,103000.00,A,4611.963575,N,01258.218628,E,001.0,344.6,081011,0.2,E,A*38
$GPGGA,103001.00,4611.963882,N,01258.218462,E,1,05,1.8,139.84,M,46.25,M,,*68
$GPGLL,4611.963882,N,01258.218462,E,103001.00,A,A*63
$GPVTG,335.8,T,335.9,M,001.3,N,002.3,K,A*21
$GPGSV,2,1,07,21,29,186,38,02,18,044,47,12,23,112,44,25,57,109,47*77
$GPGSV,2,2,07,29,82,010,37,30,74,307,,31,52,277,,,,,*49
$GPGSA,M,3,21,02,12,25,29,,,,,,,,2.7,1.8,2.0*3E
Trace #92 at position 22.750000
$GPZDA,103000.03,08,10,2011,00,00*6C
$GPRMC,103000.00,A,4611.963575,N,01258.218628,E,001.0,344.6,081011,0.2,E,A*38
$GPGGA,103001.00,4611.963882,N,01258.218462,E,1,05,1.8,139.84,M,46.25,M,,*68
$GPGLL,4611.963882,N,01258.218462,E,103001.00,A,A*63
$GPVTG,335.8,T,335.9,M,001.3,N,002.3,K,A*21
$GPGSV,2,1,07,21,29,186,38,02,18,044,47,12,23,112,44,25,57,109,47*77
$GPGSV,2,2,07,29,82,010,37,30,74,307,,31,52,277,,,,,*49
$GPGSA,M,3,21,02,12,25,29,,,,,,,,2.7,1.8,2.0*3E
Trace #93 at position 23.000000
$GPZDA,103001.03,08,10,2011,00,00*6D
$GPRMC,103001.00,A,4611.963882,N,01258.218462,E,001.3,335.8,081011,0.2,E,A*3B
$GPGGA,103002.00,4611.964147,N,01258.218335,E,1,05,1.8,139.86,M,46.25,M,,*6B
$GPGLL,4611.964147,N,01258.218335,E,103002.00,A,A*62
$GPVTG,351.9,T,352.1,M,000.8,N,001.4,K,A*25
$GPGSV,2,1,07,21,29,186,40,02,18,044,45,12,23,112,47,25,57,109,49*77
$GPGSV,2,2,07,29,82,010,39,30,74,307,,31,52,277,,,,,*47
$GPGSA,M,3,21,02,12,25,29,,,,,,,,2.7,1.8,2.0*3E
Trace #94 at position 23.250000
$GPZDA,103001.03,08,10,2011,00,00*6D
$GPRMC,103001.00,A,4611.963882,N,01258.218462,E,001.3,335.8,081011,0.2,E,A*3B
$GPGGA,103002.00,4611.964147,N,01258.218335,E,1,05,1.8,139.86,M,46.25,M,,*6B
$GPGLL,4611.964147,N,01258.218335,E,103002.00,A,A*62
$GPVTG,351.9,T,352.1,M,000.8,N,001.4,K,A*25
$GPGSV,2,1,07,21,29,186,40,02,18,044,45,12,23,112,47,25,57,109,49*77
$GPGSV,2,2,07,29,82,010,39,30,74,307,,31,52,277,,,,,*47
$GPGSA,M,3,21,02,12,25,29,,,,,,,,2.7,1.8,2.0*3E
Trace #95 at position 23.500000
$GPZDA,103002.03,08,10,2011,00,00*6E
$GPRMC,103002.00,A,4611.964147,N,01258.218335,E,000.8,351.9,081011,0.2,E,A*33
$GPGGA,103003.00,4611.964369,N,01258.218248,E,1,05,1.8,139.83,M,46.25,M,,*6A
$GPGLL,4611.964369,N,01258.218248,E,103003.00,A,A*66
$GPVTG,338.9,T,339.1,M,000.9,N,001.6,K,A*24
$GPGSV,2,1,07,21,29,186,40,02,18,044,47,12,23,112,46,25,57,109,46*7B
$GPGSV,2,2,07,29,82,010,39,30,74,307,,31,52,277,,,,,*47
$GPGSA,M,3,21,02,12,25,29,,,,,,,,2.7,1.8,2.0*3E
Trace #96 at position 23.750000
$GPZDA,103002.03,08,10,2011,00,00*6E
$GPRMC,103002.00,A,4611.964147,N,01258.218335,E,000.8,351.9,081011,0.2,E,A*33
$GPGGA,103003.00,4611.964369,N,01258.218248,E,1,05,1.8,139.83,M,46.25,M,,*6A
$GPGLL,4611.964369,N,01258.218248,E,103003.00,A,A*66
$GPVTG,338.9,T,339.1,M,000.9,N,001.6,K,A*24
$GPGSV,2,1,07,21,29,186,40,02,18,044,47,12,23,112,46,25,57,109,46*7B
$GPGSV,2,2,07,29,82,010,39,30,74,307,,31,52,277,,,,,*47
$GPGSA,M,3,21,02,12,25,29,,,,,,,,2.7,1.8,2.0*3E
Trace #97 at position 24.000000
$GPZDA,103003.03,08,10,2011,00,00*6F
$GPRMC,103003.00,A,4611.964369,N,01258.218248,E,000.9,338.9,081011,0.2,E,A*39
$GPGGA,103004.00,4611.964609,N,01258.218182,E,1,05,1.8,139.84,M,46.25,M,,*6C
$GPGLL,4611.964609,N,01258.218182,E,103004.00,A,A*67
$GPVTG,1.5,T,1.7,M,000.9,N,001.6,K,A*2F
$GPGSV,2,1,07,21,29,186,42,02,18,044,47,12,23,112,47,25,57,109,45*7B
$GPGSV,2,2,07,29,82,010,40,30,74,307,,31,52,277,,,,,*49
$GPGSA,M,3,21,02,12,25,29,,,,,,,,2.7,1.8,2.0*3E
Trace #98 at position 24.250000
$GPZDA,103004.03,08,10,2011,00,00*68
$GPRMC,103004.00,A,4611.964609,N,01258.218182,E,000.9,1.5,081011,0.2,E,A*3D
$GPGGA,103005.00,4611.964889,N,01258.218057,E,1,05,1.8,139.93,M,46.25,M,,*64
$GPGLL,4611.964889,N,01258.218057,E,103005.00,A,A*69
$GPVTG,331.1,T,331.3,M,001.3,N,002.4,K,A*25
$GPGSV,2,1,07,21,29,186,41,02,18,044,48,12,23,112,46,25,56,109,46*74
$GPGSV,2,2,07,29,82,010,39,30,74,307,,31,52,277,,,,,*47
$GPGSA,M,3,21,02,12,25,29,,,,,,,,2.7,1.8,2.0*3E
Trace #99 at position 24.500000
$GPZDA,103004.03,08,10,2011,00,00*68
$GPRMC,103004.00,A,4611.964609,N,01258.218182,E,000.9,1.5,081011,0.2,E,A*3D
$GPGGA,103005.00,4611.964889,N,01258.218057,E,1,05,1.8,139.93,M,46.25,M,,*64
$GPGLL,4611.964889,N,01258.218057,E,103005.00,A,A*69
$GPVTG,331.1,T,331.3,M,001.3,N,002.4,K,A*25
$GPGSV,2,1,07,21,29,186,41,02,18,044,48,12,23,112,46,25,56,109,46*74
$GPGSV,2,2,07,29,82,010,39,30,74,307,,31,52,277,,,,,*47
$GPGSA,M,3,21,02,12,25,29,,,,,,,,2.7,1.8,2.0*3E
Trace #100 at position 24.750000
$GPZDA,103005.03,08,10,2011,00,00*69
$GPRMC,103005.00,A,4611.964889,N,01258.218057,E,001.3,331.1,081011,0.2,E,A*3C
$GPGGA,103006.00,4611.965104,N,01258.217889,E,1,05,1.8,140.01,M,46.25,M,,*6B
$GPGLL,4611.965104,N,01258.217889,E,103006.00,A,A*63
$GPVTG,328.1,T,328.3,M,000.5,N,000.9,K,A*2D
$GPGSV,2,1,07,21,29,186,40,02,18,044,47,12,23,112,46,25,56,109,46*7A
$GPGSV,2,2,07,29,82,010,40,30,74,307,,31,52,277,,,,,*49
$GPGSA,M,3,21,02,12,25,29,,,,,,,,2.7,1.8,2.0*3E
Trace #101 at position 25.000000
$GPZDA,103005.03,08,10,2011,00,00*69
$GPRMC,103005.00,A,4611.964889,N,01258.218057,E,001.3,331.1,081011,0.2,E,A*3C
$GPGGA,103006.00,4611.965104,N,01258.217889,E,1,05,1.8,140.01,M,46.25,M,,*6B
$GPGLL,4611.965104,N,01258.217889,E,103006.00,A,A*63
$GPVTG,328.1,T,328.3,M,000.5,N,000.9,K,A*2D
$GPGSV,2,1,07,21,29,186,40,02,18,044,47,12,23,112,46,25,56,109,46*7A
$GPGSV,2,2,07,29,82,010,40,30,74,307,,31,52,277,,,,,*49
$GPGSA,M,3,21,02,12,25,29,,,,,,,,2.7,1.8,2.0*3E
Trace #102 at position 25.250000
$GPZDA,103006.03,08,10,2011,00,00*6A
$GPRMC,103006.00,A,4611.965104,N,01258.217889,E,000.5,328.1,081011,0.2,E,A*39
$GPGGA,103007.00,4611.965346,N,01258.217861,E,1,05,1.8,139.98,M,46.25,M,,*66
$GPGLL,4611.965346,N,01258.217861,E,103007.00,A,A*60
$GPVTG,4.9,T,5.1,M,001.4,N,002.5,K,A*28
$GPGSV,2,1,07,21,29,186,42,02,18,044,48,12,23,112,45,25,56,109,45*77
$GPGSV,2,2,07,29,82,010,41,30,74,307,,31,52,277,,,,,*48
$GPGSA,M,3,21,02,12,25,29,,,,,,,,2.7,1.8,2.0*3E
Trace #103 at position 25.500000
$GPZDA,103006.03,08,10,2011,00,00*6A
$GPRMC,103006.00,A,4611.965104,N,01258.217889,E,000.5,328.1,081011,0.2,E,A*39
$GPGGA,103007.00,4611.965346,N,01258.217861,E,1,05,1.8,139.98,M,46.25,M,,*66
$GPGLL,4611.965346,N,01258.217861,E,103007.00,A,A*60
$GPVTG,4.9,T,5.1,M,001.4,N,002.5,K,A*28
$GPGSV,2,1,07,21,29,186,42,02,18,044,48,12,23,112,45,25,56,109,45*77
$GPGSV,2,2,07,29,82,010,41,30,74,307,,31,52,277,,,,,*48
$GPGSA,M,3,21,02,12,25,29,,,,,,,,2.7,1.8,2.0*3E
Trace #104 at position 25.750000
$GPZDA,103007.03,08,10,2011,00,00*6B
$GPRMC,103007.00,A,4611.965346,N,01258.217861,E,001.4,4.9,081011,0.2,E,A*3F
$GPGGA,103008.00,4611.965713,N,01258.217834,E,1,05,1.8,139.92,M,46.25,M,,*67
$GPGLL,4611.965713,N,01258.217834,E,103008.00,A,A*6B
$GPVTG,351.7,T,351.8,M,001.4,N,002.6,K,A*2D
$GPGSV,2,1,07,21,29,186,41,02,18,044,48,12,23,112,48,25,56,109,47*7B
$GPGSV,2,2,07,29,82,010,40,30,74,307,,31,52,277,,,,,*49
$GPGSA,M,3,21,02,12,25,29,,,,,,,,2.7,1.8,2.0*3E
Trace #105 at position 26.000000
$GPZDA,103007.03,08,10,2011,00,00*6B
$GPRMC,103007.00,A,4611.965346,N,01258.217861,E,001.4,4.9,081011,0.2,E,A*3F
$GPGGA,103008.00,4611.965713,N,01258.217834,E,1,05,1.8,139.92,M,46.25,M,,*67
$GPGLL,4611.965713,N,01258.217834,E,103008.00,A,A*6B
$GPVTG,351.7,T,351.8,M,001.4,N,002.6,K,A*2D
$GPGSV,2,1,07,21,29,186,41,02,18,044,48,12,23,112,48,25,56,109,47*7B
$GPGSV,2,2,07,29,82,010,40,30,74,307,,31,52,277,,,,,*49
$GPGSA,M,3,21,02,12,25,29,,,,,,,,2.7,1.8,2.0*3E
Trace #106 at position 26.250000
$GPZDA,103008.03,08,10,2011,00,00*64
$GPRMC,103008.00,A,4611.965713,N,01258.217834,E,001.4,351.7,081011,0.2,E,A*39
$GPGGA,103009.00,4611.965934,N,01258.217742,E,1,05,1.8,139.99,M,46.25,M,,*68
$GPGLL,4611.965934,N,01258.217742,E,103009.00,A,A*6F
$GPVTG,325.8,T,326.0,M,000.4,N,000.7,K,A*2B
$GPGSV,2,1,07,21,29,186,41,02,18,044,47,12,23,112,46,25,56,109,44*79
$GPGSV,2,2,07,29,82,010,38,30,74,307,,31,52,277,,,,,*46
$GPGSA,M,3,21,02,12,25,29,,,,,,,,2.7,1.8,2.0*3E
Trace #107 at position 26.500000
$GPZDA,103009.03,08,10,2011,00,00*65
$GPRMC,103009.00,A,4611.965934,N,01258.217742,E,000.4,325.8,081011,0.2,E,A*30
$GPGGA,103010.00,4611.966103,N,01258.217732,E,1,05,1.8,140.26,M,46.25,M,,*62
$GPGLL,4611.966103,N,01258.217732,E,103010.00,A,A*6F
$GPVTG,15.5,T,15.7,M,001.1,N,002.0,K,A*23
$GPGSV,2,1,07,21,29,186,39,02,18,044,47,12,23,112,44,25,56,109,45*75
$GPGSV,2,2,07,29,82,010,39,30,74,307,,31,52,277,,,,,*47
$GPGSA,M,3,21,02,12,25,29,,,,,,,,2.7,1.8,2.0*3E
Trace #108 at position 26.750000
$GPZDA,103009.03,08,10,2011,00,00*65
$GPRMC,103009.00,A,4611.965934,N,01258.217742,E,000.4,325.8,081011,0.2,E,A*30
$GPGGA,103010.00,4611.966103,N,01258.217732,E,1,05,1.8,140.26,M,46.25,M,,*62
$GPGLL,4611.966103,N,01258.217732,E,103010.00,A,A*6F
$GPVTG,15.5,T,15.7,M,001.1,N,002.0,K,A*23
$GPGSV,2,1,07,21,29,186,39,02,18,044,47,12,23,112,44,25,56,109,45*75
$GPGSV,2,2,07,29,82,010,39,30,74,307,,31,52,277,,,,,*47
$GPGSA,M,3,21,02,12,25,29,,,,,,,,2.7,1.8,2.0*3E
Trace #109 at position 27.000000
$GPZDA,103010.03,08,10,2011,00,00*6D
$GPRMC,103010.00,A,4611.966103,N,01258.217732,E,001.1,15.5,081011,0.2,E,A*09
$GPGGA,103011.00,4611.966308,N,01258.217702,E,1,05,1.8,140.42,M,46.25,M,,*6B
$GPGLL,4611.966308,N,01258.217702,E,103011.00,A,A*64
$GPVTG,334.9,T,335.1,M,000.7,N,001.2,K,A*2E
$GPGSV,2,1,07,21,29,186,40,02,18,044,47,12,23,112,45,25,56,109,45*7A
$GPGSV,2,2,07,29,82,010,38,30,74,307,,31,52,277,,,,,*46
$GPGSA,M,3,21,02,12,25,29,,,,,,,,2.7,1.8,2.0*3E
Trace #110 at position 27.250000
$GPZDA,103012.03,08,10,2011,00,00*6F
$GPRMC,103012.00,A,4611.966561,N,01258.217656,E,001.4,9.0,081011,0.2,E,A*35
$GPGGA,103013.00,4611.966791,N,01258.217650,E,1,05,1.8,140.22,M,46.25,M,,*6D
$GPGLL,4611.966791,N,01258.217650,E,103013.00,A,A*64
$GPVTG,358.3,T,358.5,M,000.5,N,000.9,K,A*29
$GPGSV,2,1,07,21,29,186,37,02,18,044,47,12,23,112,45,25,56,109,46*79
$GPGSV,2,2,07,29,82,010,41,30,74,307,32,31,52,277,,,,,*49
$GPGSA,M,3,21,02,12,25,29,,,,,,,,2.7,1.8,2.0*3E
Trace #111 at position 27.500000
$GPZDA,103013.03,08,10,2011,00,00*6E
$GPRMC,103013.00,A,4611.966791,N,01258.217650,E,000.5,358.3,081011,0.2,E,A*3B
$GPGGA,103014.00,4611.966832,N,01258.217559,E,1,04,6.4,140.13,M,46.25,M,,*6E
$GPGLL,4611.966832,N,01258.217559,E,103014.00,A,A*6F
$GPVTG,30.4,T,30.6,M,000.3,N,000.5,K,A*27
$GPGSV,2,1,07,21,29,186,32,02,18,044,47,12,23,112,45,25,56,109,45*7F
$GPGSV,2,2,07,29,82,010,41,30,74,307,34,31,52,277,,,,,*4F
$GPGSA,M,3,02,12,25,29,,,,,,,,,9.1,6.4,6.5*3A
Trace #112 at position 27.750000
$GPZDA,103013.03,08,10,2011,00,00*6E
$GPRMC,103013.00,A,4611.966791,N,01258.217650,E,000.5,358.3,081011,0.2,E,A*3B
$GPGGA,103014.00,4611.966832,N,01258.217559,E,1,04,6.4,140.13,M,46.25,M,,*6E
$GPGLL,4611.966832,N,01258.217559,E,103014.00,A,A*6F
$GPVTG,30.4,T,30.6,M,000.3,N,000.5,K,A*27
$GPGSV,2,1,07,21,29,186,32,02,18,044,47,12,23,112,45,25,56,109,45*7F
$GPGSV,2,2,07,29,82,010,41,30,74,307,34,31,52,277,,,,,*4F
$GPGSA,M,3,02,12,25,29,,,,,,,,,9.1,6.4,6.5*3A
Trace #113 at position 28.000000
$GPZDA,103014.03,08,10,2011,00,00*69
$GPRMC,103014.00,A,4611.966832,N,01258.217559,E,000.3,30.4,081011,0.2,E,A*0C
$GPGGA,103015.00,4611.966864,N,01258.217408,E,1,04,6.4,139.94,M,46.25,M,,*68
$GPGLL,4611.966864,N,01258.217408,E,103015.00,A,A*68
$GPVTG,315.2,T,315.3,M,000.5,N,001.0,K,A*26
$GPGSV,2,1,07,21,29,186,35,02,18,044,48,12,23,112,44,25,56,109,45*76
$GPGSV,2,2,07,29,82,010,41,30,74,307,34,31,52,277,,,,,*4F
$GPGSA,M,3,02,12,25,29,,,,,,,,,9.1,6.4,6.5*3A
Trace #114 at position 28.250000
$GPZDA,103014.03,08,10,2011,00,00*69
$GPRMC,103014.00,A,4611.966832,N,01258.217559,E,000.3,30.4,081011,0.2,E,A*0C
$GPGGA,103015.00,4611.966864,N,01258.217408,E,1,04,6.4,139.94,M,46.25,M,,*68
$GPGLL,4611.966864,N,01258.217408,E,103015.00,A,A*68
$GPVTG,315.2,T,315.3,M,000.5,N,001.0,K,A*26
$GPGSV,2,1,07,21,29,186,35,02,18,044,48,12,23,112,44,25,56,109,45*76
$GPGSV,2,2,07,29,82,010,41,30,74,307,34,31,52,277,,,,,*4F
$GPGSA,M,3,02,12,25,29,,,,,,,,,9.1,6.4,6.5*3A
Trace #115 at position 28.500000
$GPZDA,103015.03,08,10,2011,00,00*68
$GPRMC,103015.00,A,4611.966864,N,01258.217408,E,000.5,315.2,081011,0.2,E,A*3F
$GPGGA,103016.00,4611.966945,N,01258.217008,E,1,04,6.4,139.60,M,46.25,M,,*66
$GPGLL,4611.966945,N,01258.217008,E,103016.00,A,A*6D
$GPVTG,288.5,T,288.7,M,001.4,N,002.6,K,A*20
$GPGSV,2,1,07,21,29,186,38,02,18,044,47,12,23,112,45,25,56,109,45*75
$GPGSV,2,2,07,29,82,010,39,30,74,307,31,31,52,277,,,,,*45
$GPGSA,M,3,02,12,25,29,,,,,,,,,9.1,6.4,6.5*3A
Trace #116 at position 28.750000
$GPZDA,103015.03,08,10,2011,00,00*68
$GPRMC,103015.00,A,4611.966864,N,01258.217408,E,000.5,315.2,081011,0.2,E,A*3F
$GPGGA,103016.00,4611.966945,N,01258.217008,E,1,04,6.4,139.60,M,46.25,M,,*66
$GPGLL,4611.966945,N,01258.217008,E,103016.00,A,A*6D
$GPVTG,288.5,T,288.7,M,001.4,N,002.6,K,A*20
$GPGSV,2,1,07,21,29,186,38,02,18,044,47,12,23,112,45,25,56,109,45*75
$GPGSV,2,2,07,29,82,010,39,30,74,307,31,31,52,277,,,,,*45
$GPGSA,M,3,02,12,25,29,,,,,,,,,9.1,6.4,6.5*3A
Trace #117 at position 29.000000
$GPZDA,103016.03,08,10,2011,00,00*6B
$GPRMC,103016.00,A,4611.966945,N,01258.217008,E,001.4,288.5,081011,0.2,E,A*38
$GPGGA,103017.00,4611.967156,N,01258.216800,E,1,04,2.2,139.58,M,46.25,M,,*64
$GPGLL,4611.967156,N,01258.216800,E,103017.00,A,A*66
$GPVTG,9.5,T,9.6,M,001.2,N,002.1,K,A*20
$GPGSV,2,1,07,21,29,186,41,02,18,044,49,12,23,112,47,25,56,109,44*76
$GPGSV,2,2,07,29,82,010,34,30,74,307,32,31,52,277,,,,,*4B
$GPGSA,M,3,21,02,12,25,,,,,,,,,3.4,2.2,2.6*38
Trace #118 at position 29.250000
$GPZDA,103017.03,08,10,2011,00,00*6A
$GPRMC,103017.00,A,4611.967156,N,01258.216800,E,001.2,9.5,081011,0.2,E,A*3E
$GPGGA,103018.00,4611.967441,N,01258.216798,E,1,04,2.2,139.62,M,46.25,M,,*6F
