Trace #1 at position 0.000000
$GPZDA,090925.03,09,10,2011,00,00*68
$GPRMC,090925.00,A,4611.979851,N,01258.218569,E,000.0,339.8,091011,0.2,E,A*3F
$GPGGA,090926.00,4611.979803,N,01258.218644,E,1,05,2.2,142.06,M,46.25,M,,*64
$GPGLL,4611.979803,N,01258.218644,E,090926.00,A,A*60
$GPVTG,318.2,T,318.4,M,000.1,N,000.1,K,A*25
$GPGSV,2,1,07,02,38,070,42,12,52,084,34,14,24,247,38,25,79,008,46*70
$GPGSV,2,2,07,29,59,227,46,30,39,294,44,31,31,311,44,,,,*49
$GPGSA,M,3,02,25,29,30,31,,,,,,,,4.1,2.2,3.5*32
Trace #2 at position 0.250000
$GPZDA,090928.04,09,10,2011,00,00*62
$GPRMC,090928.00,A,4611.979773,N,01258.218776,E,000.0,156.5,091011,0.2,E,A*37
$GPGGA,090929.00,4611.979791,N,01258.218828,E,1,06,1.5,141.70,M,46.25,M,,*6E
$GPGLL,4611.979791,N,01258.218828,E,090929.00,A,A*6F
$GPVTG,344.5,T,344.6,M,000.2,N,000.3,K,A*21
$GPGSV,2,1,07,02,38,070,41,12,52,084,34,14,24,247,40,25,79,008,44*7E
$GPGSV,2,2,07,29,59,227,45,30,39,294,44,31,31,311,45,,,,*4B
$GPGSA,M,3,02,14,25,29,30,31,,,,,,,2.7,1.5,2.3*34
Trace #3 at position 0.500000
$GPZDA,090929.04,09,10,2011,00,00*63
$GPRMC,090929.00,A,4611.979791,N,01258.218828,E,000.2,344.5,091011,0.2,E,A*3D
$GPGGA,090930.00,4611.979790,N,01258.218843,E,1,07,1.4,141.74,M,46.25,M,,*6E
$GPGLL,4611.979790,N,01258.218843,E,090930.00,A,A*6B
$GPVTG,177.3,T,177.4,M,000.2,N,000.4,K,A*22
$GPGSV,2,1,07,02,38,070,44,12,52,084,41,14,24,247,40,25,79,008,46*7B
$GPGSV,2,2,07,29,59,227,43,30,39,294,43,31,31,311,43,,,,*4C
$GPGSA,M,3,02,12,14,25,29,30,31,,,,,,2.7,1.4,2.3*36
Trace #4 at position 0.750000
$GPZDA,090929.04,09,10,2011,00,00*63
$GPRMC,090929.00,A,4611.979791,N,01258.218828,E,000.2,344.5,091011,0.2,E,A*3D
$GPGGA,090930.00,4611.979790,N,01258.218843,E,1,07,1.4,141.74,M,46.25,M,,*6E
$GPGLL,4611.979790,N,01258.218843,E,090930.00,A,A*6B
$GPVTG,177.3,T,177.4,M,000.2,N,000.4,K,A*22
$GPGSV,2,1,07,02,38,070,44,12,52,084,41,14,24,247,40,25,79,008,46*7B
$GPGSV,2,2,07,29,59,227,43,30,39,294,43,31,31,311,43,,,,*4C
$GPGSA,M,3,02,12,14,25,29,30,31,,,,,,2.7,1.4,2.3*36
Trace #5 at position 1.000000
$GPZDA,090929.04,09,10,2011,00,00*63
$GPRMC,090929.00,A,4611.979791,N,01258.218828,E,000.2,344.5,091011,0.2,E,A*3D
$GPGGA,090930.00,4611.979790,N,01258.218843,E,1,07,1.4,141.74,M,46.25,M,,*6E
$GPGLL,4611.979790,N,01258.218843,E,090930.00,A,A*6B
$GPVTG,177.3,T,177.4,M,000.2,N,000.4,K,A*22
$GPGSV,2,1,07,02,38,070,44,12,52,084,41,14,24,247,40,25,79,008,46*7B
$GPGSV,2,2,07,29,59,227,43,30,39,294,43,31,31,311,43,,,,*4C
$GPGSA,M,3,02,12,14,25,29,30,31,,,,,,2.7,1.4,2.3*36
Trace #6 at position 1.250000
$GPZDA,090930.04,09,10,2011,00,00*6B
$GPRMC,090930.00,A,4611.979790,N,01258.218843,E,000.2,177.3,091011,0.2,E,A*3D
$GPGGA,090931.00,4611.979705,N,01258.218861,E,1,06,1.5,141.73,M,46.25,M,,*64
$GPGLL,4611.979705,N,01258.218861,E,090931.00,A,A*66
$GPVTG,218.7,T,218.8,M,000.4,N,000.7,K,A*2F
$GPGSV,2,1,07,02,38,070,41,12,52,084,34,14,24,247,39,25,79,008,46*72
$GPGSV,2,2,07,29,59,227,42,30,39,294,43,31,31,311,44,,,,*4A
$GPGSA,M,3,02,14,25,29,30,31,,,,,,,2.7,1.5,2.3*34
Trace #7 at position 1.500000
$GPZDA,090930.04,09,10,2011,00,00*6B
$GPRMC,090930.00,A,4611.979790,N,01258.218843,E,000.2,177.3,091011,0.2,E,A*3D
$GPGGA,090931.00,4611.979705,N,01258.218861,E,1,06,1.5,141.73,M,46.25,M,,*64
$GPGLL,4611.979705,N,01258.218861,E,090931.00,A,A*66
$GPVTG,218.7,T,218.8,M,000.4,N,000.7,K,A*2F
$GPGSV,2,1,07,02,38,070,41,12,52,084,34,14,24,247,39,25,79,008,46*72
$GPGSV,2,2,07,29,59,227,42,30,39,294,43,31,31,311,44,,,,*4A
$GPGSA,M,3,02,14,25,29,30,31,,,,,,,2.7,1.5,2.3*34
Trace #8 at position 1.750000
$GPZDA,090930.04,09,10,2011,00,00*6B
$GPRMC,090930.00,A,4611.979790,N,01258.218843,E,000.2,177.3,091011,0.2,E,A*3D
$GPGGA,090931.00,4611.979705,N,01258.218861,E,1,06,1.5,141.73,M,46.25,M,,*64
$GPGLL,4611.979705,N,01258.218861,E,090931.00,A,A*66
$GPVTG,218.7,T,218.8,M,000.4,N,000.7,K,A*2F
$GPGSV,2,1,07,02,38,070,41,12,52,084,34,14,24,247,39,25,79,008,46*72
$GPGSV,2,2,07,29,59,227,42,30,39,294,43,31,31,311,44,,,,*4A
$GPGSA,M,3,02,14,25,29,30,31,,,,,,,2.7,1.5,2.3*34
Trace #9 at position 2.000000
$GPZDA,090937.04,09,10,2011,00,00*6C
$GPRMC,090937.00,A,4611.978842,N,01258.219274,E,000.6,131.0,091011,0.2,E,A*31
$GPGGA,090938.00,4611.978767,N,01258.219414,E,1,07,1.4,141.35,M,46.25,M,,*65
$GPGLL,4611.978767,N,01258.219414,E,090938.00,A,A*65
$GPVTG,159.4,T,159.5,M,000.2,N,000.3,K,A*23
$GPGSV,2,1,07,02,38,070,42,12,51,084,41,14,24,247,39,25,79,008,46*70
$GPGSV,2,2,07,29,59,227,43,30,39,294,42,31,31,311,43,,,,*4D
$GPGSA,M,3,02,12,14,25,29,30,31,,,,,,2.7,1.4,2.3*36
Trace #10 at position 2.250000
$GPZDA,090938.04,09,10,2011,00,00*63
$GPRMC,090938.00,A,4611.978767,N,01258.219414,E,000.2,159.4,091011,0.2,E,A*38
$GPGGA,090939.00,4611.978739,N,01258.219474,E,1,07,1.4,141.28,M,46.25,M,,*65
$GPGLL,4611.978739,N,01258.219474,E,090939.00,A,A*69
$GPVTG,135.3,T,135.4,M,000.1,N,000.2,K,A*27
$GPGSV,2,1,07,02,38,070,43,12,51,084,41,14,24,247,40,25,79,008,46*7F
$GPGSV,2,2,07,29,59,227,43,30,39,294,42,31,31,311,42,,,,*4C
$GPGSA,M,3,02,12,14,25,29,30,31,,,,,,2.7,1.4,2.3*36
Trace #11 at position 2.500000
$GPZDA,090938.04,09,10,2011,00,00*63
$GPRMC,090938.00,A,4611.978767,N,01258.219414,E,000.2,159.4,091011,0.2,E,A*38
$GPGGA,090939.00,4611.978739,N,01258.219474,E,1,07,1.4,141.28,M,46.25,M,,*65
$GPGLL,4611.978739,N,01258.219474,E,090939.00,A,A*69
$GPVTG,135.3,T,135.4,M,000.1,N,000.2,K,A*27
$GPGSV,2,1,07,02,38,070,43,12,51,084,41,14,24,247,40,25,79,008,46*7F
$GPGSV,2,2,07,29,59,227,43,30,39,294,42,31,31,311,42,,,,*4C
$GPGSA,M,3,02,12,14,25,29,30,31,,,,,,2.7,1.4,2.3*36
Trace #12 at position 2.750000
$GPZDA,090939.04,09,10,2011,00,00*62
$GPRMC,090939.00,A,4611.978739,N,01258.219474,E,000.1,135.3,091011,0.2,E,A*3A
$GPGGA,090940.00,4611.978734,N,01258.219526,E,1,07,1.4,141.23,M,46.25,M,,*6B
$GPGLL,4611.978734,N,01258.219526,E,090940.00,A,A*6C
$GPVTG,97.5,T,97.6,M,000.0,N,000.1,K,A*21
$GPGSV,2,1,07,02,38,070,43,12,51,084,42,14,24,247,39,25,79,008,47*73
$GPGSV,2,2,07,29,59,227,43,30,39,294,41,31,31,311,43,,,,*4E
$GPGSA,M,3,02,12,14,25,29,30,31,,,,,,2.7,1.4,2.3*36
Trace #13 at position 3.000000
$GPZDA,090939.04,09,10,2011,00,00*62
$GPRMC,090939.00,A,4611.978739,N,01258.219474,E,000.1,135.3,091011,0.2,E,A*3A
$GPGGA,090940.00,4611.978734,N,01258.219526,E,1,07,1.4,141.23,M,46.25,M,,*6B
$GPGLL,4611.978734,N,01258.219526,E,090940.00,A,A*6C
$GPVTG,97.5,T,97.6,M,000.0,N,000.1,K,A*21
$GPGSV,2,1,07,02,38,070,43,12,51,084,42,14,24,247,39,25,79,008,47*73
$GPGSV,2,2,07,29,59,227,43,30,39,294,41,31,31,311,43,,,,*4E
$GPGSA,M,3,02,12,14,25,29,30,31,,,,,,2.7,1.4,2.3*36
Trace #14 at position 3.250000
$GPZDA,090940.04,09,10,2011,00,00*6C
$GPRMC,090940.00,A,4611.978734,N,01258.219526,E,000.0,97.5,091011,0.2,E,A*01
$GPGGA,090941.00,4611.978592,N,01258.219577,E,1,07,1.4,141.24,M,46.25,M,,*67
$GPGLL,4611.978592,N,01258.219577,E,090941.00,A,A*67
$GPVTG,177.3,T,177.4,M,001.0,N,001.9,K,A*2D
$GPGSV,2,1,07,02,38,070,43,12,51,084,42,14,24,247,40,25,79,008,47*7D
$GPGSV,2,2,07,29,59,227,43,30,39,294,43,31,31,311,44,,,,*4B
$GPGSA,M,3,02,12,14,25,29,30,31,,,,,,2.7,1.4,2.3*36
Trace #15 at position 3.500000
$GPZDA,090940.04,09,10,2011,00,00*6C
$GPRMC,090940.00,A,4611.978734,N,01258.219526,E,000.0,97.5,091011,0.2,E,A*01
$GPGGA,090941.00,4611.978592,N,01258.219577,E,1,07,1.4,141.24,M,46.25,M,,*67
$GPGLL,4611.978592,N,01258.219577,E,090941.00,A,A*67
$GPVTG,177.3,T,177.4,M,001.0,N,001.9,K,A*2D
$GPGSV,2,1,07,02,38,070,43,12,51,084,42,14,24,247,40,25,79,008,47*7D
$GPGSV,2,2,07,29,59,227,43,30,39,294,43,31,31,311,44,,,,*4B
$GPGSA,M,3,02,12,14,25,29,30,31,,,,,,2.7,1.4,2.3*36
Trace #16 at position 3.750000
$GPZDA,090940.04,09,10,2011,00,00*6C
$GPRMC,090940.00,A,4611.978734,N,01258.219526,E,000.0,97.5,091011,0.2,E,A*01
$GPGGA,090941.00,4611.978592,N,01258.219577,E,1,07,1.4,141.24,M,46.25,M,,*67
$GPGLL,4611.978592,N,01258.219577,E,090941.00,A,A*67
$GPVTG,177.3,T,177.4,M,001.0,N,001.9,K,A*2D
$GPGSV,2,1,07,02,38,070,43,12,51,084,42,14,24,247,40,25,79,008,47*7D
$GPGSV,2,2,07,29,59,227,43,30,39,294,43,31,31,311,44,,,,*4B
$GPGSA,M,3,02,12,14,25,29,30,31,,,,,,2.7,1.4,2.3*36
Trace #17 at position 4.000000
$GPZDA,090941.04,09,10,2011,00,00*6D
$GPRMC,090941.00,A,4611.978592,N,01258.219577,E,001.0,177.3,091011,0.2,E,A*32
$GPGGA,090942.00,4611.978362,N,01258.219664,E,1,07,1.4,141.28,M,46.25,M,,*60
$GPGLL,4611.978362,N,01258.219664,E,090942.00,A,A*6C
$GPVTG,160.7,T,160.9,M,000.7,N,001.3,K,A*28
$GPGSV,2,1,07,02,38,070,44,12,51,084,41,14,24,247,39,25,79,008,47*77
$GPGSV,2,2,07,29,59,227,44,30,39,294,43,31,31,311,43,,,,*4B
$GPGSA,M,3,02,12,14,25,29,30,31,,,,,,2.7,1.4,2.3*36
Trace #18 at position 4.250000
$GPZDA,090941.04,09,10,2011,00,00*6D
$GPRMC,090941.00,A,4611.978592,N,01258.219577,E,001.0,177.3,091011,0.2,E,A*32
$GPGGA,090942.00,4611.978362,N,01258.219664,E,1,07,1.4,141.28,M,46.25,M,,*60
$GPGLL,4611.978362,N,01258.219664,E,090942.00,A,A*6C
$GPVTG,160.7,T,160.9,M,000.7,N,001.3,K,A*28
$GPGSV,2,1,07,02,38,070,44,12,51,084,41,14,24,247,39,25,79,008,47*77
$GPGSV,2,2,07,29,59,227,44,30,39,294,43,31,31,311,43,,,,*4B
$GPGSA,M,3,02,12,14,25,29,30,31,,,,,,2.7,1.4,2.3*36
Trace #19 at position 4.500000
$GPZDA,090941.04,09,10,2011,00,00*6D
$GPRMC,090941.00,A,4611.978592,N,01258.219577,E,001.0,177.3,091011,0.2,E,A*32
$GPGGA,090942.00,4611.978362,N,01258.219664,E,1,07,1.4,141.28,M,46.25,M,,*60
$GPGLL,4611.978362,N,01258.219664,E,090942.00,A,A*6C
$GPVTG,160.7,T,160.9,M,000.7,N,001.3,K,A*28
$GPGSV,2,1,07,02,38,070,44,12,51,084,41,14,24,247,39,25,79,008,47*77
$GPGSV,2,2,07,29,59,227,44,30,39,294,43,31,31,311,43,,,,*4B
$GPGSA,M,3,02,12,14,25,29,30,31,,,,,,2.7,1.4,2.3*36
Trace #20 at position 4.750000
$GPZDA,090942.04,09,10,2011,00,00*6E
$GPRMC,090942.00,A,4611.978362,N,01258.219664,E,000.7,160.7,091011,0.2,E,A*3D
$GPGGA,090943.00,4611.977964,N,01258.219849,E,1,07,1.4,141.18,M,46.25,M,,*60
$GPGLL,4611.977964,N,01258.219849,E,090943.00,A,A*6F
$GPVTG,165.7,T,165.9,M,002.3,N,004.2,K,A*2A
$GPGSV,2,1,07,02,38,070,44,12,51,084,42,14,24,247,38,25,79,008,46*74
$GPGSV,2,2,07,29,59,227,43,30,39,294,43,31,31,311,43,,,,*4C
$GPGSA,M,3,02,12,14,25,29,30,31,,,,,,2.7,1.4,2.3*36
Trace #21 at position 5.000000
$GPZDA,090942.04,09,10,2011,00,00*6E
$GPRMC,090942.00,A,4611.978362,N,01258.219664,E,000.7,160.7,091011,0.2,E,A*3D
$GPGGA,090943.00,4611.977964,N,01258.219849,E,1,07,1.4,141.18,M,46.25,M,,*60
$GPGLL,4611.977964,N,01258.219849,E,090943.00,A,A*6F
$GPVTG,165.7,T,165.9,M,002.3,N,004.2,K,A*2A
$GPGSV,2,1,07,02,38,070,44,12,51,084,42,14,24,247,38,25,79,008,46*74
$GPGSV,2,2,07,29,59,227,43,30,39,294,43,31,31,311,43,,,,*4C
$GPGSA,M,3,02,12,14,25,29,30,31,,,,,,2.7,1.4,2.3*36
Trace #22 at position 5.250000
$GPZDA,090942.04,09,10,2011,00,00*6E
$GPRMC,090942.00,A,4611.978362,N,01258.219664,E,000.7,160.7,091011,0.2,E,A*3D
$GPGGA,090943.00,4611.977964,N,01258.219849,E,1,07,1.4,141.18,M,46.25,M,,*60
$GPGLL,4611.977964,N,01258.219849,E,090943.00,A,A*6F
$GPVTG,165.7,T,165.9,M,002.3,N,004.2,K,A*2A
$GPGSV,2,1,07,02,38,070,44,12,51,084,42,14,24,247,38,25,79,008,46*74
$GPGSV,2,2,07,29,59,227,43,30,39,294,43,31,31,311,43,,,,*4C
$GPGSA,M,3,02,12,14,25,29,30,31,,,,,,2.7,1.4,2.3*36
Trace #23 at position 5.500000
$GPZDA,090943.04,09,10,2011,00,00*6F
$GPRMC,090943.00,A,4611.977964,N,01258.219849,E,002.3,165.7,091011,0.2,E,A*3D
$GPGGA,090944.00,4611.977401,N,01258.220127,E,1,07,1.4,141.04,M,46.25,M,,*6F
$GPGLL,4611.977401,N,01258.220127,E,090944.00,A,A*6D
$GPVTG,159.8,T,159.9,M,002.1,N,004.0,K,A*25
$GPGSV,2,1,07,02,38,070,43,12,51,084,41,14,24,247,39,25,79,008,47*70
$GPGSV,2,2,07,29,59,227,42,30,39,294,43,31,31,311,43,,,,*4D
$GPGSA,M,3,02,12,14,25,29,30,31,,,,,,2.7,1.4,2.3*36
Trace #24 at position 5.750000
$GPZDA,090943.04,09,10,2011,00,00*6F
$GPRMC,090943.00,A,4611.977964,N,01258.219849,E,002.3,165.7,091011,0.2,E,A*3D
$GPGGA,090944.00,4611.977401,N,01258.220127,E,1,07,1.4,141.04,M,46.25,M,,*6F
$GPGLL,4611.977401,N,01258.220127,E,090944.00,A,A*6D
$GPVTG,159.8,T,159.9,M,002.1,N,004.0,K,A*25
$GPGSV,2,1,07,02,38,070,43,12,51,084,41,14,24,247,39,25,79,008,47*70
$GPGSV,2,2,07,29,59,227,42,30,39,294,43,31,31,311,43,,,,*4D
$GPGSA,M,3,02,12,14,25,29,30,31,,,,,,2.7,1.4,2.3*36
Trace #25 at position 6.000000
$GPZDA,090943.04,09,10,2011,00,00*6F
$GPRMC,090943.00,A,4611.977964,N,01258.219849,E,002.3,165.7,091011,0.2,E,A*3D
$GPGGA,090944.00,4611.977401,N,01258.220127,E,1,07,1.4,141.04,M,46.25,M,,*6F
$GPGLL,4611.977401,N,01258.220127,E,090944.00,A,A*6D
$GPVTG,159.8,T,159.9,M,002.1,N,004.0,K,A*25
$GPGSV,2,1,07,02,38,070,43,12,51,084,41,14,24,247,39,25,79,008,47*70
$GPGSV,2,2,07,29,59,227,42,30,39,294,43,31,31,311,43,,,,*4D
$GPGSA,M,3,02,12,14,25,29,30,31,,,,,,2.7,1.4,2.3*36
Trace #26 at position 6.250000
$GPZDA,090944.04,09,10,2011,00,00*68
$GPRMC,090944.00,A,4611.977401,N,01258.220127,E,002.1,159.8,091011,0.2,E,A*3D
$GPGGA,090945.00,4611.976996,N,01258.220524,E,1,07,1.4,141.03,M,46.25,M,,*6C
$GPGLL,4611.976996,N,01258.220524,E,090945.00,A,A*69
$GPVTG,130.6,T,130.7,M,001.7,N,003.1,K,A*26
$GPGSV,2,1,07,02,38,070,44,12,51,084,41,14,24,247,39,25,79,008,46*76
$GPGSV,2,2,07,29,59,227,42,30,39,294,43,31,31,311,43,,,,*4D
$GPGSA,M,3,02,12,14,25,29,30,31,,,,,,2.7,1.4,2.3*36
Trace #27 at position 6.500000
$GPZDA,090944.04,09,10,2011,00,00*68
$GPRMC,090944.00,A,4611.977401,N,01258.220127,E,002.1,159.8,091011,0.2,E,A*3D
$GPGGA,090945.00,4611.976996,N,01258.220524,E,1,07,1.4,141.03,M,46.25,M,,*6C
$GPGLL,4611.976996,N,01258.220524,E,090945.00,A,A*69
$GPVTG,130.6,T,130.7,M,001.7,N,003.1,K,A*26
$GPGSV,2,1,07,02,38,070,44,12,51,084,41,14,24,247,39,25,79,008,46*76
$GPGSV,2,2,07,29,59,227,42,30,39,294,43,31,31,311,43,,,,*4D
$GPGSA,M,3,02,12,14,25,29,30,31,,,,,,2.7,1.4,2.3*36
Trace #28 at position 6.750000
$GPZDA,090944.04,09,10,2011,00,00*68
$GPRMC,090944.00,A,4611.977401,N,01258.220127,E,002.1,159.8,091011,0.2,E,A*3D
$GPGGA,090945.00,4611.976996,N,01258.220524,E,1,07,1.4,141.03,M,46.25,M,,*6C
$GPGLL,4611.976996,N,01258.220524,E,090945.00,A,A*69
$GPVTG,130.6,T,130.7,M,001.7,N,003.1,K,A*26
$GPGSV,2,1,07,02,38,070,44,12,51,084,41,14,24,247,39,25,79,008,46*76
$GPGSV,2,2,07,29,59,227,42,30,39,294,43,31,31,311,43,,,,*4D
$GPGSA,M,3,02,12,14,25,29,30,31,,,,,,2.7,1.4,2.3*36
Trace #29 at position 7.000000
$GPZDA,090944.04,09,10,2011,00,00*68
$GPRMC,090944.00,A,4611.977401,N,01258.220127,E,002.1,159.8,091011,0.2,E,A*3D
$GPGGA,090945.00,4611.976996,N,01258.220524,E,1,07,1.4,141.03,M,46.25,M,,*6C
$GPGLL,4611.976996,N,01258.220524,E,090945.00,A,A*69
$GPVTG,130.6,T,130.7,M,001.7,N,003.1,K,A*26
$GPGSV,2,1,07,02,38,070,44,12,51,084,41,14,24,247,39,25,79,008,46*76
$GPGSV,2,2,07,29,59,227,42,30,39,294,43,31,31,311,43,,,,*4D
$GPGSA,M,3,02,12,14,25,29,30,31,,,,,,2.7,1.4,2.3*36
Trace #30 at position 7.250000
$GPZDA,090945.04,09,10,2011,00,00*69
$GPRMC,090945.00,A,4611.976996,N,01258.220524,E,001.7,130.6,091011,0.2,E,A*3D
$GPGGA,090946.00,4611.976733,N,01258.220758,E,1,07,1.4,141.14,M,46.25,M,,*61
$GPGLL,4611.976733,N,01258.220758,E,090946.00,A,A*62
$GPVTG,178.7,T,178.8,M,000.9,N,001.6,K,A*22
$GPGSV,2,1,07,02,38,070,44,12,51,084,41,14,24,247,39,25,79,008,47*77
$GPGSV,2,2,07,29,59,227,42,30,39,294,44,31,31,311,43,,,,*4A
$GPGSA,M,3,02,12,14,25,29,30,31,,,,,,2.7,1.4,2.3*36
Trace #31 at position 7.500000
$GPZDA,090945.04,09,10,2011,00,00*69
$GPRMC,090945.00,A,4611.976996,N,01258.220524,E,001.7,130.6,091011,0.2,E,A*3D
$GPGGA,090946.00,4611.976733,N,01258.220758,E,1,07,1.4,141.14,M,46.25,M,,*61
$GPGLL,4611.976733,N,01258.220758,E,090946.00,A,A*62
$GPVTG,178.7,T,178.8,M,000.9,N,001.6,K,A*22
$GPGSV,2,1,07,02,38,070,44,12,51,084,41,14,24,247,39,25,79,008,47*77
$GPGSV,2,2,07,29,59,227,42,30,39,294,44,31,31,311,43,,,,*4A
$GPGSA,M,3,02,12,14,25,29,30,31,,,,,,2.7,1.4,2.3*36
Trace #32 at position 7.750000
$GPZDA,090945.04,09,10,2011,00,00*69
$GPRMC,090945.00,A,4611.976996,N,01258.220524,E,001.7,130.6,091011,0.2,E,A*3D
$GPGGA,090946.00,4611.976733,N,01258.220758,E,1,07,1.4,141.14,M,46.25,M,,*61
$GPGLL,4611.976733,N,01258.220758,E,090946.00,A,A*62
$GPVTG,178.7,T,178.8,M,000.9,N,001.6,K,A*22
$GPGSV,2,1,07,02,38,070,44,12,51,084,41,14,24,247,39,25,79,008,47*77
$GPGSV,2,2,07,29,59,227,42,30,39,294,44,31,31,311,43,,,,*4A
$GPGSA,M,3,02,12,14,25,29,30,31,,,,,,2.7,1.4,2.3*36
Trace #33 at position 8.000000
$GPZDA,090946.04,09,10,2011,00,00*6A
$GPRMC,090946.00,A,4611.976733,N,01258.220758,E,000.9,178.7,091011,0.2,E,A*34
$GPGGA,090947.00,4611.976389,N,01258.220800,E,1,07,1.4,141.20,M,46.25,M,,*60
$GPGLL,4611.976389,N,01258.220800,E,090947.00,A,A*64
$GPVTG,173.6,T,173.7,M,001.6,N,002.9,K,A*2E
$GPGSV,2,1,07,02,38,070,43,12,51,084,39,14,24,247,39,25,79,008,46*7E
$GPGSV,2,2,07,29,59,227,43,30,39,294,43,31,31,311,44,,,,*4B
$GPGSA,M,3,02,12,14,25,29,30,31,,,,,,2.7,1.4,2.3*36
Trace #34 at position 8.250000
$GPZDA,090946.04,09,10,2011,00,00*6A
$GPRMC,090946.00,A,4611.976733,N,01258.220758,E,000.9,178.7,091011,0.2,E,A*34
$GPGGA,090947.00,4611.976389,N,01258.220800,E,1,07,1.4,141.20,M,46.25,M,,*60
$GPGLL,4611.976389,N,01258.220800,E,090947.00,A,A*64
$GPVTG,173.6,T,173.7,M,001.6,N,002.9,K,A*2E
$GPGSV,2,1,07,02,38,070,43,12,51,084,39,14,24,247,39,25,79,008,46*7E
$GPGSV,2,2,07,29,59,227,43,30,39,294,43,31,31,311,44,,,,*4B
$GPGSA,M,3,02,12,14,25,29,30,31,,,,,,2.7,1.4,2.3*36
Trace #35 at position 8.500000
$GPZDA,090946.04,09,10,2011,00,00*6A
$GPRMC,090946.00,A,4611.976733,N,01258.220758,E,000.9,178.7,091011,0.2,E,A*34
$GPGGA,090947.00,4611.976389,N,01258.220800,E,1,07,1.4,141.20,M,46.25,M,,*60
$GPGLL,4611.976389,N,01258.220800,E,090947.00,A,A*64
$GPVTG,173.6,T,173.7,M,001.6,N,002.9,K,A*2E
$GPGSV,2,1,07,02,38,070,43,12,51,084,39,14,24,247,39,25,79,008,46*7E
$GPGSV,2,2,07,29,59,227,43,30,39,294,43,31,31,311,44,,,,*4B
$GPGSA,M,3,02,12,14,25,29,30,31,,,,,,2.7,1.4,2.3*36
Trace #36 at position 8.750000
$GPZDA,090946.04,09,10,2011,00,00*6A
$GPRMC,090946.00,A,4611.976733,N,01258.220758,E,000.9,178.7,091011,0.2,E,A*34
$GPGGA,090947.00,4611.976389,N,01258.220800,E,1,07,1.4,141.20,M,46.25,M,,*60
$GPGLL,4611.976389,N,01258.220800,E,090947.00,A,A*64
$GPVTG,173.6,T,173.7,M,001.6,N,002.9,K,A*2E
$GPGSV,2,1,07,02,38,070,43,12,51,084,39,14,24,247,39,25,79,008,46*7E
$GPGSV,2,2,07,29,59,227,43,30,39,294,43,31,31,311,44,,,,*4B
$GPGSA,M,3,02,12,14,25,29,30,31,,,,,,2.7,1.4,2.3*36
Trace #37 at position 9.000000
$GPZDA,090947.04,09,10,2011,00,00*6B
$GPRMC,090947.00,A,4611.976389,N,01258.220800,E,001.6,173.6,091011,0.2,E,A*36
$GPGGA,090948.00,4611.975995,N,01258.220906,E,1,07,1.4,141.27,M,46.25,M,,*6B
$GPGLL,4611.975995,N,01258.220906,E,090948.00,A,A*68
$GPVTG,167.0,T,167.2,M,001.2,N,002.1,K,A*21
$GPGSV,2,1,07,02,38,070,43,12,51,084,41,14,24,247,40,25,79,009,46*7E
$GPGSV,2,2,07,29,59,227,44,30,39,294,44,31,31,311,43,,,,*4C
$GPGSA,M,3,02,12,14,25,29,30,31,,,,,,2.7,1.4,2.3*36
Trace #38 at position 9.250000
$GPZDA,090947.04,09,10,2011,00,00*6B
$GPRMC,090947.00,A,4611.976389,N,01258.220800,E,001.6,173.6,091011,0.2,E,A*36
$GPGGA,090948.00,4611.975995,N,01258.220906,E,1,07,1.4,141.27,M,46.25,M,,*6B
$GPGLL,4611.975995,N,01258.220906,E,090948.00,A,A*68
$GPVTG,167.0,T,167.2,M,001.2,N,002.1,K,A*21
$GPGSV,2,1,07,02,38,070,43,12,51,084,41,14,24,247,40,25,79,009,46*7E
$GPGSV,2,2,07,29,59,227,44,30,39,294,44,31,31,311,43,,,,*4C
$GPGSA,M,3,02,12,14,25,29,30,31,,,,,,2.7,1.4,2.3*36
Trace #39 at position 9.500000
$GPZDA,090947.04,09,10,2011,00,00*6B
$GPRMC,090947.00,A,4611.976389,N,01258.220800,E,001.6,173.6,091011,0.2,E,A*36
$GPGGA,090948.00,4611.975995,N,01258.220906,E,1,07,1.4,141.27,M,46.25,M,,*6B
$GPGLL,4611.975995,N,01258.220906,E,090948.00,A,A*68
$GPVTG,167.0,T,167.2,M,001.2,N,002.1,K,A*21
$GPGSV,2,1,07,02,38,070,43,12,51,084,41,14,24,247,40,25,79,009,46*7E
$GPGSV,2,2,07,29,59,227,44,30,39,294,44,31,31,311,43,,,,*4C
$GPGSA,M,3,02,12,14,25,29,30,31,,,,,,2.7,1.4,2.3*36
Trace #40 at position 9.750000
$GPZDA,090948.04,09,10,2011,00,00*64
$GPRMC,090948.00,A,4611.975995,N,01258.220906,E,001.2,167.0,091011,0.2,E,A*3D
$GPGGA,090949.00,4611.975572,N,01258.221129,E,1,07,1.4,141.33,M,46.25,M,,*6E
$GPGLL,4611.975572,N,01258.221129,E,090949.00,A,A*68
$GPVTG,155.8,T,156.0,M,001.8,N,003.4,K,A*26
$GPGSV,2,1,07,02,38,070,43,12,51,084,41,14,24,247,39,25,79,009,46*70
$GPGSV,2,2,07,29,59,227,43,30,39,294,44,31,31,311,44,,,,*4C
$GPGSA,M,3,02,12,14,25,29,30,31,,,,,,2.7,1.4,2.3*36
Trace #41 at position 10.000000
$GPZDA,090948.04,09,10,2011,00,00*64
$GPRMC,090948.00,A,4611.975995,N,01258.220906,E,001.2,167.0,091011,0.2,E,A*3D
$GPGGA,090949.00,4611.975572,N,01258.221129,E,1,07,1.4,141.33,M,46.25,M,,*6E
$GPGLL,4611.975572,N,01258.221129,E,090949.00,A,A*68
$GPVTG,155.8,T,156.0,M,001.8,N,003.4,K,A*26
$GPGSV,2,1,07,02,38,070,43,12,51,084,41,14,24,247,39,25,79,009,46*70
$GPGSV,2,2,07,29,59,227,43,30,39,294,44,31,31,311,44,,,,*4C
$GPGSA,M,3,02,12,14,25,29,30,31,,,,,,2.7,1.4,2.3*36
Trace #42 at position 10.250000
$GPZDA,090948.04,09,10,2011,00,00*64
$GPRMC,090948.00,A,4611.975995,N,01258.220906,E,001.2,167.0,091011,0.2,E,A*3D
$GPGGA,090949.00,4611.975572,N,01258.221129,E,1,07,1.4,141.33,M,46.25,M,,*6E
$GPGLL,4611.975572,N,01258.221129,E,090949.00,A,A*68
$GPVTG,155.8,T,156.0,M,001.8,N,003.4,K,A*26
$GPGSV,2,1,07,02,38,070,43,12,51,084,41,14,24,247,39,25,79,009,46*70
$GPGSV,2,2,07,29,59,227,43,30,39,294,44,31,31,311,44,,,,*4C
$GPGSA,M,3,02,12,14,25,29,30,31,,,,,,2.7,1.4,2.3*36
Trace #43 at position 10.500000
$GPZDA,090949.04,09,10,2011,00,00*65
$GPRMC,090949.00,A,4611.975572,N,01258.221129,E,001.8,155.8,091011,0.2,E,A*3E
$GPGGA,090950.00,4611.975148,N,01258.221296,E,1,07,1.4,141.35,M,46.25,M,,*6A
$GPGLL,4611.975148,N,01258.221296,E,090950.00,A,A*6A
$GPVTG,184.7,T,184.8,M,001.1,N,002.0,K,A*2E
$GPGSV,2,1,07,02,38,070,43,12,51,084,42,14,24,247,40,25,79,009,46*7D
$GPGSV,2,2,07,29,59,227,44,30,39,294,44,31,31,311,43,,,,*4C
$GPGSA,M,3,02,12,14,25,29,30,31,,,,,,2.7,1.4,2.3*36
Trace #44 at position 10.750000
$GPZDA,090949.04,09,10,2011,00,00*65
$GPRMC,090949.00,A,4611.975572,N,01258.221129,E,001.8,155.8,091011,0.2,E,A*3E
$GPGGA,090950.00,4611.975148,N,01258.221296,E,1,07,1.4,141.35,M,46.25,M,,*6A
$GPGLL,4611.975148,N,01258.221296,E,090950.00,A,A*6A
$GPVTG,184.7,T,184.8,M,001.1,N,002.0,K,A*2E
$GPGSV,2,1,07,02,38,070,43,12,51,084,42,14,24,247,40,25,79,009,46*7D
$GPGSV,2,2,07,29,59,227,44,30,39,294,44,31,31,311,43,,,,*4C
$GPGSA,M,3,02,12,14,25,29,30,31,,,,,,2.7,1.4,2.3*36
Trace #45 at position 11.000000
$GPZDA,090949.04,09,10,2011,00,00*65
$GPRMC,090949.00,A,4611.975572,N,01258.221129,E,001.8,155.8,091011,0.2,E,A*3E
$GPGGA,090950.00,4611.975148,N,01258.221296,E,1,07,1.4,141.35,M,46.25,M,,*6A
$GPGLL,4611.975148,N,01258.221296,E,090950.00,A,A*6A
$GPVTG,184.7,T,184.8,M,001.1,N,002.0,K,A*2E
$GPGSV,2,1,07,02,38,070,43,12,51,084,42,14,24,247,40,25,79,009,46*7D
$GPGSV,2,2,07,29,59,227,44,30,39,294,44,31,31,311,43,,,,*4C
$GPGSA,M,3,02,12,14,25,29,30,31,,,,,,2.7,1.4,2.3*36
Trace #46 at position 11.250000
$GPZDA,090949.04,09,10,2011,00,00*65
$GPRMC,090949.00,A,4611.975572,N,01258.221129,E,001.8,155.8,091011,0.2,E,A*3E
$GPGGA,090950.00,4611.975148,N,01258.221296,E,1,07,1.4,141.35,M,46.25,M,,*6A
$GPGLL,4611.975148,N,01258.221296,E,090950.00,A,A*6A
$GPVTG,184.7,T,184.8,M,001.1,N,002.0,K,A*2E
$GPGSV,2,1,07,02,38,070,43,12,51,084,42,14,24,247,40,25,79,009,46*7D
$GPGSV,2,2,07,29,59,227,44,30,39,294,44,31,31,311,43,,,,*4C
$GPGSA,M,3,02,12,14,25,29,30,31,,,,,,2.7,1.4,2.3*36
Trace #47 at position 11.500000
$GPZDA,090950.04,09,10,2011,00,00*6D
$GPRMC,090950.00,A,4611.975148,N,01258.221296,E,001.1,184.7,091011,0.2,E,A*36
$GPGGA,090951.00,4611.974714,N,01258.221388,E,1,07,1.4,141.27,M,46.25,M,,*68
$GPGLL,4611.974714,N,01258.221388,E,090951.00,A,A*6B
$GPVTG,169.1,T,169.3,M,001.7,N,003.2,K,A*26
$GPGSV,2,1,07,02,38,070,43,12,51,084,41,14,24,247,40,25,79,009,46*7E
$GPGSV,2,2,07,29,59,227,43,30,39,294,44,31,31,311,44,,,,*4C
$GPGSA,M,3,02,12,14,25,29,30,31,,,,,,2.7,1.4,2.3*36
Trace #48 at position 11.750000
$GPZDA,090950.04,09,10,2011,00,00*6D
$GPRMC,090950.00,A,4611.975148,N,01258.221296,E,001.1,184.7,091011,0.2,E,A*36
$GPGGA,090951.00,4611.974714,N,01258.221388,E,1,07,1.4,141.27,M,46.25,M,,*68
$GPGLL,4611.974714,N,01258.221388,E,090951.00,A,A*6B
$GPVTG,169.1,T,169.3,M,001.7,N,003.2,K,A*26
$GPGSV,2,1,07,02,38,070,43,12,51,084,41,14,24,247,40,25,79,009,46*7E
$GPGSV,2,2,07,29,59,227,43,30,39,294,44,31,31,311,44,,,,*4C
$GPGSA,M,3,02,12,14,25,29,30,31,,,,,,2.7,1.4,2.3*36
Trace #49 at position 12.000000
$GPZDA,090950.04,09,10,2011,00,00*6D
$GPRMC,090950.00,A,4611.975148,N,01258.221296,E,001.1,184.7,091011,0.2,E,A*36
$GPGGA,090951.00,4611.974714,N,01258.221388,E,1,07,1.4,141.27,M,46.25,M,,*68
$GPGLL,4611.974714,N,01258.221388,E,090951.00,A,A*6B
$GPVTG,169.1,T,169.3,M,001.7,N,003.2,K,A*26
$GPGSV,2,1,07,02,38,070,43,12,51,084,41,14,24,247,40,25,79,009,46*7E
$GPGSV,2,2,07,29,59,227,43,30,39,294,44,31,31,311,44,,,,*4C
$GPGSA,M,3,02,12,14,25,29,30,31,,,,,,2.7,1.4,2.3*36
Trace #50 at position 12.250000
$GPZDA,090951.04,09,10,2011,00,00*6C
$GPRMC,090951.00,A,4611.974714,N,01258.221388,E,001.7,169.1,091011,0.2,E,A*34
$GPGGA,090952.00,4611.974184,N,01258.221645,E,1,07,1.4,141.12,M,46.25,M,,*66
$GPGLL,4611.974184,N,01258.221645,E,090952.00,A,A*63
$GPVTG,158.1,T,158.3,M,002.1,N,003.9,K,A*28
$GPGSV,2,1,07,02,38,070,43,12,51,084,41,14,24,247,38,25,79,009,46*71
$GPGSV,2,2,07,29,59,227,42,30,39,294,45,31,31,311,44,,,,*4C
$GPGSA,M,3,02,12,14,25,29,30,31,,,,,,2.7,1.4,2.3*36
Trace #51 at position 12.500000
$GPZDA,090951.04,09,10,2011,00,00*6C
$GPRMC,090951.00,A,4611.974714,N,01258.221388,E,001.7,169.1,091011,0.2,E,A*34
$GPGGA,090952.00,4611.974184,N,01258.221645,E,1,07,1.4,141.12,M,46.25,M,,*66
$GPGLL,4611.974184,N,01258.221645,E,090952.00,A,A*63
$GPVTG,158.1,T,158.3,M,002.1,N,003.9,K,A*28
$GPGSV,2,1,07,02,38,070,43,12,51,084,41,14,24,247,38,25,79,009,46*71
$GPGSV,2,2,07,29,59,227,42,30,39,294,45,31,31,311,44,,,,*4C
$GPGSA,M,3,02,12,14,25,29,30,31,,,,,,2.7,1.4,2.3*36
Trace #52 at position 12.750000
$GPZDA,090951.04,09,10,2011,00,00*6C
$GPRMC,090951.00,A,4611.974714,N,01258.221388,E,001.7,169.1,091011,0.2,E,A*34
$GPGGA,090952.00,4611.974184,N,01258.221645,E,1,07,1.4,141.12,M,46.25,M,,*66
$GPGLL,4611.974184,N,01258.221645,E,090952.00,A,A*63
$GPVTG,158.1,T,158.3,M,002.1,N,003.9,K,A*28
$GPGSV,2,1,07,02,38,070,43,12,51,084,41,14,24,247,38,25,79,009,46*71
$GPGSV,2,2,07,29,59,227,42,30,39,294,45,31,31,311,44,,,,*4C
$GPGSA,M,3,02,12,14,25,29,30,31,,,,,,2.7,1.4,2.3*36
Trace #53 at position 13.000000
$GPZDA,090951.04,09,10,2011,00,00*6C
$GPRMC,090951.00,A,4611.974714,N,01258.221388,E,001.7,169.1,091011,0.2,E,A*34
$GPGGA,090952.00,4611.974184,N,01258.221645,E,1,07,1.4,141.12,M,46.25,M,,*66
$GPGLL,4611.974184,N,01258.221645,E,090952.00,A,A*63
$GPVTG,158.1,T,158.3,M,002.1,N,003.9,K,A*28
$GPGSV,2,1,07,02,38,070,43,12,51,084,41,14,24,247,38,25,79,009,46*71
$GPGSV,2,2,07,29,59,227,42,30,39,294,45,31,31,311,44,,,,*4C
$GPGSA,M,3,02,12,14,25,29,30,31,,,,,,2.7,1.4,2.3*36
Trace #54 at position 13.250000
$GPZDA,090951.04,09,10,2011,00,00*6C
$GPRMC,090951.00,A,4611.974714,N,01258.221388,E,001.7,169.1,091011,0.2,E,A*34
$GPGGA,090952.00,4611.974184,N,01258.221645,E,1,07,1.4,141.12,M,46.25,M,,*66
$GPGLL,4611.974184,N,01258.221645,E,090952.00,A,A*63
$GPVTG,158.1,T,158.3,M,002.1,N,003.9,K,A*28
$GPGSV,2,1,07,02,38,070,43,12,51,084,41,14,24,247,38,25,79,009,46*71
$GPGSV,2,2,07,29,59,227,42,30,39,294,45,31,31,311,44,,,,*4C
$GPGSA,M,3,02,12,14,25,29,30,31,,,,,,2.7,1.4,2.3*36
Trace #55 at position 13.500000
$GPZDA,090952.04,09,10,2011,00,00*6F
$GPRMC,090952.00,A,4611.974184,N,01258.221645,E,002.1,158.1,091011,0.2,E,A*3B
$GPGGA,090953.00,4611.973569,N,01258.221916,E,1,07,1.4,141.06,M,46.25,M,,*6B
$GPGLL,4611.973569,N,01258.221916,E,090953.00,A,A*6B
$GPVTG,170.0,T,170.2,M,002.4,N,004.5,K,A*26
$GPGSV,2,1,07,02,38,070,43,12,51,084,40,14,24,247,40,25,79,009,46*7F
$GPGSV,2,2,07,29,59,227,42,30,39,294,43,31,31,311,43,,,,*4D
$GPGSA,M,3,02,12,14,25,29,30,31,,,,,,2.7,1.4,2.3*36
Trace #56 at position 13.750000
$GPZDA,090952.04,09,10,2011,00,00*6F
$GPRMC,090952.00,A,4611.974184,N,01258.221645,E,002.1,158.1,091011,0.2,E,A*3B
$GPGGA,090953.00,4611.973569,N,01258.221916,E,1,07,1.4,141.06,M,46.25,M,,*6B
$GPGLL,4611.973569,N,01258.221916,E,090953.00,A,A*6B
$GPVTG,170.0,T,170.2,M,002.4,N,004.5,K,A*26
$GPGSV,2,1,07,02,38,070,43,12,51,084,40,14,24,247,40,25,79,009,46*7F
$GPGSV,2,2,07,29,59,227,42,30,39,294,43,31,31,311,43,,,,*4D
$GPGSA,M,3,02,12,14,25,29,30,31,,,,,,2.7,1.4,2.3*36
Trace #57 at position 14.000000
$GPZDA,090952.04,09,10,2011,00,00*6F
$GPRMC,090952.00,A,4611.974184,N,01258.221645,E,002.1,158.1,091011,0.2,E,A*3B
$GPGGA,090953.00,4611.973569,N,01258.221916,E,1,07,1.4,141.06,M,46.25,M,,*6B
$GPGLL,4611.973569,N,01258.221916,E,090953.00,A,A*6B
$GPVTG,170.0,T,170.2,M,002.4,N,004.5,K,A*26
$GPGSV,2,1,07,02,38,070,43,12,51,084,40,14,24,247,40,25,79,009,46*7F
$GPGSV,2,2,07,29,59,227,42,30,39,294,43,31,31,311,43,,,,*4D
$GPGSA,M,3,02,12,14,25,29,30,31,,,,,,2.7,1.4,2.3*36
Trace #58 at position 14.250000
$GPZDA,090953.04,09,10,2011,00,00*6E
$GPRMC,090953.00,A,4611.973569,N,01258.221916,E,002.4,170.0,091011,0.2,E,A*3D
$GPGGA,090954.00,4611.972897,N,01258.222206,E,1,07,1.4,140.99,M,46.25,M,,*6F
$GPGLL,4611.972897,N,01258.222206,E,090954.00,A,A*68
$GPVTG,159.7,T,159.9,M,002.7,N,004.9,K,A*25
$GPGSV,2,1,07,02,38,070,43,12,51,084,41,14,24,247,39,25,79,009,46*70
$GPGSV,2,2,07,29,59,227,43,30,39,294,43,31,31,311,43,,,,*4C
$GPGSA,M,3,02,12,14,25,29,30,31,,,,,,2.7,1.4,2.3*36
Trace #59 at position 14.500000
$GPZDA,090953.04,09,10,2011,00,00*6E
$GPRMC,090953.00,A,4611.973569,N,01258.221916,E,002.4,170.0,091011,0.2,E,A*3D
$GPGGA,090954.00,4611.972897,N,01258.222206,E,1,07,1.4,140.99,M,46.25,M,,*6F
$GPGLL,4611.972897,N,01258.222206,E,090954.00,A,A*68
$GPVTG,159.7,T,159.9,M,002.7,N,004.9,K,A*25
$GPGSV,2,1,07,02,38,070,43,12,51,084,41,14,24,247,39,25,79,009,46*70
$GPGSV,2,2,07,29,59,227,43,30,39,294,43,31,31,311,43,,,,*4C
$GPGSA,M,3,02,12,14,25,29,30,31,,,,,,2.7,1.4,2.3*36
Trace #60 at position 14.750000
$GPZDA,090953.04,09,10,2011,00,00*6E
$GPRMC,090953.00,A,4611.973569,N,01258.221916,E,002.4,170.0,091011,0.2,E,A*3D
$GPGGA,090954.00,4611.972897,N,01258.222206,E,1,07,1.4,140.99,M,46.25,M,,*6F
$GPGLL,4611.972897,N,01258.222206,E,090954.00,A,A*68
$GPVTG,159.7,T,159.9,M,002.7,N,004.9,K,A*25
$GPGSV,2,1,07,02,38,070,43,12,51,084,41,14,24,247,39,25,79,009,46*70
$GPGSV,2,2,07,29,59,227,43,30,39,294,43,31,31,311,43,,,,*4C
$GPGSA,M,3,02,12,14,25,29,30,31,,,,,,2.7,1.4,2.3*36
Trace #61 at position 15.000000
$GPZDA,090953.04,09,10,2011,00,00*6E
$GPRMC,090953.00,A,4611.973569,N,01258.221916,E,002.4,170.0,091011,0.2,E,A*3D
$GPGGA,090954.00,4611.972897,N,01258.222206,E,1,07,1.4,140.99,M,46.25,M,,*6F
$GPGLL,4611.972897,N,01258.222206,E,090954.00,A,A*68
$GPVTG,159.7,T,159.9,M,002.7,N,004.9,K,A*25
$GPGSV,2,1,07,02,38,070,43,12,51,084,41,14,24,247,39,25,79,009,46*70
$GPGSV,2,2,07,29,59,227,43,30,39,294,43,31,31,311,43,,,,*4C
$GPGSA,M,3,02,12,14,25,29,30,31,,,,,,2.7,1.4,2.3*36
Trace #62 at position 15.250000
$GPZDA,090954.04,09,10,2011,00,00*69
$GPRMC,090954.00,A,4611.972897,N,01258.222206,E,002.7,159.7,091011,0.2,E,A*31
$GPGGA,090955.00,4611.972321,N,01258.222509,E,1,07,1.4,140.81,M,46.25,M,,*69
$GPGLL,4611.972321,N,01258.222509,E,090955.00,A,A*67
$GPVTG,163.7,T,163.9,M,001.8,N,003.4,K,A*23
$GPGSV,2,1,07,02,38,070,43,12,51,084,41,14,24,247,39,25,79,009,46*70
$GPGSV,2,2,07,29,59,227,43,30,39,294,44,31,31,311,43,,,,*4B
$GPGSA,M,3,02,12,14,25,29,30,31,,,,,,2.7,1.4,2.3*36
Trace #63 at position 15.500000
$GPZDA,090954.04,09,10,2011,00,00*69
$GPRMC,090954.00,A,4611.972897,N,01258.222206,E,002.7,159.7,091011,0.2,E,A*31
$GPGGA,090955.00,4611.972321,N,01258.222509,E,1,07,1.4,140.81,M,46.25,M,,*69
$GPGLL,4611.972321,N,01258.222509,E,090955.00,A,A*67
$GPVTG,163.7,T,163.9,M,001.8,N,003.4,K,A*23
$GPGSV,2,1,07,02,38,070,43,12,51,084,41,14,24,247,39,25,79,009,46*70
$GPGSV,2,2,07,29,59,227,43,30,39,294,44,31,31,311,43,,,,*4B
$GPGSA,M,3,02,12,14,25,29,30,31,,,,,,2.7,1.4,2.3*36
Trace #64 at position 15.750000
$GPZDA,090954.04,09,10,2011,00,00*69
$GPRMC,090954.00,A,4611.972897,N,01258.222206,E,002.7,159.7,091011,0.2,E,A*31
$GPGGA,090955.00,4611.972321,N,01258.222509,E,1,07,1.4,140.81,M,46.25,M,,*69
$GPGLL,4611.972321,N,01258.222509,E,090955.00,A,A*67
$GPVTG,163.7,T,163.9,M,001.8,N,003.4,K,A*23
$GPGSV,2,1,07,02,38,070,43,12,51,084,41,14,24,247,39,25,79,009,46*70
$GPGSV,2,2,07,29,59,227,43,30,39,294,44,31,31,311,43,,,,*4B
$GPGSA,M,3,02,12,14,25,29,30,31,,,,,,2.7,1.4,2.3*36
Trace #65 at position 16.000000
$GPZDA,090954.04,09,10,2011,00,00*69
$GPRMC,090954.00,A,4611.972897,N,01258.222206,E,002.7,159.7,091011,0.2,E,A*31
$GPGGA,090955.00,4611.972321,N,01258.222509,E,1,07,1.4,140.81,M,46.25,M,,*69
$GPGLL,4611.972321,N,01258.222509,E,090955.00,A,A*67
$GPVTG,163.7,T,163.9,M,001.8,N,003.4,K,A*23
$GPGSV,2,1,07,02,38,070,43,12,51,084,41,14,24,247,39,25,79,009,46*70
$GPGSV,2,2,07,29,59,227,43,30,39,294,44,31,31,311,43,,,,*4B
$GPGSA,M,3,02,12,14,25,29,30,31,,,,,,2.7,1.4,2.3*36
Trace #66 at position 16.250000
$GPZDA,090955.04,09,10,2011,00,00*68
$GPRMC,090955.00,A,4611.972321,N,01258.222509,E,001.8,163.7,091011,0.2,E,A*3B
$GPGGA,090956.00,4611.971861,N,01258.222598,E,1,07,1.4,140.69,M,46.25,M,,*68
$GPGLL,4611.971861,N,01258.222598,E,090956.00,A,A*60
$GPVTG,187.1,T,187.3,M,001.6,N,003.0,K,A*25
$GPGSV,2,1,07,02,38,070,42,12,51,084,42,14,24,247,39,25,79,009,46*72
$GPGSV,2,2,07,29,59,227,43,30,39,294,43,31,31,311,44,,,,*4B
$GPGSA,M,3,02,12,14,25,29,30,31,,,,,,2.7,1.4,2.3*36
Trace #67 at position 16.500000
$GPZDA,090955.04,09,10,2011,00,00*68
$GPRMC,090955.00,A,4611.972321,N,01258.222509,E,001.8,163.7,091011,0.2,E,A*3B
$GPGGA,090956.00,4611.971861,N,01258.222598,E,1,07,1.4,140.69,M,46.25,M,,*68
$GPGLL,4611.971861,N,01258.222598,E,090956.00,A,A*60
$GPVTG,187.1,T,187.3,M,001.6,N,003.0,K,A*25
$GPGSV,2,1,07,02,38,070,42,12,51,084,42,14,24,247,39,25,79,009,46*72
$GPGSV,2,2,07,29,59,227,43,30,39,294,43,31,31,311,44,,,,*4B
$GPGSA,M,3,02,12,14,25,29,30,31,,,,,,2.7,1.4,2.3*36
Trace #68 at position 16.750000
$GPZDA,090955.04,09,10,2011,00,00*68
$GPRMC,090955.00,A,4611.972321,N,01258.222509,E,001.8,163.7,091011,0.2,E,A*3B
$GPGGA,090956.00,4611.971861,N,01258.222598,E,1,07,1.4,140.69,M,46.25,M,,*68
$GPGLL,4611.971861,N,01258.222598,E,090956.00,A,A*60
$GPVTG,187.1,T,187.3,M,001.6,N,003.0,K,A*25
$GPGSV,2,1,07,02,38,070,42,12,51,084,42,14,24,247,39,25,79,009,46*72
$GPGSV,2,2,07,29,59,227,43,30,39,294,43,31,31,311,44,,,,*4B
$GPGSA,M,3,02,12,14,25,29,30,31,,,,,,2.7,1.4,2.3*36
Trace #69 at position 17.000000
$GPZDA,090955.04,09,10,2011,00,00*68
$GPRMC,090955.00,A,4611.972321,N,01258.222509,E,001.8,163.7,091011,0.2,E,A*3B
$GPGGA,090956.00,4611.971861,N,01258.222598,E,1,07,1.4,140.69,M,46.25,M,,*68
$GPGLL,4611.971861,N,01258.222598,E,090956.00,A,A*60
$GPVTG,187.1,T,187.3,M,001.6,N,003.0,K,A*25
$GPGSV,2,1,07,02,38,070,42,12,51,084,42,14,24,247,39,25,79,009,46*72
$GPGSV,2,2,07,29,59,227,43,30,39,294,43,31,31,311,44,,,,*4B
$GPGSA,M,3,02,12,14,25,29,30,31,,,,,,2.7,1.4,2.3*36
Trace #70 at position 17.250000
$GPZDA,090955.04,09,10,2011,00,00*68
$GPRMC,090955.00,A,4611.972321,N,01258.222509,E,001.8,163.7,091011,0.2,E,A*3B
$GPGGA,090956.00,4611.971861,N,01258.222598,E,1,07,1.4,140.69,M,46.25,M,,*68
$GPGLL,4611.971861,N,01258.222598,E,090956.00,A,A*60
$GPVTG,187.1,T,187.3,M,001.6,N,003.0,K,A*25
$GPGSV,2,1,07,02,38,070,42,12,51,084,42,14,24,247,39,25,79,009,46*72
$GPGSV,2,2,07,29,59,227,43,30,39,294,43,31,31,311,44,,,,*4B
$GPGSA,M,3,02,12,14,25,29,30,31,,,,,,2.7,1.4,2.3*36
Trace #71 at position 17.500000
$GPZDA,090956.04,09,10,2011,00,00*6B
$GPRMC,090956.00,A,4611.971861,N,01258.222598,E,001.6,187.1,091011,0.2,E,A*3E
$GPGGA,090957.00,4611.971397,N,01258.222712,E,1,07,1.4,140.73,M,46.25,M,,*60
$GPGLL,4611.971397,N,01258.222712,E,090957.00,A,A*63
$GPVTG,163.1,T,163.3,M,001.9,N,003.4,K,A*2E
$GPGSV,2,1,07,02,38,070,43,12,51,084,41,14,24,247,39,25,79,009,46*70
$GPGSV,2,2,07,29,59,227,43,30,39,294,42,31,31,311,43,,,,*4D
$GPGSA,M,3,02,12,14,25,29,30,31,,,,,,2.7,1.4,2.3*36
Trace #72 at position 17.750000
$GPZDA,090956.04,09,10,2011,00,00*6B
$GPRMC,090956.00,A,4611.971861,N,01258.222598,E,001.6,187.1,091011,0.2,E,A*3E
$GPGGA,090957.00,4611.971397,N,01258.222712,E,1,07,1.4,140.73,M,46.25,M,,*60
$GPGLL,4611.971397,N,01258.222712,E,090957.00,A,A*63
$GPVTG,163.1,T,163.3,M,001.9,N,003.4,K,A*2E
$GPGSV,2,1,07,02,38,070,43,12,51,084,41,14,24,247,39,25,79,009,46*70
$GPGSV,2,2,07,29,59,227,43,30,39,294,42,31,31,311,43,,,,*4D
$GPGSA,M,3,02,12,14,25,29,30,31,,,,,,2.7,1.4,2.3*36
Trace #73 at position 18.000000
$GPZDA,090956.04,09,10,2011,00,00*6B
$GPRMC,090956.00,A,4611.971861,N,01258.222598,E,001.6,187.1,091011,0.2,E,A*3E
$GPGGA,090957.00,4611.971397,N,01258.222712,E,1,07,1.4,140.73,M,46.25,M,,*60
$GPGLL,4611.971397,N,01258.222712,E,090957.00,A,A*63
$GPVTG,163.1,T,163.3,M,001.9,N,003.4,K,A*2E
$GPGSV,2,1,07,02,38,070,43,12,51,084,41,14,24,247,39,25,79,009,46*70
$GPGSV,2,2,07,29,59,227,43,30,39,294,42,31,31,311,43,,,,*4D
$GPGSA,M,3,02,12,14,25,29,30,31,,,,,,2.7,1.4,2.3*36
Trace #74 at position 18.250000
$GPZDA,090957.04,09,10,2011,00,00*6A
$GPRMC,090957.00,A,4611.971397,N,01258.222712,E,001.9,163.1,091011,0.2,E,A*38
$GPGGA,090958.00,4611.970825,N,01258.223136,E,1,07,1.4,140.76,M,46.25,M,,*68
$GPGLL,4611.970825,N,01258.223136,E,090958.00,A,A*6E
$GPVTG,149.3,T,149.4,M,002.7,N,005.1,K,A*25
$GPGSV,2,1,07,02,38,070,43,12,51,084,41,14,24,247,39,25,79,009,46*70
$GPGSV,2,2,07,29,59,227,42,30,39,294,43,31,31,311,43,,,,*4D
$GPGSA,M,3,02,12,14,25,29,30,31,,,,,,2.7,1.4,2.3*36
Trace #75 at position 18.500000
$GPZDA,090957.04,09,10,2011,00,00*6A
$GPRMC,090957.00,A,4611.971397,N,01258.222712,E,001.9,163.1,091011,0.2,E,A*38
$GPGGA,090958.00,4611.970825,N,01258.223136,E,1,07,1.4,140.76,M,46.25,M,,*68
$GPGLL,4611.970825,N,01258.223136,E,090958.00,A,A*6E
$GPVTG,149.3,T,149.4,M,002.7,N,005.1,K,A*25
$GPGSV,2,1,07,02,38,070,43,12,51,084,41,14,24,247,39,25,79,009,46*70
$GPGSV,2,2,07,29,59,227,42,30,39,294,43,31,31,311,43,,,,*4D
$GPGSA,M,3,02,12,14,25,29,30,31,,,,,,2.7,1.4,2.3*36
Trace #76 at position 18.750000
$GPZDA,090957.04,09,10,2011,00,00*6A
$GPRMC,090957.00,A,4611.971397,N,01258.222712,E,001.9,163.1,091011,0.2,E,A*38
$GPGGA,090958.00,4611.970825,N,01258.223136,E,1,07,1.4,140.76,M,46.25,M,,*68
$GPGLL,4611.970825,N,01258.223136,E,090958.00,A,A*6E
$GPVTG,149.3,T,149.4,M,002.7,N,005.1,K,A*25
$GPGSV,2,1,07,02,38,070,43,12,51,084,41,14,24,247,39,25,79,009,46*70
$GPGSV,2,2,07,29,59,227,42,30,39,294,43,31,31,311,43,,,,*4D
$GPGSA,M,3,02,12,14,25,29,30,31,,,,,,2.7,1.4,2.3*36
Trace #77 at position 19.000000
$GPZDA,090958.04,09,10,2011,00,00*65
$GPRMC,090958.00,A,4611.970825,N,01258.223136,E,002.7,149.3,091011,0.2,E,A*32
$GPGGA,090959.00,4611.970216,N,01258.223587,E,1,07,1.4,140.73,M,46.25,M,,*68
$GPGLL,4611.970216,N,01258.223587,E,090959.00,A,A*6B
$GPVTG,158.1,T,158.3,M,002.2,N,004.2,K,A*27
$GPGSV,2,1,07,02,38,070,44,12,51,084,41,14,24,247,40,25,79,009,47*78
$GPGSV,2,2,07,29,59,227,43,30,39,294,43,31,31,311,44,,,,*4B
$GPGSA,M,3,02,12,14,25,29,30,31,,,,,,2.7,1.4,2.3*36
Trace #78 at position 19.250000
$GPZDA,090958.04,09,10,2011,00,00*65
$GPRMC,090958.00,A,4611.970825,N,01258.223136,E,002.7,149.3,091011,0.2,E,A*32
$GPGGA,090959.00,4611.970216,N,01258.223587,E,1,07,1.4,140.73,M,46.25,M,,*68
$GPGLL,4611.970216,N,01258.223587,E,090959.00,A,A*6B
$GPVTG,158.1,T,158.3,M,002.2,N,004.2,K,A*27
$GPGSV,2,1,07,02,38,070,44,12,51,084,41,14,24,247,40,25,79,009,47*78
$GPGSV,2,2,07,29,59,227,43,30,39,294,43,31,31,311,44,,,,*4B
$GPGSA,M,3,02,12,14,25,29,30,31,,,,,,2.7,1.4,2.3*36
Trace #79 at position 19.500000
$GPZDA,090958.04,09,10,2011,00,00*65
$GPRMC,090958.00,A,4611.970825,N,01258.223136,E,002.7,149.3,091011,0.2,E,A*32
$GPGGA,090959.00,4611.970216,N,01258.223587,E,1,07,1.4,140.73,M,46.25,M,,*68
$GPGLL,4611.970216,N,01258.223587,E,090959.00,A,A*6B
$GPVTG,158.1,T,158.3,M,002.2,N,004.2,K,A*27
$GPGSV,2,1,07,02,38,070,44,12,51,084,41,14,24,247,40,25,79,009,47*78
$GPGSV,2,2,07,29,59,227,43,30,39,294,43,31,31,311,44,,,,*4B
$GPGSA,M,3,02,12,14,25,29,30,31,,,,,,2.7,1.4,2.3*36
Trace #80 at position 19.750000
$GPZDA,090958.04,09,10,2011,00,00*65
$GPRMC,090958.00,A,4611.970825,N,01258.223136,E,002.7,149.3,091011,0.2,E,A*32
$GPGGA,090959.00,4611.970216,N,01258.223587,E,1,07,1.4,140.73,M,46.25,M,,*68
$GPGLL,4611.970216,N,01258.223587,E,090959.00,A,A*6B
$GPVTG,158.1,T,158.3,M,002.2,N,004.2,K,A*27
$GPGSV,2,1,07,02,38,070,44,12,51,084,41,14,24,247,40,25,79,009,47*78
$GPGSV,2,2,07,29,59,227,43,30,39,294,43,31,31,311,44,,,,*4B
$GPGSA,M,3,02,12,14,25,29,30,31,,,,,,2.7,1.4,2.3*36
Trace #81 at position 20.000000
$GPZDA,090959.04,09,10,2011,00,00*64
$GPRMC,090959.00,A,4611.970216,N,01258.223587,E,002.2,158.1,091011,0.2,E,A*30
$GPGGA,091000.00,4611.969816,N,01258.223817,E,1,07,1.4,140.74,M,46.25,M,,*6D
$GPGLL,4611.969816,N,01258.223817,E,091000.00,A,A*69
$GPVTG,156.9,T,157.1,M,000.9,N,001.6,K,A*24
$GPGSV,2,1,07,02,38,070,45,12,51,084,42,14,23,247,39,25,79,009,48*7C
$GPGSV,2,2,07,29,59,228,43,30,39,294,43,31,31,311,44,,,,*44
$GPGSA,M,3,02,12,14,25,29,30,31,,,,,,2.7,1.4,2.3*36
Trace #82 at position 20.250000
$GPZDA,090959.04,09,10,2011,00,00*64
$GPRMC,090959.00,A,4611.970216,N,01258.223587,E,002.2,158.1,091011,0.2,E,A*30
$GPGGA,091000.00,4611.969816,N,01258.223817,E,1,07,1.4,140.74,M,46.25,M,,*6D
$GPGLL,4611.969816,N,01258.223817,E,091000.00,A,A*69
$GPVTG,156.9,T,157.1,M,000.9,N,001.6,K,A*24
$GPGSV,2,1,07,02,38,070,45,12,51,084,42,14,23,247,39,25,79,009,48*7C
$GPGSV,2,2,07,29,59,228,43,30,39,294,43,31,31,311,44,,,,*44
$GPGSA,M,3,02,12,14,25,29,30,31,,,,,,2.7,1.4,2.3*36
Trace #83 at position 20.500000
$GPZDA,090959.04,09,10,2011,00,00*64
$GPRMC,090959.00,A,4611.970216,N,01258.223587,E,002.2,158.1,091011,0.2,E,A*30
$GPGGA,091000.00,4611.969816,N,01258.223817,E,1,07,1.4,140.74,M,46.25,M,,*6D
$GPGLL,4611.969816,N,01258.223817,E,091000.00,A,A*69
$GPVTG,156.9,T,157.1,M,000.9,N,001.6,K,A*24
$GPGSV,2,1,07,02,38,070,45,12,51,084,42,14,23,247,39,25,79,009,48*7C
$GPGSV,2,2,07,29,59,228,43,30,39,294,43,31,31,311,44,,,,*44
$GPGSA,M,3,02,12,14,25,29,30,31,,,,,,2.7,1.4,2.3*36
Trace #84 at position 20.750000
$GPZDA,091000.04,09,10,2011,00,00*60
$GPRMC,091000.00,A,4611.969816,N,01258.223817,E,000.9,156.9,091011,0.2,E,A*3D
$GPGGA,091001.00,4611.969490,N,01258.224178,E,1,07,1.4,140.74,M,46.25,M,,*69
$GPGLL,4611.969490,N,01258.224178,E,091001.00,A,A*6D
$GPVTG,133.0,T,133.2,M,002.2,N,004.1,K,A*24
$GPGSV,2,1,07,02,38,070,44,12,51,084,41,14,23,247,39,25,79,009,47*71
$GPGSV,2,2,07,29,59,228,43,30,39,294,43,31,31,311,43,,,,*43
$GPGSA,M,3,02,12,14,25,29,30,31,,,,,,2.7,1.4,2.3*36
Trace #85 at position 21.000000
$GPZDA,091000.04,09,10,2011,00,00*60
$GPRMC,091000.00,A,4611.969816,N,01258.223817,E,000.9,156.9,091011,0.2,E,A*3D
$GPGGA,091001.00,4611.969490,N,01258.224178,E,1,07,1.4,140.74,M,46.25,M,,*69
$GPGLL,4611.969490,N,01258.224178,E,091001.00,A,A*6D
$GPVTG,133.0,T,133.2,M,002.2,N,004.1,K,A*24
$GPGSV,2,1,07,02,38,070,44,12,51,084,41,14,23,247,39,25,79,009,47*71
$GPGSV,2,2,07,29,59,228,43,30,39,294,43,31,31,311,43,,,,*43
$GPGSA,M,3,02,12,14,25,29,30,31,,,,,,2.7,1.4,2.3*36
Trace #86 at position 21.250000
$GPZDA,091000.04,09,10,2011,00,00*60
$GPRMC,091000.00,A,4611.969816,N,01258.223817,E,000.9,156.9,091011,0.2,E,A*3D
$GPGGA,091001.00,4611.969490,N,01258.224178,E,1,07,1.4,140.74,M,46.25,M,,*69
$GPGLL,4611.969490,N,01258.224178,E,091001.00,A,A*6D
$GPVTG,133.0,T,133.2,M,002.2,N,004.1,K,A*24
$GPGSV,2,1,07,02,38,070,44,12,51,084,41,14,23,247,39,25,79,009,47*71
$GPGSV,2,2,07,29,59,228,43,30,39,294,43,31,31,311,43,,,,*43
$GPGSA,M,3,02,12,14,25,29,30,31,,,,,,2.7,1.4,2.3*36
Trace #87 at position 21.500000
$GPZDA,091001.04,09,10,2011,00,00*61
$GPRMC,091001.00,A,4611.969490,N,01258.224178,E,002.2,133.0,091011,0.2,E,A*3A
$GPGGA,091002.00,4611.969052,N,01258.224570,E,1,07,1.4,140.67,M,46.25,M,,*6E
$GPGLL,4611.969052,N,01258.224570,E,091002.00,A,A*68
$GPVTG,158.4,T,158.6,M,001.8,N,003.3,K,A*28
$GPGSV,2,1,07,02,38,070,44,12,51,084,41,14,23,247,40,25,79,009,46*7E
$GPGSV,2,2,07,29,59,228,43,30,39,294,43,31,31,311,43,,,,*43
$GPGSA,M,3,02,12,14,25,29,30,31,,,,,,2.7,1.4,2.3*36
Trace #88 at position 21.750000
$GPZDA,091001.04,09,10,2011,00,00*61
$GPRMC,091001.00,A,4611.969490,N,01258.224178,E,002.2,133.0,091011,0.2,E,A*3A
$GPGGA,091002.00,4611.969052,N,01258.224570,E,1,07,1.4,140.67,M,46.25,M,,*6E
$GPGLL,4611.969052,N,01258.224570,E,091002.00,A,A*68
$GPVTG,158.4,T,158.6,M,001.8,N,003.3,K,A*28
$GPGSV,2,1,07,02,38,070,44,12,51,084,41,14,23,247,40,25,79,009,46*7E
$GPGSV,2,2,07,29,59,228,43,30,39,294,43,31,31,311,43,,,,*43
$GPGSA,M,3,02,12,14,25,29,30,31,,,,,,2.7,1.4,2.3*36
Trace #89 at position 22.000000
$GPZDA,091001.04,09,10,2011,00,00*61
$GPRMC,091001.00,A,4611.969490,N,01258.224178,E,002.2,133.0,091011,0.2,E,A*3A
$GPGGA,091002.00,4611.969052,N,01258.224570,E,1,07,1.4,140.67,M,46.25,M,,*6E
$GPGLL,4611.969052,N,01258.224570,E,091002.00,A,A*68
$GPVTG,158.4,T,158.6,M,001.8,N,003.3,K,A*28
$GPGSV,2,1,07,02,38,070,44,12,51,084,41,14,23,247,40,25,79,009,46*7E
$GPGSV,2,2,07,29,59,228,43,30,39,294,43,31,31,311,43,,,,*43
$GPGSA,M,3,02,12,14,25,29,30,31,,,,,,2.7,1.4,2.3*36
Trace #90 at position 22.250000
$GPZDA,091002.04,09,10,2011,00,00*62
$GPRMC,091002.00,A,4611.969052,N,01258.224570,E,001.8,158.4,091011,0.2,E,A*3F
$GPGGA,091003.00,4611.968632,N,01258.224746,E,1,07,1.4,140.68,M,46.25,M,,*66
$GPGLL,4611.968632,N,01258.224746,E,091003.00,A,A*6F
$GPVTG,159.2,T,159.3,M,001.5,N,002.8,K,A*2C
$GPGSV,2,1,07,02,38,070,43,12,51,084,40,14,23,247,39,25,79,009,46*76
$GPGSV,2,2,07,29,59,228,42,30,39,294,43,31,31,311,43,,,,*42
$GPGSA,M,3,02,12,14,25,29,30,31,,,,,,2.7,1.4,2.3*36
Trace #91 at position 22.500000
$GPZDA,091002.04,09,10,2011,00,00*62
$GPRMC,091002.00,A,4611.969052,N,01258.224570,E,001.8,158.4,091011,0.2,E,A*3F
$GPGGA,091003.00,4611.968632,N,01258.224746,E,1,07,1.4,140.68,M,46.25,M,,*66
$GPGLL,4611.968632,N,01258.224746,E,091003.00,A,A*6F
$GPVTG,159.2,T,159.3,M,001.5,N,002.8,K,A*2C
$GPGSV,2,1,07,02,38,070,43,12,51,084,40,14,23,247,39,25,79,009,46*76
$GPGSV,2,2,07,29,59,228,42,30,39,294,43,31,31,311,43,,,,*42
$GPGSA,M,3,02,12,14,25,29,30,31,,,,,,2.7,1.4,2.3*36
Trace #92 at position 22.750000
$GPZDA,091002.04,09,10,2011,00,00*62
$GPRMC,091002.00,A,4611.969052,N,01258.224570,E,001.8,158.4,091011,0.2,E,A*3F
$GPGGA,091003.00,4611.968632,N,01258.224746,E,1,07,1.4,140.68,M,46.25,M,,*66
$GPGLL,4611.968632,N,01258.224746,E,091003.00,A,A*6F
$GPVTG,159.2,T,159.3,M,001.5,N,002.8,K,A*2C
$GPGSV,2,1,07,02,38,070,43,12,51,084,40,14,23,247,39,25,79,009,46*76
$GPGSV,2,2,07,29,59,228,42,30,39,294,43,31,31,311,43,,,,*42
$GPGSA,M,3,02,12,14,25,29,30,31,,,,,,2.7,1.4,2.3*36
Trace #93 at position 23.000000
$GPZDA,091003.04,09,10,2011,00,00*63
$GPRMC,091003.00,A,4611.968632,N,01258.224746,E,001.5,159.2,091011,0.2,E,A*32
$GPGGA,091004.00,4611.968241,N,01258.225016,E,1,07,1.4,140.75,M,46.25,M,,*6E
$GPGLL,4611.968241,N,01258.225016,E,091004.00,A,A*6B
$GPVTG,140.6,T,140.8,M,001.9,N,003.4,K,A*22
$GPGSV,2,1,07,02,38,070,43,12,51,084,41,14,23,247,39,25,79,009,46*77
$GPGSV,2,2,07,29,59,228,45,30,39,294,43,31,31,311,43,,,,*45
$GPGSA,M,3,02,12,14,25,29,30,31,,,,,,2.7,1.4,2.3*36
Trace #94 at position 23.250000
$GPZDA,091003.04,09,10,2011,00,00*63
$GPRMC,091003.00,A,4611.968632,N,01258.224746,E,001.5,159.2,091011,0.2,E,A*32
$GPGGA,091004.00,4611.968241,N,01258.225016,E,1,07,1.4,140.75,M,46.25,M,,*6E
$GPGLL,4611.968241,N,01258.225016,E,091004.00,A,A*6B
$GPVTG,140.6,T,140.8,M,001.9,N,003.4,K,A*22
$GPGSV,2,1,07,02,38,070,43,12,51,084,41,14,23,247,39,25,79,009,46*77
$GPGSV,2,2,07,29,59,228,45,30,39,294,43,31,31,311,43,,,,*45
$GPGSA,M,3,02,12,14,25,29,30,31,,,,,,2.7,1.4,2.3*36
Trace #95 at position 23.500000
$GPZDA,091003.04,09,10,2011,00,00*63
$GPRMC,091003.00,A,4611.968632,N,01258.224746,E,001.5,159.2,091011,0.2,E,A*32
$GPGGA,091004.00,4611.968241,N,01258.225016,E,1,07,1.4,140.75,M,46.25,M,,*6E
$GPGLL,4611.968241,N,01258.225016,E,091004.00,A,A*6B
$GPVTG,140.6,T,140.8,M,001.9,N,003.4,K,A*22
$GPGSV,2,1,07,02,38,070,43,12,51,084,41,14,23,247,39,25,79,009,46*77
$GPGSV,2,2,07,29,59,228,45,30,39,294,43,31,31,311,43,,,,*45
$GPGSA,M,3,02,12,14,25,29,30,31,,,,,,2.7,1.4,2.3*36
Trace #96 at position 23.750000
$GPZDA,091004.04,09,10,2011,00,00*64
$GPRMC,091004.00,A,4611.968241,N,01258.225016,E,001.9,140.6,091011,0.2,E,A*36
$GPGGA,091005.00,4611.967973,N,01258.225359,E,1,07,1.4,140.89,M,46.25,M,,*61
$GPGLL,4611.967973,N,01258.225359,E,091005.00,A,A*67
$GPVTG,112.8,T,113.0,M,001.1,N,002.0,K,A*28
$GPGSV,2,1,07,02,38,070,44,12,51,084,41,14,23,247,40,25,79,009,47*7F
$GPGSV,2,2,07,29,59,228,44,30,39,294,44,31,31,311,43,,,,*43
$GPGSA,M,3,02,12,14,25,29,30,31,,,,,,2.7,1.4,2.3*36
Trace #97 at position 24.000000
$GPZDA,091004.04,09,10,2011,00,00*64
$GPRMC,091004.00,A,4611.968241,N,01258.225016,E,001.9,140.6,091011,0.2,E,A*36
$GPGGA,091005.00,4611.967973,N,01258.225359,E,1,07,1.4,140.89,M,46.25,M,,*61
$GPGLL,4611.967973,N,01258.225359,E,091005.00,A,A*67
$GPVTG,112.8,T,113.0,M,001.1,N,002.0,K,A*28
$GPGSV,2,1,07,02,38,070,44,12,51,084,41,14,23,247,40,25,79,009,47*7F
$GPGSV,2,2,07,29,59,228,44,30,39,294,44,31,31,311,43,,,,*43
$GPGSA,M,3,02,12,14,25,29,30,31,,,,,,2.7,1.4,2.3*36
Trace #98 at position 24.250000
$GPZDA,091007.04,09,10,2011,00,00*67
$GPRMC,091007.00,A,4611.967320,N,01258.225375,E,001.3,179.9,091011,0.2,E,A*35
$GPGGA,091008.00,4611.967152,N,01258.225326,E,1,06,1.5,140.73,M,46.25,M,,*6A
$GPGLL,4611.967152,N,01258.225326,E,091008.00,A,A*69
$GPVTG,11.9,T,12.1,M,000.1,N,000.3,K,A*2A
$GPGSV,2,1,07,02,37,070,40,12,51,085,33,14,23,247,41,25,79,009,45*73
$GPGSV,2,2,07,29,59,228,42,30,39,294,43,31,31,311,44,,,,*45
$GPGSA,M,3,02,14,25,29,30,31,,,,,,,2.7,1.5,2.3*34
Trace #99 at position 24.500000
$GPZDA,091008.04,09,10,2011,00,00*68
$GPRMC,091008.00,A,4611.967152,N,01258.225326,E,000.1,11.9,091011,0.2,E,A*07
$GPGGA,091009.00,4611.967177,N,01258.225273,E,1,06,1.5,140.75,M,46.25,M,,*6B
$GPGLL,4611.967177,N,01258.225273,E,091009.00,A,A*6E
$GPVTG,342.0,T,342.1,M,000.2,N,000.3,K,A*23
$GPGSV,2,1,07,02,37,070,39,12,51,085,32,14,23,247,41,25,79,009,44*7D
$GPGSV,2,2,07,29,59,228,44,30,39,294,42,31,31,311,44,,,,*42
$GPGSA,M,3,02,14,25,29,30,31,,,,,,,2.7,1.5,2.3*34
Trace #100 at position 24.750000
$GPZDA,091008.04,09,10,2011,00,00*68
$GPRMC,091008.00,A,4611.967152,N,01258.225326,E,000.1,11.9,091011,0.2,E,A*07
$GPGGA,091009.00,4611.967177,N,01258.225273,E,1,06,1.5,140.75,M,46.25,M,,*6B
$GPGLL,4611.967177,N,01258.225273,E,091009.00,A,A*6E
$GPVTG,342.0,T,342.1,M,000.2,N,000.3,K,A*23
$GPGSV,2,1,07,02,37,070,39,12,51,085,32,14,23,247,41,25,79,009,44*7D
$GPGSV,2,2,07,29,59,228,44,30,39,294,42,31,31,311,44,,,,*42
$GPGSA,M,3,02,14,25,29,30,31,,,,,,,2.7,1.5,2.3*34
Trace #101 at position 25.000000
$GPZDA,091008.04,09,10,2011,00,00*68
$GPRMC,091008.00,A,4611.967152,N,01258.225326,E,000.1,11.9,091011,0.2,E,A*07
$GPGGA,091009.00,4611.967177,N,01258.225273,E,1,06,1.5,140.75,M,46.25,M,,*6B
$GPGLL,4611.967177,N,01258.225273,E,091009.00,A,A*6E
$GPVTG,342.0,T,342.1,M,000.2,N,000.3,K,A*23
$GPGSV,2,1,07,02,37,070,39,12,51,085,32,14,23,247,41,25,79,009,44*7D
$GPGSV,2,2,07,29,59,228,44,30,39,294,42,31,31,311,44,,,,*42
$GPGSA,M,3,02,14,25,29,30,31,,,,,,,2.7,1.5,2.3*34
Trace #102 at position 25.250000
$GPZDA,091008.04,09,10,2011,00,00*68
$GPRMC,091008.00,A,4611.967152,N,01258.225326,E,000.1,11.9,091011,0.2,E,A*07
$GPGGA,091009.00,4611.967177,N,01258.225273,E,1,06,1.5,140.75,M,46.25,M,,*6B
$GPGLL,4611.967177,N,01258.225273,E,091009.00,A,A*6E
$GPVTG,342.0,T,342.1,M,000.2,N,000.3,K,A*23
$GPGSV,2,1,07,02,37,070,39,12,51,085,32,14,23,247,41,25,79,009,44*7D
$GPGSV,2,2,07,29,59,228,44,30,39,294,42,31,31,311,44,,,,*42
$GPGSA,M,3,02,14,25,29,30,31,,,,,,,2.7,1.5,2.3*34
Trace #103 at position 25.500000
$GPZDA,091009.03,09,10,2011,00,00*6E
$GPRMC,091009.00,A,4611.967177,N,01258.225273,E,000.2,342.0,091011,0.2,E,A*3F
$GPGGA,091010.00,4611.967172,N,01258.225222,E,1,06,1.5,140.76,M,46.25,M,,*61
$GPGLL,4611.967172,N,01258.225222,E,091010.00,A,A*67
$GPVTG,180.1,T,180.3,M,000.1,N,000.2,K,A*22
$GPGSV,2,1,07,02,37,070,42,12,51,085,38,14,23,247,40,25,79,009,46*78
$GPGSV,2,2,07,29,59,228,44,30,39,294,43,31,31,311,44,,,,*43
$GPGSA,M,3,02,14,25,29,30,31,,,,,,,2.7,1.5,2.3*34
Trace #104 at position 25.750000
$GPZDA,091009.03,09,10,2011,00,00*6E
$GPRMC,091009.00,A,4611.967177,N,01258.225273,E,000.2,342.0,091011,0.2,E,A*3F
$GPGGA,091010.00,4611.967172,N,01258.225222,E,1,06,1.5,140.76,M,46.25,M,,*61
$GPGLL,4611.967172,N,01258.225222,E,091010.00,A,A*67
$GPVTG,180.1,T,180.3,M,000.1,N,000.2,K,A*22
$GPGSV,2,1,07,02,37,070,42,12,51,085,38,14,23,247,40,25,79,009,46*78
$GPGSV,2,2,07,29,59,228,44,30,39,294,43,31,31,311,44,,,,*43
$GPGSA,M,3,02,14,25,29,30,31,,,,,,,2.7,1.5,2.3*34
Trace #105 at position 26.000000
$GPZDA,091009.03,09,10,2011,00,00*6E
$GPRMC,091009.00,A,4611.967177,N,01258.225273,E,000.2,342.0,091011,0.2,E,A*3F
$GPGGA,091010.00,4611.967172,N,01258.225222,E,1,06,1.5,140.76,M,46.25,M,,*61
$GPGLL,4611.967172,N,01258.225222,E,091010.00,A,A*67
$GPVTG,180.1,T,180.3,M,000.1,N,000.2,K,A*22
$GPGSV,2,1,07,02,37,070,42,12,51,085,38,14,23,247,40,25,79,009,46*78
$GPGSV,2,2,07,29,59,228,44,30,39,294,43,31,31,311,44,,,,*43
$GPGSA,M,3,02,14,25,29,30,31,,,,,,,2.7,1.5,2.3*34
Trace #106 at position 26.250000
$GPZDA,091009.03,09,10,2011,00,00*6E
$GPRMC,091009.00,A,4611.967177,N,01258.225273,E,000.2,342.0,091011,0.2,E,A*3F
$GPGGA,091010.00,4611.967172,N,01258.225222,E,1,06,1.5,140.76,M,46.25,M,,*61
$GPGLL,4611.967172,N,01258.225222,E,091010.00,A,A*67
$GPVTG,180.1,T,180.3,M,000.1,N,000.2,K,A*22
$GPGSV,2,1,07,02,37,070,42,12,51,085,38,14,23,247,40,25,79,009,46*78
$GPGSV,2,2,07,29,59,228,44,30,39,294,43,31,31,311,44,,,,*43
$GPGSA,M,3,02,14,25,29,30,31,,,,,,,2.7,1.5,2.3*34
Trace #107 at position 26.500000
$GPZDA,091010.03,09,10,2011,00,00*66
$GPRMC,091010.00,A,4611.967172,N,01258.225222,E,000.1,180.1,091011,0.2,E,A*38
$GPGGA,091011.00,4611.966890,N,01258.225352,E,1,07,1.4,140.72,M,46.25,M,,*66
$GPGLL,4611.966890,N,01258.225352,E,091011.00,A,A*64
$GPVTG,158.7,T,158.9,M,002.0,N,003.7,K,A*2B
$GPGSV,2,1,07,02,37,070,43,12,51,085,40,14,23,247,40,25,79,009,46*76
$GPGSV,2,2,07,29,59,228,42,30,39,294,43,31,31,311,44,,,,*45
$GPGSA,M,3,02,12,14,25,29,30,31,,,,,,2.7,1.4,2.3*36
Trace #108 at position 26.750000
$GPZDA,091010.03,09,10,2011,00,00*66
$GPRMC,091010.00,A,4611.967172,N,01258.225222,E,000.1,180.1,091011,0.2,E,A*38
$GPGGA,091011.00,4611.966890,N,01258.225352,E,1,07,1.4,140.72,M,46.25,M,,*66
$GPGLL,4611.966890,N,01258.225352,E,091011.00,A,A*64
$GPVTG,158.7,T,158.9,M,002.0,N,003.7,K,A*2B
$GPGSV,2,1,07,02,37,070,43,12,51,085,40,14,23,247,40,25,79,009,46*76
$GPGSV,2,2,07,29,59,228,42,30,39,294,43,31,31,311,44,,,,*45
$GPGSA,M,3,02,12,14,25,29,30,31,,,,,,2.7,1.4,2.3*36
Trace #109 at position 27.000000
$GPZDA,091010.03,09,10,2011,00,00*66
$GPRMC,091010.00,A,4611.967172,N,01258.225222,E,000.1,180.1,091011,0.2,E,A*38
$GPGGA,091011.00,4611.966890,N,01258.225352,E,1,07,1.4,140.72,M,46.25,M,,*66
$GPGLL,4611.966890,N,01258.225352,E,091011.00,A,A*64
$GPVTG,158.7,T,158.9,M,002.0,N,003.7,K,A*2B
$GPGSV,2,1,07,02,37,070,43,12,51,085,40,14,23,247,40,25,79,009,46*76
$GPGSV,2,2,07,29,59,228,42,30,39,294,43,31,31,311,44,,,,*45
$GPGSA,M,3,02,12,14,25,29,30,31,,,,,,2.7,1.4,2.3*36
Trace #110 at position 27.250000
$GPZDA,091010.03,09,10,2011,00,00*66
$GPRMC,091010.00,A,4611.967172,N,01258.225222,E,000.1,180.1,091011,0.2,E,A*38
$GPGGA,091011.00,4611.966890,N,01258.225352,E,1,07,1.4,140.72,M,46.25,M,,*66
$GPGLL,4611.966890,N,01258.225352,E,091011.00,A,A*64
$GPVTG,158.7,T,158.9,M,002.0,N,003.7,K,A*2B
$GPGSV,2,1,07,02,37,070,43,12,51,085,40,14,23,247,40,25,79,009,46*76
$GPGSV,2,2,07,29,59,228,42,30,39,294,43,31,31,311,44,,,,*45
$GPGSA,M,3,02,12,14,25,29,30,31,,,,,,2.7,1.4,2.3*36
Trace #111 at position 27.500000
$GPZDA,091011.04,09,10,2011,00,00*60
$GPRMC,091011.00,A,4611.966890,N,01258.225352,E,002.0,158.7,091011,0.2,E,A*3B
$GPGGA,091012.00,4611.966345,N,01258.225698,E,1,07,1.4,140.66,M,46.25,M,,*60
$GPGLL,4611.966345,N,01258.225698,E,091012.00,A,A*67
$GPVTG,149.7,T,149.8,M,002.3,N,004.3,K,A*2A
$GPGSV,2,1,07,02,37,070,43,12,51,085,39,14,23,247,40,25,79,010,47*71
$GPGSV,2,2,07,29,59,228,44,30,39,294,42,31,31,311,44,,,,*42
$GPGSA,M,3,02,12,14,25,29,30,31,,,,,,2.7,1.4,2.3*36
Trace #112 at position 27.750000
$GPZDA,091011.04,09,10,2011,00,00*60
$GPRMC,091011.00,A,4611.966890,N,01258.225352,E,002.0,158.7,091011,0.2,E,A*3B
$GPGGA,091012.00,4611.966345,N,01258.225698,E,1,07,1.4,140.66,M,46.25,M,,*60
$GPGLL,4611.966345,N,01258.225698,E,091012.00,A,A*67
$GPVTG,149.7,T,149.8,M,002.3,N,004.3,K,A*2A
$GPGSV,2,1,07,02,37,070,43,12,51,085,39,14,23,247,40,25,79,010,47*71
$GPGSV,2,2,07,29,59,228,44,30,39,294,42,31,31,311,44,,,,*42
$GPGSA,M,3,02,12,14,25,29,30,31,,,,,,2.7,1.4,2.3*36
Trace #113 at position 28.000000
$GPZDA,091011.04,09,10,2011,00,00*60
$GPRMC,091011.00,A,4611.966890,N,01258.225352,E,002.0,158.7,091011,0.2,E,A*3B
$GPGGA,091012.00,4611.966345,N,01258.225698,E,1,07,1.4,140.66,M,46.25,M,,*60
$GPGLL,4611.966345,N,01258.225698,E,091012.00,A,A*67
$GPVTG,149.7,T,149.8,M,002.3,N,004.3,K,A*2A
$GPGSV,2,1,07,02,37,070,43,12,51,085,39,14,23,247,40,25,79,010,47*71
$GPGSV,2,2,07,29,59,228,44,30,39,294,42,31,31,311,44,,,,*42
$GPGSA,M,3,02,12,14,25,29,30,31,,,,,,2.7,1.4,2.3*36
Trace #114 at position 28.250000
$GPZDA,091011.04,09,10,2011,00,00*60
$GPRMC,091011.00,A,4611.966890,N,01258.225352,E,002.0,158.7,091011,0.2,E,A*3B
$GPGGA,091012.00,4611.966345,N,01258.225698,E,1,07,1.4,140.66,M,46.25,M,,*60
$GPGLL,4611.966345,N,01258.225698,E,091012.00,A,A*67
$GPVTG,149.7,T,149.8,M,002.3,N,004.3,K,A*2A
$GPGSV,2,1,07,02,37,070,43,12,51,085,39,14,23,247,40,25,79,010,47*71
$GPGSV,2,2,07,29,59,228,44,30,39,294,42,31,31,311,44,,,,*42
$GPGSA,M,3,02,12,14,25,29,30,31,,,,,,2.7,1.4,2.3*36
Trace #115 at position 28.500000
$GPZDA,091011.04,09,10,2011,00,00*60
$GPRMC,091011.00,A,4611.966890,N,01258.225352,E,002.0,158.7,091011,0.2,E,A*3B
$GPGGA,091012.00,4611.966345,N,01258.225698,E,1,07,1.4,140.66,M,46.25,M,,*60
$GPGLL,4611.966345,N,01258.225698,E,091012.00,A,A*67
$GPVTG,149.7,T,149.8,M,002.3,N,004.3,K,A*2A
$GPGSV,2,1,07,02,37,070,43,12,51,085,39,14,23,247,40,25,79,010,47*71
$GPGSV,2,2,07,29,59,228,44,30,39,294,42,31,31,311,44,,,,*42
$GPGSA,M,3,02,12,14,25,29,30,31,,,,,,2.7,1.4,2.3*36
Trace #116 at position 28.750000
$GPZDA,091012.04,09,10,2011,00,00*63
$GPRMC,091012.00,A,4611.966345,N,01258.225698,E,002.3,149.7,091011,0.2,E,A*3B
$GPGGA,091013.00,4611.965742,N,01258.226017,E,1,07,1.4,140.56,M,46.25,M,,*60
$GPGLL,4611.965742,N,01258.226017,E,091013.00,A,A*64
$GPVTG,164.0,T,164.1,M,002.3,N,004.3,K,A*24
