Trace #1 at position 0.000000
$GPZDA,090215.04,09,10,2011,00,00*67
$GPRMC,090215.00,A,4611.979389,N,01258.218622,E,000.0,83.5,091011,0.2,E,A*0A
$GPGGA,090216.00,4611.979392,N,01258.218620,E,1,07,1.4,140.51,M,46.25,M,,*6A
$GPGLL,4611.979392,N,01258.218620,E,090216.00,A,A*69
$GPVTG,0.0,T,0.2,M,000.0,N,000.1,K,A*20
$GPGSV,2,1,08,02,38,074,45,09,16,152,,12,54,081,39,14,26,250,42*70
$GPGSV,2,2,08,25,78,351,47,29,55,225,45,30,36,292,43,31,28,312,44*72
$GPGSA,M,3,02,12,14,25,29,30,31,,,,,,2.8,1.4,2.4*3E
Trace #2 at position 0.250000
$GPZDA,090219.04,09,10,2011,00,00*6B
$GPRMC,090219.00,A,4611.979388,N,01258.218621,E,000.0,78.2,091011,0.2,E,A*07
$GPGGA,090220.00,4611.979386,N,01258.218630,E,1,06,1.5,140.52,M,46.25,M,,*68
$GPGLL,4611.979386,N,01258.218630,E,090220.00,A,A*68
$GPVTG,49.4,T,49.5,M,000.0,N,000.0,K,A*22
$GPGSV,2,1,08,02,38,074,41,09,16,152,,12,54,081,29,14,26,250,43*74
$GPGSV,2,2,08,25,78,351,48,29,55,225,45,30,36,292,45,31,28,312,45*7A
$GPGSA,M,3,02,14,25,29,30,31,,,,,,,2.8,1.5,2.4*3C
Trace #3 at position 0.500000
$GPZDA,090219.04,09,10,2011,00,00*6B
$GPRMC,090219.00,A,4611.979388,N,01258.218621,E,000.0,78.2,091011,0.2,E,A*07
$GPGGA,090220.00,4611.979386,N,01258.218630,E,1,06,1.5,140.52,M,46.25,M,,*68
$GPGLL,4611.979386,N,01258.218630,E,090220.00,A,A*68
$GPVTG,49.4,T,49.5,M,000.0,N,000.0,K,A*22
$GPGSV,2,1,08,02,38,074,41,09,16,152,,12,54,081,29,14,26,250,43*74
$GPGSV,2,2,08,25,78,351,48,29,55,225,45,30,36,292,45,31,28,312,45*7A
$GPGSA,M,3,02,14,25,29,30,31,,,,,,,2.8,1.5,2.4*3C
Trace #4 at position 0.750000
$GPZDA,090220.03,09,10,2011,00,00*66
$GPRMC,090220.00,A,4611.979386,N,01258.218630,E,000.0,49.4,091011,0.2,E,A*07
$GPGGA,090221.00,4611.979372,N,01258.218644,E,1,06,1.5,140.45,M,46.25,M,,*67
$GPGLL,4611.979372,N,01258.218644,E,090221.00,A,A*61
$GPVTG,141.8,T,142.0,M,000.1,N,000.2,K,A*2B
$GPGSV,2,1,08,02,38,074,41,09,16,152,,12,54,081,31,14,26,250,43*7D
$GPGSV,2,2,08,25,78,351,47,29,55,225,44,30,36,292,44,31,28,312,45*75
$GPGSA,M,3,02,14,25,29,30,31,,,,,,,2.8,1.5,2.4*3C
Trace #5 at position 1.000000
$GPZDA,090220.03,09,10,2011,00,00*66
$GPRMC,090220.00,A,4611.979386,N,01258.218630,E,000.0,49.4,091011,0.2,E,A*07
$GPGGA,090221.00,4611.979372,N,01258.218644,E,1,06,1.5,140.45,M,46.25,M,,*67
$GPGLL,4611.979372,N,01258.218644,E,090221.00,A,A*61
$GPVTG,141.8,T,142.0,M,000.1,N,000.2,K,A*2B
$GPGSV,2,1,08,02,38,074,41,09,16,152,,12,54,081,31,14,26,250,43*7D
$GPGSV,2,2,08,25,78,351,47,29,55,225,44,30,36,292,44,31,28,312,45*75
$GPGSA,M,3,02,14,25,29,30,31,,,,,,,2.8,1.5,2.4*3C
Trace #6 at position 1.250000
$GPZDA,090220.03,09,10,2011,00,00*66
$GPRMC,090220.00,A,4611.979386,N,01258.218630,E,000.0,49.4,091011,0.2,E,A*07
$GPGGA,090221.00,4611.979372,N,01258.218644,E,1,06,1.5,140.45,M,46.25,M,,*67
$GPGLL,4611.979372,N,01258.218644,E,090221.00,A,A*61
$GPVTG,141.8,T,142.0,M,000.1,N,000.2,K,A*2B
$GPGSV,2,1,08,02,38,074,41,09,16,152,,12,54,081,31,14,26,250,43*7D
$GPGSV,2,2,08,25,78,351,47,29,55,225,44,30,36,292,44,31,28,312,45*75
$GPGSA,M,3,02,14,25,29,30,31,,,,,,,2.8,1.5,2.4*3C
Trace #7 at position 1.500000
$GPZDA,090221.03,09,10,2011,00,00*67
$GPRMC,090221.00,A,4611.979372,N,01258.218644,E,000.1,141.8,091011,0.2,E,A*3A
$GPGGA,090222.00,4611.979362,N,01258.218659,E,1,06,1.5,140.41,M,46.25,M,,*6D
$GPGLL,4611.979362,N,01258.218659,E,090222.00,A,A*6F
$GPVTG,35.5,T,35.7,M,000.0,N,000.0,K,A*21
$GPGSV,2,1,08,02,38,074,43,09,16,152,,12,54,081,38,14,26,250,42*77
$GPGSV,2,2,08,25,78,351,47,29,55,225,44,30,36,292,44,31,28,312,44*74
$GPGSA,M,3,02,14,25,29,30,31,,,,,,,2.8,1.5,2.4*3C
Trace #8 at position 1.750000
$GPZDA,090221.03,09,10,2011,00,00*67
$GPRMC,090221.00,A,4611.979372,N,01258.218644,E,000.1,141.8,091011,0.2,E,A*3A
$GPGGA,090222.00,4611.979362,N,01258.218659,E,1,06,1.5,140.41,M,46.25,M,,*6D
$GPGLL,4611.979362,N,01258.218659,E,090222.00,A,A*6F
$GPVTG,35.5,T,35.7,M,000.0,N,000.0,K,A*21
$GPGSV,2,1,08,02,38,074,43,09,16,152,,12,54,081,38,14,26,250,42*77
$GPGSV,2,2,08,25,78,351,47,29,55,225,44,30,36,292,44,31,28,312,44*74
$GPGSA,M,3,02,14,25,29,30,31,,,,,,,2.8,1.5,2.4*3C
Trace #9 at position 2.000000
$GPZDA,090221.03,09,10,2011,00,00*67
$GPRMC,090221.00,A,4611.979372,N,01258.218644,E,000.1,141.8,091011,0.2,E,A*3A
$GPGGA,090222.00,4611.979362,N,01258.218659,E,1,06,1.5,140.41,M,46.25,M,,*6D
$GPGLL,4611.979362,N,01258.218659,E,090222.00,A,A*6F
$GPVTG,35.5,T,35.7,M,000.0,N,000.0,K,A*21
$GPGSV,2,1,08,02,38,074,43,09,16,152,,12,54,081,38,14,26,250,42*77
$GPGSV,2,2,08,25,78,351,47,29,55,225,44,30,36,292,44,31,28,312,44*74
$GPGSA,M,3,02,14,25,29,30,31,,,,,,,2.8,1.5,2.4*3C
Trace #10 at position 2.250000
$GPZDA,090222.03,09,10,2011,00,00*64
$GPRMC,090222.00,A,4611.979362,N,01258.218659,E,000.0,35.5,091011,0.2,E,A*0A
$GPGGA,090223.00,4611.979287,N,01258.218645,E,1,07,1.4,140.40,M,46.25,M,,*6A
$GPGLL,4611.979287,N,01258.218645,E,090223.00,A,A*69
$GPVTG,195.7,T,195.9,M,000.6,N,001.0,K,A*2A
$GPGSV,2,1,08,02,38,074,40,09,16,152,,12,54,081,40,14,26,250,42*7B
$GPGSV,2,2,08,25,78,351,48,29,55,225,43,30,36,292,43,31,28,312,45*7A
$GPGSA,M,3,02,12,14,25,29,30,31,,,,,,2.8,1.4,2.4*3E
Trace #11 at position 2.500000
$GPZDA,090222.03,09,10,2011,00,00*64
$GPRMC,090222.00,A,4611.979362,N,01258.218659,E,000.0,35.5,091011,0.2,E,A*0A
$GPGGA,090223.00,4611.979287,N,01258.218645,E,1,07,1.4,140.40,M,46.25,M,,*6A
$GPGLL,4611.979287,N,01258.218645,E,090223.00,A,A*69
$GPVTG,195.7,T,195.9,M,000.6,N,001.0,K,A*2A
$GPGSV,2,1,08,02,38,074,40,09,16,152,,12,54,081,40,14,26,250,42*7B
$GPGSV,2,2,08,25,78,351,48,29,55,225,43,30,36,292,43,31,28,312,45*7A
$GPGSA,M,3,02,12,14,25,29,30,31,,,,,,2.8,1.4,2.4*3E
Trace #12 at position 2.750000
$GPZDA,090222.03,09,10,2011,00,00*64
$GPRMC,090222.00,A,4611.979362,N,01258.218659,E,000.0,35.5,091011,0.2,E,A*0A
$GPGGA,090223.00,4611.979287,N,01258.218645,E,1,07,1.4,140.40,M,46.25,M,,*6A
$GPGLL,4611.979287,N,01258.218645,E,090223.00,A,A*69
$GPVTG,195.7,T,195.9,M,000.6,N,001.0,K,A*2A
$GPGSV,2,1,08,02,38,074,40,09,16,152,,12,54,081,40,14,26,250,42*7B
$GPGSV,2,2,08,25,78,351,48,29,55,225,43,30,36,292,43,31,28,312,45*7A
$GPGSA,M,3,02,12,14,25,29,30,31,,,,,,2.8,1.4,2.4*3E
Trace #13 at position 3.000000
$GPZDA,090222.03,09,10,2011,00,00*64
$GPRMC,090222.00,A,4611.979362,N,01258.218659,E,000.0,35.5,091011,0.2,E,A*0A
$GPGGA,090223.00,4611.979287,N,01258.218645,E,1,07,1.4,140.40,M,46.25,M,,*6A
$GPGLL,4611.979287,N,01258.218645,E,090223.00,A,A*69
$GPVTG,195.7,T,195.9,M,000.6,N,001.0,K,A*2A
$GPGSV,2,1,08,02,38,074,40,09,16,152,,12,54,081,40,14,26,250,42*7B
$GPGSV,2,2,08,25,78,351,48,29,55,225,43,30,36,292,43,31,28,312,45*7A
$GPGSA,M,3,02,12,14,25,29,30,31,,,,,,2.8,1.4,2.4*3E
Trace #14 at position 3.250000
$GPZDA,090223.04,09,10,2011,00,00*62
$GPRMC,090223.00,A,4611.979287,N,01258.218645,E,000.6,195.7,091011,0.2,E,A*33
$GPGGA,090224.00,4611.979033,N,01258.218700,E,1,07,1.4,140.36,M,46.25,M,,*61
$GPGLL,4611.979033,N,01258.218700,E,090224.00,A,A*63
$GPVTG,167.3,T,167.4,M,001.4,N,002.6,K,A*25
$GPGSV,2,1,08,02,38,074,43,09,16,152,,12,54,081,41,14,26,250,40*7B
$GPGSV,2,2,08,25,78,351,48,29,55,225,43,30,36,292,43,31,28,312,44*7B
$GPGSA,M,3,02,12,14,25,29,30,31,,,,,,2.8,1.4,2.4*3E
Trace #15 at position 3.500000
$GPZDA,090223.04,09,10,2011,00,00*62
$GPRMC,090223.00,A,4611.979287,N,01258.218645,E,000.6,195.7,091011,0.2,E,A*33
$GPGGA,090224.00,4611.979033,N,01258.218700,E,1,07,1.4,140.36,M,46.25,M,,*61
$GPGLL,4611.979033,N,01258.218700,E,090224.00,A,A*63
$GPVTG,167.3,T,167.4,M,001.4,N,002.6,K,A*25
$GPGSV,2,1,08,02,38,074,43,09,16,152,,12,54,081,41,14,26,250,40*7B
$GPGSV,2,2,08,25,78,351,48,29,55,225,43,30,36,292,43,31,28,312,44*7B
$GPGSA,M,3,02,12,14,25,29,30,31,,,,,,2.8,1.4,2.4*3E
Trace #16 at position 3.750000
$GPZDA,090223.04,09,10,2011,00,00*62
$GPRMC,090223.00,A,4611.979287,N,01258.218645,E,000.6,195.7,091011,0.2,E,A*33
$GPGGA,090224.00,4611.979033,N,01258.218700,E,1,07,1.4,140.36,M,46.25,M,,*61
$GPGLL,4611.979033,N,01258.218700,E,090224.00,A,A*63
$GPVTG,167.3,T,167.4,M,001.4,N,002.6,K,A*25
$GPGSV,2,1,08,02,38,074,43,09,16,152,,12,54,081,41,14,26,250,40*7B
$GPGSV,2,2,08,25,78,351,48,29,55,225,43,30,36,292,43,31,28,312,44*7B
$GPGSA,M,3,02,12,14,25,29,30,31,,,,,,2.8,1.4,2.4*3E
Trace #17 at position 4.000000
$GPZDA,090223.04,09,10,2011,00,00*62
$GPRMC,090223.00,A,4611.979287,N,01258.218645,E,000.6,195.7,091011,0.2,E,A*33
$GPGGA,090224.00,4611.979033,N,01258.218700,E,1,07,1.4,140.36,M,46.25,M,,*61
$GPGLL,4611.979033,N,01258.218700,E,090224.00,A,A*63
$GPVTG,167.3,T,167.4,M,001.4,N,002.6,K,A*25
$GPGSV,2,1,08,02,38,074,43,09,16,152,,12,54,081,41,14,26,250,40*7B
$GPGSV,2,2,08,25,78,351,48,29,55,225,43,30,36,292,43,31,28,312,44*7B
$GPGSA,M,3,02,12,14,25,29,30,31,,,,,,2.8,1.4,2.4*3E
Trace #18 at position 4.250000
$GPZDA,090224.04,09,10,2011,00,00*65
$GPRMC,090224.00,A,4611.979033,N,01258.218700,E,001.4,167.3,091011,0.2,E,A*33
$GPGGA,090225.00,4611.978646,N,01258.219014,E,1,07,1.4,140.39,M,46.25,M,,*69
$GPGLL,4611.978646,N,01258.219014,E,090225.00,A,A*64
$GPVTG,140.4,T,140.5,M,002.0,N,003.6,K,A*25
$GPGSV,2,1,08,02,38,074,42,09,16,152,,12,54,081,40,14,26,250,40*7B
$GPGSV,2,2,08,25,78,351,48,29,55,225,43,30,36,292,43,31,28,312,43*7C
$GPGSA,M,3,02,12,14,25,29,30,31,,,,,,2.8,1.4,2.4*3E
Trace #19 at position 4.500000
$GPZDA,090224.04,09,10,2011,00,00*65
$GPRMC,090224.00,A,4611.979033,N,01258.218700,E,001.4,167.3,091011,0.2,E,A*33
$GPGGA,090225.00,4611.978646,N,01258.219014,E,1,07,1.4,140.39,M,46.25,M,,*69
$GPGLL,4611.978646,N,01258.219014,E,090225.00,A,A*64
$GPVTG,140.4,T,140.5,M,002.0,N,003.6,K,A*25
$GPGSV,2,1,08,02,38,074,42,09,16,152,,12,54,081,40,14,26,250,40*7B
$GPGSV,2,2,08,25,78,351,48,29,55,225,43,30,36,292,43,31,28,312,43*7C
$GPGSA,M,3,02,12,14,25,29,30,31,,,,,,2.8,1.4,2.4*3E
Trace #20 at position 4.750000
$GPZDA,090228.04,09,10,2011,00,00*69
$GPRMC,090228.00,A,4611.977284,N,01258.219736,E,001.6,146.2,091011,0.2,E,A*3B
$GPGGA,090229.00,4611.976978,N,01258.219947,E,1,07,1.4,140.32,M,46.25,M,,*6D
$GPGLL,4611.976978,N,01258.219947,E,090229.00,A,A*6B
$GPVTG,160.8,T,160.9,M,000.9,N,001.7,K,A*2D
$GPGSV,2,1,08,02,38,074,41,09,16,152,,12,54,081,39,14,26,250,40*76
$GPGSV,2,2,08,25,78,351,47,29,55,225,43,30,36,292,42,31,28,312,43*72
$GPGSA,M,3,02,12,14,25,29,30,31,,,,,,2.8,1.4,2.4*3E
Trace #21 at position 5.000000
$GPZDA,090228.04,09,10,2011,00,00*69
$GPRMC,090228.00,A,4611.977284,N,01258.219736,E,001.6,146.2,091011,0.2,E,A*3B
$GPGGA,090229.00,4611.976978,N,01258.219947,E,1,07,1.4,140.32,M,46.25,M,,*6D
$GPGLL,4611.976978,N,01258.219947,E,090229.00,A,A*6B
$GPVTG,160.8,T,160.9,M,000.9,N,001.7,K,A*2D
$GPGSV,2,1,08,02,38,074,41,09,16,152,,12,54,081,39,14,26,250,40*76
$GPGSV,2,2,08,25,78,351,47,29,55,225,43,30,36,292,42,31,28,312,43*72
$GPGSA,M,3,02,12,14,25,29,30,31,,,,,,2.8,1.4,2.4*3E
Trace #22 at position 5.250000
$GPZDA,090228.04,09,10,2011,00,00*69
$GPRMC,090228.00,A,4611.977284,N,01258.219736,E,001.6,146.2,091011,0.2,E,A*3B
$GPGGA,090229.00,4611.976978,N,01258.219947,E,1,07,1.4,140.32,M,46.25,M,,*6D
$GPGLL,4611.976978,N,01258.219947,E,090229.00,A,A*6B
$GPVTG,160.8,T,160.9,M,000.9,N,001.7,K,A*2D
$GPGSV,2,1,08,02,38,074,41,09,16,152,,12,54,081,39,14,26,250,40*76
$GPGSV,2,2,08,25,78,351,47,29,55,225,43,30,36,292,42,31,28,312,43*72
$GPGSA,M,3,02,12,14,25,29,30,31,,,,,,2.8,1.4,2.4*3E
Trace #23 at position 5.500000
$GPZDA,090229.04,09,10,2011,00,00*68
$GPRMC,090229.00,A,4611.976978,N,01258.219947,E,000.9,160.8,091011,0.2,E,A*3B
$GPGGA,090230.00,4611.976862,N,01258.219984,E,1,07,1.4,140.35,M,46.25,M,,*67
$GPGLL,4611.976862,N,01258.219984,E,090230.00,A,A*66
$GPVTG,82.2,T,82.4,M,000.0,N,000.0,K,A*25
$GPGSV,2,1,08,02,38,074,41,09,16,152,,12,54,081,42,14,26,250,39*74
$GPGSV,2,2,08,25,78,351,48,29,55,225,41,30,36,292,43,31,28,312,42*7F
$GPGSA,M,3,02,12,14,25,29,30,31,,,,,,2.8,1.4,2.4*3E
Trace #24 at position 5.750000
$GPZDA,090229.04,09,10,2011,00,00*68
$GPRMC,090229.00,A,4611.976978,N,01258.219947,E,000.9,160.8,091011,0.2,E,A*3B
$GPGGA,090230.00,4611.976862,N,01258.219984,E,1,07,1.4,140.35,M,46.25,M,,*67
$GPGLL,4611.976862,N,01258.219984,E,090230.00,A,A*66
$GPVTG,82.2,T,82.4,M,000.0,N,000.0,K,A*25
$GPGSV,2,1,08,02,38,074,41,09,16,152,,12,54,081,42,14,26,250,39*74
$GPGSV,2,2,08,25,78,351,48,29,55,225,41,30,36,292,43,31,28,312,42*7F
$GPGSA,M,3,02,12,14,25,29,30,31,,,,,,2.8,1.4,2.4*3E
Trace #25 at position 6.000000
$GPZDA,090229.04,09,10,2011,00,00*68
$GPRMC,090229.00,A,4611.976978,N,01258.219947,E,000.9,160.8,091011,0.2,E,A*3B
$GPGGA,090230.00,4611.976862,N,01258.219984,E,1,07,1.4,140.35,M,46.25,M,,*67
$GPGLL,4611.976862,N,01258.219984,E,090230.00,A,A*66
$GPVTG,82.2,T,82.4,M,000.0,N,000.0,K,A*25
$GPGSV,2,1,08,02,38,074,41,09,16,152,,12,54,081,42,14,26,250,39*74
$GPGSV,2,2,08,25,78,351,48,29,55,225,41,30,36,292,43,31,28,312,42*7F
$GPGSA,M,3,02,12,14,25,29,30,31,,,,,,2.8,1.4,2.4*3E
Trace #26 at position 6.250000
$GPZDA,090229.04,09,10,2011,00,00*68
$GPRMC,090229.00,A,4611.976978,N,01258.219947,E,000.9,160.8,091011,0.2,E,A*3B
$GPGGA,090230.00,4611.976862,N,01258.219984,E,1,07,1.4,140.35,M,46.25,M,,*67
$GPGLL,4611.976862,N,01258.219984,E,090230.00,A,A*66
$GPVTG,82.2,T,82.4,M,000.0,N,000.0,K,A*25
$GPGSV,2,1,08,02,38,074,41,09,16,152,,12,54,081,42,14,26,250,39*74
$GPGSV,2,2,08,25,78,351,48,29,55,225,41,30,36,292,43,31,28,312,42*7F
$GPGSA,M,3,02,12,14,25,29,30,31,,,,,,2.8,1.4,2.4*3E
Trace #27 at position 6.500000
$GPZDA,090229.04,09,10,2011,00,00*68
$GPRMC,090229.00,A,4611.976978,N,01258.219947,E,000.9,160.8,091011,0.2,E,A*3B
$GPGGA,090230.00,4611.976862,N,01258.219984,E,1,07,1.4,140.35,M,46.25,M,,*67
$GPGLL,4611.976862,N,01258.219984,E,090230.00,A,A*66
$GPVTG,82.2,T,82.4,M,000.0,N,000.0,K,A*25
$GPGSV,2,1,08,02,38,074,41,09,16,152,,12,54,081,42,14,26,250,39*74
$GPGSV,2,2,08,25,78,351,48,29,55,225,41,30,36,292,43,31,28,312,42*7F
$GPGSA,M,3,02,12,14,25,29,30,31,,,,,,2.8,1.4,2.4*3E
Trace #28 at position 6.750000
$GPZDA,090230.04,09,10,2011,00,00*60
$GPRMC,090230.00,A,4611.976862,N,01258.219984,E,000.0,82.2,091011,0.2,E,A*08
$GPGGA,090231.00,4611.976866,N,01258.219956,E,1,07,1.4,140.41,M,46.25,M,,*6E
$GPGLL,4611.976866,N,01258.219956,E,090231.00,A,A*6C
$GPVTG,257.9,T,258.1,M,000.0,N,000.1,K,A*25
$GPGSV,2,1,08,02,38,074,41,09,16,152,,12,54,081,39,14,26,250,39*78
$GPGSV,2,2,08,25,78,351,47,29,55,225,42,30,36,292,42,31,28,312,41*71
$GPGSA,M,3,02,12,14,25,29,30,31,,,,,,2.8,1.4,2.4*3E
Trace #29 at position 7.000000
$GPZDA,090230.04,09,10,2011,00,00*60
$GPRMC,090230.00,A,4611.976862,N,01258.219984,E,000.0,82.2,091011,0.2,E,A*08
$GPGGA,090231.00,4611.976866,N,01258.219956,E,1,07,1.4,140.41,M,46.25,M,,*6E
$GPGLL,4611.976866,N,01258.219956,E,090231.00,A,A*6C
$GPVTG,257.9,T,258.1,M,000.0,N,000.1,K,A*25
$GPGSV,2,1,08,02,38,074,41,09,16,152,,12,54,081,39,14,26,250,39*78
$GPGSV,2,2,08,25,78,351,47,29,55,225,42,30,36,292,42,31,28,312,41*71
$GPGSA,M,3,02,12,14,25,29,30,31,,,,,,2.8,1.4,2.4*3E
Trace #30 at position 7.250000
$GPZDA,090230.04,09,10,2011,00,00*60
$GPRMC,090230.00,A,4611.976862,N,01258.219984,E,000.0,82.2,091011,0.2,E,A*08
$GPGGA,090231.00,4611.976866,N,01258.219956,E,1,07,1.4,140.41,M,46.25,M,,*6E
$GPGLL,4611.976866,N,01258.219956,E,090231.00,A,A*6C
$GPVTG,257.9,T,258.1,M,000.0,N,000.1,K,A*25
$GPGSV,2,1,08,02,38,074,41,09,16,152,,12,54,081,39,14,26,250,39*78
$GPGSV,2,2,08,25,78,351,47,29,55,225,42,30,36,292,42,31,28,312,41*71
$GPGSA,M,3,02,12,14,25,29,30,31,,,,,,2.8,1.4,2.4*3E
Trace #31 at position 7.500000
$GPZDA,090231.04,09,10,2011,00,00*61
$GPRMC,090231.00,A,4611.976866,N,01258.219956,E,000.0,257.9,091011,0.2,E,A*33
$GPGGA,090232.00,4611.976876,N,01258.219927,E,1,07,1.4,140.45,M,46.25,M,,*6E
$GPGLL,4611.976876,N,01258.219927,E,090232.00,A,A*68
$GPVTG,351.4,T,351.5,M,000.1,N,000.1,K,A*22
$GPGSV,2,1,08,02,38,074,41,09,16,152,,12,54,081,40,14,26,250,40*78
$GPGSV,2,2,08,25,78,351,48,29,55,225,41,30,36,292,42,31,28,312,42*7E
$GPGSA,M,3,02,12,14,25,29,30,31,,,,,,2.8,1.4,2.4*3E
Trace #32 at position 7.750000
$GPZDA,090231.04,09,10,2011,00,00*61
$GPRMC,090231.00,A,4611.976866,N,01258.219956,E,000.0,257.9,091011,0.2,E,A*33
$GPGGA,090232.00,4611.976876,N,01258.219927,E,1,07,1.4,140.45,M,46.25,M,,*6E
$GPGLL,4611.976876,N,01258.219927,E,090232.00,A,A*68
$GPVTG,351.4,T,351.5,M,000.1,N,000.1,K,A*22
$GPGSV,2,1,08,02,38,074,41,09,16,152,,12,54,081,40,14,26,250,40*78
$GPGSV,2,2,08,25,78,351,48,29,55,225,41,30,36,292,42,31,28,312,42*7E
$GPGSA,M,3,02,12,14,25,29,30,31,,,,,,2.8,1.4,2.4*3E
Trace #33 at position 8.000000
$GPZDA,090231.04,09,10,2011,00,00*61
$GPRMC,090231.00,A,4611.976866,N,01258.219956,E,000.0,257.9,091011,0.2,E,A*33
$GPGGA,090232.00,4611.976876,N,01258.219927,E,1,07,1.4,140.45,M,46.25,M,,*6E
$GPGLL,4611.976876,N,01258.219927,E,090232.00,A,A*68
$GPVTG,351.4,T,351.5,M,000.1,N,000.1,K,A*22
$GPGSV,2,1,08,02,38,074,41,09,16,152,,12,54,081,40,14,26,250,40*78
$GPGSV,2,2,08,25,78,351,48,29,55,225,41,30,36,292,42,31,28,312,42*7E
$GPGSA,M,3,02,12,14,25,29,30,31,,,,,,2.8,1.4,2.4*3E
Trace #34 at position 8.250000
$GPZDA,090231.04,09,10,2011,00,00*61
$GPRMC,090231.00,A,4611.976866,N,01258.219956,E,000.0,257.9,091011,0.2,E,A*33
$GPGGA,090232.00,4611.976876,N,01258.219927,E,1,07,1.4,140.45,M,46.25,M,,*6E
$GPGLL,4611.976876,N,01258.219927,E,090232.00,A,A*68
$GPVTG,351.4,T,351.5,M,000.1,N,000.1,K,A*22
$GPGSV,2,1,08,02,38,074,41,09,16,152,,12,54,081,40,14,26,250,40*78
$GPGSV,2,2,08,25,78,351,48,29,55,225,41,30,36,292,42,31,28,312,42*7E
$GPGSA,M,3,02,12,14,25,29,30,31,,,,,,2.8,1.4,2.4*3E
Trace #35 at position 8.500000
$GPZDA,090231.04,09,10,2011,00,00*61
$GPRMC,090231.00,A,4611.976866,N,01258.219956,E,000.0,257.9,091011,0.2,E,A*33
$GPGGA,090232.00,4611.976876,N,01258.219927,E,1,07,1.4,140.45,M,46.25,M,,*6E
$GPGLL,4611.976876,N,01258.219927,E,090232.00,A,A*68
$GPVTG,351.4,T,351.5,M,000.1,N,000.1,K,A*22
$GPGSV,2,1,08,02,38,074,41,09,16,152,,12,54,081,40,14,26,250,40*78
$GPGSV,2,2,08,25,78,351,48,29,55,225,41,30,36,292,42,31,28,312,42*7E
$GPGSA,M,3,02,12,14,25,29,30,31,,,,,,2.8,1.4,2.4*3E
Trace #36 at position 8.750000
$GPZDA,090232.04,09,10,2011,00,00*62
$GPRMC,090232.00,A,4611.976876,N,01258.219927,E,000.1,351.4,091011,0.2,E,A*3C
$GPGGA,090233.00,4611.976696,N,01258.219960,E,1,07,1.4,140.45,M,46.25,M,,*6C
$GPGLL,4611.976696,N,01258.219960,E,090233.00,A,A*6A
$GPVTG,169.8,T,169.9,M,001.4,N,002.6,K,A*23
$GPGSV,2,1,08,02,38,074,42,09,16,152,,12,54,081,41,14,26,250,39*74
$GPGSV,2,2,08,25,78,351,48,29,55,225,44,30,36,292,43,31,28,312,41*79
$GPGSA,M,3,02,12,14,25,29,30,31,,,,,,2.8,1.4,2.4*3E
Trace #37 at position 9.000000
$GPZDA,090232.04,09,10,2011,00,00*62
$GPRMC,090232.00,A,4611.976876,N,01258.219927,E,000.1,351.4,091011,0.2,E,A*3C
$GPGGA,090233.00,4611.976696,N,01258.219960,E,1,07,1.4,140.45,M,46.25,M,,*6C
$GPGLL,4611.976696,N,01258.219960,E,090233.00,A,A*6A
$GPVTG,169.8,T,169.9,M,001.4,N,002.6,K,A*23
$GPGSV,2,1,08,02,38,074,42,09,16,152,,12,54,081,41,14,26,250,39*74
$GPGSV,2,2,08,25,78,351,48,29,55,225,44,30,36,292,43,31,28,312,41*79
$GPGSA,M,3,02,12,14,25,29,30,31,,,,,,2.8,1.4,2.4*3E
Trace #38 at position 9.250000
$GPZDA,090232.04,09,10,2011,00,00*62
$GPRMC,090232.00,A,4611.976876,N,01258.219927,E,000.1,351.4,091011,0.2,E,A*3C
$GPGGA,090233.00,4611.976696,N,01258.219960,E,1,07,1.4,140.45,M,46.25,M,,*6C
$GPGLL,4611.976696,N,01258.219960,E,090233.00,A,A*6A
$GPVTG,169.8,T,169.9,M,001.4,N,002.6,K,A*23
$GPGSV,2,1,08,02,38,074,42,09,16,152,,12,54,081,41,14,26,250,39*74
$GPGSV,2,2,08,25,78,351,48,29,55,225,44,30,36,292,43,31,28,312,41*79
$GPGSA,M,3,02,12,14,25,29,30,31,,,,,,2.8,1.4,2.4*3E
Trace #39 at position 9.500000
$GPZDA,090232.04,09,10,2011,00,00*62
$GPRMC,090232.00,A,4611.976876,N,01258.219927,E,000.1,351.4,091011,0.2,E,A*3C
$GPGGA,090233.00,4611.976696,N,01258.219960,E,1,07,1.4,140.45,M,46.25,M,,*6C
$GPGLL,4611.976696,N,01258.219960,E,090233.00,A,A*6A
$GPVTG,169.8,T,169.9,M,001.4,N,002.6,K,A*23
$GPGSV,2,1,08,02,38,074,42,09,16,152,,12,54,081,41,14,26,250,39*74
$GPGSV,2,2,08,25,78,351,48,29,55,225,44,30,36,292,43,31,28,312,41*79
$GPGSA,M,3,02,12,14,25,29,30,31,,,,,,2.8,1.4,2.4*3E
Trace #40 at position 9.750000
$GPZDA,090233.04,09,10,2011,00,00*63
$GPRMC,090233.00,A,4611.976696,N,01258.219960,E,001.4,169.8,091011,0.2,E,A*3F
$GPGGA,090234.00,4611.976269,N,01258.220137,E,1,07,1.4,140.52,M,46.25,M,,*69
$GPGLL,4611.976269,N,01258.220137,E,090234.00,A,A*69
$GPVTG,157.9,T,158.1,M,001.8,N,003.4,K,A*2A
$GPGSV,2,1,08,02,38,074,43,09,16,152,,12,54,081,41,14,26,250,39*75
$GPGSV,2,2,08,25,78,351,48,29,55,225,44,30,36,292,43,31,28,312,43*7B
$GPGSA,M,3,02,12,14,25,29,30,31,,,,,,2.8,1.4,2.4*3E
Trace #41 at position 10.000000
$GPZDA,090233.04,09,10,2011,00,00*63
$GPRMC,090233.00,A,4611.976696,N,01258.219960,E,001.4,169.8,091011,0.2,E,A*3F
$GPGGA,090234.00,4611.976269,N,01258.220137,E,1,07,1.4,140.52,M,46.25,M,,*69
$GPGLL,4611.976269,N,01258.220137,E,090234.00,A,A*69
$GPVTG,157.9,T,158.1,M,001.8,N,003.4,K,A*2A
$GPGSV,2,1,08,02,38,074,43,09,16,152,,12,54,081,41,14,26,250,39*75
$GPGSV,2,2,08,25,78,351,48,29,55,225,44,30,36,292,43,31,28,312,43*7B
$GPGSA,M,3,02,12,14,25,29,30,31,,,,,,2.8,1.4,2.4*3E
Trace #42 at position 10.250000
$GPZDA,090233.04,09,10,2011,00,00*63
$GPRMC,090233.00,A,4611.976696,N,01258.219960,E,001.4,169.8,091011,0.2,E,A*3F
$GPGGA,090234.00,4611.976269,N,01258.220137,E,1,07,1.4,140.52,M,46.25,M,,*69
$GPGLL,4611.976269,N,01258.220137,E,090234.00,A,A*69
$GPVTG,157.9,T,158.1,M,001.8,N,003.4,K,A*2A
$GPGSV,2,1,08,02,38,074,43,09,16,152,,12,54,081,41,14,26,250,39*75
$GPGSV,2,2,08,25,78,351,48,29,55,225,44,30,36,292,43,31,28,312,43*7B
$GPGSA,M,3,02,12,14,25,29,30,31,,,,,,2.8,1.4,2.4*3E
Trace #43 at position 10.500000
$GPZDA,090234.04,09,10,2011,00,00*64
$GPRMC,090234.00,A,4611.976269,N,01258.220137,E,001.8,157.9,091011,0.2,E,A*3C
$GPGGA,090235.00,4611.975829,N,01258.220434,E,1,07,1.4,140.69,M,46.25,M,,*6B
$GPGLL,4611.975829,N,01258.220434,E,090235.00,A,A*63
$GPVTG,147.2,T,147.4,M,001.6,N,003.1,K,A*20
$GPGSV,2,1,08,02,38,074,42,09,16,152,,12,54,081,41,14,26,250,40*7A
$GPGSV,2,2,08,25,78,351,48,29,56,225,43,30,36,292,42,31,28,312,42*7F
$GPGSA,M,3,02,12,14,25,29,30,31,,,,,,2.8,1.4,2.4*3E
Trace #44 at position 10.750000
$GPZDA,090234.04,09,10,2011,00,00*64
$GPRMC,090234.00,A,4611.976269,N,01258.220137,E,001.8,157.9,091011,0.2,E,A*3C
$GPGGA,090235.00,4611.975829,N,01258.220434,E,1,07,1.4,140.69,M,46.25,M,,*6B
$GPGLL,4611.975829,N,01258.220434,E,090235.00,A,A*63
$GPVTG,147.2,T,147.4,M,001.6,N,003.1,K,A*20
$GPGSV,2,1,08,02,38,074,42,09,16,152,,12,54,081,41,14,26,250,40*7A
$GPGSV,2,2,08,25,78,351,48,29,56,225,43,30,36,292,42,31,28,312,42*7F
$GPGSA,M,3,02,12,14,25,29,30,31,,,,,,2.8,1.4,2.4*3E
Trace #45 at position 11.000000
$GPZDA,090234.04,09,10,2011,00,00*64
$GPRMC,090234.00,A,4611.976269,N,01258.220137,E,001.8,157.9,091011,0.2,E,A*3C
$GPGGA,090235.00,4611.975829,N,01258.220434,E,1,07,1.4,140.69,M,46.25,M,,*6B
$GPGLL,4611.975829,N,01258.220434,E,090235.00,A,A*63
$GPVTG,147.2,T,147.4,M,001.6,N,003.1,K,A*20
$GPGSV,2,1,08,02,38,074,42,09,16,152,,12,54,081,41,14,26,250,40*7A
$GPGSV,2,2,08,25,78,351,48,29,56,225,43,30,36,292,42,31,28,312,42*7F
$GPGSA,M,3,02,12,14,25,29,30,31,,,,,,2.8,1.4,2.4*3E
Trace #46 at position 11.250000
$GPZDA,090234.04,09,10,2011,00,00*64
$GPRMC,090234.00,A,4611.976269,N,01258.220137,E,001.8,157.9,091011,0.2,E,A*3C
$GPGGA,090235.00,4611.975829,N,01258.220434,E,1,07,1.4,140.69,M,46.25,M,,*6B
$GPGLL,4611.975829,N,01258.220434,E,090235.00,A,A*63
$GPVTG,147.2,T,147.4,M,001.6,N,003.1,K,A*20
$GPGSV,2,1,08,02,38,074,42,09,16,152,,12,54,081,41,14,26,250,40*7A
$GPGSV,2,2,08,25,78,351,48,29,56,225,43,30,36,292,42,31,28,312,42*7F
$GPGSA,M,3,02,12,14,25,29,30,31,,,,,,2.8,1.4,2.4*3E
Trace #47 at position 11.500000
$GPZDA,090235.04,09,10,2011,00,00*65
$GPRMC,090235.00,A,4611.975829,N,01258.220434,E,001.6,147.2,091011,0.2,E,A*32
$GPGGA,090236.00,4611.975368,N,01258.220710,E,1,07,1.4,140.78,M,46.25,M,,*63
$GPGLL,4611.975368,N,01258.220710,E,090236.00,A,A*6B
$GPVTG,161.1,T,161.3,M,001.9,N,003.6,K,A*2C
$GPGSV,2,1,08,02,38,074,41,09,16,152,,12,54,081,41,14,26,250,39*77
$GPGSV,2,2,08,25,78,351,47,29,56,225,43,30,36,292,43,31,28,312,42*71
$GPGSA,M,3,02,12,14,25,29,30,31,,,,,,2.8,1.4,2.4*3E
Trace #48 at position 11.750000
$GPZDA,090235.04,09,10,2011,00,00*65
$GPRMC,090235.00,A,4611.975829,N,01258.220434,E,001.6,147.2,091011,0.2,E,A*32
$GPGGA,090236.00,4611.975368,N,01258.220710,E,1,07,1.4,140.78,M,46.25,M,,*63
$GPGLL,4611.975368,N,01258.220710,E,090236.00,A,A*6B
$GPVTG,161.1,T,161.3,M,001.9,N,003.6,K,A*2C
$GPGSV,2,1,08,02,38,074,41,09,16,152,,12,54,081,41,14,26,250,39*77
$GPGSV,2,2,08,25,78,351,47,29,56,225,43,30,36,292,43,31,28,312,42*71
$GPGSA,M,3,02,12,14,25,29,30,31,,,,,,2.8,1.4,2.4*3E
Trace #49 at position 12.000000
$GPZDA,090235.04,09,10,2011,00,00*65
$GPRMC,090235.00,A,4611.975829,N,01258.220434,E,001.6,147.2,091011,0.2,E,A*32
$GPGGA,090236.00,4611.975368,N,01258.220710,E,1,07,1.4,140.78,M,46.25,M,,*63
$GPGLL,4611.975368,N,01258.220710,E,090236.00,A,A*6B
$GPVTG,161.1,T,161.3,M,001.9,N,003.6,K,A*2C
$GPGSV,2,1,08,02,38,074,41,09,16,152,,12,54,081,41,14,26,250,39*77
$GPGSV,2,2,08,25,78,351,47,29,56,225,43,30,36,292,43,31,28,312,42*71
$GPGSA,M,3,02,12,14,25,29,30,31,,,,,,2.8,1.4,2.4*3E
Trace #50 at position 12.250000
$GPZDA,090235.04,09,10,2011,00,00*65
$GPRMC,090235.00,A,4611.975829,N,01258.220434,E,001.6,147.2,091011,0.2,E,A*32
$GPGGA,090236.00,4611.975368,N,01258.220710,E,1,07,1.4,140.78,M,46.25,M,,*63
$GPGLL,4611.975368,N,01258.220710,E,090236.00,A,A*6B
$GPVTG,161.1,T,161.3,M,001.9,N,003.6,K,A*2C
$GPGSV,2,1,08,02,38,074,41,09,16,152,,12,54,081,41,14,26,250,39*77
$GPGSV,2,2,08,25,78,351,47,29,56,225,43,30,36,292,43,31,28,312,42*71
$GPGSA,M,3,02,12,14,25,29,30,31,,,,,,2.8,1.4,2.4*3E
Trace #51 at position 12.500000
$GPZDA,090236.04,09,10,2011,00,00*66
$GPRMC,090236.00,A,4611.975368,N,01258.220710,E,001.9,161.1,091011,0.2,E,A*32
$GPGGA,090237.00,4611.974860,N,01258.220874,E,1,07,1.4,140.85,M,46.25,M,,*6F
$GPGLL,4611.974860,N,01258.220874,E,090237.00,A,A*65
$GPVTG,171.2,T,171.3,M,001.7,N,003.2,K,A*25
$GPGSV,2,1,08,02,38,074,41,09,16,152,,12,54,081,41,14,26,250,39*77
$GPGSV,2,2,08,25,78,351,47,29,56,225,43,30,36,292,43,31,28,312,43*70
$GPGSA,M,3,02,12,14,25,29,30,31,,,,,,2.8,1.4,2.4*3E
Trace #52 at position 12.750000
$GPZDA,090236.04,09,10,2011,00,00*66
$GPRMC,090236.00,A,4611.975368,N,01258.220710,E,001.9,161.1,091011,0.2,E,A*32
$GPGGA,090237.00,4611.974860,N,01258.220874,E,1,07,1.4,140.85,M,46.25,M,,*6F
$GPGLL,4611.974860,N,01258.220874,E,090237.00,A,A*65
$GPVTG,171.2,T,171.3,M,001.7,N,003.2,K,A*25
$GPGSV,2,1,08,02,38,074,41,09,16,152,,12,54,081,41,14,26,250,39*77
$GPGSV,2,2,08,25,78,351,47,29,56,225,43,30,36,292,43,31,28,312,43*70
$GPGSA,M,3,02,12,14,25,29,30,31,,,,,,2.8,1.4,2.4*3E
Trace #53 at position 13.000000
$GPZDA,090236.04,09,10,2011,00,00*66
$GPRMC,090236.00,A,4611.975368,N,01258.220710,E,001.9,161.1,091011,0.2,E,A*32
$GPGGA,090237.00,4611.974860,N,01258.220874,E,1,07,1.4,140.85,M,46.25,M,,*6F
$GPGLL,4611.974860,N,01258.220874,E,090237.00,A,A*65
$GPVTG,171.2,T,171.3,M,001.7,N,003.2,K,A*25
$GPGSV,2,1,08,02,38,074,41,09,16,152,,12,54,081,41,14,26,250,39*77
$GPGSV,2,2,08,25,78,351,47,29,56,225,43,30,36,292,43,31,28,312,43*70
$GPGSA,M,3,02,12,14,25,29,30,31,,,,,,2.8,1.4,2.4*3E
Trace #54 at position 13.250000
$GPZDA,090236.04,09,10,2011,00,00*66
$GPRMC,090236.00,A,4611.975368,N,01258.220710,E,001.9,161.1,091011,0.2,E,A*32
$GPGGA,090237.00,4611.974860,N,01258.220874,E,1,07,1.4,140.85,M,46.25,M,,*6F
$GPGLL,4611.974860,N,01258.220874,E,090237.00,A,A*65
$GPVTG,171.2,T,171.3,M,001.7,N,003.2,K,A*25
$GPGSV,2,1,08,02,38,074,41,09,16,152,,12,54,081,41,14,26,250,39*77
$GPGSV,2,2,08,25,78,351,47,29,56,225,43,30,36,292,43,31,28,312,43*70
$GPGSA,M,3,02,12,14,25,29,30,31,,,,,,2.8,1.4,2.4*3E
Trace #55 at position 13.500000
$GPZDA,090237.04,09,10,2011,00,00*67
$GPRMC,090237.00,A,4611.974860,N,01258.220874,E,001.7,171.2,091011,0.2,E,A*30
$GPGGA,090238.00,4611.974285,N,01258.221022,E,1,07,1.4,140.81,M,46.25,M,,*6F
$GPGLL,4611.974285,N,01258.221022,E,090238.00,A,A*61
$GPVTG,168.1,T,168.3,M,002.4,N,004.4,K,A*27
$GPGSV,2,1,08,02,38,074,41,09,16,152,,12,54,081,40,14,26,250,40*78
$GPGSV,2,2,08,25,78,351,47,29,56,225,43,30,36,292,43,31,28,312,43*70
$GPGSA,M,3,02,12,14,25,29,30,31,,,,,,2.8,1.4,2.4*3E
Trace #56 at position 13.750000
$GPZDA,090237.04,09,10,2011,00,00*67
$GPRMC,090237.00,A,4611.974860,N,01258.220874,E,001.7,171.2,091011,0.2,E,A*30
$GPGGA,090238.00,4611.974285,N,01258.221022,E,1,07,1.4,140.81,M,46.25,M,,*6F
$GPGLL,4611.974285,N,01258.221022,E,090238.00,A,A*61
$GPVTG,168.1,T,168.3,M,002.4,N,004.4,K,A*27
$GPGSV,2,1,08,02,38,074,41,09,16,152,,12,54,081,40,14,26,250,40*78
$GPGSV,2,2,08,25,78,351,47,29,56,225,43,30,36,292,43,31,28,312,43*70
$GPGSA,M,3,02,12,14,25,29,30,31,,,,,,2.8,1.4,2.4*3E
Trace #57 at position 14.000000
$GPZDA,090237.04,09,10,2011,00,00*67
$GPRMC,090237.00,A,4611.974860,N,01258.220874,E,001.7,171.2,091011,0.2,E,A*30
$GPGGA,090238.00,4611.974285,N,01258.221022,E,1,07,1.4,140.81,M,46.25,M,,*6F
$GPGLL,4611.974285,N,01258.221022,E,090238.00,A,A*61
$GPVTG,168.1,T,168.3,M,002.4,N,004.4,K,A*27
$GPGSV,2,1,08,02,38,074,41,09,16,152,,12,54,081,40,14,26,250,40*78
$GPGSV,2,2,08,25,78,351,47,29,56,225,43,30,36,292,43,31,28,312,43*70
$GPGSA,M,3,02,12,14,25,29,30,31,,,,,,2.8,1.4,2.4*3E
Trace #58 at position 14.250000
$GPZDA,090237.04,09,10,2011,00,00*67
$GPRMC,090237.00,A,4611.974860,N,01258.220874,E,001.7,171.2,091011,0.2,E,A*30
$GPGGA,090238.00,4611.974285,N,01258.221022,E,1,07,1.4,140.81,M,46.25,M,,*6F
$GPGLL,4611.974285,N,01258.221022,E,090238.00,A,A*61
$GPVTG,168.1,T,168.3,M,002.4,N,004.4,K,A*27
$GPGSV,2,1,08,02,38,074,41,09,16,152,,12,54,081,40,14,26,250,40*78
$GPGSV,2,2,08,25,78,351,47,29,56,225,43,30,36,292,43,31,28,312,43*70
$GPGSA,M,3,02,12,14,25,29,30,31,,,,,,2.8,1.4,2.4*3E
Trace #59 at position 14.500000
$GPZDA,090237.04,09,10,2011,00,00*67
$GPRMC,090237.00,A,4611.974860,N,01258.220874,E,001.7,171.2,091011,0.2,E,A*30
$GPGGA,090238.00,4611.974285,N,01258.221022,E,1,07,1.4,140.81,M,46.25,M,,*6F
$GPGLL,4611.974285,N,01258.221022,E,090238.00,A,A*61
$GPVTG,168.1,T,168.3,M,002.4,N,004.4,K,A*27
$GPGSV,2,1,08,02,38,074,41,09,16,152,,12,54,081,40,14,26,250,40*78
$GPGSV,2,2,08,25,78,351,47,29,56,225,43,30,36,292,43,31,28,312,43*70
$GPGSA,M,3,02,12,14,25,29,30,31,,,,,,2.8,1.4,2.4*3E
Trace #60 at position 14.750000
$GPZDA,090238.04,09,10,2011,00,00*68
$GPRMC,090238.00,A,4611.974285,N,01258.221022,E,002.4,168.1,091011,0.2,E,A*3F
$GPGGA,090239.00,4611.973710,N,01258.221326,E,1,07,1.4,140.70,M,46.25,M,,*69
$GPGLL,4611.973710,N,01258.221326,E,090239.00,A,A*69
$GPVTG,148.9,T,149.0,M,002.1,N,003.9,K,A*22
$GPGSV,2,1,08,02,38,074,41,09,16,152,,12,54,081,40,14,26,250,41*79
$GPGSV,2,2,08,25,78,351,47,29,56,225,45,30,36,292,43,31,28,312,43*76
$GPGSA,M,3,02,12,14,25,29,30,31,,,,,,2.8,1.4,2.4*3E
Trace #61 at position 15.000000
$GPZDA,090238.04,09,10,2011,00,00*68
$GPRMC,090238.00,A,4611.974285,N,01258.221022,E,002.4,168.1,091011,0.2,E,A*3F
$GPGGA,090239.00,4611.973710,N,01258.221326,E,1,07,1.4,140.70,M,46.25,M,,*69
$GPGLL,4611.973710,N,01258.221326,E,090239.00,A,A*69
$GPVTG,148.9,T,149.0,M,002.1,N,003.9,K,A*22
$GPGSV,2,1,08,02,38,074,41,09,16,152,,12,54,081,40,14,26,250,41*79
$GPGSV,2,2,08,25,78,351,47,29,56,225,45,30,36,292,43,31,28,312,43*76
$GPGSA,M,3,02,12,14,25,29,30,31,,,,,,2.8,1.4,2.4*3E
Trace #62 at position 15.250000
$GPZDA,090238.04,09,10,2011,00,00*68
$GPRMC,090238.00,A,4611.974285,N,01258.221022,E,002.4,168.1,091011,0.2,E,A*3F
$GPGGA,090239.00,4611.973710,N,01258.221326,E,1,07,1.4,140.70,M,46.25,M,,*69
$GPGLL,4611.973710,N,01258.221326,E,090239.00,A,A*69
$GPVTG,148.9,T,149.0,M,002.1,N,003.9,K,A*22
$GPGSV,2,1,08,02,38,074,41,09,16,152,,12,54,081,40,14,26,250,41*79
$GPGSV,2,2,08,25,78,351,47,29,56,225,45,30,36,292,43,31,28,312,43*76
$GPGSA,M,3,02,12,14,25,29,30,31,,,,,,2.8,1.4,2.4*3E
Trace #63 at position 15.500000
$GPZDA,090238.04,09,10,2011,00,00*68
$GPRMC,090238.00,A,4611.974285,N,01258.221022,E,002.4,168.1,091011,0.2,E,A*3F
$GPGGA,090239.00,4611.973710,N,01258.221326,E,1,07,1.4,140.70,M,46.25,M,,*69
$GPGLL,4611.973710,N,01258.221326,E,090239.00,A,A*69
$GPVTG,148.9,T,149.0,M,002.1,N,003.9,K,A*22
$GPGSV,2,1,08,02,38,074,41,09,16,152,,12,54,081,40,14,26,250,41*79
$GPGSV,2,2,08,25,78,351,47,29,56,225,45,30,36,292,43,31,28,312,43*76
$GPGSA,M,3,02,12,14,25,29,30,31,,,,,,2.8,1.4,2.4*3E
Trace #64 at position 15.750000
$GPZDA,090239.04,09,10,2011,00,00*69
$GPRMC,090239.00,A,4611.973710,N,01258.221326,E,002.1,148.9,091011,0.2,E,A*38
$GPGGA,090240.00,4611.973156,N,01258.221729,E,1,07,1.4,140.63,M,46.25,M,,*6A
$GPGLL,4611.973156,N,01258.221729,E,090240.00,A,A*68
$GPVTG,152.8,T,153.0,M,002.4,N,004.5,K,A*2D
$GPGSV,2,1,08,02,38,074,42,09,16,152,,12,54,081,41,14,26,250,39*74
$GPGSV,2,2,08,25,78,351,47,29,56,225,43,30,36,292,42,31,28,312,43*71
$GPGSA,M,3,02,12,14,25,29,30,31,,,,,,2.8,1.4,2.4*3E
Trace #65 at position 16.000000
$GPZDA,090239.04,09,10,2011,00,00*69
$GPRMC,090239.00,A,4611.973710,N,01258.221326,E,002.1,148.9,091011,0.2,E,A*38
$GPGGA,090240.00,4611.973156,N,01258.221729,E,1,07,1.4,140.63,M,46.25,M,,*6A
$GPGLL,4611.973156,N,01258.221729,E,090240.00,A,A*68
$GPVTG,152.8,T,153.0,M,002.4,N,004.5,K,A*2D
$GPGSV,2,1,08,02,38,074,42,09,16,152,,12,54,081,41,14,26,250,39*74
$GPGSV,2,2,08,25,78,351,47,29,56,225,43,30,36,292,42,31,28,312,43*71
$GPGSA,M,3,02,12,14,25,29,30,31,,,,,,2.8,1.4,2.4*3E
Trace #66 at position 16.250000
$GPZDA,090239.04,09,10,2011,00,00*69
$GPRMC,090239.00,A,4611.973710,N,01258.221326,E,002.1,148.9,091011,0.2,E,A*38
$GPGGA,090240.00,4611.973156,N,01258.221729,E,1,07,1.4,140.63,M,46.25,M,,*6A
$GPGLL,4611.973156,N,01258.221729,E,090240.00,A,A*68
$GPVTG,152.8,T,153.0,M,002.4,N,004.5,K,A*2D
$GPGSV,2,1,08,02,38,074,42,09,16,152,,12,54,081,41,14,26,250,39*74
$GPGSV,2,2,08,25,78,351,47,29,56,225,43,30,36,292,42,31,28,312,43*71
$GPGSA,M,3,02,12,14,25,29,30,31,,,,,,2.8,1.4,2.4*3E
Trace #67 at position 16.500000
$GPZDA,090239.04,09,10,2011,00,00*69
$GPRMC,090239.00,A,4611.973710,N,01258.221326,E,002.1,148.9,091011,0.2,E,A*38
$GPGGA,090240.00,4611.973156,N,01258.221729,E,1,07,1.4,140.63,M,46.25,M,,*6A
$GPGLL,4611.973156,N,01258.221729,E,090240.00,A,A*68
$GPVTG,152.8,T,153.0,M,002.4,N,004.5,K,A*2D
$GPGSV,2,1,08,02,38,074,42,09,16,152,,12,54,081,41,14,26,250,39*74
$GPGSV,2,2,08,25,78,351,47,29,56,225,43,30,36,292,42,31,28,312,43*71
$GPGSA,M,3,02,12,14,25,29,30,31,,,,,,2.8,1.4,2.4*3E
Trace #68 at position 16.750000
$GPZDA,090240.04,09,10,2011,00,00*67
$GPRMC,090240.00,A,4611.973156,N,01258.221729,E,002.4,152.8,091011,0.2,E,A*36
$GPGGA,090241.00,4611.972642,N,01258.221989,E,1,07,1.4,140.62,M,46.25,M,,*6D
$GPGLL,4611.972642,N,01258.221989,E,090241.00,A,A*6E
$GPVTG,164.5,T,164.7,M,001.6,N,003.0,K,A*25
$GPGSV,2,1,08,02,38,074,42,09,15,152,,12,54,081,40,14,26,250,40*78
$GPGSV,2,2,08,25,78,352,47,29,56,225,42,30,36,292,43,31,28,312,43*72
$GPGSA,M,3,02,12,14,25,29,30,31,,,,,,2.8,1.4,2.4*3E
Trace #69 at position 17.000000
$GPZDA,090240.04,09,10,2011,00,00*67
$GPRMC,090240.00,A,4611.973156,N,01258.221729,E,002.4,152.8,091011,0.2,E,A*36
$GPGGA,090241.00,4611.972642,N,01258.221989,E,1,07,1.4,140.62,M,46.25,M,,*6D
$GPGLL,4611.972642,N,01258.221989,E,090241.00,A,A*6E
$GPVTG,164.5,T,164.7,M,001.6,N,003.0,K,A*25
$GPGSV,2,1,08,02,38,074,42,09,15,152,,12,54,081,40,14,26,250,40*78
$GPGSV,2,2,08,25,78,352,47,29,56,225,42,30,36,292,43,31,28,312,43*72
$GPGSA,M,3,02,12,14,25,29,30,31,,,,,,2.8,1.4,2.4*3E
Trace #70 at position 17.250000
$GPZDA,090240.04,09,10,2011,00,00*67
$GPRMC,090240.00,A,4611.973156,N,01258.221729,E,002.4,152.8,091011,0.2,E,A*36
$GPGGA,090241.00,4611.972642,N,01258.221989,E,1,07,1.4,140.62,M,46.25,M,,*6D
$GPGLL,4611.972642,N,01258.221989,E,090241.00,A,A*6E
$GPVTG,164.5,T,164.7,M,001.6,N,003.0,K,A*25
$GPGSV,2,1,08,02,38,074,42,09,15,152,,12,54,081,40,14,26,250,40*78
$GPGSV,2,2,08,25,78,352,47,29,56,225,42,30,36,292,43,31,28,312,43*72
$GPGSA,M,3,02,12,14,25,29,30,31,,,,,,2.8,1.4,2.4*3E
Trace #71 at position 17.500000
$GPZDA,090240.04,09,10,2011,00,00*67
$GPRMC,090240.00,A,4611.973156,N,01258.221729,E,002.4,152.8,091011,0.2,E,A*36
$GPGGA,090241.00,4611.972642,N,01258.221989,E,1,07,1.4,140.62,M,46.25,M,,*6D
$GPGLL,4611.972642,N,01258.221989,E,090241.00,A,A*6E
$GPVTG,164.5,T,164.7,M,001.6,N,003.0,K,A*25
$GPGSV,2,1,08,02,38,074,42,09,15,152,,12,54,081,40,14,26,250,40*78
$GPGSV,2,2,08,25,78,352,47,29,56,225,42,30,36,292,43,31,28,312,43*72
$GPGSA,M,3,02,12,14,25,29,30,31,,,,,,2.8,1.4,2.4*3E
Trace #72 at position 17.750000
$GPZDA,090240.04,09,10,2011,00,00*67
$GPRMC,090240.00,A,4611.973156,N,01258.221729,E,002.4,152.8,091011,0.2,E,A*36
$GPGGA,090241.00,4611.972642,N,01258.221989,E,1,07,1.4,140.62,M,46.25,M,,*6D
$GPGLL,4611.972642,N,01258.221989,E,090241.00,A,A*6E
$GPVTG,164.5,T,164.7,M,001.6,N,003.0,K,A*25
$GPGSV,2,1,08,02,38,074,42,09,15,152,,12,54,081,40,14,26,250,40*78
$GPGSV,2,2,08,25,78,352,47,29,56,225,42,30,36,292,43,31,28,312,43*72
$GPGSA,M,3,02,12,14,25,29,30,31,,,,,,2.8,1.4,2.4*3E
Trace #73 at position 18.000000
$GPZDA,090240.04,09,10,2011,00,00*67
$GPRMC,090240.00,A,4611.973156,N,01258.221729,E,002.4,152.8,091011,0.2,E,A*36
$GPGGA,090241.00,4611.972642,N,01258.221989,E,1,07,1.4,140.62,M,46.25,M,,*6D
$GPGLL,4611.972642,N,01258.221989,E,090241.00,A,A*6E
$GPVTG,164.5,T,164.7,M,001.6,N,003.0,K,A*25
$GPGSV,2,1,08,02,38,074,42,09,15,152,,12,54,081,40,14,26,250,40*78
$GPGSV,2,2,08,25,78,352,47,29,56,225,42,30,36,292,43,31,28,312,43*72
$GPGSA,M,3,02,12,14,25,29,30,31,,,,,,2.8,1.4,2.4*3E
Trace #74 at position 18.250000
$GPZDA,090241.04,09,10,2011,00,00*66
$GPRMC,090241.00,A,4611.972642,N,01258.221989,E,001.6,164.5,091011,0.2,E,A*39
$GPGGA,090242.00,4611.972159,N,01258.222082,E,1,07,1.4,140.64,M,46.25,M,,*64
$GPGLL,4611.972159,N,01258.222082,E,090242.00,A,A*61
$GPVTG,175.3,T,175.4,M,001.8,N,003.4,K,A*2A
$GPGSV,2,1,08,02,38,074,42,09,15,152,,12,54,081,41,14,26,250,40*79
$GPGSV,2,2,08,25,78,352,47,29,56,225,43,30,36,292,43,31,28,312,43*73
$GPGSA,M,3,02,12,14,25,29,30,31,,,,,,2.8,1.4,2.4*3E
Trace #75 at position 18.500000
$GPZDA,090241.04,09,10,2011,00,00*66
$GPRMC,090241.00,A,4611.972642,N,01258.221989,E,001.6,164.5,091011,0.2,E,A*39
$GPGGA,090242.00,4611.972159,N,01258.222082,E,1,07,1.4,140.64,M,46.25,M,,*64
$GPGLL,4611.972159,N,01258.222082,E,090242.00,A,A*61
$GPVTG,175.3,T,175.4,M,001.8,N,003.4,K,A*2A
$GPGSV,2,1,08,02,38,074,42,09,15,152,,12,54,081,41,14,26,250,40*79
$GPGSV,2,2,08,25,78,352,47,29,56,225,43,30,36,292,43,31,28,312,43*73
$GPGSA,M,3,02,12,14,25,29,30,31,,,,,,2.8,1.4,2.4*3E
Trace #76 at position 18.750000
$GPZDA,090241.04,09,10,2011,00,00*66
$GPRMC,090241.00,A,4611.972642,N,01258.221989,E,001.6,164.5,091011,0.2,E,A*39
$GPGGA,090242.00,4611.972159,N,01258.222082,E,1,07,1.4,140.64,M,46.25,M,,*64
$GPGLL,4611.972159,N,01258.222082,E,090242.00,A,A*61
$GPVTG,175.3,T,175.4,M,001.8,N,003.4,K,A*2A
$GPGSV,2,1,08,02,38,074,42,09,15,152,,12,54,081,41,14,26,250,40*79
$GPGSV,2,2,08,25,78,352,47,29,56,225,43,30,36,292,43,31,28,312,43*73
$GPGSA,M,3,02,12,14,25,29,30,31,,,,,,2.8,1.4,2.4*3E
Trace #77 at position 19.000000
$GPZDA,090241.04,09,10,2011,00,00*66
$GPRMC,090241.00,A,4611.972642,N,01258.221989,E,001.6,164.5,091011,0.2,E,A*39
$GPGGA,090242.00,4611.972159,N,01258.222082,E,1,07,1.4,140.64,M,46.25,M,,*64
$GPGLL,4611.972159,N,01258.222082,E,090242.00,A,A*61
$GPVTG,175.3,T,175.4,M,001.8,N,003.4,K,A*2A
$GPGSV,2,1,08,02,38,074,42,09,15,152,,12,54,081,41,14,26,250,40*79
$GPGSV,2,2,08,25,78,352,47,29,56,225,43,30,36,292,43,31,28,312,43*73
$GPGSA,M,3,02,12,14,25,29,30,31,,,,,,2.8,1.4,2.4*3E
Trace #78 at position 19.250000
$GPZDA,090242.04,09,10,2011,00,00*65
$GPRMC,090242.00,A,4611.972159,N,01258.222082,E,001.8,175.3,091011,0.2,E,A*3E
$GPGGA,090243.00,4611.971615,N,01258.222199,E,1,07,1.4,140.59,M,46.25,M,,*6C
$GPGLL,4611.971615,N,01258.222199,E,090243.00,A,A*67
$GPVTG,166.9,T,167.1,M,002.0,N,003.7,K,A*2C
$GPGSV,2,1,08,02,38,074,41,09,15,152,,12,54,081,41,14,26,250,40*7A
$GPGSV,2,2,08,25,78,352,48,29,56,225,43,30,36,292,42,31,28,312,44*7A
$GPGSA,M,3,02,12,14,25,29,30,31,,,,,,2.8,1.4,2.4*3E
Trace #79 at position 19.500000
$GPZDA,090242.04,09,10,2011,00,00*65
$GPRMC,090242.00,A,4611.972159,N,01258.222082,E,001.8,175.3,091011,0.2,E,A*3E
$GPGGA,090243.00,4611.971615,N,01258.222199,E,1,07,1.4,140.59,M,46.25,M,,*6C
$GPGLL,4611.971615,N,01258.222199,E,090243.00,A,A*67
$GPVTG,166.9,T,167.1,M,002.0,N,003.7,K,A*2C
$GPGSV,2,1,08,02,38,074,41,09,15,152,,12,54,081,41,14,26,250,40*7A
$GPGSV,2,2,08,25,78,352,48,29,56,225,43,30,36,292,42,31,28,312,44*7A
$GPGSA,M,3,02,12,14,25,29,30,31,,,,,,2.8,1.4,2.4*3E
Trace #80 at position 19.750000
$GPZDA,090242.04,09,10,2011,00,00*65
$GPRMC,090242.00,A,4611.972159,N,01258.222082,E,001.8,175.3,091011,0.2,E,A*3E
$GPGGA,090243.00,4611.971615,N,01258.222199,E,1,07,1.4,140.59,M,46.25,M,,*6C
$GPGLL,4611.971615,N,01258.222199,E,090243.00,A,A*67
$GPVTG,166.9,T,167.1,M,002.0,N,003.7,K,A*2C
$GPGSV,2,1,08,02,38,074,41,09,15,152,,12,54,081,41,14,26,250,40*7A
$GPGSV,2,2,08,25,78,352,48,29,56,225,43,30,36,292,42,31,28,312,44*7A
$GPGSA,M,3,02,12,14,25,29,30,31,,,,,,2.8,1.4,2.4*3E
Trace #81 at position 20.000000
$GPZDA,090242.04,09,10,2011,00,00*65
$GPRMC,090242.00,A,4611.972159,N,01258.222082,E,001.8,175.3,091011,0.2,E,A*3E
$GPGGA,090243.00,4611.971615,N,01258.222199,E,1,07,1.4,140.59,M,46.25,M,,*6C
$GPGLL,4611.971615,N,01258.222199,E,090243.00,A,A*67
$GPVTG,166.9,T,167.1,M,002.0,N,003.7,K,A*2C
$GPGSV,2,1,08,02,38,074,41,09,15,152,,12,54,081,41,14,26,250,40*7A
$GPGSV,2,2,08,25,78,352,48,29,56,225,43,30,36,292,42,31,28,312,44*7A
$GPGSA,M,3,02,12,14,25,29,30,31,,,,,,2.8,1.4,2.4*3E
Trace #82 at position 20.250000
$GPZDA,090243.04,09,10,2011,00,00*64
$GPRMC,090243.00,A,4611.971615,N,01258.222199,E,002.0,166.9,091011,0.2,E,A*3B
$GPGGA,090244.00,4611.971019,N,01258.222469,E,1,07,1.4,140.57,M,46.25,M,,*65
$GPGLL,4611.971019,N,01258.222469,E,090244.00,A,A*60
$GPVTG,158.3,T,158.5,M,002.4,N,004.5,K,A*22
$GPGSV,2,1,08,02,38,074,42,09,15,152,,12,54,081,41,14,26,250,40*79
$GPGSV,2,2,08,25,78,352,48,29,56,225,43,30,36,292,42,31,28,312,42*7C
$GPGSA,M,3,02,12,14,25,29,30,31,,,,,,2.8,1.4,2.4*3E
Trace #83 at position 20.500000
$GPZDA,090243.04,09,10,2011,00,00*64
$GPRMC,090243.00,A,4611.971615,N,01258.222199,E,002.0,166.9,091011,0.2,E,A*3B
$GPGGA,090244.00,4611.971019,N,01258.222469,E,1,07,1.4,140.57,M,46.25,M,,*65
$GPGLL,4611.971019,N,01258.222469,E,090244.00,A,A*60
$GPVTG,158.3,T,158.5,M,002.4,N,004.5,K,A*22
$GPGSV,2,1,08,02,38,074,42,09,15,152,,12,54,081,41,14,26,250,40*79
$GPGSV,2,2,08,25,78,352,48,29,56,225,43,30,36,292,42,31,28,312,42*7C
$GPGSA,M,3,02,12,14,25,29,30,31,,,,,,2.8,1.4,2.4*3E
Trace #84 at position 20.750000
$GPZDA,090243.04,09,10,2011,00,00*64
$GPRMC,090243.00,A,4611.971615,N,01258.222199,E,002.0,166.9,091011,0.2,E,A*3B
$GPGGA,090244.00,4611.971019,N,01258.222469,E,1,07,1.4,140.57,M,46.25,M,,*65
$GPGLL,4611.971019,N,01258.222469,E,090244.00,A,A*60
$GPVTG,158.3,T,158.5,M,002.4,N,004.5,K,A*22
$GPGSV,2,1,08,02,38,074,42,09,15,152,,12,54,081,41,14,26,250,40*79
$GPGSV,2,2,08,25,78,352,48,29,56,225,43,30,36,292,42,31,28,312,42*7C
$GPGSA,M,3,02,12,14,25,29,30,31,,,,,,2.8,1.4,2.4*3E
Trace #85 at position 21.000000
$GPZDA,090243.04,09,10,2011,00,00*64
$GPRMC,090243.00,A,4611.971615,N,01258.222199,E,002.0,166.9,091011,0.2,E,A*3B
$GPGGA,090244.00,4611.971019,N,01258.222469,E,1,07,1.4,140.57,M,46.25,M,,*65
$GPGLL,4611.971019,N,01258.222469,E,090244.00,A,A*60
$GPVTG,158.3,T,158.5,M,002.4,N,004.5,K,A*22
$GPGSV,2,1,08,02,38,074,42,09,15,152,,12,54,081,41,14,26,250,40*79
$GPGSV,2,2,08,25,78,352,48,29,56,225,43,30,36,292,42,31,28,312,42*7C
$GPGSA,M,3,02,12,14,25,29,30,31,,,,,,2.8,1.4,2.4*3E
Trace #86 at position 21.250000
$GPZDA,090243.04,09,10,2011,00,00*64
$GPRMC,090243.00,A,4611.971615,N,01258.222199,E,002.0,166.9,091011,0.2,E,A*3B
$GPGGA,090244.00,4611.971019,N,01258.222469,E,1,07,1.4,140.57,M,46.25,M,,*65
$GPGLL,4611.971019,N,01258.222469,E,090244.00,A,A*60
$GPVTG,158.3,T,158.5,M,002.4,N,004.5,K,A*22
$GPGSV,2,1,08,02,38,074,42,09,15,152,,12,54,081,41,14,26,250,40*79
$GPGSV,2,2,08,25,78,352,48,29,56,225,43,30,36,292,42,31,28,312,42*7C
$GPGSA,M,3,02,12,14,25,29,30,31,,,,,,2.8,1.4,2.4*3E
Trace #87 at position 21.500000
$GPZDA,090244.04,09,10,2011,00,00*63
$GPRMC,090244.00,A,4611.971019,N,01258.222469,E,002.4,158.3,091011,0.2,E,A*3F
$GPGGA,090245.00,4611.970538,N,01258.222730,E,1,07,1.4,140.65,M,46.25,M,,*6D
$GPGLL,4611.970538,N,01258.222730,E,090245.00,A,A*69
$GPVTG,158.3,T,158.5,M,001.1,N,002.1,K,A*26
$GPGSV,2,1,08,02,38,074,41,09,15,152,,12,54,081,39,14,26,250,39*7B
$GPGSV,2,2,08,25,78,352,47,29,56,225,44,30,36,292,42,31,28,312,43*75
$GPGSA,M,3,02,12,14,25,29,30,31,,,,,,2.8,1.4,2.4*3E
Trace #88 at position 21.750000
$GPZDA,090244.04,09,10,2011,00,00*63
$GPRMC,090244.00,A,4611.971019,N,01258.222469,E,002.4,158.3,091011,0.2,E,A*3F
$GPGGA,090245.00,4611.970538,N,01258.222730,E,1,07,1.4,140.65,M,46.25,M,,*6D
$GPGLL,4611.970538,N,01258.222730,E,090245.00,A,A*69
$GPVTG,158.3,T,158.5,M,001.1,N,002.1,K,A*26
$GPGSV,2,1,08,02,38,074,41,09,15,152,,12,54,081,39,14,26,250,39*7B
$GPGSV,2,2,08,25,78,352,47,29,56,225,44,30,36,292,42,31,28,312,43*75
$GPGSA,M,3,02,12,14,25,29,30,31,,,,,,2.8,1.4,2.4*3E
Trace #89 at position 22.000000
$GPZDA,090244.04,09,10,2011,00,00*63
$GPRMC,090244.00,A,4611.971019,N,01258.222469,E,002.4,158.3,091011,0.2,E,A*3F
$GPGGA,090245.00,4611.970538,N,01258.222730,E,1,07,1.4,140.65,M,46.25,M,,*6D
$GPGLL,4611.970538,N,01258.222730,E,090245.00,A,A*69
$GPVTG,158.3,T,158.5,M,001.1,N,002.1,K,A*26
$GPGSV,2,1,08,02,38,074,41,09,15,152,,12,54,081,39,14,26,250,39*7B
$GPGSV,2,2,08,25,78,352,47,29,56,225,44,30,36,292,42,31,28,312,43*75
$GPGSA,M,3,02,12,14,25,29,30,31,,,,,,2.8,1.4,2.4*3E
Trace #90 at position 22.250000
$GPZDA,090244.04,09,10,2011,00,00*63
$GPRMC,090244.00,A,4611.971019,N,01258.222469,E,002.4,158.3,091011,0.2,E,A*3F
$GPGGA,090245.00,4611.970538,N,01258.222730,E,1,07,1.4,140.65,M,46.25,M,,*6D
$GPGLL,4611.970538,N,01258.222730,E,090245.00,A,A*69
$GPVTG,158.3,T,158.5,M,001.1,N,002.1,K,A*26
$GPGSV,2,1,08,02,38,074,41,09,15,152,,12,54,081,39,14,26,250,39*7B
$GPGSV,2,2,08,25,78,352,47,29,56,225,44,30,36,292,42,31,28,312,43*75
$GPGSA,M,3,02,12,14,25,29,30,31,,,,,,2.8,1.4,2.4*3E
Trace #91 at position 22.500000
$GPZDA,090245.04,09,10,2011,00,00*62
$GPRMC,090245.00,A,4611.970538,N,01258.222730,E,001.1,158.3,091011,0.2,E,A*30
$GPGGA,090246.00,4611.970027,N,01258.222851,E,1,07,1.4,140.65,M,46.25,M,,*6D
$GPGLL,4611.970027,N,01258.222851,E,090246.00,A,A*69
$GPVTG,177.5,T,177.7,M,002.4,N,004.4,K,A*27
$GPGSV,2,1,08,02,38,074,41,09,15,152,,12,54,081,40,14,26,250,40*7B
$GPGSV,2,2,08,25,78,352,48,29,56,225,43,30,36,292,42,31,28,312,43*7D
$GPGSA,M,3,02,12,14,25,29,30,31,,,,,,2.8,1.4,2.4*3E
Trace #92 at position 22.750000
$GPZDA,090245.04,09,10,2011,00,00*62
$GPRMC,090245.00,A,4611.970538,N,01258.222730,E,001.1,158.3,091011,0.2,E,A*30
$GPGGA,090246.00,4611.970027,N,01258.222851,E,1,07,1.4,140.65,M,46.25,M,,*6D
$GPGLL,4611.970027,N,01258.222851,E,090246.00,A,A*69
$GPVTG,177.5,T,177.7,M,002.4,N,004.4,K,A*27
$GPGSV,2,1,08,02,38,074,41,09,15,152,,12,54,081,40,14,26,250,40*7B
$GPGSV,2,2,08,25,78,352,48,29,56,225,43,30,36,292,42,31,28,312,43*7D
$GPGSA,M,3,02,12,14,25,29,30,31,,,,,,2.8,1.4,2.4*3E
Trace #93 at position 23.000000
$GPZDA,090245.04,09,10,2011,00,00*62
$GPRMC,090245.00,A,4611.970538,N,01258.222730,E,001.1,158.3,091011,0.2,E,A*30
$GPGGA,090246.00,4611.970027,N,01258.222851,E,1,07,1.4,140.65,M,46.25,M,,*6D
$GPGLL,4611.970027,N,01258.222851,E,090246.00,A,A*69
$GPVTG,177.5,T,177.7,M,002.4,N,004.4,K,A*27
$GPGSV,2,1,08,02,38,074,41,09,15,152,,12,54,081,40,14,26,250,40*7B
$GPGSV,2,2,08,25,78,352,48,29,56,225,43,30,36,292,42,31,28,312,43*7D
$GPGSA,M,3,02,12,14,25,29,30,31,,,,,,2.8,1.4,2.4*3E
Trace #94 at position 23.250000
$GPZDA,090245.04,09,10,2011,00,00*62
$GPRMC,090245.00,A,4611.970538,N,01258.222730,E,001.1,158.3,091011,0.2,E,A*30
$GPGGA,090246.00,4611.970027,N,01258.222851,E,1,07,1.4,140.65,M,46.25,M,,*6D
$GPGLL,4611.970027,N,01258.222851,E,090246.00,A,A*69
$GPVTG,177.5,T,177.7,M,002.4,N,004.4,K,A*27
$GPGSV,2,1,08,02,38,074,41,09,15,152,,12,54,081,40,14,26,250,40*7B
$GPGSV,2,2,08,25,78,352,48,29,56,225,43,30,36,292,42,31,28,312,43*7D
$GPGSA,M,3,02,12,14,25,29,30,31,,,,,,2.8,1.4,2.4*3E
Trace #95 at position 23.500000
$GPZDA,090245.04,09,10,2011,00,00*62
$GPRMC,090245.00,A,4611.970538,N,01258.222730,E,001.1,158.3,091011,0.2,E,A*30
$GPGGA,090246.00,4611.970027,N,01258.222851,E,1,07,1.4,140.65,M,46.25,M,,*6D
$GPGLL,4611.970027,N,01258.222851,E,090246.00,A,A*69
$GPVTG,177.5,T,177.7,M,002.4,N,004.4,K,A*27
$GPGSV,2,1,08,02,38,074,41,09,15,152,,12,54,081,40,14,26,250,40*7B
$GPGSV,2,2,08,25,78,352,48,29,56,225,43,30,36,292,42,31,28,312,43*7D
$GPGSA,M,3,02,12,14,25,29,30,31,,,,,,2.8,1.4,2.4*3E
Trace #96 at position 23.750000
$GPZDA,090246.04,09,10,2011,00,00*61
$GPRMC,090246.00,A,4611.970027,N,01258.222851,E,002.4,177.5,091011,0.2,E,A*3D
$GPGGA,090247.00,4611.969354,N,01258.222917,E,1,07,1.4,140.45,M,46.25,M,,*62
$GPGLL,4611.969354,N,01258.222917,E,090247.00,A,A*64
$GPVTG,179.9,T,180.0,M,002.3,N,004.3,K,A*2A
$GPGSV,2,1,08,02,38,074,42,09,15,152,,12,54,081,41,14,26,250,40*79
$GPGSV,2,2,08,25,78,352,47,29,56,225,43,30,36,292,43,31,28,312,42*72
$GPGSA,M,3,02,12,14,25,29,30,31,,,,,,2.8,1.4,2.4*3E
Trace #97 at position 24.000000
$GPZDA,090246.04,09,10,2011,00,00*61
$GPRMC,090246.00,A,4611.970027,N,01258.222851,E,002.4,177.5,091011,0.2,E,A*3D
$GPGGA,090247.00,4611.969354,N,01258.222917,E,1,07,1.4,140.45,M,46.25,M,,*62
$GPGLL,4611.969354,N,01258.222917,E,090247.00,A,A*64
$GPVTG,179.9,T,180.0,M,002.3,N,004.3,K,A*2A
$GPGSV,2,1,08,02,38,074,42,09,15,152,,12,54,081,41,14,26,250,40*79
$GPGSV,2,2,08,25,78,352,47,29,56,225,43,30,36,292,43,31,28,312,42*72
$GPGSA,M,3,02,12,14,25,29,30,31,,,,,,2.8,1.4,2.4*3E
Trace #98 at position 24.250000
$GPZDA,090246.04,09,10,2011,00,00*61
$GPRMC,090246.00,A,4611.970027,N,01258.222851,E,002.4,177.5,091011,0.2,E,A*3D
$GPGGA,090247.00,4611.969354,N,01258.222917,E,1,07,1.4,140.45,M,46.25,M,,*62
$GPGLL,4611.969354,N,01258.222917,E,090247.00,A,A*64
$GPVTG,179.9,T,180.0,M,002.3,N,004.3,K,A*2A
$GPGSV,2,1,08,02,38,074,42,09,15,152,,12,54,081,41,14,26,250,40*79
$GPGSV,2,2,08,25,78,352,47,29,56,225,43,30,36,292,43,31,28,312,42*72
$GPGSA,M,3,02,12,14,25,29,30,31,,,,,,2.8,1.4,2.4*3E
Trace #99 at position 24.500000
$GPZDA,090246.04,09,10,2011,00,00*61
$GPRMC,090246.00,A,4611.970027,N,01258.222851,E,002.4,177.5,091011,0.2,E,A*3D
$GPGGA,090247.00,4611.969354,N,01258.222917,E,1,07,1.4,140.45,M,46.25,M,,*62
$GPGLL,4611.969354,N,01258.222917,E,090247.00,A,A*64
$GPVTG,179.9,T,180.0,M,002.3,N,004.3,K,A*2A
$GPGSV,2,1,08,02,38,074,42,09,15,152,,12,54,081,41,14,26,250,40*79
$GPGSV,2,2,08,25,78,352,47,29,56,225,43,30,36,292,43,31,28,312,42*72
$GPGSA,M,3,02,12,14,25,29,30,31,,,,,,2.8,1.4,2.4*3E
Trace #100 at position 24.750000
$GPZDA,090247.04,09,10,2011,00,00*60
$GPRMC,090247.00,A,4611.969354,N,01258.222917,E,002.3,179.9,091011,0.2,E,A*35
$GPGGA,090248.00,4611.968709,N,01258.223111,E,1,07,1.4,140.33,M,46.25,M,,*6E
$GPGLL,4611.968709,N,01258.223111,E,090248.00,A,A*69
$GPVTG,162.3,T,162.5,M,002.4,N,004.4,K,A*23
$GPGSV,2,1,08,02,38,074,42,09,15,152,,12,54,081,40,14,26,250,39*76
$GPGSV,2,2,08,25,78,352,48,29,56,225,44,30,36,292,42,31,28,312,42*7B
$GPGSA,M,3,02,12,14,25,29,30,31,,,,,,2.8,1.4,2.4*3E
Trace #101 at position 25.000000
$GPZDA,090247.04,09,10,2011,00,00*60
$GPRMC,090247.00,A,4611.969354,N,01258.222917,E,002.3,179.9,091011,0.2,E,A*35
$GPGGA,090248.00,4611.968709,N,01258.223111,E,1,07,1.4,140.33,M,46.25,M,,*6E
$GPGLL,4611.968709,N,01258.223111,E,090248.00,A,A*69
$GPVTG,162.3,T,162.5,M,002.4,N,004.4,K,A*23
$GPGSV,2,1,08,02,38,074,42,09,15,152,,12,54,081,40,14,26,250,39*76
$GPGSV,2,2,08,25,78,352,48,29,56,225,44,30,36,292,42,31,28,312,42*7B
$GPGSA,M,3,02,12,14,25,29,30,31,,,,,,2.8,1.4,2.4*3E
Trace #102 at position 25.250000
$GPZDA,090247.04,09,10,2011,00,00*60
$GPRMC,090247.00,A,4611.969354,N,01258.222917,E,002.3,179.9,091011,0.2,E,A*35
$GPGGA,090248.00,4611.968709,N,01258.223111,E,1,07,1.4,140.33,M,46.25,M,,*6E
$GPGLL,4611.968709,N,01258.223111,E,090248.00,A,A*69
$GPVTG,162.3,T,162.5,M,002.4,N,004.4,K,A*23
$GPGSV,2,1,08,02,38,074,42,09,15,152,,12,54,081,40,14,26,250,39*76
$GPGSV,2,2,08,25,78,352,48,29,56,225,44,30,36,292,42,31,28,312,42*7B
$GPGSA,M,3,02,12,14,25,29,30,31,,,,,,2.8,1.4,2.4*3E
Trace #103 at position 25.500000
$GPZDA,090247.04,09,10,2011,00,00*60
$GPRMC,090247.00,A,4611.969354,N,01258.222917,E,002.3,179.9,091011,0.2,E,A*35
$GPGGA,090248.00,4611.968709,N,01258.223111,E,1,07,1.4,140.33,M,46.25,M,,*6E
$GPGLL,4611.968709,N,01258.223111,E,090248.00,A,A*69
$GPVTG,162.3,T,162.5,M,002.4,N,004.4,K,A*23
$GPGSV,2,1,08,02,38,074,42,09,15,152,,12,54,081,40,14,26,250,39*76
$GPGSV,2,2,08,25,78,352,48,29,56,225,44,30,36,292,42,31,28,312,42*7B
$GPGSA,M,3,02,12,14,25,29,30,31,,,,,,2.8,1.4,2.4*3E
Trace #104 at position 25.750000
$GPZDA,090247.04,09,10,2011,00,00*60
$GPRMC,090247.00,A,4611.969354,N,01258.222917,E,002.3,179.9,091011,0.2,E,A*35
$GPGGA,090248.00,4611.968709,N,01258.223111,E,1,07,1.4,140.33,M,46.25,M,,*6E
$GPGLL,4611.968709,N,01258.223111,E,090248.00,A,A*69
$GPVTG,162.3,T,162.5,M,002.4,N,004.4,K,A*23
$GPGSV,2,1,08,02,38,074,42,09,15,152,,12,54,081,40,14,26,250,39*76
$GPGSV,2,2,08,25,78,352,48,29,56,225,44,30,36,292,42,31,28,312,42*7B
$GPGSA,M,3,02,12,14,25,29,30,31,,,,,,2.8,1.4,2.4*3E
Trace #105 at position 26.000000
$GPZDA,090248.04,09,10,2011,00,00*6F
$GPRMC,090248.00,A,4611.968709,N,01258.223111,E,002.4,162.3,091011,0.2,E,A*3F
$GPGGA,090249.00,4611.968115,N,01258.223552,E,1,07,1.4,140.32,M,46.25,M,,*66
$GPGLL,4611.968115,N,01258.223552,E,090249.00,A,A*60
$GPVTG,145.7,T,145.9,M,002.4,N,004.4,K,A*2B
$GPGSV,2,1,08,02,38,074,42,09,15,152,,12,54,081,40,14,26,250,40*78
$GPGSV,2,2,08,25,78,352,47,29,56,225,43,30,36,292,42,31,28,312,42*73
$GPGSA,M,3,02,12,14,25,29,30,31,,,,,,2.8,1.4,2.4*3E
Trace #106 at position 26.250000
$GPZDA,090248.04,09,10,2011,00,00*6F
$GPRMC,090248.00,A,4611.968709,N,01258.223111,E,002.4,162.3,091011,0.2,E,A*3F
$GPGGA,090249.00,4611.968115,N,01258.223552,E,1,07,1.4,140.32,M,46.25,M,,*66
$GPGLL,4611.968115,N,01258.223552,E,090249.00,A,A*60
$GPVTG,145.7,T,145.9,M,002.4,N,004.4,K,A*2B
$GPGSV,2,1,08,02,38,074,42,09,15,152,,12,54,081,40,14,26,250,40*78
$GPGSV,2,2,08,25,78,352,47,29,56,225,43,30,36,292,42,31,28,312,42*73
$GPGSA,M,3,02,12,14,25,29,30,31,,,,,,2.8,1.4,2.4*3E
Trace #107 at position 26.500000
$GPZDA,090248.04,09,10,2011,00,00*6F
$GPRMC,090248.00,A,4611.968709,N,01258.223111,E,002.4,162.3,091011,0.2,E,A*3F
$GPGGA,090249.00,4611.968115,N,01258.223552,E,1,07,1.4,140.32,M,46.25,M,,*66
$GPGLL,4611.968115,N,01258.223552,E,090249.00,A,A*60
$GPVTG,145.7,T,145.9,M,002.4,N,004.4,K,A*2B
$GPGSV,2,1,08,02,38,074,42,09,15,152,,12,54,081,40,14,26,250,40*78
$GPGSV,2,2,08,25,78,352,47,29,56,225,43,30,36,292,42,31,28,312,42*73
$GPGSA,M,3,02,12,14,25,29,30,31,,,,,,2.8,1.4,2.4*3E
Trace #108 at position 26.750000
$GPZDA,090248.04,09,10,2011,00,00*6F
$GPRMC,090248.00,A,4611.968709,N,01258.223111,E,002.4,162.3,091011,0.2,E,A*3F
$GPGGA,090249.00,4611.968115,N,01258.223552,E,1,07,1.4,140.32,M,46.25,M,,*66
$GPGLL,4611.968115,N,01258.223552,E,090249.00,A,A*60
$GPVTG,145.7,T,145.9,M,002.4,N,004.4,K,A*2B
$GPGSV,2,1,08,02,38,074,42,09,15,152,,12,54,081,40,14,26,250,40*78
$GPGSV,2,2,08,25,78,352,47,29,56,225,43,30,36,292,42,31,28,312,42*73
$GPGSA,M,3,02,12,14,25,29,30,31,,,,,,2.8,1.4,2.4*3E
Trace #109 at position 27.000000
$GPZDA,090249.04,09,10,2011,00,00*6E
$GPRMC,090249.00,A,4611.968115,N,01258.223552,E,002.4,145.7,091011,0.2,E,A*37
$GPGGA,090250.00,4611.967623,N,01258.224065,E,1,07,1.4,140.34,M,46.25,M,,*63
$GPGLL,4611.967623,N,01258.224065,E,090250.00,A,A*63
$GPVTG,138.9,T,139.0,M,001.9,N,003.6,K,A*26
$GPGSV,2,1,08,02,38,074,43,09,15,152,,12,54,081,40,14,26,250,39*77
$GPGSV,2,2,08,25,78,352,47,29,56,225,43,30,36,292,43,31,28,312,42*72
$GPGSA,M,3,02,12,14,25,29,30,31,,,,,,2.8,1.4,2.4*3E
Trace #110 at position 27.250000
$GPZDA,090249.04,09,10,2011,00,00*6E
$GPRMC,090249.00,A,4611.968115,N,01258.223552,E,002.4,145.7,091011,0.2,E,A*37
$GPGGA,090250.00,4611.967623,N,01258.224065,E,1,07,1.4,140.34,M,46.25,M,,*63
$GPGLL,4611.967623,N,01258.224065,E,090250.00,A,A*63
$GPVTG,138.9,T,139.0,M,001.9,N,003.6,K,A*26
$GPGSV,2,1,08,02,38,074,43,09,15,152,,12,54,081,40,14,26,250,39*77
$GPGSV,2,2,08,25,78,352,47,29,56,225,43,30,36,292,43,31,28,312,42*72
$GPGSA,M,3,02,12,14,25,29,30,31,,,,,,2.8,1.4,2.4*3E
Trace #111 at position 27.500000
$GPZDA,090249.04,09,10,2011,00,00*6E
$GPRMC,090249.00,A,4611.968115,N,01258.223552,E,002.4,145.7,091011,0.2,E,A*37
$GPGGA,090250.00,4611.967623,N,01258.224065,E,1,07,1.4,140.34,M,46.25,M,,*63
$GPGLL,4611.967623,N,01258.224065,E,090250.00,A,A*63
$GPVTG,138.9,T,139.0,M,001.9,N,003.6,K,A*26
$GPGSV,2,1,08,02,38,074,43,09,15,152,,12,54,081,40,14,26,250,39*77
$GPGSV,2,2,08,25,78,352,47,29,56,225,43,30,36,292,43,31,28,312,42*72
$GPGSA,M,3,02,12,14,25,29,30,31,,,,,,2.8,1.4,2.4*3E
Trace #112 at position 27.750000
$GPZDA,090249.04,09,10,2011,00,00*6E
$GPRMC,090249.00,A,4611.968115,N,01258.223552,E,002.4,145.7,091011,0.2,E,A*37
$GPGGA,090250.00,4611.967623,N,01258.224065,E,1,07,1.4,140.34,M,46.25,M,,*63
$GPGLL,4611.967623,N,01258.224065,E,090250.00,A,A*63
$GPVTG,138.9,T,139.0,M,001.9,N,003.6,K,A*26
$GPGSV,2,1,08,02,38,074,43,09,15,152,,12,54,081,40,14,26,250,39*77
$GPGSV,2,2,08,25,78,352,47,29,56,225,43,30,36,292,43,31,28,312,42*72
$GPGSA,M,3,02,12,14,25,29,30,31,,,,,,2.8,1.4,2.4*3E
Trace #113 at position 28.000000
$GPZDA,090250.04,09,10,2011,00,00*66
$GPRMC,090250.00,A,4611.967623,N,01258.224065,E,001.9,138.9,091011,0.2,E,A*3E
$GPGGA,090251.00,4611.967086,N,01258.224469,E,1,07,1.4,140.29,M,46.25,M,,*6F
$GPGLL,4611.967086,N,01258.224469,E,090251.00,A,A*63
$GPVTG,157.7,T,157.8,M,002.3,N,004.3,K,A*2A
$GPGSV,2,1,08,02,38,074,41,09,15,152,,12,54,081,39,14,26,250,40*75
$GPGSV,2,2,08,25,78,352,48,29,56,225,42,30,36,292,43,31,28,312,43*7D
$GPGSA,M,3,02,12,14,25,29,30,31,,,,,,2.8,1.4,2.4*3E
Trace #114 at position 28.250000
$GPZDA,090250.04,09,10,2011,00,00*66
$GPRMC,090250.00,A,4611.967623,N,01258.224065,E,001.9,138.9,091011,0.2,E,A*3E
$GPGGA,090251.00,4611.967086,N,01258.224469,E,1,07,1.4,140.29,M,46.25,M,,*6F
$GPGLL,4611.967086,N,01258.224469,E,090251.00,A,A*63
$GPVTG,157.7,T,157.8,M,002.3,N,004.3,K,A*2A
$GPGSV,2,1,08,02,38,074,41,09,15,152,,12,54,081,39,14,26,250,40*75
$GPGSV,2,2,08,25,78,352,48,29,56,225,42,30,36,292,43,31,28,312,43*7D
$GPGSA,M,3,02,12,14,25,29,30,31,,,,,,2.8,1.4,2.4*3E
Trace #115 at position 28.500000
$GPZDA,090250.04,09,10,2011,00,00*66
