Trace #1 at position 0.000000
$GPZDA,085029.04,09,10,2011,00,00*6E
$GPRMC,085029.00,A,4611.979246,N,01258.215141,E,000.0,46.4,091011,0.2,E,A*06
$GPGGA,085030.00,4611.979321,N,01258.214921,E,1,05,5.7,144.17,M,46.25,M,,*61
$GPGLL,4611.979321,N,01258.214921,E,085030.00,A,A*61
$GPVTG,302.4,T,302.5,M,000.9,N,001.6,K,A*2C
$GPGSV,2,1,08,02,38,081,35,09,21,151,,12,59,074,32,14,29,255,42*7C
$GPGSV,2,2,08,25,75,329,50,29,50,222,43,30,31,289,42,31,23,313,41*71
$GPGSA,M,3,14,25,29,30,31,,,,,,,,9.3,5.7,7.4*3D
Trace #2 at position 0.250000
$GPZDA,085032.03,09,10,2011,00,00*63
$GPRMC,085032.00,A,4611.979427,N,01258.214716,E,000.3,270.0,091011,0.2,E,A*38
$GPGGA,085033.00,4611.979426,N,01258.214566,E,1,05,5.7,144.78,M,46.25,M,,*64
$GPGLL,4611.979426,N,01258.214566,E,085033.00,A,A*6D
$GPVTG,280.3,T,280.5,M,000.3,N,000.5,K,A*23
$GPGSV,2,1,08,02,38,081,39,09,21,151,,12,59,074,36,14,29,255,44*72
$GPGSV,2,2,08,25,75,329,50,29,50,222,45,30,31,289,41,31,23,313,43*76
$GPGSA,M,3,14,25,29,30,31,,,,,,,,9.3,5.7,7.4*3D
Trace #3 at position 0.500000
$GPZDA,085033.04,09,10,2011,00,00*65
$GPRMC,085033.00,A,4611.979426,N,01258.214566,E,000.3,280.3,091011,0.2,E,A*31
$GPGGA,085034.00,4611.979370,N,01258.214877,E,1,06,1.5,144.30,M,46.25,M,,*63
$GPGLL,4611.979370,N,01258.214877,E,085034.00,A,A*63
$GPVTG,125.3,T,125.4,M,000.1,N,000.2,K,A*27
$GPGSV,2,1,08,02,38,081,39,09,21,151,,12,59,074,34,14,29,255,44*70
$GPGSV,2,2,08,25,75,329,50,29,50,222,45,30,31,289,41,31,23,313,43*76
$GPGSA,M,3,02,14,25,29,30,31,,,,,,,2.9,1.5,2.5*3C
Trace #4 at position 0.750000
$GPZDA,085033.04,09,10,2011,00,00*65
$GPRMC,085033.00,A,4611.979426,N,01258.214566,E,000.3,280.3,091011,0.2,E,A*31
$GPGGA,085034.00,4611.979370,N,01258.214877,E,1,06,1.5,144.30,M,46.25,M,,*63
$GPGLL,4611.979370,N,01258.214877,E,085034.00,A,A*63
$GPVTG,125.3,T,125.4,M,000.1,N,000.2,K,A*27
$GPGSV,2,1,08,02,38,081,39,09,21,151,,12,59,074,34,14,29,255,44*70
$GPGSV,2,2,08,25,75,329,50,29,50,222,45,30,31,289,41,31,23,313,43*76
$GPGSA,M,3,02,14,25,29,30,31,,,,,,,2.9,1.5,2.5*3C
Trace #5 at position 1.000000
$GPZDA,085034.04,09,10,2011,00,00*62
$GPRMC,085034.00,A,4611.979370,N,01258.214877,E,000.1,125.3,091011,0.2,E,A*31
$GPGGA,085035.00,4611.979315,N,01258.215195,E,1,06,1.5,143.82,M,46.25,M,,*6B
$GPGLL,4611.979315,N,01258.215195,E,085035.00,A,A*65
$GPVTG,283.3,T,283.5,M,000.0,N,000.1,K,A*24
$GPGSV,2,1,08,02,38,081,40,09,21,151,,12,59,074,34,14,29,255,44*7E
$GPGSV,2,2,08,25,75,329,50,29,50,222,45,30,31,289,42,31,23,313,43*75
$GPGSA,M,3,02,14,25,29,30,31,,,,,,,2.9,1.5,2.5*3C
Trace #6 at position 1.250000
$GPZDA,085040.04,09,10,2011,00,00*61
$GPRMC,085040.00,A,4611.978716,N,01258.216212,E,000.8,175.7,091011,0.2,E,A*34
$GPGGA,085041.00,4611.978551,N,01258.216474,E,1,07,1.4,141.98,M,46.25,M,,*6F
$GPGLL,4611.978551,N,01258.216474,E,085041.00,A,A*68
$GPVTG,130.5,T,130.6,M,000.4,N,000.7,K,A*23
$GPGSV,2,1,08,02,38,081,40,09,21,151,,12,58,074,41,14,29,255,42*7B
$GPGSV,2,2,08,25,75,330,48,29,50,222,45,30,31,289,41,31,23,313,42*76
$GPGSA,M,3,02,12,14,25,29,30,31,,,,,,2.8,1.4,2.5*3F
Trace #7 at position 1.500000
$GPZDA,085041.04,09,10,2011,00,00*60
$GPRMC,085041.00,A,4611.978551,N,01258.216474,E,000.4,130.5,091011,0.2,E,A*3D
$GPGGA,085042.00,4611.978506,N,01258.216693,E,1,07,1.4,141.80,M,46.25,M,,*6C
$GPGLL,4611.978506,N,01258.216693,E,085042.00,A,A*62
$GPVTG,24.4,T,24.6,M,000.0,N,000.0,K,A*21
$GPGSV,2,1,08,02,38,081,40,09,21,151,,12,58,074,45,14,29,255,42*7F
$GPGSV,2,2,08,25,75,330,48,29,50,222,46,30,31,289,42,31,23,313,42*76
$GPGSA,M,3,02,12,14,25,29,30,31,,,,,,2.8,1.4,2.5*3F
Trace #8 at position 1.750000
$GPZDA,085041.04,09,10,2011,00,00*60
$GPRMC,085041.00,A,4611.978551,N,01258.216474,E,000.4,130.5,091011,0.2,E,A*3D
$GPGGA,085042.00,4611.978506,N,01258.216693,E,1,07,1.4,141.80,M,46.25,M,,*6C
$GPGLL,4611.978506,N,01258.216693,E,085042.00,A,A*62
$GPVTG,24.4,T,24.6,M,000.0,N,000.0,K,A*21
$GPGSV,2,1,08,02,38,081,40,09,21,151,,12,58,074,45,14,29,255,42*7F
$GPGSV,2,2,08,25,75,330,48,29,50,222,46,30,31,289,42,31,23,313,42*76
$GPGSA,M,3,02,12,14,25,29,30,31,,,,,,2.8,1.4,2.5*3F
Trace #9 at position 2.000000
$GPZDA,085041.04,09,10,2011,00,00*60
$GPRMC,085041.00,A,4611.978551,N,01258.216474,E,000.4,130.5,091011,0.2,E,A*3D
$GPGGA,085042.00,4611.978506,N,01258.216693,E,1,07,1.4,141.80,M,46.25,M,,*6C
$GPGLL,4611.978506,N,01258.216693,E,085042.00,A,A*62
$GPVTG,24.4,T,24.6,M,000.0,N,000.0,K,A*21
$GPGSV,2,1,08,02,38,081,40,09,21,151,,12,58,074,45,14,29,255,42*7F
$GPGSV,2,2,08,25,75,330,48,29,50,222,46,30,31,289,42,31,23,313,42*76
$GPGSA,M,3,02,12,14,25,29,30,31,,,,,,2.8,1.4,2.5*3F
Trace #10 at position 2.250000
$GPZDA,085042.04,09,10,2011,00,00*63
$GPRMC,085042.00,A,4611.978506,N,01258.216693,E,000.0,24.4,091011,0.2,E,A*06
$GPGGA,085043.00,4611.978487,N,01258.216862,E,1,07,1.4,141.63,M,46.25,M,,*68
$GPGLL,4611.978487,N,01258.216862,E,085043.00,A,A*6B
$GPVTG,115.4,T,115.5,M,000.2,N,000.3,K,A*23
$GPGSV,2,1,08,02,38,081,41,09,21,151,,12,58,074,45,14,29,255,41*7D
$GPGSV,2,2,08,25,75,330,48,29,50,222,46,30,31,289,41,31,23,313,42*75
$GPGSA,M,3,02,12,14,25,29,30,31,,,,,,2.8,1.4,2.5*3F
Trace #11 at position 2.500000
$GPZDA,085042.04,09,10,2011,00,00*63
$GPRMC,085042.00,A,4611.978506,N,01258.216693,E,000.0,24.4,091011,0.2,E,A*06
$GPGGA,085043.00,4611.978487,N,01258.216862,E,1,07,1.4,141.63,M,46.25,M,,*68
$GPGLL,4611.978487,N,01258.216862,E,085043.00,A,A*6B
$GPVTG,115.4,T,115.5,M,000.2,N,000.3,K,A*23
$GPGSV,2,1,08,02,38,081,41,09,21,151,,12,58,074,45,14,29,255,41*7D
$GPGSV,2,2,08,25,75,330,48,29,50,222,46,30,31,289,41,31,23,313,42*75
$GPGSA,M,3,02,12,14,25,29,30,31,,,,,,2.8,1.4,2.5*3F
Trace #12 at position 2.750000
$GPZDA,085042.04,09,10,2011,00,00*63
$GPRMC,085042.00,A,4611.978506,N,01258.216693,E,000.0,24.4,091011,0.2,E,A*06
$GPGGA,085043.00,4611.978487,N,01258.216862,E,1,07,1.4,141.63,M,46.25,M,,*68
$GPGLL,4611.978487,N,01258.216862,E,085043.00,A,A*6B
$GPVTG,115.4,T,115.5,M,000.2,N,000.3,K,A*23
$GPGSV,2,1,08,02,38,081,41,09,21,151,,12,58,074,45,14,29,255,41*7D
$GPGSV,2,2,08,25,75,330,48,29,50,222,46,30,31,289,41,31,23,313,42*75
$GPGSA,M,3,02,12,14,25,29,30,31,,,,,,2.8,1.4,2.5*3F
Trace #13 at position 3.000000
$GPZDA,085043.04,09,10,2011,00,00*62
$GPRMC,085043.00,A,4611.978487,N,01258.216862,E,000.2,115.4,091011,0.2,E,A*3E
$GPGGA,085044.00,4611.978459,N,01258.217013,E,1,07,1.4,141.46,M,46.25,M,,*64
$GPGLL,4611.978459,N,01258.217013,E,085044.00,A,A*60
$GPVTG,160.2,T,160.4,M,000.1,N,000.1,K,A*25
$GPGSV,2,1,08,02,38,081,41,09,21,151,,12,58,074,45,14,29,255,42*7E
$GPGSV,2,2,08,25,75,330,47,29,50,222,46,30,31,289,42,31,23,313,42*79
$GPGSA,M,3,02,12,14,25,29,30,31,,,,,,2.8,1.4,2.5*3F
Trace #14 at position 3.250000
$GPZDA,085043.04,09,10,2011,00,00*62
$GPRMC,085043.00,A,4611.978487,N,01258.216862,E,000.2,115.4,091011,0.2,E,A*3E
$GPGGA,085044.00,4611.978459,N,01258.217013,E,1,07,1.4,141.46,M,46.25,M,,*64
$GPGLL,4611.978459,N,01258.217013,E,085044.00,A,A*60
$GPVTG,160.2,T,160.4,M,000.1,N,000.1,K,A*25
$GPGSV,2,1,08,02,38,081,41,09,21,151,,12,58,074,45,14,29,255,42*7E
$GPGSV,2,2,08,25,75,330,47,29,50,222,46,30,31,289,42,31,23,313,42*79
$GPGSA,M,3,02,12,14,25,29,30,31,,,,,,2.8,1.4,2.5*3F
Trace #15 at position 3.500000
$GPZDA,085043.04,09,10,2011,00,00*62
$GPRMC,085043.00,A,4611.978487,N,01258.216862,E,000.2,115.4,091011,0.2,E,A*3E
$GPGGA,085044.00,4611.978459,N,01258.217013,E,1,07,1.4,141.46,M,46.25,M,,*64
$GPGLL,4611.978459,N,01258.217013,E,085044.00,A,A*60
$GPVTG,160.2,T,160.4,M,000.1,N,000.1,K,A*25
$GPGSV,2,1,08,02,38,081,41,09,21,151,,12,58,074,45,14,29,255,42*7E
$GPGSV,2,2,08,25,75,330,47,29,50,222,46,30,31,289,42,31,23,313,42*79
$GPGSA,M,3,02,12,14,25,29,30,31,,,,,,2.8,1.4,2.5*3F
Trace #16 at position 3.750000
$GPZDA,085043.04,09,10,2011,00,00*62
$GPRMC,085043.00,A,4611.978487,N,01258.216862,E,000.2,115.4,091011,0.2,E,A*3E
$GPGGA,085044.00,4611.978459,N,01258.217013,E,1,07,1.4,141.46,M,46.25,M,,*64
$GPGLL,4611.978459,N,01258.217013,E,085044.00,A,A*60
$GPVTG,160.2,T,160.4,M,000.1,N,000.1,K,A*25
$GPGSV,2,1,08,02,38,081,41,09,21,151,,12,58,074,45,14,29,255,42*7E
$GPGSV,2,2,08,25,75,330,47,29,50,222,46,30,31,289,42,31,23,313,42*79
$GPGSA,M,3,02,12,14,25,29,30,31,,,,,,2.8,1.4,2.5*3F
Trace #17 at position 4.000000
$GPZDA,085044.04,09,10,2011,00,00*65
$GPRMC,085044.00,A,4611.978459,N,01258.217013,E,000.1,160.2,091011,0.2,E,A*32
$GPGGA,085045.00,4611.978451,N,01258.217124,E,1,07,1.4,141.33,M,46.25,M,,*6A
$GPGLL,4611.978451,N,01258.217124,E,085045.00,A,A*6C
$GPVTG,20.2,T,20.4,M,000.1,N,000.1,K,A*25
$GPGSV,2,1,08,02,38,081,40,09,21,151,,12,58,074,45,14,29,255,41*7C
$GPGSV,2,2,08,25,75,330,47,29,50,222,46,30,31,289,42,31,23,313,41*7A
$GPGSA,M,3,02,12,14,25,29,30,31,,,,,,2.8,1.4,2.5*3F
Trace #18 at position 4.250000
$GPZDA,085044.04,09,10,2011,00,00*65
$GPRMC,085044.00,A,4611.978459,N,01258.217013,E,000.1,160.2,091011,0.2,E,A*32
$GPGGA,085045.00,4611.978451,N,01258.217124,E,1,07,1.4,141.33,M,46.25,M,,*6A
$GPGLL,4611.978451,N,01258.217124,E,085045.00,A,A*6C
$GPVTG,20.2,T,20.4,M,000.1,N,000.1,K,A*25
$GPGSV,2,1,08,02,38,081,40,09,21,151,,12,58,074,45,14,29,255,41*7C
$GPGSV,2,2,08,25,75,330,47,29,50,222,46,30,31,289,42,31,23,313,41*7A
$GPGSA,M,3,02,12,14,25,29,30,31,,,,,,2.8,1.4,2.5*3F
Trace #19 at position 4.500000
$GPZDA,085044.04,09,10,2011,00,00*65
$GPRMC,085044.00,A,4611.978459,N,01258.217013,E,000.1,160.2,091011,0.2,E,A*32
$GPGGA,085045.00,4611.978451,N,01258.217124,E,1,07,1.4,141.33,M,46.25,M,,*6A
$GPGLL,4611.978451,N,01258.217124,E,085045.00,A,A*6C
$GPVTG,20.2,T,20.4,M,000.1,N,000.1,K,A*25
$GPGSV,2,1,08,02,38,081,40,09,21,151,,12,58,074,45,14,29,255,41*7C
$GPGSV,2,2,08,25,75,330,47,29,50,222,46,30,31,289,42,31,23,313,41*7A
$GPGSA,M,3,02,12,14,25,29,30,31,,,,,,2.8,1.4,2.5*3F
Trace #20 at position 4.750000
$GPZDA,085045.04,09,10,2011,00,00*64
$GPRMC,085045.00,A,4611.978451,N,01258.217124,E,000.1,20.2,091011,0.2,E,A*0B
$GPGGA,085046.00,4611.978444,N,01258.217208,E,1,07,1.4,141.23,M,46.25,M,,*61
$GPGLL,4611.978444,N,01258.217208,E,085046.00,A,A*66
$GPVTG,211.1,T,211.2,M,000.1,N,000.2,K,A*23
$GPGSV,2,1,08,02,38,081,40,09,21,151,,12,58,074,44,14,29,255,41*7D
$GPGSV,2,2,08,25,75,330,48,29,50,222,46,30,31,289,41,31,23,313,41*76
$GPGSA,M,3,02,12,14,25,29,30,31,,,,,,2.8,1.4,2.5*3F
Trace #21 at position 5.000000
$GPZDA,085045.04,09,10,2011,00,00*64
$GPRMC,085045.00,A,4611.978451,N,01258.217124,E,000.1,20.2,091011,0.2,E,A*0B
$GPGGA,085046.00,4611.978444,N,01258.217208,E,1,07,1.4,141.23,M,46.25,M,,*61
$GPGLL,4611.978444,N,01258.217208,E,085046.00,A,A*66
$GPVTG,211.1,T,211.2,M,000.1,N,000.2,K,A*23
$GPGSV,2,1,08,02,38,081,40,09,21,151,,12,58,074,44,14,29,255,41*7D
$GPGSV,2,2,08,25,75,330,48,29,50,222,46,30,31,289,41,31,23,313,41*76
$GPGSA,M,3,02,12,14,25,29,30,31,,,,,,2.8,1.4,2.5*3F
Trace #22 at position 5.250000
$GPZDA,085045.04,09,10,2011,00,00*64
$GPRMC,085045.00,A,4611.978451,N,01258.217124,E,000.1,20.2,091011,0.2,E,A*0B
$GPGGA,085046.00,4611.978444,N,01258.217208,E,1,07,1.4,141.23,M,46.25,M,,*61
$GPGLL,4611.978444,N,01258.217208,E,085046.00,A,A*66
$GPVTG,211.1,T,211.2,M,000.1,N,000.2,K,A*23
$GPGSV,2,1,08,02,38,081,40,09,21,151,,12,58,074,44,14,29,255,41*7D
$GPGSV,2,2,08,25,75,330,48,29,50,222,46,30,31,289,41,31,23,313,41*76
$GPGSA,M,3,02,12,14,25,29,30,31,,,,,,2.8,1.4,2.5*3F
Trace #23 at position 5.500000
$GPZDA,085045.04,09,10,2011,00,00*64
$GPRMC,085045.00,A,4611.978451,N,01258.217124,E,000.1,20.2,091011,0.2,E,A*0B
$GPGGA,085046.00,4611.978444,N,01258.217208,E,1,07,1.4,141.23,M,46.25,M,,*61
$GPGLL,4611.978444,N,01258.217208,E,085046.00,A,A*66
$GPVTG,211.1,T,211.2,M,000.1,N,000.2,K,A*23
$GPGSV,2,1,08,02,38,081,40,09,21,151,,12,58,074,44,14,29,255,41*7D
$GPGSV,2,2,08,25,75,330,48,29,50,222,46,30,31,289,41,31,23,313,41*76
$GPGSA,M,3,02,12,14,25,29,30,31,,,,,,2.8,1.4,2.5*3F
Trace #24 at position 5.750000
$GPZDA,085046.04,09,10,2011,00,00*67
$GPRMC,085046.00,A,4611.978444,N,01258.217208,E,000.1,211.1,091011,0.2,E,A*32
$GPGGA,085047.00,4611.978279,N,01258.217349,E,1,07,1.4,141.13,M,46.25,M,,*6F
$GPGLL,4611.978279,N,01258.217349,E,085047.00,A,A*6B
$GPVTG,162.4,T,162.6,M,001.2,N,002.1,K,A*21
$GPGSV,2,1,08,02,38,081,42,09,21,151,,12,58,074,43,14,29,255,41*78
$GPGSV,2,2,08,25,75,330,48,29,50,222,46,30,31,289,42,31,23,313,40*74
$GPGSA,M,3,02,12,14,25,29,30,31,,,,,,2.8,1.4,2.5*3F
Trace #25 at position 6.000000
$GPZDA,085046.04,09,10,2011,00,00*67
$GPRMC,085046.00,A,4611.978444,N,01258.217208,E,000.1,211.1,091011,0.2,E,A*32
$GPGGA,085047.00,4611.978279,N,01258.217349,E,1,07,1.4,141.13,M,46.25,M,,*6F
$GPGLL,4611.978279,N,01258.217349,E,085047.00,A,A*6B
$GPVTG,162.4,T,162.6,M,001.2,N,002.1,K,A*21
$GPGSV,2,1,08,02,38,081,42,09,21,151,,12,58,074,43,14,29,255,41*78
$GPGSV,2,2,08,25,75,330,48,29,50,222,46,30,31,289,42,31,23,313,40*74
$GPGSA,M,3,02,12,14,25,29,30,31,,,,,,2.8,1.4,2.5*3F
Trace #26 at position 6.250000
$GPZDA,085046.04,09,10,2011,00,00*67
$GPRMC,085046.00,A,4611.978444,N,01258.217208,E,000.1,211.1,091011,0.2,E,A*32
$GPGGA,085047.00,4611.978279,N,01258.217349,E,1,07,1.4,141.13,M,46.25,M,,*6F
$GPGLL,4611.978279,N,01258.217349,E,085047.00,A,A*6B
$GPVTG,162.4,T,162.6,M,001.2,N,002.1,K,A*21
$GPGSV,2,1,08,02,38,081,42,09,21,151,,12,58,074,43,14,29,255,41*78
$GPGSV,2,2,08,25,75,330,48,29,50,222,46,30,31,289,42,31,23,313,40*74
$GPGSA,M,3,02,12,14,25,29,30,31,,,,,,2.8,1.4,2.5*3F
Trace #27 at position 6.500000
$GPZDA,085046.04,09,10,2011,00,00*67
$GPRMC,085046.00,A,4611.978444,N,01258.217208,E,000.1,211.1,091011,0.2,E,A*32
$GPGGA,085047.00,4611.978279,N,01258.217349,E,1,07,1.4,141.13,M,46.25,M,,*6F
$GPGLL,4611.978279,N,01258.217349,E,085047.00,A,A*6B
$GPVTG,162.4,T,162.6,M,001.2,N,002.1,K,A*21
$GPGSV,2,1,08,02,38,081,42,09,21,151,,12,58,074,43,14,29,255,41*78
$GPGSV,2,2,08,25,75,330,48,29,50,222,46,30,31,289,42,31,23,313,40*74
$GPGSA,M,3,02,12,14,25,29,30,31,,,,,,2.8,1.4,2.5*3F
Trace #28 at position 6.750000
$GPZDA,085046.04,09,10,2011,00,00*67
$GPRMC,085046.00,A,4611.978444,N,01258.217208,E,000.1,211.1,091011,0.2,E,A*32
$GPGGA,085047.00,4611.978279,N,01258.217349,E,1,07,1.4,141.13,M,46.25,M,,*6F
$GPGLL,4611.978279,N,01258.217349,E,085047.00,A,A*6B
$GPVTG,162.4,T,162.6,M,001.2,N,002.1,K,A*21
$GPGSV,2,1,08,02,38,081,42,09,21,151,,12,58,074,43,14,29,255,41*78
$GPGSV,2,2,08,25,75,330,48,29,50,222,46,30,31,289,42,31,23,313,40*74
$GPGSA,M,3,02,12,14,25,29,30,31,,,,,,2.8,1.4,2.5*3F
Trace #29 at position 7.000000
$GPZDA,085047.04,09,10,2011,00,00*66
$GPRMC,085047.00,A,4611.978279,N,01258.217349,E,001.2,162.4,091011,0.2,E,A*3F
$GPGGA,085048.00,4611.977982,N,01258.217575,E,1,07,1.4,141.02,M,46.25,M,,*69
$GPGLL,4611.977982,N,01258.217575,E,085048.00,A,A*6D
$GPVTG,156.6,T,156.8,M,001.2,N,002.2,K,A*2E
$GPGSV,2,1,08,02,38,081,37,09,21,151,,12,58,074,41,14,29,255,41*78
$GPGSV,2,2,08,25,75,330,48,29,50,222,44,30,31,289,42,31,23,313,41*77
$GPGSA,M,3,02,12,14,25,29,30,31,,,,,,2.8,1.4,2.5*3F
Trace #30 at position 7.250000
$GPZDA,085047.04,09,10,2011,00,00*66
$GPRMC,085047.00,A,4611.978279,N,01258.217349,E,001.2,162.4,091011,0.2,E,A*3F
$GPGGA,085048.00,4611.977982,N,01258.217575,E,1,07,1.4,141.02,M,46.25,M,,*69
$GPGLL,4611.977982,N,01258.217575,E,085048.00,A,A*6D
$GPVTG,156.6,T,156.8,M,001.2,N,002.2,K,A*2E
$GPGSV,2,1,08,02,38,081,37,09,21,151,,12,58,074,41,14,29,255,41*78
$GPGSV,2,2,08,25,75,330,48,29,50,222,44,30,31,289,42,31,23,313,41*77
$GPGSA,M,3,02,12,14,25,29,30,31,,,,,,2.8,1.4,2.5*3F
Trace #31 at position 7.500000
$GPZDA,085047.04,09,10,2011,00,00*66
$GPRMC,085047.00,A,4611.978279,N,01258.217349,E,001.2,162.4,091011,0.2,E,A*3F
$GPGGA,085048.00,4611.977982,N,01258.217575,E,1,07,1.4,141.02,M,46.25,M,,*69
$GPGLL,4611.977982,N,01258.217575,E,085048.00,A,A*6D
$GPVTG,156.6,T,156.8,M,001.2,N,002.2,K,A*2E
$GPGSV,2,1,08,02,38,081,37,09,21,151,,12,58,074,41,14,29,255,41*78
$GPGSV,2,2,08,25,75,330,48,29,50,222,44,30,31,289,42,31,23,313,41*77
$GPGSA,M,3,02,12,14,25,29,30,31,,,,,,2.8,1.4,2.5*3F
Trace #32 at position 7.750000
$GPZDA,085048.04,09,10,2011,00,00*69
$GPRMC,085048.00,A,4611.977982,N,01258.217575,E,001.2,156.6,091011,0.2,E,A*3C
$GPGGA,085049.00,4611.977650,N,01258.217827,E,1,07,1.4,141.01,M,46.25,M,,*61
$GPGLL,4611.977650,N,01258.217827,E,085049.00,A,A*66
$GPVTG,156.9,T,157.0,M,001.4,N,002.6,K,A*2A
$GPGSV,2,1,08,02,38,081,40,09,21,151,,12,58,074,41,14,29,255,41*78
$GPGSV,2,2,08,25,75,330,48,29,50,222,44,30,31,289,41,31,23,313,41*74
$GPGSA,M,3,02,12,14,25,29,30,31,,,,,,2.8,1.4,2.5*3F
Trace #33 at position 8.000000
$GPZDA,085048.04,09,10,2011,00,00*69
$GPRMC,085048.00,A,4611.977982,N,01258.217575,E,001.2,156.6,091011,0.2,E,A*3C
$GPGGA,085049.00,4611.977650,N,01258.217827,E,1,07,1.4,141.01,M,46.25,M,,*61
$GPGLL,4611.977650,N,01258.217827,E,085049.00,A,A*66
$GPVTG,156.9,T,157.0,M,001.4,N,002.6,K,A*2A
$GPGSV,2,1,08,02,38,081,40,09,21,151,,12,58,074,41,14,29,255,41*78
$GPGSV,2,2,08,25,75,330,48,29,50,222,44,30,31,289,41,31,23,313,41*74
$GPGSA,M,3,02,12,14,25,29,30,31,,,,,,2.8,1.4,2.5*3F
Trace #34 at position 8.250000
$GPZDA,085048.04,09,10,2011,00,00*69
$GPRMC,085048.00,A,4611.977982,N,01258.217575,E,001.2,156.6,091011,0.2,E,A*3C
$GPGGA,085049.00,4611.977650,N,01258.217827,E,1,07,1.4,141.01,M,46.25,M,,*61
$GPGLL,4611.977650,N,01258.217827,E,085049.00,A,A*66
$GPVTG,156.9,T,157.0,M,001.4,N,002.6,K,A*2A
$GPGSV,2,1,08,02,38,081,40,09,21,151,,12,58,074,41,14,29,255,41*78
$GPGSV,2,2,08,25,75,330,48,29,50,222,44,30,31,289,41,31,23,313,41*74
$GPGSA,M,3,02,12,14,25,29,30,31,,,,,,2.8,1.4,2.5*3F
Trace #35 at position 8.500000
$GPZDA,085048.04,09,10,2011,00,00*69
$GPRMC,085048.00,A,4611.977982,N,01258.217575,E,001.2,156.6,091011,0.2,E,A*3C
$GPGGA,085049.00,4611.977650,N,01258.217827,E,1,07,1.4,141.01,M,46.25,M,,*61
$GPGLL,4611.977650,N,01258.217827,E,085049.00,A,A*66
$GPVTG,156.9,T,157.0,M,001.4,N,002.6,K,A*2A
$GPGSV,2,1,08,02,38,081,40,09,21,151,,12,58,074,41,14,29,255,41*78
$GPGSV,2,2,08,25,75,330,48,29,50,222,44,30,31,289,41,31,23,313,41*74
$GPGSA,M,3,02,12,14,25,29,30,31,,,,,,2.8,1.4,2.5*3F
Trace #36 at position 8.750000
$GPZDA,085049.04,09,10,2011,00,00*68
$GPRMC,085049.00,A,4611.977650,N,01258.217827,E,001.4,156.9,091011,0.2,E,A*3E
$GPGGA,085050.00,4611.977231,N,01258.218147,E,1,07,1.4,140.97,M,46.25,M,,*64
$GPGLL,4611.977231,N,01258.218147,E,085050.00,A,A*6D
$GPVTG,152.9,T,153.1,M,001.8,N,003.4,K,A*24
$GPGSV,2,1,08,02,38,081,39,09,21,151,,12,58,074,41,14,29,255,40*77
$GPGSV,2,2,08,25,75,330,48,29,50,222,43,30,31,289,42,31,23,313,41*70
$GPGSA,M,3,02,12,14,25,29,30,31,,,,,,2.8,1.4,2.5*3F
Trace #37 at position 9.000000
$GPZDA,085049.04,09,10,2011,00,00*68
$GPRMC,085049.00,A,4611.977650,N,01258.217827,E,001.4,156.9,091011,0.2,E,A*3E
$GPGGA,085050.00,4611.977231,N,01258.218147,E,1,07,1.4,140.97,M,46.25,M,,*64
$GPGLL,4611.977231,N,01258.218147,E,085050.00,A,A*6D
$GPVTG,152.9,T,153.1,M,001.8,N,003.4,K,A*24
$GPGSV,2,1,08,02,38,081,39,09,21,151,,12,58,074,41,14,29,255,40*77
$GPGSV,2,2,08,25,75,330,48,29,50,222,43,30,31,289,42,31,23,313,41*70
$GPGSA,M,3,02,12,14,25,29,30,31,,,,,,2.8,1.4,2.5*3F
Trace #38 at position 9.250000
$GPZDA,085049.04,09,10,2011,00,00*68
$GPRMC,085049.00,A,4611.977650,N,01258.217827,E,001.4,156.9,091011,0.2,E,A*3E
$GPGGA,085050.00,4611.977231,N,01258.218147,E,1,07,1.4,140.97,M,46.25,M,,*64
$GPGLL,4611.977231,N,01258.218147,E,085050.00,A,A*6D
$GPVTG,152.9,T,153.1,M,001.8,N,003.4,K,A*24
$GPGSV,2,1,08,02,38,081,39,09,21,151,,12,58,074,41,14,29,255,40*77
$GPGSV,2,2,08,25,75,330,48,29,50,222,43,30,31,289,42,31,23,313,41*70
$GPGSA,M,3,02,12,14,25,29,30,31,,,,,,2.8,1.4,2.5*3F
Trace #39 at position 9.500000
$GPZDA,085049.04,09,10,2011,00,00*68
$GPRMC,085049.00,A,4611.977650,N,01258.217827,E,001.4,156.9,091011,0.2,E,A*3E
$GPGGA,085050.00,4611.977231,N,01258.218147,E,1,07,1.4,140.97,M,46.25,M,,*64
$GPGLL,4611.977231,N,01258.218147,E,085050.00,A,A*6D
$GPVTG,152.9,T,153.1,M,001.8,N,003.4,K,A*24
$GPGSV,2,1,08,02,38,081,39,09,21,151,,12,58,074,41,14,29,255,40*77
$GPGSV,2,2,08,25,75,330,48,29,50,222,43,30,31,289,42,31,23,313,41*70
$GPGSA,M,3,02,12,14,25,29,30,31,,,,,,2.8,1.4,2.5*3F
Trace #40 at position 9.750000
$GPZDA,085050.04,09,10,2011,00,00*60
$GPRMC,085050.00,A,4611.977231,N,01258.218147,E,001.8,152.9,091011,0.2,E,A*3D
$GPGGA,085051.00,4611.976755,N,01258.218436,E,1,07,1.4,140.81,M,46.25,M,,*67
$GPGLL,4611.976755,N,01258.218436,E,085051.00,A,A*69
$GPVTG,165.8,T,165.9,M,001.8,N,003.4,K,A*2C
$GPGSV,2,1,08,02,38,081,39,09,21,151,39,12,58,074,41,14,29,255,41*7C
$GPGSV,2,2,08,25,75,330,48,29,50,222,44,30,31,289,43,31,23,313,42*75
$GPGSA,M,3,02,12,14,25,29,30,31,,,,,,2.8,1.4,2.5*3F
Trace #41 at position 10.000000
$GPZDA,085050.04,09,10,2011,00,00*60
$GPRMC,085050.00,A,4611.977231,N,01258.218147,E,001.8,152.9,091011,0.2,E,A*3D
$GPGGA,085051.00,4611.976755,N,01258.218436,E,1,07,1.4,140.81,M,46.25,M,,*67
$GPGLL,4611.976755,N,01258.218436,E,085051.00,A,A*69
$GPVTG,165.8,T,165.9,M,001.8,N,003.4,K,A*2C
$GPGSV,2,1,08,02,38,081,39,09,21,151,39,12,58,074,41,14,29,255,41*7C
$GPGSV,2,2,08,25,75,330,48,29,50,222,44,30,31,289,43,31,23,313,42*75
$GPGSA,M,3,02,12,14,25,29,30,31,,,,,,2.8,1.4,2.5*3F
Trace #42 at position 10.250000
$GPZDA,085050.04,09,10,2011,00,00*60
$GPRMC,085050.00,A,4611.977231,N,01258.218147,E,001.8,152.9,091011,0.2,E,A*3D
$GPGGA,085051.00,4611.976755,N,01258.218436,E,1,07,1.4,140.81,M,46.25,M,,*67
$GPGLL,4611.976755,N,01258.218436,E,085051.00,A,A*69
$GPVTG,165.8,T,165.9,M,001.8,N,003.4,K,A*2C
$GPGSV,2,1,08,02,38,081,39,09,21,151,39,12,58,074,41,14,29,255,41*7C
$GPGSV,2,2,08,25,75,330,48,29,50,222,44,30,31,289,43,31,23,313,42*75
$GPGSA,M,3,02,12,14,25,29,30,31,,,,,,2.8,1.4,2.5*3F
Trace #43 at position 10.500000
$GPZDA,085050.04,09,10,2011,00,00*60
$GPRMC,085050.00,A,4611.977231,N,01258.218147,E,001.8,152.9,091011,0.2,E,A*3D
$GPGGA,085051.00,4611.976755,N,01258.218436,E,1,07,1.4,140.81,M,46.25,M,,*67
$GPGLL,4611.976755,N,01258.218436,E,085051.00,A,A*69
$GPVTG,165.8,T,165.9,M,001.8,N,003.4,K,A*2C
$GPGSV,2,1,08,02,38,081,39,09,21,151,39,12,58,074,41,14,29,255,41*7C
$GPGSV,2,2,08,25,75,330,48,29,50,222,44,30,31,289,43,31,23,313,42*75
$GPGSA,M,3,02,12,14,25,29,30,31,,,,,,2.8,1.4,2.5*3F
Trace #44 at position 10.750000
$GPZDA,085051.04,09,10,2011,00,00*61
$GPRMC,085051.00,A,4611.976755,N,01258.218436,E,001.8,165.8,091011,0.2,E,A*3C
$GPGGA,085052.00,4611.976304,N,01258.218750,E,1,07,1.4,140.77,M,46.25,M,,*6E
$GPGLL,4611.976304,N,01258.218750,E,085052.00,A,A*69
$GPVTG,144.7,T,144.9,M,001.8,N,003.3,K,A*24
$GPGSV,2,1,08,02,38,081,39,09,21,151,40,12,58,074,43,14,29,255,42*73
$GPGSV,2,2,08,25,75,330,48,29,50,222,43,30,31,289,43,31,23,313,42*72
$GPGSA,M,3,02,12,14,25,29,30,31,,,,,,2.8,1.4,2.5*3F
Trace #45 at position 11.000000
$GPZDA,085051.04,09,10,2011,00,00*61
$GPRMC,085051.00,A,4611.976755,N,01258.218436,E,001.8,165.8,091011,0.2,E,A*3C
$GPGGA,085052.00,4611.976304,N,01258.218750,E,1,07,1.4,140.77,M,46.25,M,,*6E
$GPGLL,4611.976304,N,01258.218750,E,085052.00,A,A*69
$GPVTG,144.7,T,144.9,M,001.8,N,003.3,K,A*24
$GPGSV,2,1,08,02,38,081,39,09,21,151,40,12,58,074,43,14,29,255,42*73
$GPGSV,2,2,08,25,75,330,48,29,50,222,43,30,31,289,43,31,23,313,42*72
$GPGSA,M,3,02,12,14,25,29,30,31,,,,,,2.8,1.4,2.5*3F
Trace #46 at position 11.250000
$GPZDA,085051.04,09,10,2011,00,00*61
$GPRMC,085051.00,A,4611.976755,N,01258.218436,E,001.8,165.8,091011,0.2,E,A*3C
$GPGGA,085052.00,4611.976304,N,01258.218750,E,1,07,1.4,140.77,M,46.25,M,,*6E
$GPGLL,4611.976304,N,01258.218750,E,085052.00,A,A*69
$GPVTG,144.7,T,144.9,M,001.8,N,003.3,K,A*24
$GPGSV,2,1,08,02,38,081,39,09,21,151,40,12,58,074,43,14,29,255,42*73
$GPGSV,2,2,08,25,75,330,48,29,50,222,43,30,31,289,43,31,23,313,42*72
$GPGSA,M,3,02,12,14,25,29,30,31,,,,,,2.8,1.4,2.5*3F
Trace #47 at position 11.500000
$GPZDA,085051.04,09,10,2011,00,00*61
$GPRMC,085051.00,A,4611.976755,N,01258.218436,E,001.8,165.8,091011,0.2,E,A*3C
$GPGGA,085052.00,4611.976304,N,01258.218750,E,1,07,1.4,140.77,M,46.25,M,,*6E
$GPGLL,4611.976304,N,01258.218750,E,085052.00,A,A*69
$GPVTG,144.7,T,144.9,M,001.8,N,003.3,K,A*24
$GPGSV,2,1,08,02,38,081,39,09,21,151,40,12,58,074,43,14,29,255,42*73
$GPGSV,2,2,08,25,75,330,48,29,50,222,43,30,31,289,43,31,23,313,42*72
$GPGSA,M,3,02,12,14,25,29,30,31,,,,,,2.8,1.4,2.5*3F
Trace #48 at position 11.750000
$GPZDA,085051.04,09,10,2011,00,00*61
$GPRMC,085051.00,A,4611.976755,N,01258.218436,E,001.8,165.8,091011,0.2,E,A*3C
$GPGGA,085052.00,4611.976304,N,01258.218750,E,1,07,1.4,140.77,M,46.25,M,,*6E
$GPGLL,4611.976304,N,01258.218750,E,085052.00,A,A*69
$GPVTG,144.7,T,144.9,M,001.8,N,003.3,K,A*24
$GPGSV,2,1,08,02,38,081,39,09,21,151,40,12,58,074,43,14,29,255,42*73
$GPGSV,2,2,08,25,75,330,48,29,50,222,43,30,31,289,43,31,23,313,42*72
$GPGSA,M,3,02,12,14,25,29,30,31,,,,,,2.8,1.4,2.5*3F
Trace #49 at position 12.000000
$GPZDA,085052.04,09,10,2011,00,00*62
$GPRMC,085052.00,A,4611.976304,N,01258.218750,E,001.8,144.7,091011,0.2,E,A*30
$GPGGA,085053.00,4611.975866,N,01258.219080,E,1,07,1.4,140.76,M,46.25,M,,*69
$GPGLL,4611.975866,N,01258.219080,E,085053.00,A,A*6F
$GPVTG,159.9,T,160.1,M,001.7,N,003.2,K,A*26
$GPGSV,2,1,08,02,38,081,38,09,21,151,40,12,58,074,42,14,29,255,41*70
$GPGSV,2,2,08,25,75,330,48,29,50,222,43,30,31,289,42,31,23,313,40*71
$GPGSA,M,3,02,12,14,25,29,30,31,,,,,,2.8,1.4,2.5*3F
Trace #50 at position 12.250000
$GPZDA,085052.04,09,10,2011,00,00*62
$GPRMC,085052.00,A,4611.976304,N,01258.218750,E,001.8,144.7,091011,0.2,E,A*30
$GPGGA,085053.00,4611.975866,N,01258.219080,E,1,07,1.4,140.76,M,46.25,M,,*69
$GPGLL,4611.975866,N,01258.219080,E,085053.00,A,A*6F
$GPVTG,159.9,T,160.1,M,001.7,N,003.2,K,A*26
$GPGSV,2,1,08,02,38,081,38,09,21,151,40,12,58,074,42,14,29,255,41*70
$GPGSV,2,2,08,25,75,330,48,29,50,222,43,30,31,289,42,31,23,313,40*71
$GPGSA,M,3,02,12,14,25,29,30,31,,,,,,2.8,1.4,2.5*3F
Trace #51 at position 12.500000
$GPZDA,085052.04,09,10,2011,00,00*62
$GPRMC,085052.00,A,4611.976304,N,01258.218750,E,001.8,144.7,091011,0.2,E,A*30
$GPGGA,085053.00,4611.975866,N,01258.219080,E,1,07,1.4,140.76,M,46.25,M,,*69
$GPGLL,4611.975866,N,01258.219080,E,085053.00,A,A*6F
$GPVTG,159.9,T,160.1,M,001.7,N,003.2,K,A*26
$GPGSV,2,1,08,02,38,081,38,09,21,151,40,12,58,074,42,14,29,255,41*70
$GPGSV,2,2,08,25,75,330,48,29,50,222,43,30,31,289,42,31,23,313,40*71
$GPGSA,M,3,02,12,14,25,29,30,31,,,,,,2.8,1.4,2.5*3F
Trace #52 at position 12.750000
$GPZDA,085052.04,09,10,2011,00,00*62
$GPRMC,085052.00,A,4611.976304,N,01258.218750,E,001.8,144.7,091011,0.2,E,A*30
$GPGGA,085053.00,4611.975866,N,01258.219080,E,1,07,1.4,140.76,M,46.25,M,,*69
$GPGLL,4611.975866,N,01258.219080,E,085053.00,A,A*6F
$GPVTG,159.9,T,160.1,M,001.7,N,003.2,K,A*26
$GPGSV,2,1,08,02,38,081,38,09,21,151,40,12,58,074,42,14,29,255,41*70
$GPGSV,2,2,08,25,75,330,48,29,50,222,43,30,31,289,42,31,23,313,40*71
$GPGSA,M,3,02,12,14,25,29,30,31,,,,,,2.8,1.4,2.5*3F
Trace #53 at position 13.000000
$GPZDA,085053.04,09,10,2011,00,00*63
$GPRMC,085053.00,A,4611.975866,N,01258.219080,E,001.7,159.9,091011,0.2,E,A*3B
$GPGGA,085054.00,4611.975439,N,01258.219224,E,1,08,1.1,140.83,M,46.25,M,,*64
$GPGLL,4611.975439,N,01258.219224,E,085054.00,A,A*62
$GPVTG,172.9,T,173.0,M,001.5,N,002.8,K,A*25
$GPGSV,2,1,08,02,38,081,39,09,21,151,40,12,58,075,42,14,29,255,41*70
$GPGSV,2,2,08,25,75,330,48,29,50,222,43,30,31,289,42,31,23,313,41*70
$GPGSA,M,3,02,09,12,14,25,29,30,31,,,,,2.1,1.1,1.8*34
Trace #54 at position 13.250000
$GPZDA,085053.04,09,10,2011,00,00*63
$GPRMC,085053.00,A,4611.975866,N,01258.219080,E,001.7,159.9,091011,0.2,E,A*3B
$GPGGA,085054.00,4611.975439,N,01258.219224,E,1,08,1.1,140.83,M,46.25,M,,*64
$GPGLL,4611.975439,N,01258.219224,E,085054.00,A,A*62
$GPVTG,172.9,T,173.0,M,001.5,N,002.8,K,A*25
$GPGSV,2,1,08,02,38,081,39,09,21,151,40,12,58,075,42,14,29,255,41*70
$GPGSV,2,2,08,25,75,330,48,29,50,222,43,30,31,289,42,31,23,313,41*70
$GPGSA,M,3,02,09,12,14,25,29,30,31,,,,,2.1,1.1,1.8*34
Trace #55 at position 13.500000
$GPZDA,085053.04,09,10,2011,00,00*63
$GPRMC,085053.00,A,4611.975866,N,01258.219080,E,001.7,159.9,091011,0.2,E,A*3B
$GPGGA,085054.00,4611.975439,N,01258.219224,E,1,08,1.1,140.83,M,46.25,M,,*64
$GPGLL,4611.975439,N,01258.219224,E,085054.00,A,A*62
$GPVTG,172.9,T,173.0,M,001.5,N,002.8,K,A*25
$GPGSV,2,1,08,02,38,081,39,09,21,151,40,12,58,075,42,14,29,255,41*70
$GPGSV,2,2,08,25,75,330,48,29,50,222,43,30,31,289,42,31,23,313,41*70
$GPGSA,M,3,02,09,12,14,25,29,30,31,,,,,2.1,1.1,1.8*34
Trace #56 at position 13.750000
$GPZDA,085054.04,09,10,2011,00,00*64
$GPRMC,085054.00,A,4611$GPGGA,085055.00,4611.974979,N,01258.219439,E,1,07,1.4,140.87,M,46.25,M,,*69
$GPGLL,4611.974979,N,01258.219439,E,085055.00,A,A*61
$GPVTG,154.5,T,154.6,M,001.9,N,003.5,K,A*2E
$GPGSV,2,1,08,02,38,081,39,09,21,151,39,12,58,075,42,14,29,255,41*7E
$GPGSV,2,2,08,25,75,330,48,29,50,222,44,30,31,289,43,31,23,313,42*75
$GPGSA,M,3,02,12,14,25,29,30,31,,,,,,2.8,1.4,2.5*3F
Trace #57 at position 14.000000
$GPZDA,085054.04,09,10,2011,00,00*64
$GPRMC,085054.00,A,4611$GPGGA,085055.00,4611.974979,N,01258.219439,E,1,07,1.4,140.87,M,46.25,M,,*69
$GPGLL,4611.974979,N,01258.219439,E,085055.00,A,A*61
$GPVTG,154.5,T,154.6,M,001.9,N,003.5,K,A*2E
$GPGSV,2,1,08,02,38,081,39,09,21,151,39,12,58,075,42,14,29,255,41*7E
$GPGSV,2,2,08,25,75,330,48,29,50,222,44,30,31,289,43,31,23,313,42*75
$GPGSA,M,3,02,12,14,25,29,30,31,,,,,,2.8,1.4,2.5*3F
Trace #58 at position 14.250000
$GPZDA,085054.04,09,10,2011,00,00*64
$GPRMC,085054.00,A,4611$GPGGA,085055.00,4611.974979,N,01258.219439,E,1,07,1.4,140.87,M,46.25,M,,*69
$GPGLL,4611.974979,N,01258.219439,E,085055.00,A,A*61
$GPVTG,154.5,T,154.6,M,001.9,N,003.5,K,A*2E
$GPGSV,2,1,08,02,38,081,39,09,21,151,39,12,58,075,42,14,29,255,41*7E
$GPGSV,2,2,08,25,75,330,48,29,50,222,44,30,31,289,43,31,23,313,42*75
$GPGSA,M,3,02,12,14,25,29,30,31,,,,,,2.8,1.4,2.5*3F
Trace #59 at position 14.500000
$GPZDA,085054.04,09,10,2011,00,00*64
$GPRMC,085054.00,A,4611$GPGGA,085055.00,4611.974979,N,01258.219439,E,1,07,1.4,140.87,M,46.25,M,,*69
$GPGLL,4611.974979,N,01258.219439,E,085055.00,A,A*61
$GPVTG,154.5,T,154.6,M,001.9,N,003.5,K,A*2E
$GPGSV,2,1,08,02,38,081,39,09,21,151,39,12,58,075,42,14,29,255,41*7E
$GPGSV,2,2,08,25,75,330,48,29,50,222,44,30,31,289,43,31,23,313,42*75
$GPGSA,M,3,02,12,14,25,29,30,31,,,,,,2.8,1.4,2.5*3F
Trace #60 at position 14.750000
$GPZDA,085054.04,09,10,2011,00,00*64
$GPRMC,085054.00,A,4611$GPGGA,085055.00,4611.974979,N,01258.219439,E,1,07,1.4,140.87,M,46.25,M,,*69
$GPGLL,4611.974979,N,01258.219439,E,085055.00,A,A*61
$GPVTG,154.5,T,154.6,M,001.9,N,003.5,K,A*2E
$GPGSV,2,1,08,02,38,081,39,09,21,151,39,12,58,075,42,14,29,255,41*7E
$GPGSV,2,2,08,25,75,330,48,29,50,222,44,30,31,289,43,31,23,313,42*75
$GPGSA,M,3,02,12,14,25,29,30,31,,,,,,2.8,1.4,2.5*3F
Trace #61 at position 15.000000
$GPZDA,085055.04,09,10,2011,00,00*65
$GPRMC,085055.00,A,4611.974979,N,01258.219439,E,001.9,154.5,091011,0.2,E,A*3A
$GPGGA,085056.00,4611.974534,N,01258.219712,E,1,08,1.1,141.01,M,46.25,M,,*60
$GPGLL,4611.974534,N,01258.219712,E,085056.00,A,A*6D
$GPVTG,157.8,T,158.0,M,001.7,N,003.1,K,A*20
$GPGSV,2,1,08,02,38,081,39,09,21,151,38,12,58,075,41,14,29,255,41*7C
$GPGSV,2,2,08,25,75,330,48,29,50,222,44,30,32,289,43,31,24,313,41*72
$GPGSA,M,3,02,09,12,14,25,29,30,31,,,,,2.1,1.1,1.8*34
Trace #62 at position 15.250000
$GPZDA,085055.04,09,10,2011,00,00*65
$GPRMC,085055.00,A,4611.974979,N,01258.219439,E,001.9,154.5,091011,0.2,E,A*3A
$GPGGA,085056.00,4611.974534,N,01258.219712,E,1,08,1.1,141.01,M,46.25,M,,*60
$GPGLL,4611.974534,N,01258.219712,E,085056.00,A,A*6D
$GPVTG,157.8,T,158.0,M,001.7,N,003.1,K,A*20
$GPGSV,2,1,08,02,38,081,39,09,21,151,38,12,58,075,41,14,29,255,41*7C
$GPGSV,2,2,08,25,75,330,48,29,50,222,44,30,32,289,43,31,24,313,41*72
$GPGSA,M,3,02,09,12,14,25,29,30,31,,,,,2.1,1.1,1.8*34
Trace #63 at position 15.500000
$GPZDA,085055.04,09,10,2011,00,00*65
$GPRMC,085055.00,A,4611.974979,N,01258.219439,E,001.9,154.5,091011,0.2,E,A*3A
$GPGGA,085056.00,4611.974534,N,01258.219712,E,1,08,1.1,141.01,M,46.25,M,,*60
$GPGLL,4611.974534,N,01258.219712,E,085056.00,A,A*6D
$GPVTG,157.8,T,158.0,M,001.7,N,003.1,K,A*20
$GPGSV,2,1,08,02,38,081,39,09,21,151,38,12,58,075,41,14,29,255,41*7C
$GPGSV,2,2,08,25,75,330,48,29,50,222,44,30,32,289,43,31,24,313,41*72
$GPGSA,M,3,02,09,12,14,25,29,30,31,,,,,2.1,1.1,1.8*34
Trace #64 at position 15.750000
$GPZDA,085055.04,09,10,2011,00,00*65
$GPRMC,085055.00,A,4611.974979,N,01258.219439,E,001.9,154.5,091011,0.2,E,A*3A
$GPGGA,085056.00,4611.974534,N,01258.219712,E,1,08,1.1,141.01,M,46.25,M,,*60
$GPGLL,4611.974534,N,01258.219712,E,085056.00,A,A*6D
$GPVTG,157.8,T,158.0,M,001.7,N,003.1,K,A*20
$GPGSV,2,1,08,02,38,081,39,09,21,151,38,12,58,075,41,14,29,255,41*7C
$GPGSV,2,2,08,25,75,330,48,29,50,222,44,30,32,289,43,31,24,313,41*72
$GPGSA,M,3,02,09,12,14,25,29,30,31,,,,,2.1,1.1,1.8*34
Trace #65 at position 16.000000
$GPZDA,085055.04,09,10,2011,00,00*65
$GPRMC,085055.00,A,4611.974979,N,01258.219439,E,001.9,154.5,091011,0.2,E,A*3A
$GPGGA,085056.00,4611.974534,N,01258.219712,E,1,08,1.1,141.01,M,46.25,M,,*60
$GPGLL,4611.974534,N,01258.219712,E,085056.00,A,A*6D
$GPVTG,157.8,T,158.0,M,001.7,N,003.1,K,A*20
$GPGSV,2,1,08,02,38,081,39,09,21,151,38,12,58,075,41,14,29,255,41*7C
$GPGSV,2,2,08,25,75,330,48,29,50,222,44,30,32,289,43,31,24,313,41*72
$GPGSA,M,3,02,09,12,14,25,29,30,31,,,,,2.1,1.1,1.8*34
Trace #66 at position 16.250000
$GPZDA,085056.04,09,10,2011,00,00*66
$GPRMC,085056.00,A,4611.974534,N,01258.219712,E,001.7,157.8,091011,0.2,E,A*36
$GPGGA,085057.00,4611.974026,N,01258.219946,E,1,08,1.1,141.09,M,46.25,M,,*60
$GPGLL,4611.974026,N,01258.219946,E,085057.00,A,A*65
$GPVTG,163.5,T,163.7,M,002.2,N,004.1,K,A*24
$GPGSV,2,1,08,02,38,081,40,09,21,151,39,12,58,075,41,14,29,255,42*70
$GPGSV,2,2,08,25,75,330,48,29,50,222,44,30,32,289,42,31,24,313,41*73
$GPGSA,M,3,02,09,12,14,25,29,30,31,,,,,2.1,1.1,1.8*34
Trace #67 at position 16.500000
$GPZDA,085056.04,09,10,2011,00,00*66
$GPRMC,085056.00,A,4611.974534,N,01258.219712,E,001.7,157.8,091011,0.2,E,A*36
$GPGGA,085057.00,4611.974026,N,01258.219946,E,1,08,1.1,141.09,M,46.25,M,,*60
$GPGLL,4611.974026,N,01258.219946,E,085057.00,A,A*65
$GPVTG,163.5,T,163.7,M,002.2,N,004.1,K,A*24
$GPGSV,2,1,08,02,38,081,40,09,21,151,39,12,58,075,41,14,29,255,42*70
$GPGSV,2,2,08,25,75,330,48,29,50,222,44,30,32,289,42,31,24,313,41*73
$GPGSA,M,3,02,09,12,14,25,29,30,31,,,,,2.1,1.1,1.8*34
Trace #68 at position 16.750000
$GPZDA,085056.04,09,10,2011,00,00*66
$GPRMC,085056.00,A,4611.974534,N,01258.219712,E,001.7,157.8,091011,0.2,E,A*36
$GPGGA,085057.00,4611.974026,N,01258.219946,E,1,08,1.1,141.09,M,46.25,M,,*60
$GPGLL,4611.974026,N,01258.219946,E,085057.00,A,A*65
$GPVTG,163.5,T,163.7,M,002.2,N,004.1,K,A*24
$GPGSV,2,1,08,02,38,081,40,09,21,151,39,12,58,075,41,14,29,255,42*70
$GPGSV,2,2,08,25,75,330,48,29,50,222,44,30,32,289,42,31,24,313,41*73
$GPGSA,M,3,02,09,12,14,25,29,30,31,,,,,2.1,1.1,1.8*34
Trace #69 at position 17.000000
$GPZDA,085056.04,09,10,2011,00,00*66
$GPRMC,085056.00,A,4611.974534,N,01258.219712,E,001.7,157.8,091011,0.2,E,A*36
$GPGGA,085057.00,4611.974026,N,01258.219946,E,1,08,1.1,141.09,M,46.25,M,,*60
$GPGLL,4611.974026,N,01258.219946,E,085057.00,A,A*65
$GPVTG,163.5,T,163.7,M,002.2,N,004.1,K,A*24
$GPGSV,2,1,08,02,38,081,40,09,21,151,39,12,58,075,41,14,29,255,42*70
$GPGSV,2,2,08,25,75,330,48,29,50,222,44,30,32,289,42,31,24,313,41*73
$GPGSA,M,3,02,09,12,14,25,29,30,31,,,,,2.1,1.1,1.8*34
Trace #70 at position 17.250000
$GPZDA,085057.04,09,10,2011,00,00*67
$GPRMC,085057.00,A,4611.974026,N,01258.219946,E,002.2,163.5,091011,0.2,E,A*32
$GPGGA,085058.00,4611.973395,N,01258.220155,E,1,08,1.1,141.03,M,46.25,M,,*69
$GPGLL,4611.973395,N,01258.220155,E,085058.00,A,A*66
$GPVTG,169.2,T,169.3,M,002.5,N,004.7,K,A*26
$GPGSV,2,1,08,02,38,081,40,09,21,151,40,12,58,075,42,14,29,255,42*7D
$GPGSV,2,2,08,25,75,330,48,29,50,222,43,30,32,289,42,31,24,313,41*74
$GPGSA,M,3,02,09,12,14,25,29,30,31,,,,,2.1,1.1,1.8*34
Trace #71 at position 17.500000
$GPZDA,085057.04,09,10,2011,00,00*67
$GPRMC,085057.00,A,4611.974026,N,01258.219946,E,002.2,163.5,091011,0.2,E,A*32
$GPGGA,085058.00,4611.973395,N,01258.220155,E,1,08,1.1,141.03,M,46.25,M,,*69
$GPGLL,4611.973395,N,01258.220155,E,085058.00,A,A*66
$GPVTG,169.2,T,169.3,M,002.5,N,004.7,K,A*26
$GPGSV,2,1,08,02,38,081,40,09,21,151,40,12,58,075,42,14,29,255,42*7D
$GPGSV,2,2,08,25,75,330,48,29,50,222,43,30,32,289,42,31,24,313,41*74
$GPGSA,M,3,02,09,12,14,25,29,30,31,,,,,2.1,1.1,1.8*34
Trace #72 at position 17.750000
$GPZDA,085057.04,09,10,2011,00,00*67
$GPRMC,085057.00,A,4611.974026,N,01258.219946,E,002.2,163.5,091011,0.2,E,A*32
$GPGGA,085058.00,4611.973395,N,01258.220155,E,1,08,1.1,141.03,M,46.25,M,,*69
$GPGLL,4611.973395,N,01258.220155,E,085058.00,A,A*66
$GPVTG,169.2,T,169.3,M,002.5,N,004.7,K,A*26
$GPGSV,2,1,08,02,38,081,40,09,21,151,40,12,58,075,42,14,29,255,42*7D
$GPGSV,2,2,08,25,75,330,48,29,50,222,43,30,32,289,42,31,24,313,41*74
$GPGSA,M,3,02,09,12,14,25,29,30,31,,,,,2.1,1.1,1.8*34
Trace #73 at position 18.000000
$GPZDA,085057.04,09,10,2011,00,00*67
$GPRMC,085057.00,A,4611.974026,N,01258.219946,E,002.2,163.5,091011,0.2,E,A*32
$GPGGA,085058.00,4611.973395,N,01258.220155,E,1,08,1.1,141.03,M,46.25,M,,*69
$GPGLL,4611.973395,N,01258.220155,E,085058.00,A,A*66
$GPVTG,169.2,T,169.3,M,002.5,N,004.7,K,A*26
$GPGSV,2,1,08,02,38,081,40,09,21,151,40,12,58,075,42,14,29,255,42*7D
$GPGSV,2,2,08,25,75,330,48,29,50,222,43,30,32,289,42,31,24,313,41*74
$GPGSA,M,3,02,09,12,14,25,29,30,31,,,,,2.1,1.1,1.8*34
Trace #74 at position 18.250000
$GPZDA,085057.04,09,10,2011,00,00*67
$GPRMC,085057.00,A,4611.974026,N,01258.219946,E,002.2,163.5,091011,0.2,E,A*32
$GPGGA,085058.00,4611.973395,N,01258.220155,E,1,08,1.1,141.03,M,46.25,M,,*69
$GPGLL,4611.973395,N,01258.220155,E,085058.00,A,A*66
$GPVTG,169.2,T,169.3,M,002.5,N,004.7,K,A*26
$GPGSV,2,1,08,02,38,081,40,09,21,151,40,12,58,075,42,14,29,255,42*7D
$GPGSV,2,2,08,25,75,330,48,29,50,222,43,30,32,289,42,31,24,313,41*74
$GPGSA,M,3,02,09,12,14,25,29,30,31,,,,,2.1,1.1,1.8*34
Trace #75 at position 18.500000
$GPZDA,085058.04,09,10,2011,00,00*68
$GPRMC,085058.00,A,4611.973395,N,01258.220155,E,002.5,169.2,091011,0.2,E,A*3B
$GPGGA,085059.00,4611.972768,N,01258.220318,E,1,08,1.1,140.97,M,46.25,M,,*68
$GPGLL,4611.972768,N,01258.220318,E,085059.00,A,A*6B
$GPVTG,171.1,T,171.3,M,002.2,N,004.0,K,A*25
$GPGSV,2,1,08,02,38,081,40,09,21,151,37,12,58,075,41,14,29,255,42*7E
$GPGSV,2,2,08,25,75,330,47,29,50,222,44,30,32,289,42,31,24,313,42*7F
$GPGSA,M,3,02,09,12,14,25,29,30,31,,,,,2.1,1.1,1.8*34
Trace #76 at position 18.750000
$GPZDA,085058.04,09,10,2011,00,00*68
$GPRMC,085058.00,A,4611.973395,N,01258.220155,E,002.5,169.2,091011,0.2,E,A*3B
$GPGGA,085059.00,4611.972768,N,01258.220318,E,1,08,1.1,140.97,M,46.25,M,,*68
$GPGLL,4611.972768,N,01258.220318,E,085059.00,A,A*6B
$GPVTG,171.1,T,171.3,M,002.2,N,004.0,K,A*25
$GPGSV,2,1,08,02,38,081,40,09,21,151,37,12,58,075,41,14,29,255,42*7E
$GPGSV,2,2,08,25,75,330,47,29,50,222,44,30,32,289,42,31,24,313,42*7F
$GPGSA,M,3,02,09,12,14,25,29,30,31,,,,,2.1,1.1,1.8*34
Trace #77 at position 19.000000
$GPZDA,085058.04,09,10,2011,00,00*68
$GPRMC,085058.00,A,4611.973395,N,01258.220155,E,002.5,169.2,091011,0.2,E,A*3B
$GPGGA,085059.00,4611.972768,N,01258.220318,E,1,08,1.1,140.97,M,46.25,M,,*68
$GPGLL,4611.972768,N,01258.220318,E,085059.00,A,A*6B
$GPVTG,171.1,T,171.3,M,002.2,N,004.0,K,A*25
$GPGSV,2,1,08,02,38,081,40,09,21,151,37,12,58,075,41,14,29,255,42*7E
$GPGSV,2,2,08,25,75,330,47,29,50,222,44,30,32,289,42,31,24,313,42*7F
$GPGSA,M,3,02,09,12,14,25,29,30,31,,,,,2.1,1.1,1.8*34
Trace #78 at position 19.250000
$GPZDA,085058.04,09,10,2011,00,00*68
$GPRMC,085058.00,A,4611.973395,N,01258.220155,E,002.5,169.2,091011,0.2,E,A*3B
$GPGGA,085059.00,4611.972768,N,01258.220318,E,1,08,1.1,140.97,M,46.25,M,,*68
$GPGLL,4611.972768,N,01258.220318,E,085059.00,A,A*6B
$GPVTG,171.1,T,171.3,M,002.2,N,004.0,K,A*25
$GPGSV,2,1,08,02,38,081,40,09,21,151,37,12,58,075,41,14,29,255,42*7E
$GPGSV,2,2,08,25,75,330,47,29,50,222,44,30,32,289,42,31,24,313,42*7F
$GPGSA,M,3,02,09,12,14,25,29,30,31,,,,,2.1,1.1,1.8*34
Trace #79 at position 19.500000
$GPZDA,085059.04,09,10,2011,00,00*69
$GPRMC,085059.00,A,4611.972768,N,01258.220318,E,002.2,171.1,091011,0.2,E,A*3B
$GPGGA,085100.00,4611.972144,N,01258.220574,E,1,08,1.1,140.88,M,46.25,M,,*6F
$GPGLL,4611.972144,N,01258.220574,E,085100.00,A,A*62
$GPVTG,160.1,T,160.2,M,002.7,N,005.0,K,A*20
$GPGSV,2,1,08,02,38,081,40,09,21,151,39,12,58,075,42,14,29,255,42*73
$GPGSV,2,2,08,25,75,330,47,29,50,222,43,30,32,289,41,31,24,313,41*78
$GPGSA,M,3,02,09,12,14,25,29,30,31,,,,,2.1,1.1,1.8*34
Trace #80 at position 19.750000
$GPZDA,085059.04,09,10,2011,00,00*69
$GPRMC,085059.00,A,4611.972768,N,01258.220318,E,002.2,171.1,091011,0.2,E,A*3B
$GPGGA,085100.00,4611.972144,N,01258.220574,E,1,08,1.1,140.88,M,46.25,M,,*6F
$GPGLL,4611.972144,N,01258.220574,E,085100.00,A,A*62
$GPVTG,160.1,T,160.2,M,002.7,N,005.0,K,A*20
$GPGSV,2,1,08,02,38,081,40,09,21,151,39,12,58,075,42,14,29,255,42*73
$GPGSV,2,2,08,25,75,330,47,29,50,222,43,30,32,289,41,31,24,313,41*78
$GPGSA,M,3,02,09,12,14,25,29,30,31,,,,,2.1,1.1,1.8*34
Trace #81 at position 20.000000
$GPZDA,085059.04,09,10,2011,00,00*69
$GPRMC,085059.00,A,4611.972768,N,01258.220318,E,002.2,171.1,091011,0.2,E,A*3B
$GPGGA,085100.00,4611.972144,N,01258.220574,E,1,08,1.1,140.88,M,46.25,M,,*6F
$GPGLL,4611.972144,N,01258.220574,E,085100.00,A,A*62
$GPVTG,160.1,T,160.2,M,002.7,N,005.0,K,A*20
$GPGSV,2,1,08,02,38,081,40,09,21,151,39,12,58,075,42,14,29,255,42*73
$GPGSV,2,2,08,25,75,330,47,29,50,222,43,30,32,289,41,31,24,313,41*78
$GPGSA,M,3,02,09,12,14,25,29,30,31,,,,,2.1,1.1,1.8*34
Trace #82 at position 20.250000
$GPZDA,085059.04,09,10,2011,00,00*69
$GPRMC,085059.00,A,4611.972768,N,01258.220318,E,002.2,171.1,091011,0.2,E,A*3B
$GPGGA,085100.00,4611.972144,N,01258.220574,E,1,08,1.1,140.88,M,46.25,M,,*6F
$GPGLL,4611.972144,N,01258.220574,E,085100.00,A,A*62
$GPVTG,160.1,T,160.2,M,002.7,N,005.0,K,A*20
$GPGSV,2,1,08,02,38,081,40,09,21,151,39,12,58,075,42,14,29,255,42*73
$GPGSV,2,2,08,25,75,330,47,29,50,222,43,30,32,289,41,31,24,313,41*78
$GPGSA,M,3,02,09,12,14,25,29,30,31,,,,,2.1,1.1,1.8*34
Trace #83 at position 20.500000
$GPZDA,085100.04,09,10,2011,00,00*64
$GPRMC,085100.00,A,4611.972144,N,01258.220574,E,002.7,160.1,091011,0.2,E,A*37
$GPGGA,085101.00,4611.971531,N,01258.220850,E,1,08,1.1,140.81,M,46.25,M,,*69
$GPGLL,4611.971531,N,01258.220850,E,085101.00,A,A*6D
$GPVTG,168.0,T,168.2,M,002.2,N,004.0,K,A*25
$GPGSV,2,1,08,02,38,081,40,09,21,151,38,12,58,075,42,14,29,255,42*72
$GPGSV,2,2,08,25,75,330,47,29,50,222,45,30,32,289,41,31,24,313,42*7D
$GPGSA,M,3,02,09,12,14,25,29,30,31,,,,,2.1,1.1,1.8*34
Trace #84 at position 20.750000
$GPZDA,085100.04,09,10,2011,00,00*64
$GPRMC,085100.00,A,4611.972144,N,01258.220574,E,002.7,160.1,091011,0.2,E,A*37
$GPGGA,085101.00,4611.971531,N,01258.220850,E,1,08,1.1,140.81,M,46.25,M,,*69
$GPGLL,4611.971531,N,01258.220850,E,085101.00,A,A*6D
$GPVTG,168.0,T,168.2,M,002.2,N,004.0,K,A*25
$GPGSV,2,1,08,02,38,081,40,09,21,151,38,12,58,075,42,14,29,255,42*72
$GPGSV,2,2,08,25,75,330,47,29,50,222,45,30,32,289,41,31,24,313,42*7D
$GPGSA,M,3,02,09,12,14,25,29,30,31,,,,,2.1,1.1,1.8*34
Trace #85 at position 21.000000
$GPZDA,085100.04,09,10,2011,00,00*64
$GPRMC,085100.00,A,4611.972144,N,01258.220574,E,002.7,160.1,091011,0.2,E,A*37
$GPGGA,085101.00,4611.971531,N,01258.220850,E,1,08,1.1,140.81,M,46.25,M,,*69
$GPGLL,4611.971531,N,01258.220850,E,085101.00,A,A*6D
$GPVTG,168.0,T,168.2,M,002.2,N,004.0,K,A*25
$GPGSV,2,1,08,02,38,081,40,09,21,151,38,12,58,075,42,14,29,255,42*72
$GPGSV,2,2,08,25,75,330,47,29,50,222,45,30,32,289,41,31,24,313,42*7D
$GPGSA,M,3,02,09,12,14,25,29,30,31,,,,,2.1,1.1,1.8*34
Trace #86 at position 21.250000
$GPZDA,085100.04,09,10,2011,00,00*64
$GPRMC,085100.00,A,4611.972144,N,01258.220574,E,002.7,160.1,091011,0.2,E,A*37
$GPGGA,085101.00,4611.971531,N,01258.220850,E,1,08,1.1,140.81,M,46.25,M,,*69
$GPGLL,4611.971531,N,01258.220850,E,085101.00,A,A*6D
$GPVTG,168.0,T,168.2,M,002.2,N,004.0,K,A*25
$GPGSV,2,1,08,02,38,081,40,09,21,151,38,12,58,075,42,14,29,255,42*72
$GPGSV,2,2,08,25,75,330,47,29,50,222,45,30,32,289,41,31,24,313,42*7D
$GPGSA,M,3,02,09,12,14,25,29,30,31,,,,,2.1,1.1,1.8*34
Trace #87 at position 21.500000
$GPZDA,085101.04,09,10,2011,00,00*65
$GPRMC,085101.00,A,4611.971531,N,01258.220850,E,002.2,168.0,091011,0.2,E,A*34
$GPGGA,085102.00,4611.970988,N,01258.221195,E,1,08,1.1,140.92,M,46.25,M,,*66
$GPGLL,4611.970988,N,01258.221195,E,085102.00,A,A*60
$GPVTG,146.2,T,146.4,M,002.3,N,PGSV,2,1,08,02,38,081,39,09,21,151,37,12,58,075,42,14,29,255,42*73
$GPGSV,2,2,08,25,75,330,47,29,50,222,43,30,32,289,41,31,24,313,41*78
$GPGSA,M,3,02,09,12,14,25,29,30,31,,,,,2.1,1.1,1.8*34
Trace #88 at position 21.750000
$GPZDA,085101.04,09,10,2011,00,00*65
$GPRMC,085101.00,A,4611.971531,N,01258.220850,E,002.2,168.0,091011,0.2,E,A*34
$GPGGA,085102.00,4611.970988,N,01258.221195,E,1,08,1.1,140.92,M,46.25,M,,*66
$GPGLL,4611.970988,N,01258.221195,E,085102.00,A,A*60
$GPVTG,146.2,T,146.4,M,002.3,N,PGSV,2,1,08,02,38,081,39,09,21,151,37,12,58,075,42,14,29,255,42*73
$GPGSV,2,2,08,25,75,330,47,29,50,222,43,30,32,289,41,31,24,313,41*78
$GPGSA,M,3,02,09,12,14,25,29,30,31,,,,,2.1,1.1,1.8*34
Trace #89 at position 22.000000
$GPZDA,085102.04,09,10,2011,00,00*66
$GPRMC,085102.00,A,4611.970988,N,01258.221195,E,002.3,146.2,091011,0.2,E,A*36
$GPGGA,085103.00,4611.970467,N,01258.221623,E,1,07,1.4,140.98,M,46.25,M,,*61
$GPGLL,4611.970467,N,01258.221623,E,085103.00,A,A*67
$GPVTG,151.9,T,152.1,M,001.9,N,003.5,K,A*26
$GPGSV,2,1,08,02,38,081,3GSV,2,2,08,25,75,330,48,29,50,222,44,30,32,289,42,31,24,313,41*73
$GPGSA,M,3,02,12,14,25,29,30,31,,,,,,2.8,1.4,2.5*3F
Trace #90 at position 22.250000
$GPZDA,085102.04,09,10,2011,00,00*66
$GPRMC,085102.00,A,4611.970988,N,01258.221195,E,002.3,146.2,091011,0.2,E,A*36
$GPGGA,085103.00,4611.970467,N,01258.221623,E,1,07,1.4,140.98,M,46.25,M,,*61
$GPGLL,4611.970467,N,01258.221623,E,085103.00,A,A*67
$GPVTG,151.9,T,152.1,M,001.9,N,003.5,K,A*26
$GPGSV,2,1,08,02,38,081,3GSV,2,2,08,25,75,330,48,29,50,222,44,30,32,289,42,31,24,313,41*73
$GPGSA,M,3,02,12,14,25,29,30,31,,,,,,2.8,1.4,2.5*3F
Trace #91 at position 22.500000
$GPZDA,085102.04,09,10,2011,00,00*66
$GPRMC,085102.00,A,4611.970988,N,01258.221195,E,002.3,146.2,091011,0.2,E,A*36
$GPGGA,085103.00,4611.970467,N,01258.221623,E,1,07,1.4,140.98,M,46.25,M,,*61
$GPGLL,4611.970467,N,01258.221623,E,085103.00,A,A*67
$GPVTG,151.9,T,152.1,M,001.9,N,003.5,K,A*26
$GPGSV,2,1,08,02,38,081,3GSV,2,2,08,25,75,330,48,29,50,222,44,30,32,289,42,31,24,313,41*73
$GPGSA,M,3,02,12,14,25,29,30,31,,,,,,2.8,1.4,2.5*3F
Trace #92 at position 22.750000
$GPZDA,085102.04,09,10,2011,00,00*66
$GPRMC,085102.00,A,4611.970988,N,01258.221195,E,002.3,146.2,091011,0.2,E,A*36
$GPGGA,085103.00,4611.970467,N,01258.221623,E,1,07,1.4,140.98,M,46.25,M,,*61
$GPGLL,4611.970467,N,01258.221623,E,085103.00,A,A*67
$GPVTG,151.9,T,152.1,M,001.9,N,003.5,K,A*26
$GPGSV,2,1,08,02,38,081,3GSV,2,2,08,25,75,330,48,29,50,222,44,30,32,289,42,31,24,313,41*73
$GPGSA,M,3,02,12,14,25,29,30,31,,,,,,2.8,1.4,2.5*3F
Trace #93 at position 23.000000
$GPZDA,085102.04,09,10,2011,00,00*66
$GPRMC,085102.00,A,4611.970988,N,01258.221195,E,002.3,146.2,091011,0.2,E,A*36
$GPGGA,085103.00,4611.970467,N,01258.221623,E,1,07,1.4,140.98,M,46.25,M,,*61
$GPGLL,4611.970467,N,01258.221623,E,085103.00,A,A*67
$GPVTG,151.9,T,152.1,M,001.9,N,003.5,K,A*26
$GPGSV,2,1,08,02,38,081,3GSV,2,2,08,25,75,330,48,29,50,222,44,30,32,289,42,31,24,313,41*73
$GPGSA,M,3,02,12,14,25,29,30,31,,,,,,2.8,1.4,2.5*3F
Trace #94 at position 23.250000
$GPZDA,085103.04,09,10,2011,00,00*67
$GPRMC,085103.00,A,4611.970467,N,01258.221623,E,001.9,151.9,091011,0.2,E,A*35
$GPGGA,085104.00,4611.969982,N,01258.222011,E,1,07,1.4,141.01,M,46.25,M,,*6D
$GPGLL,4611.969982,N,01258.222011,E,085104.00,A,A*6A
$GPVTG,143.6,T,143.8,M,002.0,N,003.7,K,A*2B
$GPGSV,2,1,08,02,38,081,39,09,21,151,35,12,58,075,43,14,29,255,41*73
$GPGSV,2,2,08,25,75,330,47,204.00,A,4611.969982,N,01258.222011,E,002.0,143.6,091011,0.2,E,A*3E
$GPGGA,085105.00,4611.969515,N,01258.222298,E,1,07,1.4,140.93,M,46.25,M,,*67
$GPGLL,4611.969515,N,01258.222298,E,085105.00,A,A*6A
$GPVTG,164.0,T,164.2,M,001.5,N,002.9,K,A*2E
$GPGSV,2,1,08,02,38,081,39,09,21,151,35,12,58,075,42,14,29,255,41*72
$GPGSV,2,2,08,25,75,330,47,29,50,222,44,30,32,289,42,31,24,313,42*7F
$GPGSA,M,3,02,12,14,25,29,30,31,,,,,,2.8,1.4,2.5*3F
Trace #95 at position 23.500000
$GPZDA,085103.04,09,10,2011,00,00*67
$GPRMC,085103.00,A,4611.970467,N,01258.221623,E,001.9,151.9,091011,0.2,E,A*35
$GPGGA,085104.00,4611.969982,N,01258.222011,E,1,07,1.4,141.01,M,46.25,M,,*6D
$GPGLL,4611.969982,N,01258.222011,E,085104.00,A,A*6A
$GPVTG,143.6,T,143.8,M,002.0,N,003.7,K,A*2B
$GPGSV,2,1,08,02,38,081,39,09,21,151,35,12,58,075,43,14,29,255,41*73
$GPGSV,2,2,08,25,75,330,47,204.00,A,4611.969982,N,01258.222011,E,002.0,143.6,091011,0.2,E,A*3E
$GPGGA,085105.00,4611.969515,N,01258.222298,E,1,07,1.4,140.93,M,46.25,M,,*67
$GPGLL,4611.969515,N,01258.222298,E,085105.00,A,A*6A
$GPVTG,164.0,T,164.2,M,001.5,N,002.9,K,A*2E
$GPGSV,2,1,08,02,38,081,39,09,21,151,35,12,58,075,42,14,29,255,41*72
$GPGSV,2,2,08,25,75,330,47,29,50,222,44,30,32,289,42,31,24,313,42*7F
$GPGSA,M,3,02,12,14,25,29,30,31,,,,,,2.8,1.4,2.5*3F
Trace #96 at position 23.750000
$GPZDA,085103.04,09,10,2011,00,00*67
$GPRMC,085103.00,A,4611.970467,N,01258.221623,E,001.9,151.9,091011,0.2,E,A*35
$GPGGA,085104.00,4611.969982,N,01258.222011,E,1,07,1.4,141.01,M,46.25,M,,*6D
$GPGLL,4611.969982,N,01258.222011,E,085104.00,A,A*6A
$GPVTG,143.6,T,143.8,M,002.0,N,003.7,K,A*2B
$GPGSV,2,1,08,02,38,081,39,09,21,151,35,12,58,075,43,14,29,255,41*73
$GPGSV,2,2,08,25,75,330,47,204.00,A,4611.969982,N,01258.222011,E,002.0,143.6,091011,0.2,E,A*3E
$GPGGA,085105.00,4611.969515,N,01258.222298,E,1,07,1.4,140.93,M,46.25,M,,*67
$GPGLL,4611.969515,N,01258.222298,E,085105.00,A,A*6A
$GPVTG,164.0,T,164.2,M,001.5,N,002.9,K,A*2E
$GPGSV,2,1,08,02,38,081,39,09,21,151,35,12,58,075,42,14,29,255,41*72
$GPGSV,2,2,08,25,75,330,47,29,50,222,44,30,32,289,42,31,24,313,42*7F
$GPGSA,M,3,02,12,14,25,29,30,31,,,,,,2.8,1.4,2.5*3F
Trace #97 at position 24.000000
$GPZDA,085105.04,09,10,2011,00,00*61
$GPRMC,085105.00,A,4611.969515,N,012$GPGGA,085106.00,4611.969017,N,01258.222672,E,1,07,1.4,140.83,M,46.25,M,,*62
$GPGLL,4611.969017,N,01258.222672,E,085106.00,A,A*6E
$GPVTG,137.2,T,137.3,M,002.4,N,004.5,K,A*25
$GPGSV,2,1,08,02,38,081,40,09,21,151,35,12,58,075,43,14,29,255,41*7D
$GPGSV,2,2,08,25,75,330,47,29,50,222,44,30,32,289,41,31,24,313,41*7F
$GPGSA,M,3,02,12,14,25,29,30,31,,,,,,2.8,1.4,2.5*3F
Trace #98 at position 24.250000
$GPZDA,085107.04,09,10,2011,00,00*63
$GPRMC,085107.00,A,4611.968478,N,01258.223038,E,001.9,162.8,091011,0.2,E,A*39
$GPGGA,085108.00,4611.967963,N,01258.223339,E,1,07,1.4,140.64,M,46.25,M,,*6A
$GPGLL,4611.967963,N,01258.223339,E,085108.00,A,A*6F
$GPVTG,141.1,T,141.2,M,002.1,N,003.9,K,A*29
$GPGSV,2,1,08,02,38,081,39,09,21,151,25,12,58,075,42,14,29,255,41*73
$GPGSV,2,2,08,25,75,330,48,29,50,222,43,30,32,289,41,31,24,313,40*76
$GPGSA,M,3,02,12,14,25,29,30,31,,,,,,2.8,1.4,2.5*3F
Trace #99 at position 24.500000
$GPZDA,085110.04,09,10,2011,00,00*65
$GPRMC,085110.00,A,4611.967187,N,01258.223713,E,001.5,146.0,091011,0.2,E,A*39
$GPGGA,085111.00,4611.966880,N,01258.223863,E,1,07,1.4,140.62,M,46.25,M,,*6D
$GPGLL,4611.966880,N,01258.223863,E,085111.00,A,A*6E
$GPVTG,157.4,T,157.5,M,000.8,N,001.4,K,A*2F
$GPGSV,2,1,08,02,38,081,39,09,20,151,31,12,58,075,42,14,29,255,41*77
$GPGSV,2,2,08,25,75,330,48,29,50,222,44,30,32,289,41,31,24,313,40*71
$GPGSA,M,3,02,12,14,25,29,30,31,,,,,,2.8,1.4,2.5*3F
Trace #100 at position 24.750000
$GPZDA,085110.04,09,10,2011,00,00*65
$GPRMC,085110.00,A,4611.967187,N,01258.223713,E,001.5,146.0,091011,0.2,E,A*39
$GPGGA,085111.00,4611.966880,N,01258.223863,E,1,07,1.4,140.62,M,46.25,M,,*6D
$GPGLL,4611.966880,N,01258.223863,E,085111.00,A,A*6E
$GPVTG,157.4,T,157.5,M,000.8,N,001.4,K,A*2F
$GPGSV,2,1,08,02,38,081,39,09,20,151,31,12,58,075,42,14,29,255,41*77
$GPGSV,2,2,08,25,75,330,48,29,50,222,44,30,32,289,41,31,24,313,40*71
$GPGSA,M,3,02,12,14,25,29,30,31,,,,,,2.8,1.4,2.5*3F
Trace #101 at position 25.000000
$GPZDA,085110.04,09,10,2011,00,00*65
$GPRMC,085110.00,A,4611.967187,N,01258.223713,E,001.5,146.0,091011,0.2,E,A*39
$GPGGA,085111.00,4611.966880,N,01258.223863,E,1,07,1.4,140.62,M,46.25,M,,*6D
$GPGLL,4611.966880,N,01258.223863,E,085111.00,A,A*6E
$GPVTG,157.4,T,157.5,M,000.8,N,001.4,K,A*2F
$GPGSV,2,1,08,02,38,081,39,09,20,151,31,12,58,075,42,14,29,255,41*77
$GPGSV,2,2,08,25,75,330,48,29,50,222,44,30,32,289,41,31,24,313,40*71
$GPGSA,M,3,02,12,14,25,29,30,31,,,,,,2.8,1.4,2.5*3F
Trace #102 at position 25.250000
$GPZDA,085110.04,09,10,2011,00,00*65
$GPRMC,085110.00,A,4611.967187,N,01258.223713,E,001.5,146.0,091011,0.2,E,A*39
$GPGGA,085111.00,4611.966880,N,01258.223863,E,1,07,1.4,140.62,M,46.25,M,,*6D
$GPGLL,4611.966880,N,01258.223863,E,085111.00,A,A*6E
$GPVTG,157.4,T,157.5,M,000.8,N,001.4,K,A*2F
$GPGSV,2,1,08,02,38,081,39,09,20,151,31,12,58,075,42,14,29,255,41*77
$GPGSV,2,2,08,25,75,330,48,29,50,222,44,30,32,289,41,31,24,313,40*71
$GPGSA,M,3,02,12,14,25,29,30,31,,,,,,2.8,1.4,2.5*3F
Trace #103 at position 25.500000
$GPZDA,085110.04,09,10,2011,00,00*65
$GPRMC,085110.00,A,4611.967187,N,01258.223713,E,001.5,146.0,091011,0.2,E,A*39
$GPGGA,085111.00,4611.966880,N,01258.223863,E,1,07,1.4,140.62,M,46.25,M,,*6D
$GPGLL,4611.966880,N,01258.223863,E,085111.00,A,A*6E
$GPVTG,157.4,T,157.5,M,000.8,N,001.4,K,A*2F
$GPGSV,2,1,08,02,38,081,39,09,20,151,31,12,58,075,42,14,29,255,41*77
$GPGSV,2,2,08,25,75,330,48,29,50,222,44,30,32,289,41,31,24,313,40*71
$GPGSA,M,3,02,12,14,25,29,30,31,,,,,,2.8,1.4,2.5*3F
Trace #104 at position 25.750000
$GPZDA,085111.04,09,10,2011,00,00*64
$GPRMC,085111.00,A,4611.966880,N,01258.223863,E,000.8,157.4,091011,0.2,E,A*37
$GPGGA,085112.00,4611.966634,N,01258.223895,E,1,07,1.4,140.57,M,46.25,M,,*60
$GPGLL,4611.966634,N,01258.223895,E,085112.00,A,A*65
$GPVTG,165.0,T,165.1,M,000.8,N,001.5,K,A*2E
$GPGSV,2,1,08,02,38,081,40,09,20,151,28,12,58,075,42,14,29,255,41*71
$GPGSV,2,2,08,25,75,330,48,29,50,222,43,30,32,289,42,31,24,313,41*74
$GPGSA,M,3,02,12,14,25,29,30,31,,,,,,2.9,1.4,2.5*3E
Trace #105 at position 26.000000
$GPZDA,085111.04,09,10,2011,00,00*64
$GPRMC,085111.00,A,4611.966880,N,01258.223863,E,000.8,157.4,091011,0.2,E,A*37
$GPGGA,085112.00,4611.966634,N,01258.223895,E,1,07,1.4,140.57,M,46.25,M,,*60
$GPGLL,4611.966634,N,01258.223895,E,085112.00,A,A*65
$GPVTG,165.0,T,165.1,M,000.8,N,001.5,K,A*2E
$GPGSV,2,1,08,02,38,081,40,09,20,151,28,12,58,075,42,14,29,255,41*71
$GPGSV,2,2,08,25,75,330,48,29,50,222,43,30,32,289,42,31,24,313,41*74
$GPGSA,M,3,02,12,14,25,29,30,31,,,,,,2.9,1.4,2.5*3E
Trace #106 at position 26.250000
$GPZDA,085111.04,09,10,2011,00,00*64
$GPRMC,085111.00,A,4611.966880,N,01258.223863,E,000.8,157.4,091011,0.2,E,A*37
$GPGGA,085112.00,4611.966634,N,01258.223895,E,1,07,1.4,140.57,M,46.25,M,,*60
$GPGLL,4611.966634,N,01258.223895,E,085112.00,A,A*65
$GPVTG,165.0,T,165.1,M,000.8,N,001.5,K,A*2E
$GPGSV,2,1,08,02,38,081,40,09,20,151,28,12,58,075,42,14,29,255,41*71
$GPGSV,2,2,08,25,75,330,48,29,50,222,43,30,32,289,42,31,24,313,41*74
$GPGSA,M,3,02,12,14,25,29,30,31,,,,,,2.9,1.4,2.5*3E
Trace #107 at position 26.500000
$GPZDA,085111.04,09,10,2011,00,00*64
$GPRMC,085111.00,A,4611.966880,N,01258.223863,E,000.8,157.4,091011,0.2,E,A*37
$GPGGA,085112.00,4611.966634,N,01258.223895,E,1,07,1.4,140.57,M,46.25,M,,*60
$GPGLL,4611.966634,N,01258.223895,E,085112.00,A,A*65
$GPVTG,165.0,T,165.1,M,000.8,N,001.5,K,A*2E
$GPGSV,2,1,08,02,38,081,40,09,20,151,28,12,58,075,42,14,29,255,41*71
$GPGSV,2,2,08,25,75,330,48,29,50,222,43,30,32,289,42,31,24,313,41*74
$GPGSA,M,3,02,12,14,25,29,30,31,,,,,,2.9,1.4,2.5*3E
Trace #108 at position 26.750000
$GPZDA,085112.04,09,10,2011,00,00*67
$GPRMC,085112.00,A,4611.966634,N,01258.223895,E,000.8,165.0,091011,0.2,E,A*39
$GPGGA,085113.00,4611.966483,N,01258.223897,E,1,06,2.0,140.38,M,46.25,M,,*62
$GPGLL,4611.966483,N,01258.223897,E,085113.00,A,A*68
$GPVTG,279.7,T,279.8,M,000.2,N,000.4,K,A*2A
$GPGSV,2,1,08,02,38,081,35,09,20,151,,12,58,075,36,14,29,255,43*78
$GPGSV,2,2,08,25,75,330,47,29,50,222,45,30,32,289,41,31,24,313,43*7C
$GPGSA,M,3,12,14,25,29,30,31,,,,,,,4.1,2.0,3.6*37
Trace #109 at position 27.000000
$GPZDA,085112.04,09,10,2011,00,00*67
$GPRMC,085112.00,A,4611.966634,N,01258.223895,E,000.8,165.0,091011,0.2,E,A*39
$GPGGA,085113.00,4611.966483,N,01258.223897,E,1,06,2.0,140.38,M,46.25,M,,*62
$GPGLL,4611.966483,N,01258.223897,E,085113.00,A,A*68
$GPVTG,279.7,T,279.8,M,000.2,N,000.4,K,A*2A
$GPGSV,2,1,08,02,38,081,35,09,20,151,,12,58,075,36,14,29,255,43*78
$GPGSV,2,2,08,25,75,330,47,29,50,222,45,30,32,289,41,31,24,313,43*7C
$GPGSA,M,3,12,14,25,29,30,31,,,,,,,4.1,2.0,3.6*37
Trace #110 at position 27.250000
$GPZDA,085112.04,09,10,2011,00,00*67
$GPRMC,085112.00,A,4611.966634,N,01258.223895,E,000.8,165.0,091011,0.2,E,A*39
$GPGGA,085113.00,4611.966483,N,01258.223897,E,1,06,2.0,140.38,M,46.25,M,,*62
$GPGLL,4611.966483,N,01258.223897,E,085113.00,A,A*68
$GPVTG,279.7,T,279.8,M,000.2,N,000.4,K,A*2A
$GPGSV,2,1,08,02,38,081,35,09,20,151,,12,58,075,36,14,29,255,43*78
$GPGSV,2,2,08,25,75,330,47,29,50,222,45,30,32,289,41,31,24,313,43*7C
$GPGSA,M,3,12,14,25,29,30,31,,,,,,,4.1,2.0,3.6*37
Trace #111 at position 27.500000
$GPZDA,085112.04,09,10,2011,00,00*67
$GPRMC,085112.00,A,4611.966634,N,01258.223895,E,000.8,165.0,091011,0.2,E,A*39
$GPGGA,085113.00,4611.966483,N,01258.223897,E,1,06,2.0,140.38,M,46.25,M,,*62
$GPGLL,4611.966483,N,01258.223897,E,085113.00,A,A*68
$GPVTG,279.7,T,279.8,M,000.2,N,000.4,K,A*2A
$GPGSV,2,1,08,02,38,081,35,09,20,151,,12,58,075,36,14,29,255,43*78
$GPGSV,2,2,08,25,75,330,47,29,50,222,45,30,32,289,41,31,24,313,43*7C
$GPGSA,M,3,12,14,25,29,30,31,,,,,,,4.1,2.0,3.6*37
Trace #112 at position 27.750000
$GPZDA,085112.04,09,10,2011,00,00*67
$GPRMC,085112.00,A,4611.966634,N,01258.223895,E,000.8,165.0,091011,0.2,E,A*39
$GPGGA,085113.00,4611.966483,N,01258.223897,E,1,06,2.0,140.38,M,46.25,M,,*62
$GPGLL,4611.966483,N,01258.223897,E,085113.00,A,A*68
$GPVTG,279.7,T,279.8,M,000.2,N,000.4,K,A*2A
$GPGSV,2,1,08,02,38,081,35,09,20,151,,12,58,075,36,14,29,255,43*78
$GPGSV,2,2,08,25,75,330,47,29,50,222,45,30,32,289,41,31,24,313,43*7C
$GPGSA,M,3,12,14,25,29,30,31,,,,,,,4.1,2.0,3.6*37
Trace #113 at position 28.000000
$GPZDA,085113.04,09,10,2011,00,00*66
$GPRMC,085113.00,A,4611.966483,N,01258.223897,E,000.2,279.7,091011,0.2,E,A*37
$GPGGA,085114.00,4611.966459,N,01258.223282,E,1,05,5.8,141.20,M,46.25,M,,*68
$GPGLL,4611.966459,N,01258.223282,E,085114.00,A,A*66
$GPVTG,187.7,T,187.8,M,000.4,N,000.8,K,A*20
$GPGSV,2,1,08,02,38,081,35,09,20,151,29,12,58,075,31,14,29,255,43*74
$GPGSV,2,2,08,25,75,330,46,29,50,222,44,30,32,289,39,31,24,313,41*71
$GPGSA,M,3,14,25,29,30,31,,,,,,,,9.5,5.8,7.6*36
