Trace #1 at position 0.000000
$GPZDA,084104.04,09,10,2011,00,00*61
$GPRMC,084104.00,A,4611.954118,N,01258.227751,E,000.0,144.4,091011,0.2,E,A*3B
$GPGGA,084105.00,4611.954121,N,01258.227757,E,1,06,1.5,139.57,M,46.25,M,,*6E
$GPGLL00.0,K,A*2A
$GPGSV,3,1,09,02,38,086,43,04,16,042,42,09,25,149,43,12,62,068,43*7A
$GPGSV,3,2,09,14,32,259,34,25,72,317,41,29,45,219,48,30,28,287,37*72
$GPGSV,3,3,09,31,20,314,,,,,,,,,,,,,*46
$GPGSA,M,3,02,04,09,12,25,29,,,,,,,2.6,1.5,2.1*3D
Trace #2 at position 0.250000
$GPZDA,084105.04,09,10,2011,00,00*60
$GPRMC,084105.00,A,4611.954121,N,01258.227757,E,000.0,299.9,091011,0.2,E,A*38
$GPGGA,084106.00,4611.954123,N,01258.227764,E,1,06,1.5,139.56,M,46.25,M,,*6E
$GPGLL,4611.954123,N,01258.227764,E,084106.00,A,A*64
$GPVTG,142.9,T,1433,09,31,20,314,,,,,,,,,,,,,*46
$GPGSA,M,3,02,04,09,12,25,29,,,,,,,2.6,1.5,2.1*3D
Trace #3 at position 0.500000
$GPZDA,084106.04,09,10,2011,00,00*63
$GPRMC,084106.00,A,4611.954123,N,01258.227764,E,000.0,142.9,091011,0.2,E,A*3C
$GPGGA,084107.00,4611.954116,N,01258.227764,E,1,06,1.5,139.55,M,46.25,M,,*6A
$GPGLL,4611.954116,N,01258.227764,E,084107.00,A,A*63
$GPVTG,220.9,T,221.1,M,000.1,N,000.1,K,A*2A
$GPGSV,3,1,09,02,38,086,43,04,16,042,42,09,25,150,43,12,62,069,43*73
$GPGSV,3,2,09,14,32,259,34,25,72,317,42,29,45,219,45,30,28,287,344,09,10,2011,00,00*62
$GPRMC,084107.00,A,4611.954116,N,01258.227764,E,000.1,220.9,091011,0.2,E,A*3D
$GPGGA,084108.00,4611.954116,N,01258.227755,E,1,06,1.5,139.53,M,46.25,M,,*61
$GPGLL,4611.954116,N,01258.227755,E,084108.00,A,A*6E
$GPVTG,295.7,T,295.8,M,000.1,N,000.1,K,A*2C
$GPGSV,3,1,09,02,38,086,43,04,16,042,43,09,25,150,44,12,62,069,44*72
$GPGSV,3,2,09,14,32,259,35,25,72,317,42,29,45,219,48,30,28,287,36*71
$GPGSV,3,3,09,31,20,314,,,,,,,,,,,,,*46
$GPGSA,M,3,02,04,09,12,25,29,,,,,,,2.6,1.5,2.1*3D
Trace #4 at position 0.750000
$116,N,01258.227755,E,000.1,295.7,091011,0.2,E,A*30
$GPGGA,084109.00,4611.954116,N,01258.227767,E,1,07,1.1,139.61,M,46.25,M,,*65
$GPGLL,4611.954116,N,01258.227767,E,084109.00,A,A*6E
$GPVTG,271.5,T,271.6,M,000.1,N,000.2,K,A*23
$GPGSV,3,1,09,02,38,086,45,04,16,042,43,09,25,150,42,12,62,069,43*75
$GPGSV,3,2,09,14,32,259,40,25,72,317,43,29,45,219,47,30,28,287,38*73
$GPGSV,3,3,09,31,20,314,,,,,,,,,,,,,*46
$GPGSA,M,3,02,04,09,12,14,25,29,,,,,,2.1,1.1,1.8*31
Trace #5 at position 1.000000
$116,N,01258.227755,E,000.1,295.7,091011,0.2,E,A*30
$GPGGA,084109.00,4611.954116,N,01258.227767,E,1,07,1.1,139.61,M,46.25,M,,*65
$GPGLL,4611.954116,N,01258.227767,E,084109.00,A,A*6E
$GPVTG,271.5,T,271.6,M,000.1,N,000.2,K,A*23
$GPGSV,3,1,09,02,38,086,45,04,16,042,43,09,25,150,42,12,62,069,43*75
$GPGSV,3,2,09,14,32,259,40,25,72,317,43,29,45,219,47,30,28,287,38*73
$GPGSV,3,3,09,31,20,314,,,,,,,,,,,,,*46
$GPGSA,M,3,02,04,09,12,14,25,29,,,,,,2.1,1.1,1.8*31
Trace #6 at position 1.250000
$GPZDA,084109.04,09,10,2011,00,00*6C
$GPRMC,0841$GPGGA,084110.00,4611.954113,N,01258.227786,E,1,07,1.1,139.69,M,46.25,M,,*6F
$GPGLL,4611.954113,N,01258.227786,E,084110.00,A,A*6C
$GPVTG,283.1,T,283.3,M,000.0,N,000.0,K,A*21
$GPGSV,3,1,09,02,38,086,44,04,16,042,43,09,25,150,43,12,62,069,44*72
$GPGSV,3,2,09,14,32,259,40,25,72,317,43,29,45,219,48,30,28,287,39*7D
$GPGSV,3,3,09,31,20,314,,,,,,,,,,,,,*46
$GPGSA,M,3,02,04,09,12,14,25,29,,,,,,2.1,1.1,1.8*31
Trace #7 at position 1.500000
$GPZDA,084109.04,09,10,2011,00,00*6C
$GPRMC,0841$GPGGA,084110.00,4611.954113,N,01258.227786,E,1,07,1.1,139.69,M,46.25,M,,*6F
$GPGLL,4611.954113,N,01258.227786,E,084110.00,A,A*6C
$GPVTG,283.1,T,283.3,M,000.0,N,000.0,K,A*21
$GPGSV,3,1,09,02,38,086,44,04,16,042,43,09,25,150,43,12,62,069,44*72
$GPGSV,3,2,09,14,32,259,40,25,72,317,43,29,45,219,48,30,28,287,39*7D
$GPGSV,3,3,09,31,20,314,,,,,,,,,,,,,*46
$GPGSA,M,3,02,04,09,12,14,25,29,,,,,,2.1,1.1,1.8*31
Trace #8 at position 1.750000
$GPZDA,084109.04,09,10,2011,00,00*6C
$GPRMC,0841$GPGGA,084110.00,4611.954113,N,01258.227786,E,1,07,1.1,139.69,M,46.25,M,,*6F
$GPGLL,4611.954113,N,01258.227786,E,084110.00,A,A*6C
$GPVTG,283.1,T,283.3,M,000.0,N,000.0,K,A*21
$GPGSV,3,1,09,02,38,086,44,04,16,042,43,09,25,150,43,12,62,069,44*72
$GPGSV,3,2,09,14,32,259,40,25,72,317,43,29,45,219,48,30,28,287,39*7D
$GPGSV,3,3,09,31,20,314,,,,,,,,,,,,,*46
$GPGSA,M,3,02,04,09,12,14,25,29,,,,,,2.1,1.1,1.8*31
Trace #9 at position 2.000000
$GPZDA,084110.04,09,10,2011,00,00*64
$GPRMC,084110.00,A,4611.954113,N,01258.227786,E,000.0,283.1,091$GPGGA,084111.00,4611.954107,N,01258.227818,E,1,07,1.1,139.72,M,46.25,M,,*69
$GPGLL,4611.954107,N,01258.227818,E,084111.00,A,A*60
$GPVTG,200.5,T,200.7,M,000.0,N,000.0,K,A*21
$GPGSV,3,1,09,02,38,086,44,04,16,042,43,09,25,150,42,12,62,069,43*74
$GPGSV,3,2,09,14,32,259,39,25,72,317,43,29,45,219,47,30,28,287,39*7C
$GPGSV,3,3,09,31,20,314,,,,,,,,,,,,,*46
$GPGSA,M,3,02,04,09,12,14,25,29,,,,,,2.1,1.1,1.8*31
Trace #10 at position 2.250000
$GPZDA,084110.04,09,10,2011,00,00*64
$GPRMC,084110.00,A,4611.954113,N,01258.227786,E,000.0,283.1,091$GPGGA,084111.00,4611.954107,N,01258.227818,E,1,07,1.1,139.72,M,46.25,M,,*69
$GPGLL,4611.954107,N,01258.227818,E,084111.00,A,A*60
$GPVTG,200.5,T,200.7,M,000.0,N,000.0,K,A*21
$GPGSV,3,1,09,02,38,086,44,04,16,042,43,09,25,150,42,12,62,069,43*74
$GPGSV,3,2,09,14,32,259,39,25,72,317,43,29,45,219,47,30,28,287,39*7C
$GPGSV,3,3,09,31,20,314,,,,,,,,,,,,,*46
$GPGSA,M,3,02,04,09,12,14,25,29,,,,,,2.1,1.1,1.8*31
Trace #11 at position 2.500000
$GPZDA,084110.04,09,10,2011,00,00*64
$GPRMC,084110.00,A,4611.954113,N,01258.227786,E,000.0,283.1,091$GPGGA,084111.00,4611.954107,N,01258.227818,E,1,07,1.1,139.72,M,46.25,M,,*69
$GPGLL,4611.954107,N,01258.227818,E,084111.00,A,A*60
$GPVTG,200.5,T,200.7,M,000.0,N,000.0,K,A*21
$GPGSV,3,1,09,02,38,086,44,04,16,042,43,09,25,150,42,12,62,069,43*74
$GPGSV,3,2,09,14,32,259,39,25,72,317,43,29,45,219,47,30,28,287,39*7C
$GPGSV,3,3,09,31,20,314,,,,,,,,,,,,,*46
$GPGSA,M,3,02,04,09,12,14,25,29,,,,,,2.1,1.1,1.8*31
Trace #12 at position 2.750000
$GPZDA,084111.04,09,10,2011,00,00*65
$GPRMC,084111.00,A,4611.954107,N,01258.227818,E,000.0,200.5,091$GPGGA,084112.00,4611.954116,N,01258.227829,E,1,08,1.0,139.71,M,46.25,M,,*65
$GPGLL,4611.954116,N,01258.227829,E,084112.00,A,A*61
$GPVTG,1.2,T,1.3,M,000.0,N,000.0,K,A*22
$GPGSV,3,1,09,02,38,086,45,04,16,042,43,09,25,150,43,12,62,069,44*73
$GPGSV,3,2,09,14,32,259,39,25,72,317,43,29,46,219,47,30,28,287,40*71
$GPGSV,3,3,09,31,20,314,,,,,,,,,,,,,*46
$GPGSA,M,3,02,04,09,12,14,25,29,30,,,,,1.9,1.0,1.7*37
Trace #13 at position 3.000000
$GPZDA,084111.04,09,10,2011,00,00*65
$GPRMC,084111.00,A,4611.954107,N,01258.227818,E,000.0,200.5,091$GPGGA,084112.00,4611.954116,N,01258.227829,E,1,08,1.0,139.71,M,46.25,M,,*65
$GPGLL,4611.954116,N,01258.227829,E,084112.00,A,A*61
$GPVTG,1.2,T,1.3,M,000.0,N,000.0,K,A*22
$GPGSV,3,1,09,02,38,086,45,04,16,042,43,09,25,150,43,12,62,069,44*73
$GPGSV,3,2,09,14,32,259,39,25,72,317,43,29,46,219,47,30,28,287,40*71
$GPGSV,3,3,09,31,20,314,,,,,,,,,,,,,*46
$GPGSA,M,3,02,04,09,12,14,25,29,30,,,,,1.9,1.0,1.7*37
Trace #14 at position 3.250000
$GPZDA,084111.04,09,10,2011,00,00*65
$GPRMC,084111.00,A,4611.954107,N,01258.227818,E,000.0,200.5,091$GPGGA,084112.00,4611.954116,N,01258.227829,E,1,08,1.0,139.71,M,46.25,M,,*65
$GPGLL,4611.954116,N,01258.227829,E,084112.00,A,A*61
$GPVTG,1.2,T,1.3,M,000.0,N,000.0,K,A*22
$GPGSV,3,1,09,02,38,086,45,04,16,042,43,09,25,150,43,12,62,069,44*73
$GPGSV,3,2,09,14,32,259,39,25,72,317,43,29,46,219,47,30,28,287,40*71
$GPGSV,3,3,09,31,20,314,,,,,,,,,,,,,*46
$GPGSA,M,3,02,04,09,12,14,25,29,30,,,,,1.9,1.0,1.7*37
Trace #15 at position 3.500000
$GPZDA,084112.04,09,10,2011,00,00*66
$GPRMC,084112.00,A,4611.954116,N,01258.227829,E,000.0,1.2,091011,$GPGGA,084113.00,4611.954138,N,01258.227839,E,1,08,1.0,139.68,M,46.25,M,,*61
$GPGLL,4611.954138,N,01258.227839,E,084113.00,A,A*6D
$GPVTG,356.0,T,356.2,M,000.1,N,000.2,K,A*22
$GPGSV,3,1,09,02,38,086,45,04,16,042,43,09,25,150,42,12,62,069,43*75
$GPGSV,3,2,09,14,32,259,39,25,72,317,43,29,46,219,47,30,28,287,39*7F
$GPGSV,3,3,09,31,20,314,,,,,,,,,,,,,*46
$GPGSA,M,3,02,04,09,12,14,25,29,30,,,,,1.9,1.0,1.7*37
Trace #16 at position 3.750000
$GPZDA,084112.04,09,10,2011,00,00*66
$GPRMC,084112.00,A,4611.954116,N,01258.227829,E,000.0,1.2,091011,$GPGGA,084113.00,4611.954138,N,01258.227839,E,1,08,1.0,139.68,M,46.25,M,,*61
$GPGLL,4611.954138,N,01258.227839,E,084113.00,A,A*6D
$GPVTG,356.0,T,356.2,M,000.1,N,000.2,K,A*22
$GPGSV,3,1,09,02,38,086,45,04,16,042,43,09,25,150,42,12,62,069,43*75
$GPGSV,3,2,09,14,32,259,39,25,72,317,43,29,46,219,47,30,28,287,39*7F
$GPGSV,3,3,09,31,20,314,,,,,,,,,,,,,*46
$GPGSA,M,3,02,04,09,12,14,25,29,30,,,,,1.9,1.0,1.7*37
Trace #17 at position 4.000000
$GPZDA,084113.04,09,10,2011,00,00*67
$GPRMC,084113.00,A,4611.954138,N,01258.227839,E,000.1,356.0,046.25,M,,*6F
$GPGLL,4611.954274,N,01258.227808,E,084114.00,A,A*63
$GPVTG,348.2,T,348.3,M,000.9,N,001.6,K,A*2C
$GPGSV,3,1,09,02,38,086,46,04,16,042,42,09,25,150,41,12,62,069,41*76
$GPGSV,3,2,09,14,32,259,40,25,72,317,45,29,46,219,46,30,28,287,37*78
$GPGSV,3,3,09,31,20,314,,,,,,,,,,,,,*46
$GPGSA,M,3,02,04,09,12,14,25,29,30,,,,,1.9,1.0,1.7*37
Trace #18 at position 4.250000
$GPZDA,084113.04,09,10,2011,00,00*67
$GPRMC,084113.00,A,4611.954138,N,01258.227839,E,000.1,356.0,046.25,M,,*6F
$GPGLL,4611.954274,N,01258.227808,E,084114.00,A,A*63
$GPVTG,348.2,T,348.3,M,000.9,N,001.6,K,A*2C
$GPGSV,3,1,09,02,38,086,46,04,16,042,42,09,25,150,41,12,62,069,41*76
$GPGSV,3,2,09,14,32,259,40,25,72,317,45,29,46,219,46,30,28,287,37*78
$GPGSV,3,3,09,31,20,314,,,,,,,,,,,,,*46
$GPGSA,M,3,02,04,09,12,14,25,29,30,,,,,1.9,1.0,1.7*37
Trace #19 at position 4.500000
$GPZDA,084114.04,09,10,2011,00,00*60
$GPRMC,084114.00,A,4611.954274,N,01258.227808,E,000.9,348.2,091011,0.2,E,A*31
$GPGGA,084115.00,4611.954497,N,01258.227750,E,A*6B
$GPVTG,344.8,T,345.0,M,000.9,N,001.6,K,A*24
$GPGSV,3,1,09,02,38,086,45,04,16,042,42,09,25,150,41,12,62,069,42*76
$GPGSV,3,2,09,14,32,259,39,25,72,317,44,29,46,219,46,30,28,287,33*73
$GPGSV,3,3,09,31,20,314,,,,,,,,,,,,,*46
$GPGSA,M,3,02,04,09,12,14,25,29,,,,,,2.1,1.1,1.8*31
Trace #20 at position 4.750000
$GPZDA,084114.04,09,10,2011,00,00*60
$GPRMC,084114.00,A,4611.954274,N,01258.227808,E,000.9,348.2,091011,0.2,E,A*31
$GPGGA,084115.00,4611.954497,N,01258.227750,E,A*6B
$GPVTG,344.8,T,345.0,M,000.9,N,001.6,K,A*24
$GPGSV,3,1,09,02,38,086,45,04,16,042,42,09,25,150,41,12,62,069,42*76
$GPGSV,3,2,09,14,32,259,39,25,72,317,44,29,46,219,46,30,28,287,33*73
$GPGSV,3,3,09,31,20,314,,,,,,,,,,,,,*46
$GPGSA,M,3,02,04,09,12,14,25,29,,,,,,2.1,1.1,1.8*31
Trace #21 at position 5.000000
$GPZDA,084114.04,09,10,2011,00,00*60
$GPRMC,084114.00,A,4611.954274,N,01258.227808,E,000.9,348.2,091011,0.2,E,A*31
$GPGGA,084115.00,4611.954497,N,01258.227750,E,A*6B
$GPVTG,344.8,T,345.0,M,000.9,N,001.6,K,A*24
$GPGSV,3,1,09,02,38,086,45,04,16,042,42,09,25,150,41,12,62,069,42*76
$GPGSV,3,2,09,14,32,259,39,25,72,317,44,29,46,219,46,30,28,287,33*73
$GPGSV,3,3,09,31,20,314,,,,,,,,,,,,,*46
$GPGSA,M,3,02,04,09,12,14,25,29,,,,,,2.1,1.1,1.8*31
Trace #22 at position 5.250000
$GPZDA,084114.04,09,10,2011,00,00*60
$GPRMC,084114.00,A,4611.954274,N,01258.227808,E,000.9,348.2,091011,0.2,E,A*31
$GPGGA,084115.00,4611.954497,N,01258.227750,E,A*6B
$GPVTG,344.8,T,345.0,M,000.9,N,001.6,K,A*24
$GPGSV,3,1,09,02,38,086,45,04,16,042,42,09,25,150,41,12,62,069,42*76
$GPGSV,3,2,09,14,32,259,39,25,72,317,44,29,46,219,46,30,28,287,33*73
$GPGSV,3,3,09,31,20,314,,,,,,,,,,,,,*46
$GPGSA,M,3,02,04,09,12,14,25,29,,,,,,2.1,1.1,1.8*31
Trace #23 at position 5.500000
$GPZDA,084114.04,09,10,2011,00,00*60
$GPRMC,084114.00,A,4611.954274,N,01258.227808,E,000.9,348.2,091011,0.2,E,A*31
$GPGGA,084115.00,4611.954497,N,01258.227750,E,A*6B
$GPVTG,344.8,T,345.0,M,000.9,N,001.6,K,A*24
$GPGSV,3,1,09,02,38,086,45,04,16,042,42,09,25,150,41,12,62,069,42*76
$GPGSV,3,2,09,14,32,259,39,25,72,317,44,29,46,219,46,30,28,287,33*73
$GPGSV,3,3,09,31,20,314,,,,,,,,,,,,,*46
$GPGSA,M,3,02,04,09,12,14,25,29,,,,,,2.1,1.1,1.8*31
Trace #24 at position 5.750000
$GPZDA,084115.04,09,10,2011,00,00*61
$GPRMC,084115.00,A,4611.954497,N,01258.227750,E,000.9,344.8,091011,0.2,E,A*3F
$GPGGA,084116.00,4611.954728,N,01258.227622,E,1,07,1.1,139.82,M,46.25,M,,*6D
$GPGLL,4611.954728,N,01258.22762ZDA,084116.04,09,10,2011,00,00*62
$GPRMC,084116.00,A,4611.954728,N,01258.227622,E,001.0,328.3,091011,0.2,E,A*36
$GPGGA,084117.00,4611.954999,N,01258.227448,E,1,07,1.1,139.80,M,46.25,M,,*64
$GPGLL,4611.954999,N,01258.227448,E,084117.00,A,A*60
$GPVTG,337.3,T,337.5,M,001.3,N,002.3,K,A*26
$GPGSV,3,1,09,02,38,086,44,04,16,042,44,09,25,150,40,12,62,069,45*77
$GPGSV,3,2,09,14,32,259,38,25,72,317,43,29,46,219,47,30,28,287,34*73
$GPGSV,3,3,09,31,20,314,,,,,,,,,,,,,*46
$GPGSA,M,3,02,04,09,12,14,25,29,,,,,,2.19,N,01258.227448,E,001.3,337.3,091011,0.2,E,A*30
Trace #25 at position 6.000000
$GPZDA,084115.04,09,10,2011,00,00*61
$GPRMC,084115.00,A,4611.954497,N,01258.227750,E,000.9,344.8,091011,0.2,E,A*3F
$GPGGA,084116.00,4611.954728,N,01258.227622,E,1,07,1.1,139.82,M,46.25,M,,*6D
$GPGLL,4611.954728,N,01258.22762ZDA,084116.04,09,10,2011,00,00*62
$GPRMC,084116.00,A,4611.954728,N,01258.227622,E,001.0,328.3,091011,0.2,E,A*36
$GPGGA,084117.00,4611.954999,N,01258.227448,E,1,07,1.1,139.80,M,46.25,M,,*64
$GPGLL,4611.954999,N,01258.227448,E,084117.00,A,A*60
$GPVTG,337.3,T,337.5,M,001.3,N,002.3,K,A*26
$GPGSV,3,1,09,02,38,086,44,04,16,042,44,09,25,150,40,12,62,069,45*77
$GPGSV,3,2,09,14,32,259,38,25,72,317,43,29,46,219,47,30,28,287,34*73
$GPGSV,3,3,09,31,20,314,,,,,,,,,,,,,*46
$GPGSA,M,3,02,04,09,12,14,25,29,,,,,,2.19,N,01258.227448,E,001.3,337.3,091011,0.2,E,A*30
Trace #26 at position 6.250000
$GPGGA,084118.00,4611.955344,N,01258.227335,E,1,07,1.1,139.77,M,46.25,M,,*65
$GPGLL,4611.955344,N,01258.227335,E,084118.00,A,A*69
$GPVTG,349.8,T,350.0,M,001.4,N,002.6,K,A*22
$GPGSV,3,1,09,02,38,086,46,04,16,042,43,09,25,150,41,12,62,069,45*73
$GPGSV,3,2,09,14,32,259,39,25,72,318,41,29,46,219,47,30,28,287,32*79
$GPGSV,3,3,09,31,20,314,,,,,,,,,,,,,*46
$GPGSA,M,3,02,04,09,12,14,25,29,,,,,,2.1,1.1,1.8*31
Trace #27 at position 6.500000
$GPGGA,084118.00,4611.955344,N,01258.227335,E,1,07,1.1,139.77,M,46.25,M,,*65
$GPGLL,4611.955344,N,01258.227335,E,084118.00,A,A*69
$GPVTG,349.8,T,350.0,M,001.4,N,002.6,K,A*22
$GPGSV,3,1,09,02,38,086,46,04,16,042,43,09,25,150,41,12,62,069,45*73
$GPGSV,3,2,09,14,32,259,39,25,72,318,41,29,46,219,47,30,28,287,32*79
$GPGSV,3,3,09,31,20,314,,,,,,,,,,,,,*46
$GPGSA,M,3,02,04,09,12,14,25,29,,,,,,2.1,1.1,1.8*31
Trace #28 at position 6.750000
$GPGGA,084118.00,4611.955344,N,01258.227335,E,1,07,1.1,139.77,M,46.25,M,,*65
$GPGLL,4611.955344,N,01258.227335,E,084118.00,A,A*69
$GPVTG,349.8,T,350.0,M,001.4,N,002.6,K,A*22
$GPGSV,3,1,09,02,38,086,46,04,16,042,43,09,25,150,41,12,62,069,45*73
$GPGSV,3,2,09,14,32,259,39,25,72,318,41,29,46,219,47,30,28,287,32*79
$GPGSV,3,3,09,31,20,314,,,,,,,,,,,,,*46
$GPGSA,M,3,02,04,09,12,14,25,29,,,,,,2.1,1.1,1.8*31
Trace #29 at position 7.000000
$GPGGA,084118.00,4611.955344,N,01258.227335,E,1,07,1.1,139.77,M,46.25,M,,*65
$GPGLL,4611.955344,N,01258.227335,E,084118.00,A,A*69
$GPVTG,349.8,T,350.0,M,001.4,N,002.6,K,A*22
$GPGSV,3,1,09,02,38,086,46,04,16,042,43,09,25,150,41,12,62,069,45*73
$GPGSV,3,2,09,14,32,259,39,25,72,318,41,29,46,219,47,30,28,287,32*79
$GPGSV,3,3,09,31,20,314,,,,,,,,,,,,,*46
$GPGSA,M,3,02,04,09,12,14,25,29,,,,,,2.1,1.1,1.8*31
Trace #30 at position 7.250000
$GPZDA,084118.04,09,10,2011,00,00*6C
$GPRMC,084118$GPGGA,084119.00,4611.955711,N,01258.227356,E,1,07,1.1,139.75,M,46.25,M,,*67
$GPGLL,4611.955711,N,01258.227356,E,084119.00,A,A*69
$GPVTG,12.2,T,12.4,M,001.4,N,002.6,K,A*24
$GPGSV,3,1,09,02,38,086,45,04,16,042,44,09,25,150,43,12,62,069,43*73
$GPGSV,3,2,09,14,32,259,40,25,72,318,44,29,46,219,47,30,28,287,33*73
$GPGSV,3,3,09,31,20,314,,,,,,,,,,,,,*46
$GPGSA,M,3,02,04,09,12,14,25,29,,,,,,2.1,1.1,1.8*31
Trace #31 at position 7.500000
$GPZDA,084118.04,09,10,2011,00,00*6C
$GPRMC,084118$GPGGA,084119.00,4611.955711,N,01258.227356,E,1,07,1.1,139.75,M,46.25,M,,*67
$GPGLL,4611.955711,N,01258.227356,E,084119.00,A,A*69
$GPVTG,12.2,T,12.4,M,001.4,N,002.6,K,A*24
$GPGSV,3,1,09,02,38,086,45,04,16,042,44,09,25,150,43,12,62,069,43*73
$GPGSV,3,2,09,14,32,259,40,25,72,318,44,29,46,219,47,30,28,287,33*73
$GPGSV,3,3,09,31,20,314,,,,,,,,,,,,,*46
$GPGSA,M,3,02,04,09,12,14,25,29,,,,,,2.1,1.1,1.8*31
Trace #32 at position 7.750000
$GPZDA,084118.04,09,10,2011,00,00*6C
$GPRMC,084118$GPGGA,084119.00,4611.955711,N,01258.227356,E,1,07,1.1,139.75,M,46.25,M,,*67
$GPGLL,4611.955711,N,01258.227356,E,084119.00,A,A*69
$GPVTG,12.2,T,12.4,M,001.4,N,002.6,K,A*24
$GPGSV,3,1,09,02,38,086,45,04,16,042,44,09,25,150,43,12,62,069,43*73
$GPGSV,3,2,09,14,32,259,40,25,72,318,44,29,46,219,47,30,28,287,33*73
$GPGSV,3,3,09,31,20,314,,,,,,,,,,,,,*46
$GPGSA,M,3,02,04,09,12,14,25,29,,,,,,2.1,1.1,1.8*31
Trace #33 at position 8.000000
$GPZDA,084119.04,09,10,2011,00,00*6D
$GPRMC,084119.00,A,4611.955711,N,01258.227356,E,001.4,12.2,091011$GPGGA,084120.00,4611.956052,N,01258.227249,E,1,07,1.1,139.72,M,46.25,M,,*66
$GPGLL,4611.956052,N,01258.227249,E,084120.00,A,A*6F
$GPVTG,325.7,T,325.9,M,001.5,N,002.8,K,A*23
$GPGSV,3,1,09,02,38,086,45,04,16,042,42,09,25,150,44,12,62,069,43*72
$GPGSV,3,2,09,14,32,259,40,25,72,318,44,29,46,219,48,30,28,287,31*7E
$GPGSV,3,3,09,31,20,314,,,,,,,,,,,,,*46
$GPGSA,M,3,02,04,09,12,14,25,29,,,,,,2.1,1.1,1.8*31
Trace #34 at position 8.250000
$GPZDA,084119.04,09,10,2011,00,00*6D
$GPRMC,084119.00,A,4611.955711,N,01258.227356,E,001.4,12.2,091011$GPGGA,084120.00,4611.956052,N,01258.227249,E,1,07,1.1,139.72,M,46.25,M,,*66
$GPGLL,4611.956052,N,01258.227249,E,084120.00,A,A*6F
$GPVTG,325.7,T,325.9,M,001.5,N,002.8,K,A*23
$GPGSV,3,1,09,02,38,086,45,04,16,042,42,09,25,150,44,12,62,069,43*72
$GPGSV,3,2,09,14,32,259,40,25,72,318,44,29,46,219,48,30,28,287,31*7E
$GPGSV,3,3,09,31,20,314,,,,,,,,,,,,,*46
$GPGSA,M,3,02,04,09,12,14,25,29,,,,,,2.1,1.1,1.8*31
Trace #35 at position 8.500000
$GPZDA,084119.04,09,10,2011,00,00*6D
$GPRMC,084119.00,A,4611.955711,N,01258.227356,E,001.4,12.2,091011$GPGGA,084120.00,4611.956052,N,01258.227249,E,1,07,1.1,139.72,M,46.25,M,,*66
$GPGLL,4611.956052,N,01258.227249,E,084120.00,A,A*6F
$GPVTG,325.7,T,325.9,M,001.5,N,002.8,K,A*23
$GPGSV,3,1,09,02,38,086,45,04,16,042,42,09,25,150,44,12,62,069,43*72
$GPGSV,3,2,09,14,32,259,40,25,72,318,44,29,46,219,48,30,28,287,31*7E
$GPGSV,3,3,09,31,20,314,,,,,,,,,,,,,*46
$GPGSA,M,3,02,04,09,12,14,25,29,,,,,,2.1,1.1,1.8*31
Trace #36 at position 8.750000
$GPZDA,084120.04,09,10,2011,00,00*67
$GPRMC,084120.00,A,4611.956052,N,01258.227249,E,001.5,325.7,091$GPGGA,084121.00,4611.956402,N,01258.227026,E,1,07,1.1,139.70,M,46.25,M,,*6F
$GPGLL,4611.956402,N,01258.227026,E,084121.00,A,A*64
$GPVTG,347.6,T,347.8,M,001.5,N,002.7,K,A*2C
$GPGSV,3,1,09,02,38,086,45,04,16,042,42,09,25,150,43,12,62,069,44*72
$GPGSV,3,2,09,14,32,259,40,25,72,318,43,29,46,219,47,30,28,287,35*72
$GPGSV,3,3,09,31,20,314,,,,,,,,,,,,,*46
$GPGSA,M,3,02,04,09,12,14,25,29,,,,,,2.1,1.1,1.8*31
Trace #37 at position 9.000000
$GPZDA,084120.04,09,10,2011,00,00*67
$GPRMC,084120.00,A,4611.956052,N,01258.227249,E,001.5,325.7,091$GPGGA,084121.00,4611.956402,N,01258.227026,E,1,07,1.1,139.70,M,46.25,M,,*6F
$GPGLL,4611.956402,N,01258.227026,E,084121.00,A,A*64
$GPVTG,347.6,T,347.8,M,001.5,N,002.7,K,A*2C
$GPGSV,3,1,09,02,38,086,45,04,16,042,42,09,25,150,43,12,62,069,44*72
$GPGSV,3,2,09,14,32,259,40,25,72,318,43,29,46,219,47,30,28,287,35*72
$GPGSV,3,3,09,31,20,314,,,,,,,,,,,,,*46
$GPGSA,M,3,02,04,09,12,14,25,29,,,,,,2.1,1.1,1.8*31
Trace #38 at position 9.250000
$GPZDA,084120.04,09,10,2011,00,00*67
$GPRMC,084120.00,A,4611.956052,N,01258.227249,E,001.5,325.7,091$GPGGA,084121.00,4611.956402,N,01258.227026,E,1,07,1.1,139.70,M,46.25,M,,*6F
$GPGLL,4611.956402,N,01258.227026,E,084121.00,A,A*64
$GPVTG,347.6,T,347.8,M,001.5,N,002.7,K,A*2C
$GPGSV,3,1,09,02,38,086,45,04,16,042,42,09,25,150,43,12,62,069,44*72
$GPGSV,3,2,09,14,32,259,40,25,72,318,43,29,46,219,47,30,28,287,35*72
$GPGSV,3,3,09,31,20,314,,,,,,,,,,,,,*46
$GPGSA,M,3,02,04,09,12,14,25,29,,,,,,2.1,1.1,1.8*31
Trace #39 at position 9.500000
$GPZDA,084120.04,09,10,2011,00,00*67
$GPRMC,084120.00,A,4611.956052,N,01258.227249,E,001.5,325.7,091$GPGGA,084121.00,4611.956402,N,01258.227026,E,1,07,1.1,139.70,M,46.25,M,,*6F
$GPGLL,4611.956402,N,01258.227026,E,084121.00,A,A*64
$GPVTG,347.6,T,347.8,M,001.5,N,002.7,K,A*2C
$GPGSV,3,1,09,02,38,086,45,04,16,042,42,09,25,150,43,12,62,069,44*72
$GPGSV,3,2,09,14,32,259,40,25,72,318,43,29,46,219,47,30,28,287,35*72
$GPGSV,3,3,09,31,20,314,,,,,,,,,,,,,*46
$GPGSA,M,3,02,04,09,12,14,25,29,,,,,,2.1,1.1,1.8*31
Trace #40 at position 9.750000
$GPZDA,084121.04,09,10,2011,00,00*66
$GPRMC,084121.00,A,4611.956402,N,01258.227026,E,001.5,347.6,091$GPGGA,084122.00,4611.956774,N,01258.226919,E,1,07,1.1,139.69,M,46.25,M,,*62
$GPGLL,4611.956774,N,01258.226919,E,084122.00,A,A*61
$GPVTG,350.2,T,350.3,M,001.4,N,002.7,K,A*22
$GPGSV,3,1,09,02,38,086,45,04,16,042,43,09,25,150,42,12,62,069,43*75
$GPGSV,3,2,09,14,32,259,38,25,72,318,46,29,46,219,46,30,28,287,37*7B
$GPGSV,3,3,09,31,20,314,,,,,,,,,,,,,*46
$GPGSA,M,3,02,04,09,12,14,25,29,,,,,,2.1,1.1,1.8*31
Trace #41 at position 10.000000
$GPZDA,084121.04,09,10,2011,00,00*66
$GPRMC,084121.00,A,4611.956402,N,01258.227026,E,001.5,347.6,091$GPGGA,084122.00,4611.956774,N,01258.226919,E,1,07,1.1,139.69,M,46.25,M,,*62
$GPGLL,4611.956774,N,01258.226919,E,084122.00,A,A*61
$GPVTG,350.2,T,350.3,M,001.4,N,002.7,K,A*22
$GPGSV,3,1,09,02,38,086,45,04,16,042,43,09,25,150,42,12,62,069,43*75
$GPGSV,3,2,09,14,32,259,38,25,72,318,46,29,46,219,46,30,28,287,37*7B
$GPGSV,3,3,09,31,20,314,,,,,,,,,,,,,*46
$GPGSA,M,3,02,04,09,12,14,25,29,,,,,,2.1,1.1,1.8*31
Trace #42 at position 10.250000
$GPZDA,084121.04,09,10,2011,00,00*66
$GPRMC,084121.00,A,4611.956402,N,01258.227026,E,001.5,347.6,091$GPGGA,084122.00,4611.956774,N,01258.226919,E,1,07,1.1,139.69,M,46.25,M,,*62
$GPGLL,4611.956774,N,01258.226919,E,084122.00,A,A*61
$GPVTG,350.2,T,350.3,M,001.4,N,002.7,K,A*22
$GPGSV,3,1,09,02,38,086,45,04,16,042,43,09,25,150,42,12,62,069,43*75
$GPGSV,3,2,09,14,32,259,38,25,72,318,46,29,46,219,46,30,28,287,37*7B
$GPGSV,3,3,09,31,20,314,,,,,,,,,,,,,*46
$GPGSA,M,3,02,04,09,12,14,25,29,,,,,,2.1,1.1,1.8*31
Trace #43 at position 10.500000
$GPZDA,084121.04,09,10,2011,00,00*66
$GPRMC,084121.00,A,4611.956402,N,01258.227026,E,001.5,347.6,091$GPGGA,084122.00,4611.956774,N,01258.226919,E,1,07,1.1,139.69,M,46.25,M,,*62
$GPGLL,4611.956774,N,01258.226919,E,084122.00,A,A*61
$GPVTG,350.2,T,350.3,M,001.4,N,002.7,K,A*22
$GPGSV,3,1,09,02,38,086,45,04,16,042,43,09,25,150,42,12,62,069,43*75
$GPGSV,3,2,09,14,32,259,38,25,72,318,46,29,46,219,46,30,28,287,37*7B
$GPGSV,3,3,09,31,20,314,,,,,,,,,,,,,*46
$GPGSA,M,3,02,04,09,12,14,25,29,,,,,,2.1,1.1,1.8*31
Trace #44 at position 10.750000
$GPZDA,084122.04,09,10,2011,00,00*65
$GPRMC,084122.00,A,4611.956774,N,01258.226919,E,001.4,350.2,091$GPGGA,084123.00,4611.957236,N,01258.226966,E,1,07,1.1,139.71,M,46.25,M,,*60
$GPGLL,4611.957236,N,01258.226966,E,084123.00,A,A*6A
$GPVTG,15.2,T,15.4,M,002.3,N,004.3,K,A*23
$GPGSV,3,1,09,02,38,086,46,04,16,042,43,09,25,150,42,12,62,069,42*77
$GPGSV,3,2,09,14,32,259,40,25,72,318,45,29,46,219,47,30,28,287,*72
$GPGSV,3,3,09,31,20,314,,,,,,,,,,,,,*46
$GPGSA,M,3,02,04,09,12,14,25,29,,,,,,2.1,1.1,1.8*31
Trace #45 at position 11.000000
$GPZDA,084122.04,09,10,2011,00,00*65
$GPRMC,084122.00,A,4611.956774,N,01258.226919,E,001.4,350.2,091$GPGGA,084123.00,4611.957236,N,01258.226966,E,1,07,1.1,139.71,M,46.25,M,,*60
$GPGLL,4611.957236,N,01258.226966,E,084123.00,A,A*6A
$GPVTG,15.2,T,15.4,M,002.3,N,004.3,K,A*23
$GPGSV,3,1,09,02,38,086,46,04,16,042,43,09,25,150,42,12,62,069,42*77
$GPGSV,3,2,09,14,32,259,40,25,72,318,45,29,46,219,47,30,28,287,*72
$GPGSV,3,3,09,31,20,314,,,,,,,,,,,,,*46
$GPGSA,M,3,02,04,09,12,14,25,29,,,,,,2.1,1.1,1.8*31
Trace #46 at position 11.250000
$GPZDA,084122.04,09,10,2011,00,00*65
$GPRMC,084122.00,A,4611.956774,N,01258.226919,E,001.4,350.2,091$GPGGA,084123.00,4611.957236,N,01258.226966,E,1,07,1.1,139.71,M,46.25,M,,*60
$GPGLL,4611.957236,N,01258.226966,E,084123.00,A,A*6A
$GPVTG,15.2,T,15.4,M,002.3,N,004.3,K,A*23
$GPGSV,3,1,09,02,38,086,46,04,16,042,43,09,25,150,42,12,62,069,42*77
$GPGSV,3,2,09,14,32,259,40,25,72,318,45,29,46,219,47,30,28,287,*72
$GPGSV,3,3,09,31,20,314,,,,,,,,,,,,,*46
$GPGSA,M,3,02,04,09,12,14,25,29,,,,,,2.1,1.1,1.8*31
Trace #47 at position 11.500000
$GPZDA,084122.04,09,10,2011,00,00*65
$GPRMC,084122.00,A,4611.956774,N,01258.226919,E,001.4,350.2,091$GPGGA,084123.00,4611.957236,N,01258.226966,E,1,07,1.1,139.71,M,46.25,M,,*60
$GPGLL,4611.957236,N,01258.226966,E,084123.00,A,A*6A
$GPVTG,15.2,T,15.4,M,002.3,N,004.3,K,A*23
$GPGSV,3,1,09,02,38,086,46,04,16,042,43,09,25,150,42,12,62,069,42*77
$GPGSV,3,2,09,14,32,259,40,25,72,318,45,29,46,219,47,30,28,287,*72
$GPGSV,3,3,09,31,20,314,,,,,,,,,,,,,*46
$GPGSA,M,3,02,04,09,12,14,25,29,,,,,,2.1,1.1,1.8*31
Trace #48 at position 11.750000
$GPZDA,084123.04,09,10,2011,00,00*64
$GPRMC,084123.00,A,4611.957236,N,01258.226966,E,002.3,15.2,091011,0$GPGGA,084124.00,4611.957719,N,01258.227024,E,1,07,1.1,139.74,M,46.25,M,,*64
$GPGLL,4611.957719,N,01258.227024,E,084124.00,A,A*6B
$GPVTG,357.6,T,357.8,M,001.7,N,003.1,K,A*29
$GPGSV,3,1,09,02,38,086,46,04,16,042,43,09,25,150,40,12,62,069,43*74
$GPGSV,3,2,09,14,32,259,40,25,72,318,43,29,46,219,46,30,28,287,30*76
$GPGSV,3,3,09,31,20,314,,,,,,,,,,,,,*46
$GPGSA,M,3,02,04,09,12,14,25,29,,,,,,2.1,1.1,1.8*31
Trace #49 at position 12.000000
$GPZDA,084123.04,09,10,2011,00,00*64
$GPRMC,084123.00,A,4611.957236,N,01258.226966,E,002.3,15.2,091011,0$GPGGA,084124.00,4611.957719,N,01258.227024,E,1,07,1.1,139.74,M,46.25,M,,*64
$GPGLL,4611.957719,N,01258.227024,E,084124.00,A,A*6B
$GPVTG,357.6,T,357.8,M,001.7,N,003.1,K,A*29
$GPGSV,3,1,09,02,38,086,46,04,16,042,43,09,25,150,40,12,62,069,43*74
$GPGSV,3,2,09,14,32,259,40,25,72,318,43,29,46,219,46,30,28,287,30*76
$GPGSV,3,3,09,31,20,314,,,,,,,,,,,,,*46
$GPGSA,M,3,02,04,09,12,14,25,29,,,,,,2.1,1.1,1.8*31
Trace #50 at position 12.250000
$GPZDA,084123.04,09,10,2011,00,00*64
$GPRMC,084123.00,A,4611.957236,N,01258.226966,E,002.3,15.2,091011,0$GPGGA,084124.00,4611.957719,N,01258.227024,E,1,07,1.1,139.74,M,46.25,M,,*64
$GPGLL,4611.957719,N,01258.227024,E,084124.00,A,A*6B
$GPVTG,357.6,T,357.8,M,001.7,N,003.1,K,A*29
$GPGSV,3,1,09,02,38,086,46,04,16,042,43,09,25,150,40,12,62,069,43*74
$GPGSV,3,2,09,14,32,259,40,25,72,318,43,29,46,219,46,30,28,287,30*76
$GPGSV,3,3,09,31,20,314,,,,,,,,,,,,,*46
$GPGSA,M,3,02,04,09,12,14,25,29,,,,,,2.1,1.1,1.8*31
Trace #51 at position 12.500000
$GPZDA,084124.04,09,10,2011,00,00*63
$GPRMC,084124.00,A,4611.957719,N,01258.227024,E,001.7,357.6,091PGLL,4611.958071,N,01258.226939,E,084125.00,A,A*68
$GPVTG,357.7,T,357.9,M,001.2,N,002.3,K,A*2F
$GPGSV,3,1,09,02,38,086,46,04,16,042,42,09,25,150,42,12,62,069,43*77
$GPGSV,3,2,09,14,32,259,40,25,72,318,43,29,46,219,47,30,28,287,33*74
$GPGSV,3,3,09,31,20,314,,,,,,,,,,,,,*46
$GPGSA,M,3,02,04,09,12,14,25,29,,,,,,2.1,1.1,1.8*31
Trace #52 at position 12.750000
$GPZDA,084124.04,09,10,2011,00,00*63
$GPRMC,084124.00,A,4611.957719,N,01258.227024,E,001.7,357.6,091PGLL,4611.958071,N,01258.226939,E,084125.00,A,A*68
$GPVTG,357.7,T,357.9,M,001.2,N,002.3,K,A*2F
$GPGSV,3,1,09,02,38,086,46,04,16,042,42,09,25,150,42,12,62,069,43*77
$GPGSV,3,2,09,14,32,259,40,25,72,318,43,29,46,219,47,30,28,287,33*74
$GPGSV,3,3,09,31,20,314,,,,,,,,,,,,,*46
$GPGSA,M,3,02,04,09,12,14,25,29,,,,,,2.1,1.1,1.8*31
Trace #53 at position 13.000000
$GPZDA,084124.04,09,10,2011,00,00*63
$GPRMC,084124.00,A,4611.957719,N,01258.227024,E,001.7,357.6,091PGLL,4611.958071,N,01258.226939,E,084125.00,A,A*68
$GPVTG,357.7,T,357.9,M,001.2,N,002.3,K,A*2F
$GPGSV,3,1,09,02,38,086,46,04,16,042,42,09,25,150,42,12,62,069,43*77
$GPGSV,3,2,09,14,32,259,40,25,72,318,43,29,46,219,47,30,28,287,33*74
$GPGSV,3,3,09,31,20,314,,,,,,,,,,,,,*46
$GPGSA,M,3,02,04,09,12,14,25,29,,,,,,2.1,1.1,1.8*31
Trace #54 at position 13.250000
$GPZDA,084125.04,09,10,2011,00,00*62
$GPRMC,084125.00,A,4611.958071,N,01258.226939,E,001.2,357.7,091011,0.2,E,A*3B
$GPGGA,084126.00,4611.958354,N,01258.226740,E,1,07,1.1,140.03,M,,N,002.3,K,A*27
$GPGSV,3,1,09,02,38,086,45,04,16,042,42,09,25,150,42,12,62,069,43*74
$GPGSV,3,2,09,14,32,259,39,25,72,318,44,29,46,219,47,30,28,287,36*78
$GPGSV,3,3,09,31,20,314,,,,,,,,,,,,,*46
$GPGSA,M,3,02,04,09,12,14,25,29,,,,,,2.1,1.1,1.8*31
Trace #55 at position 13.500000
$GPZDA,084125.04,09,10,2011,00,00*62
$GPRMC,084125.00,A,4611.958071,N,01258.226939,E,001.2,357.7,091011,0.2,E,A*3B
$GPGGA,084126.00,4611.958354,N,01258.226740,E,1,07,1.1,140.03,M,,N,002.3,K,A*27
$GPGSV,3,1,09,02,38,086,45,04,16,042,42,09,25,150,42,12,62,069,43*74
$GPGSV,3,2,09,14,32,259,39,25,72,318,44,29,46,219,47,30,28,287,36*78
$GPGSV,3,3,09,31,20,314,,,,,,,,,,,,,*46
$GPGSA,M,3,02,04,09,12,14,25,29,,,,,,2.1,1.1,1.8*31
Trace #56 at position 13.750000
$GPZDA,084125.04,09,10,2011,00,00*62
$GPRMC,084125.00,A,4611.958071,N,01258.226939,E,001.2,357.7,091011,0.2,E,A*3B
$GPGGA,084126.00,4611.958354,N,01258.226740,E,1,07,1.1,140.03,M,,N,002.3,K,A*27
$GPGSV,3,1,09,02,38,086,45,04,16,042,42,09,25,150,42,12,62,069,43*74
$GPGSV,3,2,09,14,32,259,39,25,72,318,44,29,46,219,47,30,28,287,36*78
$GPGSV,3,3,09,31,20,314,,,,,,,,,,,,,*46
$GPGSA,M,3,02,04,09,12,14,25,29,,,,,,2.1,1.1,1.8*31
Trace #57 at position 14.000000
$GPZDA,084125.04,09,10,2011,00,00*62
$GPRMC,084125.00,A,4611.958071,N,01258.226939,E,001.2,357.7,091011,0.2,E,A*3B
$GPGGA,084126.00,4611.958354,N,01258.226740,E,1,07,1.1,140.03,M,,N,002.3,K,A*27
$GPGSV,3,1,09,02,38,086,45,04,16,042,42,09,25,150,42,12,62,069,43*74
$GPGSV,3,2,09,14,32,259,39,25,72,318,44,29,46,219,47,30,28,287,36*78
$GPGSV,3,3,09,31,20,314,,,,,,,,,,,,,*46
$GPGSA,M,3,02,04,09,12,14,25,29,,,,,,2.1,1.1,1.8*31
Trace #58 at position 14.250000
$GPZDA,084125.04,09,10,2011,00,00*62
$GPRMC,084125.00,A,4611.958071,N,01258.226939,E,001.2,357.7,091011,0.2,E,A*3B
$GPGGA,084126.00,4611.958354,N,01258.226740,E,1,07,1.1,140.03,M,,N,002.3,K,A*27
$GPGSV,3,1,09,02,38,086,45,04,16,042,42,09,25,150,42,12,62,069,43*74
$GPGSV,3,2,09,14,32,259,39,25,72,318,44,29,46,219,47,30,28,287,36*78
$GPGSV,3,3,09,31,20,314,,,,,,,,,,,,,*46
$GPGSA,M,3,02,04,09,12,14,25,29,,,,,,2.1,1.1,1.8*31
Trace #59 at position 14.500000
$GPZDA,084125.04,09,10,2011,00,00*62
$GPRMC,084125.00,A,4611.958071,N,01258.226939,E,001.2,357.7,091011,0.2,E,A*3B
$GPGGA,084126.00,4611.958354,N,01258.226740,E,1,07,1.1,140.03,M,,N,002.3,K,A*27
$GPGSV,3,1,09,02,38,086,45,04,16,042,42,09,25,150,42,12,62,069,43*74
$GPGSV,3,2,09,14,32,259,39,25,72,318,44,29,46,219,47,30,28,287,36*78
$GPGSV,3,3,09,31,20,314,,,,,,,,,,,,,*46
$GPGSA,M,3,02,04,09,12,14,25,29,,,,,,2.1,1.1,1.8*31
Trace #60 at position 14.750000
$GPZDA,084125.04,09,10,2011,00,00*62
$GPRMC,084125.00,A,4611.958071,N,01258.226939,E,001.2,357.7,091011,0.2,E,A*3B
$GPGGA,084126.00,4611.958354,N,01258.226740,E,1,07,1.1,140.03,M,,N,002.3,K,A*27
$GPGSV,3,1,09,02,38,086,45,04,16,042,42,09,25,150,42,12,62,069,43*74
$GPGSV,3,2,09,14,32,259,39,25,72,318,44,29,46,219,47,30,28,287,36*78
$GPGSV,3,3,09,31,20,314,,,,,,,,,,,,,*46
$GPGSA,M,3,02,04,09,12,14,25,29,,,,,,2.1,1.1,1.8*31
Trace #61 at position 15.000000
$GPZDA,084125.04,09,10,2011,00,00*62
$GPRMC,084125.00,A,4611.958071,N,01258.226939,E,001.2,357.7,091011,0.2,E,A*3B
$GPGGA,084126.00,4611.958354,N,01258.226740,E,1,07,1.1,140.03,M,,N,002.3,K,A*27
$GPGSV,3,1,09,02,38,086,45,04,16,042,42,09,25,150,42,12,62,069,43*74
$GPGSV,3,2,09,14,32,259,39,25,72,318,44,29,46,219,47,30,28,287,36*78
$GPGSV,3,3,09,31,20,314,,,,,,,,,,,,,*46
$GPGSA,M,3,02,04,09,12,14,25,29,,,,,,2.1,1.1,1.8*31
Trace #62 at position 15.250000
$GPZDA,084125.04,09,10,2011,00,00*62
$GPRMC,084125.00,A,4611.958071,N,01258.226939,E,001.2,357.7,091011,0.2,E,A*3B
$GPGGA,084126.00,4611.958354,N,01258.226740,E,1,07,1.1,140.03,M,,N,002.3,K,A*27
$GPGSV,3,1,09,02,38,086,45,04,16,042,42,09,25,150,42,12,62,069,43*74
$GPGSV,3,2,09,14,32,259,39,25,72,318,44,29,46,219,47,30,28,287,36*78
$GPGSV,3,3,09,31,20,314,,,,,,,,,,,,,*46
$GPGSA,M,3,02,04,09,12,14,25,29,,,,,,2.1,1.1,1.8*31
Trace #63 at position 15.500000
$GPZDA,084126.04,09,10,2011,00,00*61
$GPRMC,084126.00,A,4611.958354,N,01258.226740,E,001.2,329.2,091011,0.2,E,A*30
$GPGGA,084127.00,4611.958641,N,01258.226555,E,1,07,1.1,140.16,M,46.25,M,,*6C
$GPGLL,4611.958641,N,01258.226555,E,084127.00,A,A*69
$GPVTG,0.9,T04,09,12,14,25,29,,,,,,2.1,1.1,1.8*31
$GPZDA,084127.04,09,10,2011,00,00*60
$GPRMC,084127.00,A,4611.958641,N,01258.226555,E,001.1,0.9,091011,0.2,E,A*36
$GPGGA,084128.00,4611.959015,N,01258.226410,E,1,07,1.1,140.20,M,46.25,M,,*60
$GPGLL,4611.959015,N,01258.226410,E,084128.00,A,A*60
$GPVTG,346.2,T,346.4,M,001.7,N,003.1,K,A*21
$GPGSV,3,1,09,02,38,086,45,04,16,042,42,09,25,150,42,12,62,069,44*73
$GPGSV,3,2,09,14,32,259,40,25,72,318,43,29,46,219,47,30,28,287,36*71
$GPGSV,3,3,09,31,20,314,,,,,,,,,,,,,*46
,346.2,091011,0.2,E,A*33
$GPGGA,084129.00,4611.959412,N,01258.226187,E,1,07,1.1,140.18,M,46.25,M,,*62
$GPGLL,4611.959412,N,01258.226187,E,084129.00,A,A*69
$GPVTG,343.2,T,343.4,M,001.3,N,002.4,K,A*21
$GPGSV,3,1,09,02,38,086,46,04,16,042,42,09,25,150,43,12,62,069,44*71
$GPGSV,3,2,09,14,32,259,41,25,72,318,43,29,46,219,46,30,28,287,36*71
$GPGSV,3,3,09,31,20,314,,,,,,,,,,,,,*46
$GPGSA,M,3,02,04,09,12,14,25,29,,,,,,2.1,1.1,1.8*31
Trace #64 at position 15.750000
$GPZDA,084126.04,09,10,2011,00,00*61
$GPRMC,084126.00,A,4611.958354,N,01258.226740,E,001.2,329.2,091011,0.2,E,A*30
$GPGGA,084127.00,4611.958641,N,01258.226555,E,1,07,1.1,140.16,M,46.25,M,,*6C
$GPGLL,4611.958641,N,01258.226555,E,084127.00,A,A*69
$GPVTG,0.9,T04,09,12,14,25,29,,,,,,2.1,1.1,1.8*31
$GPZDA,084127.04,09,10,2011,00,00*60
$GPRMC,084127.00,A,4611.958641,N,01258.226555,E,001.1,0.9,091011,0.2,E,A*36
$GPGGA,084128.00,4611.959015,N,01258.226410,E,1,07,1.1,140.20,M,46.25,M,,*60
$GPGLL,4611.959015,N,01258.226410,E,084128.00,A,A*60
$GPVTG,346.2,T,346.4,M,001.7,N,003.1,K,A*21
$GPGSV,3,1,09,02,38,086,45,04,16,042,42,09,25,150,42,12,62,069,44*73
$GPGSV,3,2,09,14,32,259,40,25,72,318,43,29,46,219,47,30,28,287,36*71
$GPGSV,3,3,09,31,20,314,,,,,,,,,,,,,*46
,346.2,091011,0.2,E,A*33
$GPGGA,084129.00,4611.959412,N,01258.226187,E,1,07,1.1,140.18,M,46.25,M,,*62
$GPGLL,4611.959412,N,01258.226187,E,084129.00,A,A*69
$GPVTG,343.2,T,343.4,M,001.3,N,002.4,K,A*21
$GPGSV,3,1,09,02,38,086,46,04,16,042,42,09,25,150,43,12,62,069,44*71
$GPGSV,3,2,09,14,32,259,41,25,72,318,43,29,46,219,46,30,28,287,36*71
$GPGSV,3,3,09,31,20,314,,,,,,,,,,,,,*46
$GPGSA,M,3,02,04,09,12,14,25,29,,,,,,2.1,1.1,1.8*31
Trace #65 at position 16.000000
$GPZDA,084126.04,09,10,2011,00,00*61
$GPRMC,084126.00,A,4611.958354,N,01258.226740,E,001.2,329.2,091011,0.2,E,A*30
$GPGGA,084127.00,4611.958641,N,01258.226555,E,1,07,1.1,140.16,M,46.25,M,,*6C
$GPGLL,4611.958641,N,01258.226555,E,084127.00,A,A*69
$GPVTG,0.9,T04,09,12,14,25,29,,,,,,2.1,1.1,1.8*31
$GPZDA,084127.04,09,10,2011,00,00*60
$GPRMC,084127.00,A,4611.958641,N,01258.226555,E,001.1,0.9,091011,0.2,E,A*36
$GPGGA,084128.00,4611.959015,N,01258.226410,E,1,07,1.1,140.20,M,46.25,M,,*60
$GPGLL,4611.959015,N,01258.226410,E,084128.00,A,A*60
$GPVTG,346.2,T,346.4,M,001.7,N,003.1,K,A*21
$GPGSV,3,1,09,02,38,086,45,04,16,042,42,09,25,150,42,12,62,069,44*73
$GPGSV,3,2,09,14,32,259,40,25,72,318,43,29,46,219,47,30,28,287,36*71
$GPGSV,3,3,09,31,20,314,,,,,,,,,,,,,*46
,346.2,091011,0.2,E,A*33
$GPGGA,084129.00,4611.959412,N,01258.226187,E,1,07,1.1,140.18,M,46.25,M,,*62
$GPGLL,4611.959412,N,01258.226187,E,084129.00,A,A*69
$GPVTG,343.2,T,343.4,M,001.3,N,002.4,K,A*21
$GPGSV,3,1,09,02,38,086,46,04,16,042,42,09,25,150,43,12,62,069,44*71
$GPGSV,3,2,09,14,32,259,41,25,72,318,43,29,46,219,46,30,28,287,36*71
$GPGSV,3,3,09,31,20,314,,,,,,,,,,,,,*46
$GPGSA,M,3,02,04,09,12,14,25,29,,,,,,2.1,1.1,1.8*31
Trace #66 at position 16.250000
$GPZDA,084129.04,09,10,2011,00,00*6E
$GPRMC,084129.00,A,4611.959412,N,0125$GPGGA,084130.00,4611.959794,N,01258.225931,E,1,07,1.1,140.15,M,46.25,M,,*6C
$GPGLL,4611.959794,N,01258.225931,E,084130.00,A,A*6A
$GPVTG,338.0,T,338.1,M,001.6,N,002.9,K,A*2E
$GPGSV,3,1,09,02,38,086,45,04,16,042,42,09,25,150,43,12,62,069,43*75
$GPGSV,3,2,09,14,32,259,41,25,72,318,44,29,46,219,46,30,28,287,38*78
$GPGSV,3,3,09,31,20,314,,,,,,,,,,,,,*46
$GPGSA,M,3,02,04,09,12,14,25,29,,,,,,2.1,1.1,1.8*31
Trace #67 at position 16.500000
$GPZDA,084129.04,09,10,2011,00,00*6E
$GPRMC,084129.00,A,4611.959412,N,0125$GPGGA,084130.00,4611.959794,N,01258.225931,E,1,07,1.1,140.15,M,46.25,M,,*6C
$GPGLL,4611.959794,N,01258.225931,E,084130.00,A,A*6A
$GPVTG,338.0,T,338.1,M,001.6,N,002.9,K,A*2E
$GPGSV,3,1,09,02,38,086,45,04,16,042,42,09,25,150,43,12,62,069,43*75
$GPGSV,3,2,09,14,32,259,41,25,72,318,44,29,46,219,46,30,28,287,38*78
$GPGSV,3,3,09,31,20,314,,,,,,,,,,,,,*46
$GPGSA,M,3,02,04,09,12,14,25,29,,,,,,2.1,1.1,1.8*31
Trace #68 at position 16.750000
$GPZDA,084129.04,09,10,2011,00,00*6E
$GPRMC,084129.00,A,4611.959412,N,0125$GPGGA,084130.00,4611.959794,N,01258.225931,E,1,07,1.1,140.15,M,46.25,M,,*6C
$GPGLL,4611.959794,N,01258.225931,E,084130.00,A,A*6A
$GPVTG,338.0,T,338.1,M,001.6,N,002.9,K,A*2E
$GPGSV,3,1,09,02,38,086,45,04,16,042,42,09,25,150,43,12,62,069,43*75
$GPGSV,3,2,09,14,32,259,41,25,72,318,44,29,46,219,46,30,28,287,38*78
$GPGSV,3,3,09,31,20,314,,,,,,,,,,,,,*46
$GPGSA,M,3,02,04,09,12,14,25,29,,,,,,2.1,1.1,1.8*31
Trace #69 at position 17.000000
$GPZDA,084129.04,09,10,2011,00,00*6E
$GPRMC,084129.00,A,4611.959412,N,0125$GPGGA,084130.00,4611.959794,N,01258.225931,E,1,07,1.1,140.15,M,46.25,M,,*6C
$GPGLL,4611.959794,N,01258.225931,E,084130.00,A,A*6A
$GPVTG,338.0,T,338.1,M,001.6,N,002.9,K,A*2E
$GPGSV,3,1,09,02,38,086,45,04,16,042,42,09,25,150,43,12,62,069,43*75
$GPGSV,3,2,09,14,32,259,41,25,72,318,44,29,46,219,46,30,28,287,38*78
$GPGSV,3,3,09,31,20,314,,,,,,,,,,,,,*46
$GPGSA,M,3,02,04,09,12,14,25,29,,,,,,2.1,1.1,1.8*31
Trace #70 at position 17.250000
$GPZDA,084129.04,09,10,2011,00,00*6E
$GPRMC,084129.00,A,4611.959412,N,0125$GPGGA,084130.00,4611.959794,N,01258.225931,E,1,07,1.1,140.15,M,46.25,M,,*6C
$GPGLL,4611.959794,N,01258.225931,E,084130.00,A,A*6A
$GPVTG,338.0,T,338.1,M,001.6,N,002.9,K,A*2E
$GPGSV,3,1,09,02,38,086,45,04,16,042,42,09,25,150,43,12,62,069,43*75
$GPGSV,3,2,09,14,32,259,41,25,72,318,44,29,46,219,46,30,28,287,38*78
$GPGSV,3,3,09,31,20,314,,,,,,,,,,,,,*46
$GPGSA,M,3,02,04,09,12,14,25,29,,,,,,2.1,1.1,1.8*31
Trace #71 at position 17.500000
$GPZDA,084130.04,09,10,2011,00,00*66
$GPRMC,084130.00,A,4611.959794,N,01258.225931,E,001.6,338.0,091$GPGGA,084131.00,4611.960267,N,01258.225709,E,1,07,1.1,140.13,M,46.25,M,,*6D
$GPGLL,4611.960267,N,01258.225709,E,084131.00,A,A*6D
$GPVTG,353.1,T,353.3,M,002.0,N,003.7,K,A*27
$GPGSV,3,1,09,02,38,086,45,04,16,042,43,09,25,150,43,12,62,069,44*73
$GPGSV,3,2,09,14,32,259,41,25,72,318,43,29,46,219,47,30,28,287,38*7E
$GPGSV,3,3,09,31,20,314,,,,,,,,,,,,,*46
$GPGSA,M,3,02,04,09,12,14,25,29,,,,,,2.1,1.1,1.8*31
Trace #72 at position 17.750000
$GPZDA,084130.04,09,10,2011,00,00*66
$GPRMC,084130.00,A,4611.959794,N,01258.225931,E,001.6,338.0,091$GPGGA,084131.00,4611.960267,N,01258.225709,E,1,07,1.1,140.13,M,46.25,M,,*6D
$GPGLL,4611.960267,N,01258.225709,E,084131.00,A,A*6D
$GPVTG,353.1,T,353.3,M,002.0,N,003.7,K,A*27
$GPGSV,3,1,09,02,38,086,45,04,16,042,43,09,25,150,43,12,62,069,44*73
$GPGSV,3,2,09,14,32,259,41,25,72,318,43,29,46,219,47,30,28,287,38*7E
$GPGSV,3,3,09,31,20,314,,,,,,,,,,,,,*46
$GPGSA,M,3,02,04,09,12,14,25,29,,,,,,2.1,1.1,1.8*31
Trace #73 at position 18.000000
$GPZDA,084130.04,09,10,2011,00,00*66
$GPRMC,084130.00,A,4611.959794,N,01258.225931,E,001.6,338.0,091$GPGGA,084131.00,4611.960267,N,01258.225709,E,1,07,1.1,140.13,M,46.25,M,,*6D
$GPGLL,4611.960267,N,01258.225709,E,084131.00,A,A*6D
$GPVTG,353.1,T,353.3,M,002.0,N,003.7,K,A*27
$GPGSV,3,1,09,02,38,086,45,04,16,042,43,09,25,150,43,12,62,069,44*73
$GPGSV,3,2,09,14,32,259,41,25,72,318,43,29,46,219,47,30,28,287,38*7E
$GPGSV,3,3,09,31,20,314,,,,,,,,,,,,,*46
$GPGSA,M,3,02,04,09,12,14,25,29,,,,,,2.1,1.1,1.8*31
Trace #74 at position 18.250000
$GPZDA,084130.04,09,10,2011,00,00*66
$GPRMC,084130.00,A,4611.959794,N,01258.225931,E,001.6,338.0,091$GPGGA,084131.00,4611.960267,N,01258.225709,E,1,07,1.1,140.13,M,46.25,M,,*6D
$GPGLL,4611.960267,N,01258.225709,E,084131.00,A,A*6D
$GPVTG,353.1,T,353.3,M,002.0,N,003.7,K,A*27
$GPGSV,3,1,09,02,38,086,45,04,16,042,43,09,25,150,43,12,62,069,44*73
$GPGSV,3,2,09,14,32,259,41,25,72,318,43,29,46,219,47,30,28,287,38*7E
$GPGSV,3,3,09,31,20,314,,,,,,,,,,,,,*46
$GPGSA,M,3,02,04,09,12,14,25,29,,,,,,2.1,1.1,1.8*31
Trace #75 at position 18.500000
$GPZDA,084131.04,09,10,2011,00,00*67
$GPRMC,084131.00,A,4611.960267,N,01258.225709,E,002.0,353.1,091$GPGGA,084132.00,4611.960735,N,01258.225504,E,1,07,1.1,140.11,M,46.25,M,,*61
$GPGLL,4611.960735,N,01258.225504,E,084132.00,A,A*63
$GPVTG,340.6,T,340.8,M,001.5,N,002.9,K,A*22
$GPGSV,3,1,09,02,38,086,46,04,16,042,43,09,25,150,40,12,62,069,44*73
$GPGSV,3,2,09,14,32,259,41,25,72,318,41,29,46,219,46,30,28,287,35*70
$GPGSV,3,3,09,31,20,314,,,,,,,,,,,,,*46
$GPGSA,M,3,02,04,09,12,14,25,29,,,,,,2.1,1.1,1.8*31
Trace #76 at position 18.750000
$GPZDA,084131.04,09,10,2011,00,00*67
$GPRMC,084131.00,A,4611.960267,N,01258.225709,E,002.0,353.1,091$GPGGA,084132.00,4611.960735,N,01258.225504,E,1,07,1.1,140.11,M,46.25,M,,*61
$GPGLL,4611.960735,N,01258.225504,E,084132.00,A,A*63
$GPVTG,340.6,T,340.8,M,001.5,N,002.9,K,A*22
$GPGSV,3,1,09,02,38,086,46,04,16,042,43,09,25,150,40,12,62,069,44*73
$GPGSV,3,2,09,14,32,259,41,25,72,318,41,29,46,219,46,30,28,287,35*70
$GPGSV,3,3,09,31,20,314,,,,,,,,,,,,,*46
$GPGSA,M,3,02,04,09,12,14,25,29,,,,,,2.1,1.1,1.8*31
Trace #77 at position 19.000000
$GPZDA,084131.04,09,10,2011,00,00*67
$GPRMC,084131.00,A,4611.960267,N,01258.225709,E,002.0,353.1,091$GPGGA,084132.00,4611.960735,N,01258.225504,E,1,07,1.1,140.11,M,46.25,M,,*61
$GPGLL,4611.960735,N,01258.225504,E,084132.00,A,A*63
$GPVTG,340.6,T,340.8,M,001.5,N,002.9,K,A*22
$GPGSV,3,1,09,02,38,086,46,04,16,042,43,09,25,150,40,12,62,069,44*73
$GPGSV,3,2,09,14,32,259,41,25,72,318,41,29,46,219,46,30,28,287,35*70
$GPGSV,3,3,09,31,20,314,,,,,,,,,,,,,*46
$GPGSA,M,3,02,04,09,12,14,25,29,,,,,,2.1,1.1,1.8*31
Trace #78 at position 19.250000
$GPZDA,084132.04,09,10,2011,00,00*64
$GPRMC,084132.00,A,4611.960735,N,01258.225504,E,001.5,340.6,091$GPGGA,084133.00,4611.961177,N,01258.225122,E,1,07,1.1,140.10,M,46.25,M,,*60
$GPGLL,4611.961177,N,01258.225122,E,084133.00,A,A*63
$GPVTG,325.4,T,325.5,M,002.2,N,004.1,K,A*27
$GPGSV,3,1,09,02,38,086,45,04,16,042,42,09,25,150,41,12,62,069,43*77
$GPGSV,3,2,09,14,32,259,38,25,72,318,43,29,46,219,46,30,28,287,37*7E
$GPGSV,3,3,09,31,20,314,,,,,,,,,,,,,*46
$GPGSA,M,3,02,04,09,12,14,25,29,,,,,,2.1,1.1,1.8*31
Trace #79 at position 19.500000
$GPZDA,084132.04,09,10,2011,00,00*64
$GPRMC,084132.00,A,4611.960735,N,01258.225504,E,001.5,340.6,091$GPGGA,084133.00,4611.961177,N,01258.225122,E,1,07,1.1,140.10,M,46.25,M,,*60
$GPGLL,4611.961177,N,01258.225122,E,084133.00,A,A*63
$GPVTG,325.4,T,325.5,M,002.2,N,004.1,K,A*27
$GPGSV,3,1,09,02,38,086,45,04,16,042,42,09,25,150,41,12,62,069,43*77
$GPGSV,3,2,09,14,32,259,38,25,72,318,43,29,46,219,46,30,28,287,37*7E
$GPGSV,3,3,09,31,20,314,,,,,,,,,,,,,*46
$GPGSA,M,3,02,04,09,12,14,25,29,,,,,,2.1,1.1,1.8*31
Trace #80 at position 19.750000
$GPZDA,084132.04,09,10,2011,00,00*64
$GPRMC,084132.00,A,4611.960735,N,01258.225504,E,001.5,340.6,091$GPGGA,084133.00,4611.961177,N,01258.225122,E,1,07,1.1,140.10,M,46.25,M,,*60
$GPGLL,4611.961177,N,01258.225122,E,084133.00,A,A*63
$GPVTG,325.4,T,325.5,M,002.2,N,004.1,K,A*27
$GPGSV,3,1,09,02,38,086,45,04,16,042,42,09,25,150,41,12,62,069,43*77
$GPGSV,3,2,09,14,32,259,38,25,72,318,43,29,46,219,46,30,28,287,37*7E
$GPGSV,3,3,09,31,20,314,,,,,,,,,,,,,*46
$GPGSA,M,3,02,04,09,12,14,25,29,,,,,,2.1,1.1,1.8*31
Trace #81 at position 20.000000
$GPZDA,084132.04,09,10,2011,00,00*64
$GPRMC,084132.00,A,4611.960735,N,01258.225504,E,001.5,340.6,091$GPGGA,084133.00,4611.961177,N,01258.225122,E,1,07,1.1,140.10,M,46.25,M,,*60
$GPGLL,4611.961177,N,01258.225122,E,084133.00,A,A*63
$GPVTG,325.4,T,325.5,M,002.2,N,004.1,K,A*27
$GPGSV,3,1,09,02,38,086,45,04,16,042,42,09,25,150,41,12,62,069,43*77
$GPGSV,3,2,09,14,32,259,38,25,72,318,43,29,46,219,46,30,28,287,37*7E
$GPGSV,3,3,09,31,20,314,,,,,,,,,,,,,*46
$GPGSA,M,3,02,04,09,12,14,25,29,,,,,,2.1,1.1,1.8*31
Trace #82 at position 20.250000
$GPZDA,084133.04,09,10,2011,00,00*65
$GPRMC,084133.00,A,4611.961177,N,01258.225122,E,002.2,325.4,091$GPGGA,084134.00,4611.961656,N,01258.224691,E,1,07,1.1,140.17,M,46.25,M,,*6A
$GPGLL,4611.961656,N,01258.224691,E,084134.00,A,A*6E
$GPVTG,331.5,T,331.6,M,002.0,N,003.6,K,A*27
$GPGSV,3,1,09,02,38,086,45,04,16,042,41,09,25,150,43,12,62,069,44*71
$GPGSV,3,2,09,14,32,259,41,25,72,318,43,29,46,219,46,30,28,287,37*70
$GPGSV,3,3,09,31,20,314,,,,,,,,,,,,,*46
$GPGSA,M,3,02,04,09,12,14,25,29,,,,,,2.1,1.1,1.8*31
Trace #83 at position 20.500000
$GPZDA,084133.04,09,10,2011,00,00*65
$GPRMC,084133.00,A,4611.961177,N,01258.225122,E,002.2,325.4,091$GPGGA,084134.00,4611.961656,N,01258.224691,E,1,07,1.1,140.17,M,46.25,M,,*6A
$GPGLL,4611.961656,N,01258.224691,E,084134.00,A,A*6E
$GPVTG,331.5,T,331.6,M,002.0,N,003.6,K,A*27
$GPGSV,3,1,09,02,38,086,45,04,16,042,41,09,25,150,43,12,62,069,44*71
$GPGSV,3,2,09,14,32,259,41,25,72,318,43,29,46,219,46,30,28,287,37*70
$GPGSV,3,3,09,31,20,314,,,,,,,,,,,,,*46
$GPGSA,M,3,02,04,09,12,14,25,29,,,,,,2.1,1.1,1.8*31
Trace #84 at position 20.750000
$GPZDA,084133.04,09,10,2011,00,00*65
$GPRMC,084133.00,A,4611.961177,N,01258.225122,E,002.2,325.4,091$GPGGA,084134.00,4611.961656,N,01258.224691,E,1,07,1.1,140.17,M,46.25,M,,*6A
$GPGLL,4611.961656,N,01258.224691,E,084134.00,A,A*6E
$GPVTG,331.5,T,331.6,M,002.0,N,003.6,K,A*27
$GPGSV,3,1,09,02,38,086,45,04,16,042,41,09,25,150,43,12,62,069,44*71
$GPGSV,3,2,09,14,32,259,41,25,72,318,43,29,46,219,46,30,28,287,37*70
$GPGSV,3,3,09,31,20,314,,,,,,,,,,,,,*46
$GPGSA,M,3,02,04,09,12,14,25,29,,,,,,2.1,1.1,1.8*31
Trace #85 at position 21.000000
$GPZDA,084134.04,09,10,2011,00,00*62
$GPRMC,084134.00,A,4611.961656,N,01258.224691,E,002.0,331.5,0911258.224529,E,1,07,1.1,140.24,M,46.25,M,,*6F
$GPGLL,4611.962112,N,01258.224529,E,084135.00,A,A*6B
$GPVTG,4.4,T,4.6,M,001.7,N,003.1,K,A*25
$GPGSV,3,1,09,02,38,086,45,04,16,042,41,09,25,150,43,12,62,069,44*71
$GPGSV,3,2,09,14,32,259,40,25,72,318,44,29,46,219,47,30,28,287,36*76
$GPGSV,3,3,09,31,20,314,,,,,,,,,,,,,*46
$GPGSA,M,3,02,04,09,12,14,25,29,,,,,,2.1,1.1,1.8*31
Trace #86 at position 21.250000
$GPZDA,084134.04,09,10,2011,00,00*62
$GPRMC,084134.00,A,4611.961656,N,01258.224691,E,002.0,331.5,0911258.224529,E,1,07,1.1,140.24,M,46.25,M,,*6F
$GPGLL,4611.962112,N,01258.224529,E,084135.00,A,A*6B
$GPVTG,4.4,T,4.6,M,001.7,N,003.1,K,A*25
$GPGSV,3,1,09,02,38,086,45,04,16,042,41,09,25,150,43,12,62,069,44*71
$GPGSV,3,2,09,14,32,259,40,25,72,318,44,29,46,219,47,30,28,287,36*76
$GPGSV,3,3,09,31,20,314,,,,,,,,,,,,,*46
$GPGSA,M,3,02,04,09,12,14,25,29,,,,,,2.1,1.1,1.8*31
Trace #87 at position 21.500000
$GPZDA,084134.04,09,10,2011,00,00*62
$GPRMC,084134.00,A,4611.961656,N,01258.224691,E,002.0,331.5,0911258.224529,E,1,07,1.1,140.24,M,46.25,M,,*6F
$GPGLL,4611.962112,N,01258.224529,E,084135.00,A,A*6B
$GPVTG,4.4,T,4.6,M,001.7,N,003.1,K,A*25
$GPGSV,3,1,09,02,38,086,45,04,16,042,41,09,25,150,43,12,62,069,44*71
$GPGSV,3,2,09,14,32,259,40,25,72,318,44,29,46,219,47,30,28,287,36*76
$GPGSV,3,3,09,31,20,314,,,,,,,,,,,,,*46
$GPGSA,M,3,02,04,09,12,14,25,29,,,,,,2.1,1.1,1.8*31
Trace #88 at position 21.750000
$GPZDA,084135.04,09,10,2011,00,00*63
$GPRMC,084135.00,A,4611.962112,N,01258.224529,E,001.7,4.4,091011,0.2,E,A*3B
$GPGGA,084136.00,4611.611.962549,N,01258.224428,E,084136.00,A,A*62
$GPVTG,340.1,T,340.2,M,001.7,N,003.1,K,A*24
$GPGSV,3,1,09,02,38,086,46,04,16,042,41,09,25,150,42,12,62,069,44*73
$GPGSV,3,2,09,14,32,259,42,25,72,318,43,29,46,219,46,30,28,287,36*72
$GPGSV,3,3,09,31,20,314,,,,,,,,,,,,,*46
$GPGSA,M,3,02,04,09,12,14,25,29,,,,,,2.1,1.1,1.8*31
Trace #89 at position 22.000000
$GPZDA,084135.04,09,10,2011,00,00*63
$GPRMC,084135.00,A,4611.962112,N,01258.224529,E,001.7,4.4,091011,0.2,E,A*3B
$GPGGA,084136.00,4611.611.962549,N,01258.224428,E,084136.00,A,A*62
$GPVTG,340.1,T,340.2,M,001.7,N,003.1,K,A*24
$GPGSV,3,1,09,02,38,086,46,04,16,042,41,09,25,150,42,12,62,069,44*73
$GPGSV,3,2,09,14,32,259,42,25,72,318,43,29,46,219,46,30,28,287,36*72
$GPGSV,3,3,09,31,20,314,,,,,,,,,,,,,*46
$GPGSA,M,3,02,04,09,12,14,25,29,,,,,,2.1,1.1,1.8*31
Trace #90 at position 22.250000
$GPZDA,084136.04,09,10,2011,00,00*60
$GPRMC,084136.00,A,4611.962549,N,01258.224428,E,001.7,340.1,091011,0.2,E,A*34
$GPGGA,084137.00,4611.962984,N,01258.224130,E,1,07,1.1,140.34,M,46.25,V,3,1,09,02,38,086,46,04,16,042,42,09,25,150,43,12,62,069,45*70
$GPGSV,3,2,09,14,32,259,41,25,72,318,43,29,46,219,46,30,28,287,34*73
$GPGSV,3,3,09,31,20,314,,,,,,,,,,,,,*46
$GPGSA,M,3,02,04,09,12,14,25,29,,,,,,2.1,1.1,1.8*31
Trace #91 at position 22.500000
$GPZDA,084136.04,09,10,2011,00,00*60
$GPRMC,084136.00,A,4611.962549,N,01258.224428,E,001.7,340.1,091011,0.2,E,A*34
$GPGGA,084137.00,4611.962984,N,01258.224130,E,1,07,1.1,140.34,M,46.25,V,3,1,09,02,38,086,46,04,16,042,42,09,25,150,43,12,62,069,45*70
$GPGSV,3,2,09,14,32,259,41,25,72,318,43,29,46,219,46,30,28,287,34*73
$GPGSV,3,3,09,31,20,314,,,,,,,,,,,,,*46
$GPGSA,M,3,02,04,09,12,14,25,29,,,,,,2.1,1.1,1.8*31
Trace #92 at position 22.750000
$GPZDA,084136.04,09,10,2011,00,00*60
$GPRMC,084136.00,A,4611.962549,N,01258.224428,E,001.7,340.1,091011,0.2,E,A*34
$GPGGA,084137.00,4611.962984,N,01258.224130,E,1,07,1.1,140.34,M,46.25,V,3,1,09,02,38,086,46,04,16,042,42,09,25,150,43,12,62,069,45*70
$GPGSV,3,2,09,14,32,259,41,25,72,318,43,29,46,219,46,30,28,287,34*73
$GPGSV,3,3,09,31,20,314,,,,,,,,,,,,,*46
$GPGSA,M,3,02,04,09,12,14,25,29,,,,,,2.1,1.1,1.8*31
Trace #93 at position 23.000000
$GPZDA,084136.04,09,10,2011,00,00*60
$GPRMC,084136.00,A,4611.962549,N,01258.224428,E,001.7,340.1,091011,0.2,E,A*34
$GPGGA,084137.00,4611.962984,N,01258.224130,E,1,07,1.1,140.34,M,46.25,V,3,1,09,02,38,086,46,04,16,042,42,09,25,150,43,12,62,069,45*70
$GPGSV,3,2,09,14,32,259,41,25,72,318,43,29,46,219,46,30,28,287,34*73
$GPGSV,3,3,09,31,20,314,,,,,,,,,,,,,*46
$GPGSA,M,3,02,04,09,12,14,25,29,,,,,,2.1,1.1,1.8*31
Trace #94 at position 23.250000
$GPZDA,084136.04,09,10,2011,00,00*60
$GPRMC,084136.00,A,4611.962549,N,01258.224428,E,001.7,340.1,091011,0.2,E,A*34
$GPGGA,084137.00,4611.962984,N,01258.224130,E,1,07,1.1,140.34,M,46.25,V,3,1,09,02,38,086,46,04,16,042,42,09,25,150,43,12,62,069,45*70
$GPGSV,3,2,09,14,32,259,41,25,72,318,43,29,46,219,46,30,28,287,34*73
$GPGSV,3,3,09,31,20,314,,,,,,,,,,,,,*46
$GPGSA,M,3,02,04,09,12,14,25,29,,,,,,2.1,1.1,1.8*31
Trace #95 at position 23.500000
$GPZDA,084137.04,09,10,2011,00,00*61
$GPRMC,084137.00,A,4611.962984,N,01258.224130,E,001.8,330.4,091011,0.2,E,A*39
$GPGGA,084138.00,4611.963479,N,01258.223936,E,1,07,1.1,140.42,M,46.25,M,,*6E
$GPGLL,4611.963479,N,01258.223936,E,084138.00,A,A*6A
$GPVTG,357.7,T,357.8,M,002.0,N,003*31
$GPZDA,084138.04,09,10,2011,00,00*6E
$GPRMC,084138.00,A,4611.963479,N,01258.223936,E,002.0,357.7,091011,0.2,E,A*38
$GPGGA,084139.00,4611.963945,N,01258.223755,E,1,07,1.1,140.48,M,46.25,M,,*6C
$GPGLL,4611.963945,N,01258.223755,E,084139.00,A,A*62
$GPVTG,331.2,T,331.3,M,001.7,N,003.1,K,A*26
$GPGSV,3,1,09,02,38,086,45,04,16,042,42,09,25,150,43,12,62,069,42*74
$GPGSV,3,2,09,14,32,259,40,25,72,318,43,29,46,219,47,30,28,287,34*73
$GPGSV,3,3,09,31,20,314,,,,,,,,,,,,,*46
$GPGSA,M,3,02,04,09,12,14,25,29,11.963945,N,01258.223755,E,001.7,331.2,091011,0.2,E,A*31
Trace #96 at position 23.750000
$GPZDA,084137.04,09,10,2011,00,00*61
$GPRMC,084137.00,A,4611.962984,N,01258.224130,E,001.8,330.4,091011,0.2,E,A*39
$GPGGA,084138.00,4611.963479,N,01258.223936,E,1,07,1.1,140.42,M,46.25,M,,*6E
$GPGLL,4611.963479,N,01258.223936,E,084138.00,A,A*6A
$GPVTG,357.7,T,357.8,M,002.0,N,003*31
$GPZDA,084138.04,09,10,2011,00,00*6E
$GPRMC,084138.00,A,4611.963479,N,01258.223936,E,002.0,357.7,091011,0.2,E,A*38
$GPGGA,084139.00,4611.963945,N,01258.223755,E,1,07,1.1,140.48,M,46.25,M,,*6C
$GPGLL,4611.963945,N,01258.223755,E,084139.00,A,A*62
$GPVTG,331.2,T,331.3,M,001.7,N,003.1,K,A*26
$GPGSV,3,1,09,02,38,086,45,04,16,042,42,09,25,150,43,12,62,069,42*74
$GPGSV,3,2,09,14,32,259,40,25,72,318,43,29,46,219,47,30,28,287,34*73
$GPGSV,3,3,09,31,20,314,,,,,,,,,,,,,*46
$GPGSA,M,3,02,04,09,12,14,25,29,11.963945,N,01258.223755,E,001.7,331.2,091011,0.2,E,A*31
Trace #97 at position 24.000000
$GPGGA,084140.00,4611.964350,N,01258.223472,E,1,07,1.1,140.52,M,46.25,M,,*66
$GPGLL,4611.964350,N,01258.223472,E,084140.00,A,A*63
$GPVTG,337.4,T,337.5,M,001.7,N,003.1,K,A*26
$GPGSV,3,1,09,02,38,086,45,04,16,042,41,09,25,150,42,12,62,069,44*70
$GPGSV,3,2,09,14,32,259,41,25,72,318,42,29,46,219,47,30,28,287,33*74
$GPGSV,3,3,09,31,20,314,,,,,,,,,,,,,*46
$GPGSA,M,3,02,04,09,12,14,25,29,,,,,,2.1,1.1,1.8*31
Trace #98 at position 24.250000
$GPGGA,084140.00,4611.964350,N,01258.223472,E,1,07,1.1,140.52,M,46.25,M,,*66
$GPGLL,4611.964350,N,01258.223472,E,084140.00,A,A*63
$GPVTG,337.4,T,337.5,M,001.7,N,003.1,K,A*26
$GPGSV,3,1,09,02,38,086,45,04,16,042,41,09,25,150,42,12,62,069,44*70
$GPGSV,3,2,09,14,32,259,41,25,72,318,42,29,46,219,47,30,28,287,33*74
$GPGSV,3,3,09,31,20,314,,,,,,,,,,,,,*46
$GPGSA,M,3,02,04,09,12,14,25,29,,,,,,2.1,1.1,1.8*31
Trace #99 at position 24.500000
$GPGGA,084140.00,4611.964350,N,01258.223472,E,1,07,1.1,140.52,M,46.25,M,,*66
$GPGLL,4611.964350,N,01258.223472,E,084140.00,A,A*63
$GPVTG,337.4,T,337.5,M,001.7,N,003.1,K,A*26
$GPGSV,3,1,09,02,38,086,45,04,16,042,41,09,25,150,42,12,62,069,44*70
$GPGSV,3,2,09,14,32,259,41,25,72,318,42,29,46,219,47,30,28,287,33*74
$GPGSV,3,3,09,31,20,314,,,,,,,,,,,,,*46
$GPGSA,M,3,02,04,09,12,14,25,29,,,,,,2.1,1.1,1.8*31
Trace #100 at position 24.750000
$GPZDA,084140.04,09,10,2011,00,00*61
$GPRM$GPGGA,084141.00,4611.964692,N,01258.223296,E,1,07,1.1,140.59,M,46.25,M,,*6B
$GPGLL,4611.964692,N,01258.223296,E,084141.00,A,A*65
$GPVTG,345.6,T,345.8,M,001.0,N,001.9,K,A*24
$GPGSV,3,1,09,02,38,086,46,04,16,042,41,09,25,150,43,12,62,069,44*72
$GPGSV,3,2,09,14,32,259,40,25,72,318,45,29,46,219,46,30,28,287,31*71
$GPGSV,3,3,09,31,20,314,,,,,,,,,,,,,*46
$GPGSA,M,3,02,04,09,12,14,25,29,,,,,,2.1,1.1,1.8*31
Trace #101 at position 25.000000
$GPZDA,084143.04,09,10,2011,00,00*62
$GPRMC,084143.00,A,4611.965472,N,01258.223104,E,001.7,358.4,091$GPGGA,084144.00,4611.965886,N,01258.223038,E,1,07,1.1,140.72,M,46.25,M,,*6B
$GPGLL,4611.965886,N,01258.223038,E,084144.00,A,A*6C
$GPVTG,351.4,T,351.5,M,001.3,N,002.5,K,A*27
$GPGSV,3,1,09,02,38,086,43,04,16,042,43,09,25,150,42,12,62,069,44*74
$GPGSV,3,2,09,14,32,259,40,25,72,318,42,29,46,219,47,30,28,287,32*74
$GPGSV,3,3,09,31,20,314,,,,,,,,,,,,,*46
$GPGSA,M,3,02,04,09,12,14,25,29,,,,,,2.1,1.1,1.8*31
Trace #102 at position 25.250000
$GPZDA,084143.04,09,10,2011,00,00*62
$GPRMC,084143.00,A,4611.965472,N,01258.223104,E,001.7,358.4,091$GPGGA,084144.00,4611.965886,N,01258.223038,E,1,07,1.1,140.72,M,46.25,M,,*6B
$GPGLL,4611.965886,N,01258.223038,E,084144.00,A,A*6C
$GPVTG,351.4,T,351.5,M,001.3,N,002.5,K,A*27
$GPGSV,3,1,09,02,38,086,43,04,16,042,43,09,25,150,42,12,62,069,44*74
$GPGSV,3,2,09,14,32,259,40,25,72,318,42,29,46,219,47,30,28,287,32*74
$GPGSV,3,3,09,31,20,314,,,,,,,,,,,,,*46
$GPGSA,M,3,02,04,09,12,14,25,29,,,,,,2.1,1.1,1.8*31
Trace #103 at position 25.500000
$GPZDA,084143.04,09,10,2011,00,00*62
$GPRMC,084143.00,A,4611.965472,N,01258.223104,E,001.7,358.4,091$GPGGA,084144.00,4611.965886,N,01258.223038,E,1,07,1.1,140.72,M,46.25,M,,*6B
$GPGLL,4611.965886,N,01258.223038,E,084144.00,A,A*6C
$GPVTG,351.4,T,351.5,M,001.3,N,002.5,K,A*27
$GPGSV,3,1,09,02,38,086,43,04,16,042,43,09,25,150,42,12,62,069,44*74
$GPGSV,3,2,09,14,32,259,40,25,72,318,42,29,46,219,47,30,28,287,32*74
$GPGSV,3,3,09,31,20,314,,,,,,,,,,,,,*46
$GPGSA,M,3,02,04,09,12,14,25,29,,,,,,2.1,1.1,1.8*31
Trace #104 at position 25.750000
$GPZDA,084143.04,09,10,2011,00,00*62
$GPRMC,084143.00,A,4611.965472,N,01258.223104,E,001.7,358.4,091$GPGGA,084144.00,4611.965886,N,01258.223038,E,1,07,1.1,140.72,M,46.25,M,,*6B
$GPGLL,4611.965886,N,01258.223038,E,084144.00,A,A*6C
$GPVTG,351.4,T,351.5,M,001.3,N,002.5,K,A*27
$GPGSV,3,1,09,02,38,086,43,04,16,042,43,09,25,150,42,12,62,069,44*74
$GPGSV,3,2,09,14,32,259,40,25,72,318,42,29,46,219,47,30,28,287,32*74
$GPGSV,3,3,09,31,20,314,,,,,,,,,,,,,*46
$GPGSA,M,3,02,04,09,12,14,25,29,,,,,,2.1,1.1,1.8*31
Trace #105 at position 26.000000
$GPZDA,084144.04,09,10,2011,00,00*65
$GPRMC,084144.00,A,4611.965886,N,01258.223038,E,001.3,351.4,091$GPGGA,084145.00,4611.966260,N,01258.222864,E,1,07,1.1,140.70,M,46.25,M,,*69
$GPGLL,4611.966260,N,01258.222864,E,084145.00,A,A*6C
$GPVTG,338.1,T,338.3,M,001.6,N,003.0,K,A*25
$GPGSV,3,1,09,02,38,086,44,04,16,042,42,09,25,150,42,12,62,069,44*72
$GPGSV,3,2,09,14,32,259,42,25,72,318,40,29,46,219,47,30,28,287,32*74
$GPGSV,3,3,09,31,20,314,,,,,,,,,,,,,*46
$GPGSA,M,3,02,04,09,12,14,25,29,,,,,,2.1,1.1,1.8*31
Trace #106 at position 26.250000
$GPZDA,084144.04,09,10,2011,00,00*65
$GPRMC,084144.00,A,4611.965886,N,01258.223038,E,001.3,351.4,091$GPGGA,084145.00,4611.966260,N,01258.222864,E,1,07,1.1,140.70,M,46.25,M,,*69
$GPGLL,4611.966260,N,01258.222864,E,084145.00,A,A*6C
$GPVTG,338.1,T,338.3,M,001.6,N,003.0,K,A*25
$GPGSV,3,1,09,02,38,086,44,04,16,042,42,09,25,150,42,12,62,069,44*72
$GPGSV,3,2,09,14,32,259,42,25,72,318,40,29,46,219,47,30,28,287,32*74
$GPGSV,3,3,09,31,20,314,,,,,,,,,,,,,*46
$GPGSA,M,3,02,04,09,12,14,25,29,,,,,,2.1,1.1,1.8*31
Trace #107 at position 26.500000
$GPZDA,084144.04,09,10,2011,00,00*65
$GPRMC,084144.00,A,4611.965886,N,01258.223038,E,001.3,351.4,091$GPGGA,084145.00,4611.966260,N,01258.222864,E,1,07,1.1,140.70,M,46.25,M,,*69
$GPGLL,4611.966260,N,01258.222864,E,084145.00,A,A*6C
$GPVTG,338.1,T,338.3,M,001.6,N,003.0,K,A*25
$GPGSV,3,1,09,02,38,086,44,04,16,042,42,09,25,150,42,12,62,069,44*72
$GPGSV,3,2,09,14,32,259,42,25,72,318,40,29,46,219,47,30,28,287,32*74
$GPGSV,3,3,09,31,20,314,,,,,,,,,,,,,*46
$GPGSA,M,3,02,04,09,12,14,25,29,,,,,,2.1,1.1,1.8*31
Trace #108 at position 26.750000
$GPZDA,084144.04,09,10,2011,00,00*65
$GPRMC,084144.00,A,4611.965886,N,01258.223038,E,001.3,351.4,091$GPGGA,084145.00,4611.966260,N,01258.222864,E,1,07,1.1,140.70,M,46.25,M,,*69
$GPGLL,4611.966260,N,01258.222864,E,084145.00,A,A*6C
$GPVTG,338.1,T,338.3,M,001.6,N,003.0,K,A*25
$GPGSV,3,1,09,02,38,086,44,04,16,042,42,09,25,150,42,12,62,069,44*72
$GPGSV,3,2,09,14,32,259,42,25,72,318,40,29,46,219,47,30,28,287,32*74
$GPGSV,3,3,09,31,20,314,,,,,,,,,,,,,*46
$GPGSA,M,3,02,04,09,12,14,25,29,,,,,,2.1,1.1,1.8*31
Trace #109 at position 27.000000
$GPZDA,084144.04,09,10,2011,00,00*65
