Trace #1 at position 0.000000
$GPZDA,083242.03,08,10,2011,00,00*61
$GPRMC,083242.00,A,4611.977342,N,01258.205943,E,000.1,40.4,081011,0.2,E,A*09
$GPGGA,083243.00,4611.977170,N,01258.205955,E,1,05,3.5,143.65,M,46.25,M,,*6C
$GPGLL,4611.977170,N,01258.205955,E,083243.00,A,A*6A
$GPVTG,321.5,T,321.7,M,000.1,N,000.1,K,A*21
$GPGSV,3,1,09,04,19,047,,02,37,093,,09,31,147,33,12,66,059,40*73
$GPGSV,3,2,09,14,34,266,40,25,68,306,45,29,40,217,,30,24,284,44*78
$GPGSV,3,3,09,31,15,314,45,,,,,,,,,,,,*41
$GPGSA,M,3,12,14,25,30,31,,,,,,,,5.4,3.5,4.1*3C
Trace #2 at position 0.250000
$GPZDA,083259.03,08,10,2011,00,00*6B
$GPRMC,083259.00,A,4611.976021,N,01258.206024,E,000.1,140.9,081011,0.2,$GPGGA,083300.00,4611.976009,N,01258.206031,E,1,06,2.1,142.10,M,46.25,M,,*69
$GPGLL,4611.976009,N,01258.206031,E,083300.00,A,A*6A
$GPVTG,77.8,T,78.0,M,000.0,N,000.1,K,A*25
$GPGSV,3,1,09,04,19,047,,02,37,093,,09,30,148,,12,66,060,39*79
$GPGSV,3,2,09,14,34,265,41,25,68,306,49,29,40,217,41,30,24,284,41*76
$GPGSV,3,3,09,31,15,314,45,,,,,,,,,,,,*41
$GPGSA,M,3,12,14,25,29,30,31,,,,,,,3.7,2.1,3.1*30
Trace #3 at position 0.500000
$GPZDA,083300.04,08,10,2011,00,00*61
$GPRMC,083300.00,A,4611.976009,N,01258.206031,E,000.0,77.8,081011,0.2,E$GPGGA,083301.00,4611.976012,N,01258.206002,E,1,06,2.1,142.17,M,46.25,M,,*65
$GPGLL,4611.976012,N,01258.206002,E,083301.00,A,A*61
$GPVTG,276.5,T,276.7,M,000.1,N,000.2,K,A*22
$GPGSV,3,1,09,04,19,047,,02,37,093,,09,30,148,,12,66,060,40*77
$GPGSV,3,2,09,14,34,265,42,25,68,306,49,29,40,217,37,30,24,284,44*71
$GPGSV,3,3,09,31,15,314,47,,,,,,,,,,,,*43
$GPGSA,M,3,12,14,25,29,30,31,,,,,,,3.7,2.1,3.1*30
Trace #4 at position 0.750000
$GPZDA,083301.03,08,10,2011,00,00*67
$GPRMC,083301.00,A,4611.976012,N,01258.206002,E,000.1,276.5,081011,0.$GPGGA,083302.00,4611.976001,N,01258.205959,E,1,06,2.1,142.21,M,46.25,M,,*65
$GPGLL,4611.976001,N,01258.205959,E,083302.00,A,A*64
$GPVTG,186.1,T,186.2,M,000.2,N,000.4,K,A*26
$GPGSV,3,1,09,04,19,047,,02,37,093,,09,30,148,,12,66,060,41*76
$GPGSV,3,2,09,14,34,265,43,25,68,306,49,29,40,217,39,30,24,284,44*7E
$GPGSV,3,3,09,31,15,314,47,,,,,,,,,,,,*43
$GPGSA,M,3,12,14,25,29,30,31,,,,,,,3.7,2.1,3.1*30
Trace #5 at position 1.000000
$GPZDA,083302.04,08,10,2011,00,00*63
$GPRMC,083302.00,A,4611.976001,N,01258.205959,E,000.2,186.1,081011,0.1258.205926,E,1,06,2.1,142.22,M,46.25,M,,*6C
$GPGLL,4611.975980,N,01258.205926,E,083303.00,A,A*6E
$GPVTG,233.7,T,233.8,M,000.1,N,000.2,K,A*2F
$GPGSV,3,1,09,04,19,047,,02,37,093,,09,30,148,,12,66,060,41*76
$GPGSV,3,2,09,14,34,265,41,25,68,306,49,29,40,217,47,30,24,284,45*74
$GPGSV,3,3,09,31,15,314,46,,,,,,,,,,,,*42
$GPGSA,M,3,12,14,25,29,30,31,,,,,,,3.7,2.1,3.1*30
Trace #6 at position 1.250000
$GPZDA,083302.04,08,10,2011,00,00*63
$GPRMC,083302.00,A,4611.976001,N,01258.205959,E,000.2,186.1,081011,0.1258.205926,E,1,06,2.1,142.22,M,46.25,M,,*6C
$GPGLL,4611.975980,N,01258.205926,E,083303.00,A,A*6E
$GPVTG,233.7,T,233.8,M,000.1,N,000.2,K,A*2F
$GPGSV,3,1,09,04,19,047,,02,37,093,,09,30,148,,12,66,060,41*76
$GPGSV,3,2,09,14,34,265,41,25,68,306,49,29,40,217,47,30,24,284,45*74
$GPGSV,3,3,09,31,15,314,46,,,,,,,,,,,,*42
$GPGSA,M,3,12,14,25,29,30,31,,,,,,,3.7,2.1,3.1*30
Trace #7 at position 1.500000
$GPZDA,083303.04,08,10,2011,00,00*62
$GPRMC,083303.00,A,4611.975980,N,01258.205926,E,000.1,233.7,081011,0.2,E,A*3D
$GPGGA,083304.00,4611.58.205869,E,083304.00,A,A*60
$GPVTG,304.4,T,304.6,M,000.2,N,000.4,K,A*27
$GPGSV,3,1,09,04,19,047,,02,37,093,36,09,30,148,,12,66,060,40*72
$GPGSV,3,2,09,14,34,265,40,25,68,306,48,29,40,217,45,30,24,284,39*7D
$GPGSV,3,3,09,31,15,314,45,,,,,,,,,,,,*41
$GPGSA,M,3,12,14,25,29,30,31,,,,,,,3.7,2.1,3.1*30
Trace #8 at position 1.750000
$GPZDA,083304.03,08,10,2011,00,00*62
$GPRMC,083304.00,A,4611.975992,N,01258.205869,E,000.2,304.4,081011,0.2,E,A*36
$GPGGA,083305.00,4611.976018,N,01258.205813,E,1,05,2.2,142.30,M,46.25,M,,*65
$GPGLL,4611.,44,25,68,306,49,29,40,217,46,30,24,284,36*74
$GPGSV,3,3,09,31,15,314,40,,,,,,,,,,,,*44
$GPGSA,M,3,12,14,25,29,31,,,,,,,,3.7,2.2,3.1*30
Trace #9 at position 2.000000
$GPZDA,083304.03,08,10,2011,00,00*62
$GPRMC,083304.00,A,4611.975992,N,01258.205869,E,000.2,304.4,081011,0.2,E,A*36
$GPGGA,083305.00,4611.976018,N,01258.205813,E,1,05,2.2,142.30,M,46.25,M,,*65
$GPGLL,4611.,44,25,68,306,49,29,40,217,46,30,24,284,36*74
$GPGSV,3,3,09,31,15,314,40,,,,,,,,,,,,*44
$GPGSA,M,3,12,14,25,29,31,,,,,,,,3.7,2.2,3.1*30
Trace #10 at position 2.250000
$GPZDA,083305.04,08,10,2011,00,00*64
$GPRMC,083305.00,A,4611.976018,N,01258.205813,E,000.0,118.2,081011,0.2,E,A*39
$GPGGA,083306.00,4611.976013,N,01258.205812,E,1,05,2.2,142.34,M,46.25,M,,*68
$GPGLL,4611.976013,N,01258.205812,E,083306.00,A,A*6D
$GPVTG,138.9,T,139.1,M,000.1,N,000.2,K,A*29
$GPGSV,3,1,09,04,19,047,,02,37,093,35,09,30,148,,12,66,060,38*7E
$GPGSV,3,2,093,3,09,31,15,314,36,,,,,,,,,,,,*45
$GPGSA,M,3,12,14,25,29,31,,,,,,,,3.7,2.2,3.1*30
Trace #11 at position 2.500000
$GPZDA,083305.04,08,10,2011,00,00*64
$GPRMC,083305.00,A,4611.976018,N,01258.205813,E,000.0,118.2,081011,0.2,E,A*39
$GPGGA,083306.00,4611.976013,N,01258.205812,E,1,05,2.2,142.34,M,46.25,M,,*68
$GPGLL,4611.976013,N,01258.205812,E,083306.00,A,A*6D
$GPVTG,138.9,T,139.1,M,000.1,N,000.2,K,A*29
$GPGSV,3,1,09,04,19,047,,02,37,093,35,09,30,148,,12,66,060,38*7E
$GPGSV,3,2,093,3,09,31,15,314,36,,,,,,,,,,,,*45
$GPGSA,M,3,12,14,25,29,31,,,,,,,,3.7,2.2,3.1*30
Trace #12 at position 2.750000
$GPZDA,083305.04,08,10,2011,00,00*64
$GPRMC,083305.00,A,4611.976018,N,01258.205813,E,000.0,118.2,081011,0.2,E,A*39
$GPGGA,083306.00,4611.976013,N,01258.205812,E,1,05,2.2,142.34,M,46.25,M,,*68
$GPGLL,4611.976013,N,01258.205812,E,083306.00,A,A*6D
$GPVTG,138.9,T,139.1,M,000.1,N,000.2,K,A*29
$GPGSV,3,1,09,04,19,047,,02,37,093,35,09,30,148,,12,66,060,38*7E
$GPGSV,3,2,093,3,09,31,15,314,36,,,,,,,,,,,,*45
$GPGSA,M,3,12,14,25,29,31,,,,,,,,3.7,2.2,3.1*30
Trace #13 at position 3.000000
$GPZDA,083306.03,08,10,2011,00,00*60
$GPRMC,083306.00,A,4611.976013,N,01258.205812,E,000.1,138.9,081011,0.2,E,A*38
$GPGGA,083307.00,4611.975885,N,01258.205878,E,1,05,2.5,142.62,M,46.25,M,,*65
$GPGLL,4611.975885,N,01258.205878,E,083307.00,A,A*64
$GPVTG,143.2,T,143.3,M,000.7,N,001.3,K,A*27
$GPGSV,3,1,09,04,19,047,,02,37,093,34,09,30,148,,12,66,060,37*70
$GPGSV,3,2,09,14,34,265,46,25,68,306,49,29,40,217,45,30,24,284,41*7$GPGGA,083308.00,4611.975685,N,01258.205974,E,1,05,2.5,142.89,M,46.25,M,,*6C
$GPGLL,4611.975685,N,01258.205974,E,083308.00,A,A*68
$GPVTG,159.4,T,159.6,M,000.8,N,001.4,K,A*2C
$GPGSV,3,1,09,04,19,047,,02,37,093,38,09,30,148,,12,66,060,37*7C
$GPGSV,3,2,09,14,34,265,44,25,68,306,49,29,40,217,46,30,24,284,44*71
$GPGSV,3,3,09,31,15,314,38,,,,,,,,,,,,*4B
$GPGSA,M,3,12,14,25,29,30,,,,,,,,5.0,2.5,4.4*35
Trace #14 at position 3.250000
$GPZDA,083306.03,08,10,2011,00,00*60
$GPRMC,083306.00,A,4611.976013,N,01258.205812,E,000.1,138.9,081011,0.2,E,A*38
$GPGGA,083307.00,4611.975885,N,01258.205878,E,1,05,2.5,142.62,M,46.25,M,,*65
$GPGLL,4611.975885,N,01258.205878,E,083307.00,A,A*64
$GPVTG,143.2,T,143.3,M,000.7,N,001.3,K,A*27
$GPGSV,3,1,09,04,19,047,,02,37,093,34,09,30,148,,12,66,060,37*70
$GPGSV,3,2,09,14,34,265,46,25,68,306,49,29,40,217,45,30,24,284,41*7$GPGGA,083308.00,4611.975685,N,01258.205974,E,1,05,2.5,142.89,M,46.25,M,,*6C
$GPGLL,4611.975685,N,01258.205974,E,083308.00,A,A*68
$GPVTG,159.4,T,159.6,M,000.8,N,001.4,K,A*2C
$GPGSV,3,1,09,04,19,047,,02,37,093,38,09,30,148,,12,66,060,37*7C
$GPGSV,3,2,09,14,34,265,44,25,68,306,49,29,40,217,46,30,24,284,44*71
$GPGSV,3,3,09,31,15,314,38,,,,,,,,,,,,*4B
$GPGSA,M,3,12,14,25,29,30,,,,,,,,5.0,2.5,4.4*35
Trace #15 at position 3.500000
$GPZDA,083308.04,08,10,2011,00,00*69
$GPRMC,083308.00,A,4611.975685,N,01258.205974,E,000.8,159.4,081011,0.$GPGGA,083309.00,4611.975492,N,01258.205969,E,1,05,2.5,143.05,M,46.25,M,,*60
$GPGLL,4611.975492,N,01258.205969,E,083309.00,A,A*61
$GPVTG,192.6,T,192.8,M,000.6,N,001.0,K,A*2A
$GPGSV,3,1,09,04,19,047,,02,37,093,31,09,30,148,,12,66,060,39*7B
$GPGSV,3,2,09,14,34,265,44,25,68,306,48,29,40,217,45,30,24,284,42*75
$GPGSV,3,3,09,31,15,314,38,,,,,,,,,,,,*4B
$GPGSA,M,3,12,14,25,29,30,,,,,,,,5.0,2.5,4.4*35
Trace #16 at position 3.750000
$GPZDA,083308.04,08,10,2011,00,00*69
$GPRMC,083308.00,A,4611.975685,N,01258.205974,E,000.8,159.4,081011,0.$GPGGA,083309.00,4611.975492,N,01258.205969,E,1,05,2.5,143.05,M,46.25,M,,*60
$GPGLL,4611.975492,N,01258.205969,E,083309.00,A,A*61
$GPVTG,192.6,T,192.8,M,000.6,N,001.0,K,A*2A
$GPGSV,3,1,09,04,19,047,,02,37,093,31,09,30,148,,12,66,060,39*7B
$GPGSV,3,2,09,14,34,265,44,25,68,306,48,29,40,217,45,30,24,284,42*75
$GPGSV,3,3,09,31,15,314,38,,,,,,,,,,,,*4B
$GPGSA,M,3,12,14,25,29,30,,,,,,,,5.0,2.5,4.4*35
Trace #17 at position 4.000000
$GPZDA,083309.04,08,10,2011,00,00*68
$GPRMC,083309.00,A,4611.975492,N,01258.205969,E,000.6,192.6,081011,0.$GPGGA,083310.00,4611.975348,N,01258.206027,E,1,06,2.1,142.85,M,46.25,M,,*66
$GPGLL,4611.975348,N,01258.206027,E,083310.00,A,A*69
$GPVTG,151.6,T,151.7,M,000.7,N,001.2,K,A*26
$GPGSV,3,1,09,04,19,047,,02,37,093,34,09,30,148,,12,66,060,39*7E
$GPGSV,3,2,09,14,34,265,43,25,68,306,48,29,40,217,46,30,24,284,43*70
$GPGSV,3,3,09,31,15,314,43,,,,,,,,,,,,*47
$GPGSA,M,3,12,14,25,29,30,31,,,,,,,3.7,2.1,3.1*30
Trace #18 at position 4.250000
$GPZDA,083309.04,08,10,2011,00,00*68
$GPRMC,083309.00,A,4611.975492,N,01258.205969,E,000.6,192.6,081011,0.$GPGGA,083310.00,4611.975348,N,01258.206027,E,1,06,2.1,142.85,M,46.25,M,,*66
$GPGLL,4611.975348,N,01258.206027,E,083310.00,A,A*69
$GPVTG,151.6,T,151.7,M,000.7,N,001.2,K,A*26
$GPGSV,3,1,09,04,19,047,,02,37,093,34,09,30,148,,12,66,060,39*7E
$GPGSV,3,2,09,14,34,265,43,25,68,306,48,29,40,217,46,30,24,284,43*70
$GPGSV,3,3,09,31,15,314,43,,,,,,,,,,,,*47
$GPGSA,M,3,12,14,25,29,30,31,,,,,,,3.7,2.1,3.1*30
Trace #19 at position 4.500000
$GPZDA,083309.04,08,10,2011,00,00*68
$GPRMC,083309.00,A,4611.975492,N,01258.205969,E,000.6,192.6,081011,0.$GPGGA,083310.00,4611.975348,N,01258.206027,E,1,06,2.1,142.85,M,46.25,M,,*66
$GPGLL,4611.975348,N,01258.206027,E,083310.00,A,A*69
$GPVTG,151.6,T,151.7,M,000.7,N,001.2,K,A*26
$GPGSV,3,1,09,04,19,047,,02,37,093,34,09,30,148,,12,66,060,39*7E
$GPGSV,3,2,09,14,34,265,43,25,68,306,48,29,40,217,46,30,24,284,43*70
$GPGSV,3,3,09,31,15,314,43,,,,,,,,,,,,*47
$GPGSA,M,3,12,14,25,29,30,31,,,,,,,3.7,2.1,3.1*30
Trace #20 at position 4.750000
$GPZDA,083310.04,08,10,2011,00,00*60
$GPRMC,083310.00,A,4611.975348,N,01258.206027,E,000.7,151.6,081011,$GPGGA,083311.00,4611.975136,N,01258.206175,E,1,06,2.1,142.65,M,46.25,M,,*64
$GPGLL,4611.975136,N,01258.206175,E,083311.00,A,A*65
$GPVTG,160.6,T,160.7,M,001.1,N,002.0,K,A*20
$GPGSV,3,1,09,04,19,047,,02,37,093,34,09,30,148,,12,66,060,40*70
$GPGSV,3,2,09,14,34,265,44,25,68,306,48,29,40,217,44,30,24,284,43*75
$GPGSV,3,3,09,31,15,314,46,,,,,,,,,,,,*42
$GPGSA,M,3,12,14,25,29,30,31,,,,,,,3.7,2.1,3.1*30
Trace #21 at position 5.000000
$GPZDA,083310.04,08,10,2011,00,00*60
$GPRMC,083310.00,A,4611.975348,N,01258.206027,E,000.7,151.6,081011,$GPGGA,083311.00,4611.975136,N,01258.206175,E,1,06,2.1,142.65,M,46.25,M,,*64
$GPGLL,4611.975136,N,01258.206175,E,083311.00,A,A*65
$GPVTG,160.6,T,160.7,M,001.1,N,002.0,K,A*20
$GPGSV,3,1,09,04,19,047,,02,37,093,34,09,30,148,,12,66,060,40*70
$GPGSV,3,2,09,14,34,265,44,25,68,306,48,29,40,217,44,30,24,284,43*75
$GPGSV,3,3,09,31,15,314,46,,,,,,,,,,,,*42
$GPGSA,M,3,12,14,25,29,30,31,,,,,,,3.7,2.1,3.1*30
Trace #22 at position 5.250000
$GPZDA,083311.04,08,10,2011,00,00*61
$GPRMC,083311.00,A,4611.975136,N,01258.206175,E,001.1,160.6,081011,$GPGGA,083312.00,4611.974931,N,01258.206288,E,1,06,2.1,142.54,M,46.25,M,,*6A
$GPGLL,4611.974931,N,01258.206288,E,083312.00,A,A*69
$GPVTG,161.5,T,161.6,M,000.6,N,001.1,K,A*26
$GPGSV,3,1,09,04,19,047,,02,37,093,34,09,30,148,,12,66,060,39*7E
$GPGSV,3,2,09,14,34,265,45,25,68,306,48,29,40,217,44,30,24,284,43*74
$GPGSV,3,3,09,31,15,314,46,,,,,,,,,,,,*42
$GPGSA,M,3,12,14,25,29,30,31,,,,,,,3.7,2.1,3.1*30
Trace #23 at position 5.500000
$GPZDA,083312.04,08,10,2011,00,00*62
$GPRMC,083312.00,A,4611.974931,N,01258.206288,E,000.6,161.5,081011,,4611.974734,N,01258.206346,E,1,06,2.1,142.48,M,46.25,M,,*6E
$GPGLL,4611.974734,N,01258.206346,E,083313.00,A,A*60
$GPVTG,177.4,T,177.6,M,000.9,N,001.6,K,A*2F
$GPGSV,3,1,09,04,19,047,31,02,37,093,33,09,30,148,36,12,66,060,38*7F
$GPGSV,3,2,09,14,34,265,44,25,68,306,48,29,40,217,45,30,24,284,44*73
$GPGSV,3,3,09,31,15,314,46,,,,,,,,,,,,*42
$GPGSA,M,3,12,14,25,29,30,31,,,,,,,3.7,2.1,3.1*30
Trace #24 at position 5.750000
$GPZDA,083312.04,08,10,2011,00,00*62
$GPRMC,083312.00,A,4611.974931,N,01258.206288,E,000.6,161.5,081011,,4611.974734,N,01258.206346,E,1,06,2.1,142.48,M,46.25,M,,*6E
$GPGLL,4611.974734,N,01258.206346,E,083313.00,A,A*60
$GPVTG,177.4,T,177.6,M,000.9,N,001.6,K,A*2F
$GPGSV,3,1,09,04,19,047,31,02,37,093,33,09,30,148,36,12,66,060,38*7F
$GPGSV,3,2,09,14,34,265,44,25,68,306,48,29,40,217,45,30,24,284,44*73
$GPGSV,3,3,09,31,15,314,46,,,,,,,,,,,,*42
$GPGSA,M,3,12,14,25,29,30,31,,,,,,,3.7,2.1,3.1*30
Trace #25 at position 6.000000
$GPZDA,083312.04,08,10,2011,00,00*62
$GPRMC,083312.00,A,4611.974931,N,01258.206288,E,000.6,161.5,081011,,4611.974734,N,01258.206346,E,1,06,2.1,142.48,M,46.25,M,,*6E
$GPGLL,4611.974734,N,01258.206346,E,083313.00,A,A*60
$GPVTG,177.4,T,177.6,M,000.9,N,001.6,K,A*2F
$GPGSV,3,1,09,04,19,047,31,02,37,093,33,09,30,148,36,12,66,060,38*7F
$GPGSV,3,2,09,14,34,265,44,25,68,306,48,29,40,217,45,30,24,284,44*73
$GPGSV,3,3,09,31,15,314,46,,,,,,,,,,,,*42
$GPGSA,M,3,12,14,25,29,30,31,,,,,,,3.7,2.1,3.1*30
Trace #26 at position 6.250000
$GPZDA,083313.04,08,10,2011,00,00*63
$GPRMC,083313.00,A,4611.974734,N,01258.206346,E,000.9,177.4,081011,0.2,E,A*3B
PGLL,4611.974504,N,01258.206337,E,083314.00,A,A*60
$GPVTG,197.7,T,197.8,M,000.9,N,001.6,K,A*22
$GPGSV,3,1,09,04,19,047,,02,37,093,34,09,30,148,35,12,66,060,38*79
$GPGSV,3,2,09,14,34,265,44,25,68,306,48,29,40,217,45,30,24,284,43*74
$GPGSV,3,3,09,31,15,314,45,,,,,,,,,,,,*41
$GPGSA,M,3,12,14,25,29,30,31,,,,,,,3.7,2.1,3.1*30
Trace #27 at position 6.500000
$GPZDA,083314.04,08,10,2011,00,00*64
$GPRMC,083314.00,A,4611.974504,N,01258.206337,E,000.9,197.7,081011,0.2,E,A*36
$GPGGA,083315.00,4611.974265,N,01258.206423,E,1,06,2.1,142.55,M,46,001.9,K,A*2B
$GPGSV,3,1,09,04,19,047,,02,37,093,33,09,30,148,36,12,66,060,37*72
$GPGSV,3,2,09,14,34,265,45,25,68,306,48,29,40,217,45,30,24,284,44*72
$GPGSV,3,3,09,31,15,314,44,,,,,,,,,,,,*40
$GPGSA,M,3,12,14,25,29,30,31,,,,,,,3.7,2.1,3.1*30
Trace #28 at position 6.750000
$GPZDA,083314.04,08,10,2011,00,00*64
$GPRMC,083314.00,A,4611.974504,N,01258.206337,E,000.9,197.7,081011,0.2,E,A*36
$GPGGA,083315.00,4611.974265,N,01258.206423,E,1,06,2.1,142.55,M,46,001.9,K,A*2B
$GPGSV,3,1,09,04,19,047,,02,37,093,33,09,30,148,36,12,66,060,37*72
$GPGSV,3,2,09,14,34,265,45,25,68,306,48,29,40,217,45,30,24,284,44*72
$GPGSV,3,3,09,31,15,314,44,,,,,,,,,,,,*40
$GPGSA,M,3,12,14,25,29,30,31,,,,,,,3.7,2.1,3.1*30
Trace #29 at position 7.000000
$GPZDA,083314.04,08,10,2011,00,00*64
$GPRMC,083314.00,A,4611.974504,N,01258.206337,E,000.9,197.7,081011,0.2,E,A*36
$GPGGA,083315.00,4611.974265,N,01258.206423,E,1,06,2.1,142.55,M,46,001.9,K,A*2B
$GPGSV,3,1,09,04,19,047,,02,37,093,33,09,30,148,36,12,66,060,37*72
$GPGSV,3,2,09,14,34,265,45,25,68,306,48,29,40,217,45,30,24,284,44*72
$GPGSV,3,3,09,31,15,314,44,,,,,,,,,,,,*40
$GPGSA,M,3,12,14,25,29,30,31,,,,,,,3.7,2.1,3.1*30
Trace #30 at position 7.250000
$GPZDA,083314.04,08,10,2011,00,00*64
$GPRMC,083314.00,A,4611.974504,N,01258.206337,E,000.9,197.7,081011,0.2,E,A*36
$GPGGA,083315.00,4611.974265,N,01258.206423,E,1,06,2.1,142.55,M,46,001.9,K,A*2B
$GPGSV,3,1,09,04,19,047,,02,37,093,33,09,30,148,36,12,66,060,37*72
$GPGSV,3,2,09,14,34,265,45,25,68,306,48,29,40,217,45,30,24,284,44*72
$GPGSV,3,3,09,31,15,314,44,,,,,,,,,,,,*40
$GPGSA,M,3,12,14,25,29,30,31,,,,,,,3.7,2.1,3.1*30
Trace #31 at position 7.500000
$GPZDA,083314.04,08,10,2011,00,00*64
$GPRMC,083314.00,A,4611.974504,N,01258.206337,E,000.9,197.7,081011,0.2,E,A*36
$GPGGA,083315.00,4611.974265,N,01258.206423,E,1,06,2.1,142.55,M,46,001.9,K,A*2B
$GPGSV,3,1,09,04,19,047,,02,37,093,33,09,30,148,36,12,66,060,37*72
$GPGSV,3,2,09,14,34,265,45,25,68,306,48,29,40,217,45,30,24,284,44*72
$GPGSV,3,3,09,31,15,314,44,,,,,,,,,,,,*40
$GPGSA,M,3,12,14,25,29,30,31,,,,,,,3.7,2.1,3.1*30
Trace #32 at position 7.750000
$GPZDA,083315.04,08,10,2011,00,00*65
$GPRMC,083315.00,A,4611.974265,N,01258.206423,E,001.0,152.2,081011,0.2,E,A*31
$GPGGA,083316.00,4611.974018,N,01258.206676,E,1,06,2.1,142.56,M,46.25,M,,*6B
$GPGLL,4611.974018,N,01258.206676,E,083316.00,A,A*6A
$GPVTG,140.4,T,12,14,25,29,30,31,,,,,,,3.7,2.1,3.1*30
$GPZDA,083316.04,08,10,2011,00,00*66
$GPRMC,083316.00,A,4611.974018,N,01258.206676,E,001.1,140.4,081011,0.2,E,A*3C
$GPGGA,083317.00,4611.973766,N,01258.206940,E,1,06,2.1,142.58,M,46.25,M,,*67
$GPGLL,4611.973766,N,01258.206940,E,083317.00,A,A*68
$GPVTG,145.3,T,145.5,M,001.1,N,002.0,K,A*27
$GPGSV,3,1,09,04,19,047,32,02,37,093,,09,30,148,31,12,66,060,38*7B
$GPGSV,3,2,09,14,34,265,45,25,68,306,48,29,40,217,44,30,24,284,44*73
$GPGSV,3,3,09,31,15,314,44,,,,,,,,,,,,*4011.973766,N,01258.206940,E,001.1,145.3,081011,0.2,E,A*3C
$GPGGA,083318.00,4611.973482,N,01258.207093,E,1,06,2.1,142.54,M,46.25,M,,*6B
$GPGLL,4611.973482,N,01258.207093,E,083318.00,A,A*68
$GPVTG,169.8,T,170.0,M,001.1,N,002.1,K,A*20
$GPGSV,3,1,09,04,19,047,28,02,37,093,,09,30,148,29,12,66,060,38*79
$GPGSV,3,2,09,14,34,265,45,25,68,306,47,29,40,217,44,30,24,284,44*7C
$GPGSV,3,3,09,31,15,314,43,,,,,,,,,,,,*47
$GPGSA,M,3,12,14,25,29,30,31,,,,,,,3.7,2.1,3.1*30
Trace #33 at position 8.000000
$GPZDA,083315.04,08,10,2011,00,00*65
$GPRMC,083315.00,A,4611.974265,N,01258.206423,E,001.0,152.2,081011,0.2,E,A*31
$GPGGA,083316.00,4611.974018,N,01258.206676,E,1,06,2.1,142.56,M,46.25,M,,*6B
$GPGLL,4611.974018,N,01258.206676,E,083316.00,A,A*6A
$GPVTG,140.4,T,12,14,25,29,30,31,,,,,,,3.7,2.1,3.1*30
$GPZDA,083316.04,08,10,2011,00,00*66
$GPRMC,083316.00,A,4611.974018,N,01258.206676,E,001.1,140.4,081011,0.2,E,A*3C
$GPGGA,083317.00,4611.973766,N,01258.206940,E,1,06,2.1,142.58,M,46.25,M,,*67
$GPGLL,4611.973766,N,01258.206940,E,083317.00,A,A*68
$GPVTG,145.3,T,145.5,M,001.1,N,002.0,K,A*27
$GPGSV,3,1,09,04,19,047,32,02,37,093,,09,30,148,31,12,66,060,38*7B
$GPGSV,3,2,09,14,34,265,45,25,68,306,48,29,40,217,44,30,24,284,44*73
$GPGSV,3,3,09,31,15,314,44,,,,,,,,,,,,*4011.973766,N,01258.206940,E,001.1,145.3,081011,0.2,E,A*3C
$GPGGA,083318.00,4611.973482,N,01258.207093,E,1,06,2.1,142.54,M,46.25,M,,*6B
$GPGLL,4611.973482,N,01258.207093,E,083318.00,A,A*68
$GPVTG,169.8,T,170.0,M,001.1,N,002.1,K,A*20
$GPGSV,3,1,09,04,19,047,28,02,37,093,,09,30,148,29,12,66,060,38*79
$GPGSV,3,2,09,14,34,265,45,25,68,306,47,29,40,217,44,30,24,284,44*7C
$GPGSV,3,3,09,31,15,314,43,,,,,,,,,,,,*47
$GPGSA,M,3,12,14,25,29,30,31,,,,,,,3.7,2.1,3.1*30
Trace #34 at position 8.250000
$GPZDA,083318.04,08,10,2011,00,00*68
$GPRMC,$GPGGA,083319.00,4611.973203,N,01258.207155,E,1,06,2.1,142.46,M,46.25,M,,*6D
$GPGLL,4611.973203,N,01258.207155,E,083319.00,A,A*6D
$GPVTG,171.2,T,171.3,M,000.9,N,001.7,K,A*2D
$GPGSV,3,1,09,04,19,047,31,02,37,093,35,09,30,148,28,12,66,060,39*77
$GPGSV,3,2,09,14,34,265,45,25,68,306,48,29,40,217,45,30,24,284,43*75
$GPGSV,3,3,09,31,15,314,43,,,,,,,,,,,,*47
$GPGSA,M,3,12,14,25,29,30,31,,,,,,,3.7,2.1,3.1*30
Trace #35 at position 8.500000
$GPZDA,083318.04,08,10,2011,00,00*68
$GPRMC,$GPGGA,083319.00,4611.973203,N,01258.207155,E,1,06,2.1,142.46,M,46.25,M,,*6D
$GPGLL,4611.973203,N,01258.207155,E,083319.00,A,A*6D
$GPVTG,171.2,T,171.3,M,000.9,N,001.7,K,A*2D
$GPGSV,3,1,09,04,19,047,31,02,37,093,35,09,30,148,28,12,66,060,39*77
$GPGSV,3,2,09,14,34,265,45,25,68,306,48,29,40,217,45,30,24,284,43*75
$GPGSV,3,3,09,31,15,314,43,,,,,,,,,,,,*47
$GPGSA,M,3,12,14,25,29,30,31,,,,,,,3.7,2.1,3.1*30
Trace #36 at position 8.750000
$GPZDA,083319.04,08,10,2011,00,00*69
$GPRMC,083319.00,A,4611.973203,N,01258.207155,E,000.9,171.2,081$GPGGA,083320.00,4611.972928,N,01258.207263,E,1,06,2.1,142.38,M,46.25,M,,*6B
$GPGLL,4611.972928,N,01258.207263,E,083320.00,A,A*62
$GPVTG,159.2,T,159.4,M,001.2,N,002.2,K,A*26
$GPGSV,3,1,09,04,19,047,31,02,37,093,36,09,30,148,28,12,66,060,38*75
$GPGSV,3,2,09,14,34,265,45,25,68,306,48,29,40,217,45,30,24,284,43*75
$GPGSV,3,3,09,31,15,314,44,,,,,,,,,,,,*40
$GPGSA,M,3,12,14,25,29,30,31,,,,,,,3.7,2.1,3.1*30
Trace #37 at position 9.000000
$GPZDA,083319.04,08,10,2011,00,00*69
$GPRMC,083319.00,A,4611.973203,N,01258.207155,E,000.9,171.2,081$GPGGA,083320.00,4611.972928,N,01258.207263,E,1,06,2.1,142.38,M,46.25,M,,*6B
$GPGLL,4611.972928,N,01258.207263,E,083320.00,A,A*62
$GPVTG,159.2,T,159.4,M,001.2,N,002.2,K,A*26
$GPGSV,3,1,09,04,19,047,31,02,37,093,36,09,30,148,28,12,66,060,38*75
$GPGSV,3,2,09,14,34,265,45,25,68,306,48,29,40,217,45,30,24,284,43*75
$GPGSV,3,3,09,31,15,314,44,,,,,,,,,,,,*40
$GPGSA,M,3,12,14,25,29,30,31,,,,,,,3.7,2.1,3.1*30
Trace #38 at position 9.250000
$GPZDA,083320.04,08,10,2011,00,00*63
$GPRMC,083320.00,A,4611.972928,N,01258.207263,E,001.2,159.2,081$GPGGA,083321.00,4611.972640,N,01258.207383,E,1,06,2.1,142.29,M,46.25,M,,*64
$GPGLL,4611.972640,N,01258.207383,E,083321.00,A,A*6D
$GPVTG,168.4,T,168.6,M,001.1,N,002.0,K,A*23
$GPGSV,3,1,09,04,19,047,31,02,37,093,37,09,30,148,29,12,66,060,36*7B
$GPGSV,3,2,09,14,34,265,45,25,68,306,48,29,40,217,45,30,24,284,44*72
$GPGSV,3,3,09,31,15,314,43,,,,,,,,,,,,*47
$GPGSA,M,3,12,14,25,29,30,31,,,,,,,3.7,2.1,3.1*30
Trace #39 at position 9.500000
$GPZDA,083320.04,08,10,2011,00,00*63
$GPRMC,083320.00,A,4611.972928,N,01258.207263,E,001.2,159.2,081$GPGGA,083321.00,4611.972640,N,01258.207383,E,1,06,2.1,142.29,M,46.25,M,,*64
$GPGLL,4611.972640,N,01258.207383,E,083321.00,A,A*6D
$GPVTG,168.4,T,168.6,M,001.1,N,002.0,K,A*23
$GPGSV,3,1,09,04,19,047,31,02,37,093,37,09,30,148,29,12,66,060,36*7B
$GPGSV,3,2,09,14,34,265,45,25,68,306,48,29,40,217,45,30,24,284,44*72
$GPGSV,3,3,09,31,15,314,43,,,,,,,,,,,,*47
$GPGSA,M,3,12,14,25,29,30,31,,,,,,,3.7,2.1,3.1*30
Trace #40 at position 9.750000
$GPZDA,083321.04,08,10,2011,00,00*62
$GPRMC,083321.00,A,4611.972640,N,01258.207383,E,001.1,168.4,081$GPGGA,083322.00,4611.972402,N,01258.207494,E,1,06,2.1,142.23,M,46.25,M,,*68
$GPGLL,4611.972402,N,01258.207494,E,083322.00,A,A*6B
$GPVTG,152.2,T,152.4,M,000.8,N,001.5,K,A*29
$GPGSV,3,1,09,04,19,047,,02,37,093,34,09,30,148,31,12,66,060,39*7C
$GPGSV,3,2,09,14,34,265,45,25,68,306,48,29,40,217,44,30,24,284,44*73
$GPGSV,3,3,09,31,15,314,44,,,,,,,,,,,,*40
$GPGSA,M,3,12,14,25,29,30,31,,,,,,,3.7,2.1,3.1*30
Trace #41 at position 10.000000
$GPZDA,083321.04,08,10,2011,00,00*62
$GPRMC,083321.00,A,4611.972640,N,01258.207383,E,001.1,168.4,081$GPGGA,083322.00,4611.972402,N,01258.207494,E,1,06,2.1,142.23,M,46.25,M,,*68
$GPGLL,4611.972402,N,01258.207494,E,083322.00,A,A*6B
$GPVTG,152.2,T,152.4,M,000.8,N,001.5,K,A*29
$GPGSV,3,1,09,04,19,047,,02,37,093,34,09,30,148,31,12,66,060,39*7C
$GPGSV,3,2,09,14,34,265,45,25,68,306,48,29,40,217,44,30,24,284,44*73
$GPGSV,3,3,09,31,15,314,44,,,,,,,,,,,,*40
$GPGSA,M,3,12,14,25,29,30,31,,,,,,,3.7,2.1,3.1*30
Trace #42 at position 10.250000
$GPZDA,083322.04,08,10,2011,00,00*61
$GPRMC,083322.00,A,4611.972402,N,01258.207494,E,000.8,152.2,08101$GPGGA,083323.00,4611.972215,N,01258.207591,E,1,06,2.1,142.28,M,46.25,M,,*66
$GPGLL,4611.972215,N,01258.207591,E,083323.00,A,A*6E
$GPVTG,169.7,T,169.8,M,000.7,N,001.2,K,A*28
$GPGSV,3,1,09,04,19,047,,02,37,093,33,09,30,148,26,12,66,060,37*73
$GPGSV,3,2,09,14,34,265,46,25,68,306,48,29,40,217,45,30,24,284,44*71
$GPGSV,3,3,09,31,15,314,44,,,,,,,,,,,,*40
$GPGSA,M,3,12,14,25,29,30,31,,,,,,,3.7,2.1,3.1*30
Trace #43 at position 10.500000
$GPZDA,083322.04,08,10,2011,00,00*61
$GPRMC,083322.00,A,4611.972402,N,01258.207494,E,000.8,152.2,08101$GPGGA,083323.00,4611.972215,N,01258.207591,E,1,06,2.1,142.28,M,46.25,M,,*66
$GPGLL,4611.972215,N,01258.207591,E,083323.00,A,A*6E
$GPVTG,169.7,T,169.8,M,000.7,N,001.2,K,A*28
$GPGSV,3,1,09,04,19,047,,02,37,093,33,09,30,148,26,12,66,060,37*73
$GPGSV,3,2,09,14,34,265,46,25,68,306,48,29,40,217,45,30,24,284,44*71
$GPGSV,3,3,09,31,15,314,44,,,,,,,,,,,,*40
$GPGSA,M,3,12,14,25,29,30,31,,,,,,,3.7,2.1,3.1*30
Trace #44 at position 10.750000
$GPZDA,083322.04,08,10,2011,00,00*61
$GPRMC,083322.00,A,4611.972402,N,01258.207494,E,000.8,152.2,08101$GPGGA,083323.00,4611.972215,N,01258.207591,E,1,06,2.1,142.28,M,46.25,M,,*66
$GPGLL,4611.972215,N,01258.207591,E,083323.00,A,A*6E
$GPVTG,169.7,T,169.8,M,000.7,N,001.2,K,A*28
$GPGSV,3,1,09,04,19,047,,02,37,093,33,09,30,148,26,12,66,060,37*73
$GPGSV,3,2,09,14,34,265,46,25,68,306,48,29,40,217,45,30,24,284,44*71
$GPGSV,3,3,09,31,15,314,44,,,,,,,,,,,,*40
$GPGSA,M,3,12,14,25,29,30,31,,,,,,,3.7,2.1,3.1*30
Trace #45 at position 11.000000
$GPZDA,083323.04,08,10,2011,00,00*60
$GPRMC,083323.00,A,4611.972215,N,01258.207591,E,000.7,169.7,08101$GPGGA,083324.00,4611.971986,N,01258.207597,E,1,06,2.1,142.24,M,46.25,M,,*69
$GPGLL,4611.971986,N,01258.207597,E,083324.00,A,A*6D
$GPVTG,186.2,T,186.4,M,001.0,N,001.9,K,A*2C
$GPGSV,3,1,09,04,19,047,31,02,37,093,,09,30,148,28,12,66,060,37*7F
$GPGSV,3,2,09,14,34,265,45,25,68,306,48,29,40,217,45,30,24,284,44*72
$GPGSV,3,3,09,31,15,314,43,,,,,,,,,,,,*47
$GPGSA,M,3,12,14,25,29,30,31,,,,,,,3.7,2.1,3.1*30
Trace #46 at position 11.250000
$GPZDA,083324.04,08,10,2011,00,00*67
$GPRMC,083324.00,A,4611.971986,N,01258.207597,E,001.0,186.2,081011258.207673,E,1,06,2.1,142.12,M,46.25,M,,*6C
$GPGLL,4611.971690,N,01258.207673,E,083325.00,A,A*6D
$GPVTG,159.6,T,159.7,M,001.3,N,002.3,K,A*21
$GPGSV,3,1,09,04,19,047,,02,37,093,,09,30,148,26,12,66,060,37*73
$GPGSV,3,2,09,14,34,265,45,25,68,306,48,29,40,217,45,30,24,284,44*72
$GPGSV,3,3,09,31,15,314,44,,,,,,,,,,,,*40
$GPGSA,M,3,12,14,25,29,30,31,,,,,,,3.7,2.1,3.1*30
Trace #47 at position 11.500000
$GPZDA,083324.04,08,10,2011,00,00*67
$GPRMC,083324.00,A,4611.971986,N,01258.207597,E,001.0,186.2,081011258.207673,E,1,06,2.1,142.12,M,46.25,M,,*6C
$GPGLL,4611.971690,N,01258.207673,E,083325.00,A,A*6D
$GPVTG,159.6,T,159.7,M,001.3,N,002.3,K,A*21
$GPGSV,3,1,09,04,19,047,,02,37,093,,09,30,148,26,12,66,060,37*73
$GPGSV,3,2,09,14,34,265,45,25,68,306,48,29,40,217,45,30,24,284,44*72
$GPGSV,3,3,09,31,15,314,44,,,,,,,,,,,,*40
$GPGSA,M,3,12,14,25,29,30,31,,,,,,,3.7,2.1,3.1*30
Trace #48 at position 11.750000
$GPZDA,083325.04,08,10,2011,00,00*66
$GPRMC,083325.00,A,4611.971690,N,01258.207673,E,001.3,159.6,081011,0.2,E,A*33
$GPGGA,083326.00,461,4611.971415,N,01258.207946,E,083326.00,A,A*68
$GPVTG,131.7,T,131.8,M,001.3,N,002.5,K,A*29
$GPGSV,3,1,09,04,19,047,34,02,37,093,39,09,30,148,28,12,66,060,40*70
$GPGSV,3,2,09,14,34,265,46,25,68,306,50,29,40,217,47,30,24,284,46*78
$GPGSV,3,3,09,31,15,314,47,,,,,,,,,,,,*43
$GPGSA,M,3,12,14,25,29,30,31,,,,,,,3.7,2.1,3.1*30
Trace #49 at position 12.000000
$GPZDA,083325.04,08,10,2011,00,00*66
$GPRMC,083325.00,A,4611.971690,N,01258.207673,E,001.3,159.6,081011,0.2,E,A*33
$GPGGA,083326.00,461,4611.971415,N,01258.207946,E,083326.00,A,A*68
$GPVTG,131.7,T,131.8,M,001.3,N,002.5,K,A*29
$GPGSV,3,1,09,04,19,047,34,02,37,093,39,09,30,148,28,12,66,060,40*70
$GPGSV,3,2,09,14,34,265,46,25,68,306,50,29,40,217,47,30,24,284,46*78
$GPGSV,3,3,09,31,15,314,47,,,,,,,,,,,,*43
$GPGSA,M,3,12,14,25,29,30,31,,,,,,,3.7,2.1,3.1*30
Trace #50 at position 12.250000
$GPZDA,083326.04,08,10,2011,00,00*65
$GPRMC,083326.00,A,4611.971415,N,01258.207946,E,001.3,131.7,081011,0.2,E,A*39
$GPGGA,083327.00,4611.971136,N,01258.208169,E,1,07,1.3,141.94,M,46.2,217,47,30,24,284,45*7B
$GPGSV,3,3,09,31,15,314,47,,,,,,,,,,,,*43
$GPGSA,M,3,02,12,14,25,29,30,31,,,,,,2.4,1.3,2.0*31
Trace #51 at position 12.500000
$GPZDA,083326.04,08,10,2011,00,00*65
$GPRMC,083326.00,A,4611.971415,N,01258.207946,E,001.3,131.7,081011,0.2,E,A*39
$GPGGA,083327.00,4611.971136,N,01258.208169,E,1,07,1.3,141.94,M,46.2,217,47,30,24,284,45*7B
$GPGSV,3,3,09,31,15,314,47,,,,,,,,,,,,*43
$GPGSA,M,3,02,12,14,25,29,30,31,,,,,,2.4,1.3,2.0*31
Trace #52 at position 12.750000
$GPZDA,083326.04,08,10,2011,00,00*65
$GPRMC,083326.00,A,4611.971415,N,01258.207946,E,001.3,131.7,081011,0.2,E,A*39
$GPGGA,083327.00,4611.971136,N,01258.208169,E,1,07,1.3,141.94,M,46.2,217,47,30,24,284,45*7B
$GPGSV,3,3,09,31,15,314,47,,,,,,,,,,,,*43
$GPGSA,M,3,02,12,14,25,29,30,31,,,,,,2.4,1.3,2.0*31
Trace #53 at position 13.000000
$GPZDA,083326.04,08,10,2011,00,00*65
$GPRMC,083326.00,A,4611.971415,N,01258.207946,E,001.3,131.7,081011,0.2,E,A*39
$GPGGA,083327.00,4611.971136,N,01258.208169,E,1,07,1.3,141.94,M,46.2,217,47,30,24,284,45*7B
$GPGSV,3,3,09,31,15,314,47,,,,,,,,,,,,*43
$GPGSA,M,3,02,12,14,25,29,30,31,,,,,,2.4,1.3,2.0*31
Trace #54 at position 13.250000
$GPZDA,083327.04,08,10,2011,00,00*64
$GPRMC,083327.00,A,4611.971136,N,01258.208169,E,001.2,174.6,081011,0.2,E,A*37
$GPGGA,083328.00,4611.970883,N,01258.208330,E,1,07,1.3,141.90,M,46.25,M,,*68
$GPGLL,4611.970883,N,01258.208330,E,083328.00,A,A*60
$GPVTG,132.8,T,133.0,M,001.0,N,001.9,K,A*23
$GPGSV,3,1,09,04,19,047,32,02,37,093,39,09,30,148,,12,66,060,39*72
$GPGSV,3,2,09,14,34,265,46,252011,00,00*6B
$GPRMC,083328.00,A,4611.970883,N,01258.208330,E,001.0,132.8,081011,0.2,E,A*3E
$GPGGA,083329.00,4611.970646,N,01258.208502,E,1,07,1.3,141.81,M,46.25,M,,*69
$GPGLL,4611.970646,N,01258.208502,E,083329.00,A,A*61
$GPVTG,169.6,T,169.8,M,001.1,N,002.0,K,A*2F
$GPGSV,3,1,09,04,19,047,,02,37,093,38,09,30,148,,12,66,060,38*73
$GPGSV,3,2,09,14,34,265,45,25,68,306,49,29,40,217,46,30,24,284,45*71
$GPGSV,3,3,09,31,15,314,46,,,,,,,,,,,,*42
$GPGSA,M,3,02,12,14,25,29,30,31,,,,,,2.4,1.3,2.0*31
Trace #55 at position 13.500000
$GPZDA,08258.208502,E,001.1,169.6,081011,0.2,E,A*3E
$GPGGA,083330.00,4611.970420,N,01258.208559,E,1,07,1.3,141.81,M,46.25,M,,*6D
$GPGLL,4611.970420,N,01258.208559,E,083330.00,A,A*65
$GPVTG,166.9,T,167.0,M,000.6,N,001.2,K,A*2E
$GPGSV,3,1,09,04,19,047,33,02,37,093,38,09,30,148,,12,66,060,39*72
$GPGSV,3,2,09,14,34,265,46,25,68,306,49,29,40,217,46,30,24,284,45*72
$GPGSV,3,3,09,31,15,314,45,,,,,,,,,,,,*41
$GPGSA,M,3,02,12,14,25,29,30,31,,,,,,2.4,1.3,2.0*31
Trace #56 at position 13.750000
$GPZDA,08258.208502,E,001.1,169.6,081011,0.2,E,A*3E
$GPGGA,083330.00,4611.970420,N,01258.208559,E,1,07,1.3,141.81,M,46.25,M,,*6D
$GPGLL,4611.970420,N,01258.208559,E,083330.00,A,A*65
$GPVTG,166.9,T,167.0,M,000.6,N,001.2,K,A*2E
$GPGSV,3,1,09,04,19,047,33,02,37,093,38,09,30,148,,12,66,060,39*72
$GPGSV,3,2,09,14,34,265,46,25,68,306,49,29,40,217,46,30,24,284,45*72
$GPGSV,3,3,09,31,15,314,45,,,,,,,,,,,,*41
$GPGSA,M,3,02,12,14,25,29,30,31,,,,,,2.4,1.3,2.0*31
Trace #57 at position 14.000000
$GPZDA,083330.04,08,10,2011,00,00*62
$GPRMC,083330.00,A,$GPGGA,083331.00,4611.970215,N,01258.208683,E,1,07,1.3,141.84,M,46.25,M,,*6D
$GPGLL,4611.970215,N,01258.208683,E,083331.00,A,A*60
$GPVTG,147.8,T,148.0,M,001.0,N,001.9,K,A*2D
$GPGSV,3,1,09,04,19,047,32,02,37,093,38,09,30,148,,12,66,060,38*72
$GPGSV,3,2,09,14,34,265,46,25,68,306,50,29,40,217,47,30,24,284,45*7B
$GPGSV,3,3,09,31,15,314,46,,,,,,,,,,,,*42
$GPGSA,M,3,02,12,14,25,29,30,31,,,,,,2.4,1.3,2.0*31
Trace #58 at position 14.250000
$GPZDA,083330.04,08,10,2011,00,00*62
$GPRMC,083330.00,A,$GPGGA,083331.00,4611.970215,N,01258.208683,E,1,07,1.3,141.84,M,46.25,M,,*6D
$GPGLL,4611.970215,N,01258.208683,E,083331.00,A,A*60
$GPVTG,147.8,T,148.0,M,001.0,N,001.9,K,A*2D
$GPGSV,3,1,09,04,19,047,32,02,37,093,38,09,30,148,,12,66,060,38*72
$GPGSV,3,2,09,14,34,265,46,25,68,306,50,29,40,217,47,30,24,284,45*7B
$GPGSV,3,3,09,31,15,314,46,,,,,,,,,,,,*42
$GPGSA,M,3,02,12,14,25,29,30,31,,,,,,2.4,1.3,2.0*31
Trace #59 at position 14.500000
$GPZDA,083331.04,08,10,2011,00,00*63
$GPRMC,083331.00,A,4611.970215,N,01258.208683,E,001.0,147.8,081$GPGGA,083332.00,4611.969937,N,01258.208780,E,1,07,1.3,141.82,M,46.25,M,,*69
$GPGLL,4611.969937,N,01258.208780,E,083332.00,A,A*62
$GPVTG,178.4,T,178.6,M,001.2,N,002.1,K,A*21
$GPGSV,3,1,09,04,19,047,31,02,37,093,38,09,30,148,,12,66,060,39*70
$GPGSV,3,2,09,14,34,265,46,25,68,306,50,29,40,217,47,30,24,284,45*7B
$GPGSV,3,3,09,31,15,314,46,,,,,,,,,,,,*42
$GPGSA,M,3,02,12,14,25,29,30,31,,,,,,2.4,1.3,2.0*31
Trace #60 at position 14.750000
$GPZDA,083332.04,08,10,2011,00,00*60
$GPRMC,083332.00,A,4611.969937,N,01258.208780,E,001.2,178.4,081$GPGGA,083333.00,4611.969677,N,01258.208871,E,1,07,1.3,141.93,M,46.25,M,,*62
$GPGLL,4611.969677,N,01258.208871,E,083333.00,A,A*69
$GPVTG,147.0,T,147.1,M,000.9,N,001.6,K,A*2C
$GPGSV,3,1,09,04,19,047,30,02,37,093,38,09,30,148,,12,66,060,38*70
$GPGSV,3,2,09,14,34,265,46,25,68,306,50,29,40,217,47,30,24,284,45*7B
$GPGSV,3,3,09,31,15,314,46,,,,,,,,,,,,*42
$GPGSA,M,3,02,12,14,25,29,30,31,,,,,,2.4,1.3,2.0*31
Trace #61 at position 15.000000
$GPZDA,083332.04,08,10,2011,00,00*60
$GPRMC,083332.00,A,4611.969937,N,01258.208780,E,001.2,178.4,081$GPGGA,083333.00,4611.969677,N,01258.208871,E,1,07,1.3,141.93,M,46.25,M,,*62
$GPGLL,4611.969677,N,01258.208871,E,083333.00,A,A*69
$GPVTG,147.0,T,147.1,M,000.9,N,001.6,K,A*2C
$GPGSV,3,1,09,04,19,047,30,02,37,093,38,09,30,148,,12,66,060,38*70
$GPGSV,3,2,09,14,34,265,46,25,68,306,50,29,40,217,47,30,24,284,45*7B
$GPGSV,3,3,09,31,15,314,46,,,,,,,,,,,,*42
$GPGSA,M,3,02,12,14,25,29,30,31,,,,,,2.4,1.3,2.0*31
Trace #62 at position 15.250000
$GPZDA,083332.04,08,10,2011,00,00*60
$GPRMC,083332.00,A,4611.969937,N,01258.208780,E,001.2,178.4,081$GPGGA,083333.00,4611.969677,N,01258.208871,E,1,07,1.3,141.93,M,46.25,M,,*62
$GPGLL,4611.969677,N,01258.208871,E,083333.00,A,A*69
$GPVTG,147.0,T,147.1,M,000.9,N,001.6,K,A*2C
$GPGSV,3,1,09,04,19,047,30,02,37,093,38,09,30,148,,12,66,060,38*70
$GPGSV,3,2,09,14,34,265,46,25,68,306,50,29,40,217,47,30,24,284,45*7B
$GPGSV,3,3,09,31,15,314,46,,,,,,,,,,,,*42
$GPGSA,M,3,02,12,14,25,29,30,31,,,,,,2.4,1.3,2.0*31
Trace #63 at position 15.500000
$GPZDA,083333.04,08,10,2011,00,00*61
$GPRMC,083333.00,A,4611.969677,N,01258.208871,E,000.9,147.0,081$GPGGA,083334.00,4611.969478,N,01258.208988,E,1,07,1.3,142.06,M,46.25,M,,*60
$GPGLL,4611.969478,N,01258.208988,E,083334.00,A,A*64
$GPVTG,164.7,T,164.8,M,000.7,N,001.3,K,A*29
$GPGSV,3,1,09,04,19,046,31,02,37,093,39,09,30,148,,12,66,060,39*70
$GPGSV,3,2,09,14,34,265,46,25,68,306,49,29,40,217,48,30,24,284,44*7D
$GPGSV,3,3,09,31,15,314,46,,,,,,,,,,,,*42
$GPGSA,M,3,02,12,14,25,29,30,31,,,,,,2.4,1.3,2.0*31
Trace #64 at position 15.750000
$GPZDA,083333.04,08,10,2011,00,00*61
$GPRMC,083333.00,A,4611.969677,N,01258.208871,E,000.9,147.0,081$GPGGA,083334.00,4611.969478,N,01258.208988,E,1,07,1.3,142.06,M,46.25,M,,*60
$GPGLL,4611.969478,N,01258.208988,E,083334.00,A,A*64
$GPVTG,164.7,T,164.8,M,000.7,N,001.3,K,A*29
$GPGSV,3,1,09,04,19,046,31,02,37,093,39,09,30,148,,12,66,060,39*70
$GPGSV,3,2,09,14,34,265,46,25,68,306,49,29,40,217,48,30,24,284,44*7D
$GPGSV,3,3,09,31,15,314,46,,,,,,,,,,,,*42
$GPGSA,M,3,02,12,14,25,29,30,31,,,,,,2.4,1.3,2.0*31
Trace #65 at position 16.000000
$GPZDA,083334.04,08,10,2011,00,00*66
$GPRMC,083334.00,A,4611.969478,N,01258.208988,E,000.7,164.7,081$GPGGA,083335.00,4611.969264,N,01258.209112,E,1,07,1.3,142.05,M,46.25,M,,*63
$GPGLL,4611.969264,N,01258.209112,E,083335.00,A,A*64
$GPVTG,147.7,T,147.9,M,001.0,N,001.8,K,A*25
$GPGSV,3,1,09,04,19,046,31,02,37,093,38,09,30,148,,12,66,060,39*71
$GPGSV,3,2,09,14,34,265,46,25,68,306,49,29,40,217,46,30,24,284,45*72
$GPGSV,3,3,09,31,15,314,46,,,,,,,,,,,,*42
$GPGSA,M,3,02,12,14,25,29,30,31,,,,,,2.4,1.3,2.0*31
Trace #66 at position 16.250000
$GPZDA,083334.04,08,10,2011,00,00*66
$GPRMC,083334.00,A,4611.969478,N,01258.208988,E,000.7,164.7,081$GPGGA,083335.00,4611.969264,N,01258.209112,E,1,07,1.3,142.05,M,46.25,M,,*63
$GPGLL,4611.969264,N,01258.209112,E,083335.00,A,A*64
$GPVTG,147.7,T,147.9,M,001.0,N,001.8,K,A*25
$GPGSV,3,1,09,04,19,046,31,02,37,093,38,09,30,148,,12,66,060,39*71
$GPGSV,3,2,09,14,34,265,46,25,68,306,49,29,40,217,46,30,24,284,45*72
$GPGSV,3,3,09,31,15,314,46,,,,,,,,,,,,*42
$GPGSA,M,3,02,12,14,25,29,30,31,,,,,,2.4,1.3,2.0*31
Trace #67 at position 16.500000
$GPZDA,083335.04,08,10,2011,00,00*67
$GPRMC,083335.00,A,4611.969264,N,01258.209112,E,001.0,147.7,081$GPGGA,083336.00,4611.969010,N,01258.209250,E,1,07,1.3,142.00,M,46.25,M,,*61
$GPGLL,4611.969010,N,01258.209250,E,083336.00,A,A*63
$GPVTG,163.5,T,163.6,M,001.0,N,001.9,K,A*29
$GPGSV,3,1,09,04,19,046,34,02,37,093,38,09,30,148,,12,66,060,40*7A
$GPGSV,3,2,09,14,34,265,47,25,68,306,49,29,40,217,46,30,24,284,45*73
$GPGSV,3,3,09,31,15,314,47,,,,,,,,,,,,*43
$GPGSA,M,3,02,12,14,25,29,30,31,,,,,,2.4,1.3,2.0*31
Trace #68 at position 16.750000
$GPZDA,083335.04,08,10,2011,00,00*67
$GPRMC,083335.00,A,4611.969264,N,01258.209112,E,001.0,147.7,081$GPGGA,083336.00,4611.969010,N,01258.209250,E,1,07,1.3,142.00,M,46.25,M,,*61
$GPGLL,4611.969010,N,01258.209250,E,083336.00,A,A*63
$GPVTG,163.5,T,163.6,M,001.0,N,001.9,K,A*29
$GPGSV,3,1,09,04,19,046,34,02,37,093,38,09,30,148,,12,66,060,40*7A
$GPGSV,3,2,09,14,34,265,47,25,68,306,49,29,40,217,46,30,24,284,45*73
$GPGSV,3,3,09,31,15,314,47,,,,,,,,,,,,*43
$GPGSA,M,3,02,12,14,25,29,30,31,,,,,,2.4,1.3,2.0*31
Trace #69 at position 17.000000
$GPZDA,083336.04,08,10,2011,00,00*64
$GPRMC,083336.00,A,4611.969010,N,01258.209250,E,001.0,163.5,0811258.209262,E,1,07,1.3,142.04,M,46.25,M,,*65
$GPGLL,4611.968761,N,01258.209262,E,083337.00,A,A*63
$GPVTG,189.8,T,190.0,M,000.8,N,001.5,K,A*2F
$GPGSV,3,1,09,04,19,046,29,02,37,093,38,09,30,148,,12,66,060,40*76
$GPGSV,3,2,09,14,34,265,47,25,68,306,49,29,40,217,46,30,24,284,45*73
$GPGSV,3,3,09,31,15,314,46,,,,,,,,,,,,*42
$GPGSA,M,3,02,12,14,25,29,30,31,,,,,,2.4,1.3,2.0*31
Trace #70 at position 17.250000
$GPZDA,083336.04,08,10,2011,00,00*64
$GPRMC,083336.00,A,4611.969010,N,01258.209250,E,001.0,163.5,0811258.209262,E,1,07,1.3,142.04,M,46.25,M,,*65
$GPGLL,4611.968761,N,01258.209262,E,083337.00,A,A*63
$GPVTG,189.8,T,190.0,M,000.8,N,001.5,K,A*2F
$GPGSV,3,1,09,04,19,046,29,02,37,093,38,09,30,148,,12,66,060,40*76
$GPGSV,3,2,09,14,34,265,47,25,68,306,49,29,40,217,46,30,24,284,45*73
$GPGSV,3,3,09,31,15,314,46,,,,,,,,,,,,*42
$GPGSA,M,3,02,12,14,25,29,30,31,,,,,,2.4,1.3,2.0*31
Trace #71 at position 17.500000
$GPZDA,083337.04,08,10,2011,00,00*65
$GPRMC,083337.00,A,4611.968761,N,01258.209262,E,000.8,189.8,081011,0.2,E,A*34
$GPGGA,083338.00PGLL,4611.968514,N,01258.209279,E,083338.00,A,A*66
$GPVTG,165.7,T,165.8,M,001.1,N,002.0,K,A*2E
$GPGSV,3,1,09,04,19,046,32,02,37,093,38,09,30,148,27,12,66,060,39*77
$GPGSV,3,2,09,14,34,265,47,25,68,306,49,29,40,217,46,30,24,284,45*73
$GPGSV,3,3,09,31,15,314,46,,,,,,,,,,,,*42
$GPGSA,M,3,02,12,14,25,29,30,31,,,,,,2.4,1.3,2.0*31
Trace #72 at position 17.750000
$GPZDA,083338.04,08,10,2011,00,00*6A
$GPRMC,083338.00,A,4611.968514,N,01258.209279,E,001.1,165.7,081011,0.2,E,A*34
$GPGGA,083339.00,4611.968278,N,01258.209319,E,1,07,1.3,141.98,38*79
$GPGSV,3,2,09,14,34,265,46,25,68,306,50,29,40,217,46,30,24,284,45*7A
$GPGSV,3,3,09,31,15,314,45,,,,,,,,,,,,*41
$GPGSA,M,3,02,12,14,25,29,30,31,,,,,,2.4,1.3,2.0*31
Trace #73 at position 18.000000
$GPZDA,083338.04,08,10,2011,00,00*6A
$GPRMC,083338.00,A,4611.968514,N,01258.209279,E,001.1,165.7,081011,0.2,E,A*34
$GPGGA,083339.00,4611.968278,N,01258.209319,E,1,07,1.3,141.98,38*79
$GPGSV,3,2,09,14,34,265,46,25,68,306,50,29,40,217,46,30,24,284,45*7A
$GPGSV,3,3,09,31,15,314,45,,,,,,,,,,,,*41
$GPGSA,M,3,02,12,14,25,29,30,31,,,,,,2.4,1.3,2.0*31
Trace #74 at position 18.250000
$GPZDA,083338.04,08,10,2011,00,00*6A
$GPRMC,083338.00,A,4611.968514,N,01258.209279,E,001.1,165.7,081011,0.2,E,A*34
$GPGGA,083339.00,4611.968278,N,01258.209319,E,1,07,1.3,141.98,38*79
$GPGSV,3,2,09,14,34,265,46,25,68,306,50,29,40,217,46,30,24,284,45*7A
$GPGSV,3,3,09,31,15,314,45,,,,,,,,,,,,*41
$GPGSA,M,3,02,12,14,25,29,30,31,,,,,,2.4,1.3,2.0*31
Trace #75 at position 18.500000
$GPZDA,083338.04,08,10,2011,00,00*6A
$GPRMC,083338.00,A,4611.968514,N,01258.209279,E,001.1,165.7,081011,0.2,E,A*34
$GPGGA,083339.00,4611.968278,N,01258.209319,E,1,07,1.3,141.98,38*79
$GPGSV,3,2,09,14,34,265,46,25,68,306,50,29,40,217,46,30,24,284,45*7A
$GPGSV,3,3,09,31,15,314,45,,,,,,,,,,,,*41
$GPGSA,M,3,02,12,14,25,29,30,31,,,,,,2.4,1.3,2.0*31
Trace #76 at position 18.750000
$GPZDA,083339.04,08,10,2011,00,00*6B
$GPRMC,083339.00,A,4611.968278,N,01258.209319,E,000.7,184.8,081011,0.2,E,A*38
$GPGGA,083340.00,4611.968043,N,01258.209358,E,1,07,1.3,141.95,M,46.25,M,,*61
$GPGLL,4611.968043,N,01258.209358,E,083340.00,A,A*6C
$GPVTG,167.5,T,167.7,M,001.0,N,001.9,K,A*28
$GPGSV,3,1,09,04,19,046,28,02,37,093,38,09,30,10,2011,00,00*65
$GPRMC,083340.00,A,4611.968043,N,01258.209358,E,001.0,167.5,081011,0.2,E,A*3F
$GPGGA,083341.00,4611.967772,N,01258.209505,E,1,07,1.3,141.86,M,46.25,M,,*66
$GPGLL,4611.967772,N,01258.209505,E,083341.00,A,A*69
$GPVTG,154.1,T,154.2,M,001.2,N,002.2,K,A*23
$GPGSV,3,1,09,04,19,046,29,02,37,093,38,09,30,148,,12,66,060,39*78
$GPGSV,3,2,09,14,34,265,46,25,68,306,49,29,40,217,46,30,24,284,45*72
$GPGSV,3,3,09,31,15,314,45,,,,,,,,,,,,*41
$GPGSA,M,3,02,12,14,25,29,30,31,,,,,,2.4,1.3,2.0*31
Trace #77 at position 19.000000
$GPZDA,083339.04,08,10,2011,00,00*6B
$GPRMC,083339.00,A,4611.968278,N,01258.209319,E,000.7,184.8,081011,0.2,E,A*38
$GPGGA,083340.00,4611.968043,N,01258.209358,E,1,07,1.3,141.95,M,46.25,M,,*61
$GPGLL,4611.968043,N,01258.209358,E,083340.00,A,A*6C
$GPVTG,167.5,T,167.7,M,001.0,N,001.9,K,A*28
$GPGSV,3,1,09,04,19,046,28,02,37,093,38,09,30,10,2011,00,00*65
$GPRMC,083340.00,A,4611.968043,N,01258.209358,E,001.0,167.5,081011,0.2,E,A*3F
$GPGGA,083341.00,4611.967772,N,01258.209505,E,1,07,1.3,141.86,M,46.25,M,,*66
$GPGLL,4611.967772,N,01258.209505,E,083341.00,A,A*69
$GPVTG,154.1,T,154.2,M,001.2,N,002.2,K,A*23
$GPGSV,3,1,09,04,19,046,29,02,37,093,38,09,30,148,,12,66,060,39*78
$GPGSV,3,2,09,14,34,265,46,25,68,306,49,29,40,217,46,30,24,284,45*72
$GPGSV,3,3,09,31,15,314,45,,,,,,,,,,,,*41
$GPGSA,M,3,02,12,14,25,29,30,31,,,,,,2.4,1.3,2.0*31
Trace #78 at position 19.250000
$GP,E,001.2,154.1,081011,0.2,E,A*3C
$GPGGA,083342.00,4611.967471,N,01258.209575,E,1,06,2.1,141.88,M,46.25,M,,*6C
$GPGLL,4611.967471,N,01258.209575,E,083342.00,A,A*6D
$GPVTG,185.3,T,185.5,M,001.3,N,002.3,K,A*26
$GPGSV,3,1,09,04,19,046,,02,37,093,36,09,30,148,,12,66,060,39*7D
$GPGSV,3,2,09,14,34,265,46,25,68,306,49,29,40,217,47,30,24,284,44*72
$GPGSV,3,3,09,31,15,314,45,,,,,,,,,,,,*41
$GPGSA,M,3,12,14,25,29,30,31,,,,,,,3.7,2.1,3.1*30
Trace #79 at position 19.500000
$GP,E,001.2,154.1,081011,0.2,E,A*3C
$GPGGA,083342.00,4611.967471,N,01258.209575,E,1,06,2.1,141.88,M,46.25,M,,*6C
$GPGLL,4611.967471,N,01258.209575,E,083342.00,A,A*6D
$GPVTG,185.3,T,185.5,M,001.3,N,002.3,K,A*26
$GPGSV,3,1,09,04,19,046,,02,37,093,36,09,30,148,,12,66,060,39*7D
$GPGSV,3,2,09,14,34,265,46,25,68,306,49,29,40,217,47,30,24,284,44*72
$GPGSV,3,3,09,31,15,314,45,,,,,,,,,,,,*41
$GPGSA,M,3,12,14,25,29,30,31,,,,,,,3.7,2.1,3.1*30
Trace #80 at position 19.750000
$GPZDA,083342.04,08,10,2011,00,00*67
$GPRMC,083342.00,A,4611.967471,N,$GPGGA,083343.00,4611.967166,N,01258.209586,E,1,06,2.1,141.91,M,46.25,M,,*6A
$GPGLL,4611.967166,N,01258.209586,E,083343.00,A,A*63
$GPVTG,173.8,T,173.9,M,001.1,N,002.1,K,A*21
$GPGSV,3,1,09,04,19,046,27,02,37,093,39,09,30,148,,12,66,060,40*79
$GPGSV,3,2,09,14,34,265,46,25,68,306,50,29,40,217,47,30,24,284,44*7A
$GPGSV,3,3,09,31,15,314,46,,,,,,,,,,,,*42
$GPGSA,M,3,12,14,25,29,30,31,,,,,,,3.7,2.1,3.1*30
Trace #81 at position 20.000000
$GPZDA,083342.04,08,10,2011,00,00*67
$GPRMC,083342.00,A,4611.967471,N,$GPGGA,083343.00,4611.967166,N,01258.209586,E,1,06,2.1,141.91,M,46.25,M,,*6A
$GPGLL,4611.967166,N,01258.209586,E,083343.00,A,A*63
$GPVTG,173.8,T,173.9,M,001.1,N,002.1,K,A*21
$GPGSV,3,1,09,04,19,046,27,02,37,093,39,09,30,148,,12,66,060,40*79
$GPGSV,3,2,09,14,34,265,46,25,68,306,50,29,40,217,47,30,24,284,44*7A
$GPGSV,3,3,09,31,15,314,46,,,,,,,,,,,,*42
$GPGSA,M,3,12,14,25,29,30,31,,,,,,,3.7,2.1,3.1*30
Trace #82 at position 20.250000
$GPZDA,083343.04,08,10,2011,00,00*66
$GPRMC,083343.00,A,4611.967166,N,01258.209586,E,001.1,173.8,08101$GPGGA,083344.00,4611.966986,N,01258.209690,E,1,07,1.3,141.94,M,46.25,M,,*6B
$GPGLL,4611.966986,N,01258.209690,E,083344.00,A,A*67
$GPVTG,138.8,T,138.9,M,000.4,N,000.7,K,A*21
$GPGSV,3,1,09,04,19,046,30,02,37,093,39,09,30,148,,12,66,060,38*70
$GPGSV,3,2,09,14,34,265,46,25,68,306,49,29,40,217,47,30,24,284,45*73
$GPGSV,3,3,09,31,15,314,46,,,,,,,,,,,,*42
$GPGSA,M,3,02,12,14,25,29,30,31,,,,,,2.4,1.3,2.0*31
Trace #83 at position 20.500000
$GPZDA,083343.04,08,10,2011,00,00*66
$GPRMC,083343.00,A,4611.967166,N,01258.209586,E,001.1,173.8,08101$GPGGA,083344.00,4611.966986,N,01258.209690,E,1,07,1.3,141.94,M,46.25,M,,*6B
$GPGLL,4611.966986,N,01258.209690,E,083344.00,A,A*67
$GPVTG,138.8,T,138.9,M,000.4,N,000.7,K,A*21
$GPGSV,3,1,09,04,19,046,30,02,37,093,39,09,30,148,,12,66,060,38*70
$GPGSV,3,2,09,14,34,265,46,25,68,306,49,29,40,217,47,30,24,284,45*73
$GPGSV,3,3,09,31,15,314,46,,,,,,,,,,,,*42
$GPGSA,M,3,02,12,14,25,29,30,31,,,,,,2.4,1.3,2.0*31
Trace #84 at position 20.750000
$GPZDA,083344.04,08,10,2011,00,00*61
$GPRMC,083344.00,A,4611.966986,N,01258.209690,E,000.4,138.8,081$GPGGA,083345.00,4611.966801,N,01258.209785,E,1,07,1.3,141.97,M,46.25,M,,*62
$GPGLL,4611.966801,N,01258.209785,E,083345.00,A,A*6D
$GPVTG,175.8,T,175.9,M,001.1,N,002.1,K,A*21
$GPGSV,3,1,09,04,19,046,32,02,37,093,38,09,30,148,31,12,66,060,40*7E
$GPGSV,3,2,09,14,34,265,46,25,68,306,49,29,40,217,47,30,24,284,45*73
$GPGSV,3,3,09,31,15,314,46,,,,,,,,,,,,*42
$GPGSA,M,3,02,12,14,25,29,30,31,,,,,,2.4,1.3,2.0*31
Trace #85 at position 21.000000
$GPZDA,083344.04,08,10,2011,00,00*61
$GPRMC,083344.00,A,4611.966986,N,01258.209690,E,000.4,138.8,081$GPGGA,083345.00,4611.966801,N,01258.209785,E,1,07,1.3,141.97,M,46.25,M,,*62
$GPGLL,4611.966801,N,01258.209785,E,083345.00,A,A*6D
$GPVTG,175.8,T,175.9,M,001.1,N,002.1,K,A*21
$GPGSV,3,1,09,04,19,046,32,02,37,093,38,09,30,148,31,12,66,060,40*7E
$GPGSV,3,2,09,14,34,265,46,25,68,306,49,29,40,217,47,30,24,284,45*73
$GPGSV,3,3,09,31,15,314,46,,,,,,,,,,,,*42
$GPGSA,M,3,02,12,14,25,29,30,31,,,,,,2.4,1.3,2.0*31
Trace #86 at position 21.250000
$GPZDA,083345.04,08,10,2011,00,00*60
$GPRMC,083345.00,A,4611.966801,N,01258.209785,E,001.1,175.8,0$GPGGA,083346.00,4611.966471,N,01258.209819,E,1,07,1.3,141.95,M,46.25,M,,*62
$GPGLL,4611.966471,N,01258.209819,E,083346.00,A,A*6F
$GPVTG,184.1,T,184.3,M,001.4,N,002.6,K,A*20
$GPGSV,3,1,09,04,19,046,31,02,37,093,39,09,30,148,28,12,66,060,39*7A
$GPGSV,3,2,09,14,34,265,46,25,68,306,49,29,40,217,47,30,24,284,45*73
$GPGSV,3,3,09,31,15,314,46,,,,,,,,,,,,*42
$GPGSA,M,3,02,12,14,25,29,30,31,,,,,,2.4,1.3,2.0*31
Trace #87 at position 21.500000
$GPZDA,083345.04,08,10,2011,00,00*60
$GPRMC,083345.00,A,4611.966801,N,01258.209785,E,001.1,175.8,0$GPGGA,083346.00,4611.966471,N,01258.209819,E,1,07,1.3,141.95,M,46.25,M,,*62
$GPGLL,4611.966471,N,01258.209819,E,083346.00,A,A*6F
$GPVTG,184.1,T,184.3,M,001.4,N,002.6,K,A*20
$GPGSV,3,1,09,04,19,046,31,02,37,093,39,09,30,148,28,12,66,060,39*7A
$GPGSV,3,2,09,14,34,265,46,25,68,306,49,29,40,217,47,30,24,284,45*73
$GPGSV,3,3,09,31,15,314,46,,,,,,,,,,,,*42
$GPGSA,M,3,02,12,14,25,29,30,31,,,,,,2.4,1.3,2.0*31
Trace #88 at position 21.750000
$GPZDA,083346.04,08,10,2011,00,00*63
$GPRMC,083346.00,A,4611.966471,N,01258.209819,E,001.4,184.1,046.25,M,,*6F
$GPGLL,4611.966186,N,01258.209835,E,083347.00,A,A*6D
$GPVTG,185.4,T,185.6,M,000.8,N,001.5,K,A*2D
$GPGSV,3,1,09,04,19,046,34,02,37,093,38,09,30,148,31,12,66,060,39*76
$GPGSV,3,2,09,14,34,265,46,25,68,306,49,29,40,217,46,30,24,284,44*73
$GPGSV,3,3,09,31,15,314,46,,,,,,,,,,,,*42
$GPGSA,M,3,02,12,14,25,29,30,31,,,,,,2.4,1.3,2.0*31
Trace #89 at position 22.000000
$GPZDA,083347.04,08,10,2011,00,00*62
$GPRMC,083347.00,A,4611.966186,N,01258.209835,E,000.8,185.4,081011,0.2,E,A*3A
$GPGGA,083348.00,4611.965961,N,01258.210054,E,9
$GPGSV,3,1,09,04,19,046,34,02,37,093,37,09,30,148,31,12,66,060,38*78
$GPGSV,3,2,09,14,34,265,46,25,68,306,49,29,40,217,47,30,24,284,44*72
$GPGSV,3,3,09,31,15,314,46,,,,,,,,,,,,*42
$GPGSA,M,3,02,12,14,25,29,30,31,,,,,,2.4,1.3,2.0*31
Trace #90 at position 22.250000
$GPZDA,083347.04,08,10,2011,00,00*62
$GPRMC,083347.00,A,4611.966186,N,01258.209835,E,000.8,185.4,081011,0.2,E,A*3A
$GPGGA,083348.00,4611.965961,N,01258.210054,E,9
$GPGSV,3,1,09,04,19,046,34,02,37,093,37,09,30,148,31,12,66,060,38*78
$GPGSV,3,2,09,14,34,265,46,25,68,306,49,29,40,217,47,30,24,284,44*72
$GPGSV,3,3,09,31,15,314,46,,,,,,,,,,,,*42
$GPGSA,M,3,02,12,14,25,29,30,31,,,,,,2.4,1.3,2.0*31
Trace #91 at position 22.500000
$GPZDA,083347.04,08,10,2011,00,00*62
$GPRMC,083347.00,A,4611.966186,N,01258.209835,E,000.8,185.4,081011,0.2,E,A*3A
$GPGGA,083348.00,4611.965961,N,01258.210054,E,9
$GPGSV,3,1,09,04,19,046,34,02,37,093,37,09,30,148,31,12,66,060,38*78
$GPGSV,3,2,09,14,34,265,46,25,68,306,49,29,40,217,47,30,24,284,44*72
$GPGSV,3,3,09,31,15,314,46,,,,,,,,,,,,*42
$GPGSA,M,3,02,12,14,25,29,30,31,,,,,,2.4,1.3,2.0*31
Trace #92 at position 22.750000
$GPZDA,083348.04,08,10,2011,00,00*6D
$GPRMC,083348.00,A,4611.965961,N,01258.210054,E,001.3,134.6,081011,0.2,E,A*32
$GPGGA,083349.00,4611.965661,N,01258.210301,E,1,07,1.3,141.83,M,46.25,M,,*60
$GPGLL,4611.965661,N,01258.210301,E,083349.00,A,A*6A
$GPVTG,171.4,T,171.6,M,030,148,31,12,66,060,41*78
$GPGSV,3,2,09,14,34,265,45,25,68,306,49,29,40,217,47,30,24,284,44*71
$GPGSV,3,3,09,31,15,314,45,,,,,,,,,,,,*41
$GPGSA,M,3,02,12,14,25,29,30,31,,,,,,2.4,1.3,2.0*31
Trace #93 at position 23.000000
$GPZDA,083348.04,08,10,2011,00,00*6D
$GPRMC,083348.00,A,4611.965961,N,01258.210054,E,001.3,134.6,081011,0.2,E,A*32
$GPGGA,083349.00,4611.965661,N,01258.210301,E,1,07,1.3,141.83,M,46.25,M,,*60
$GPGLL,4611.965661,N,01258.210301,E,083349.00,A,A*6A
$GPVTG,171.4,T,171.6,M,030,148,31,12,66,060,41*78
$GPGSV,3,2,09,14,34,265,45,25,68,306,49,29,40,217,47,30,24,284,44*71
$GPGSV,3,3,09,31,15,314,45,,,,,,,,,,,,*41
$GPGSA,M,3,02,12,14,25,29,30,31,,,,,,2.4,1.3,2.0*31
Trace #94 at position 23.250000
$GPZDA,083349.04,08,10,2011,00,00*6C
$GPRMC,083349.00,A,4611.965661,N,01258.210301,E,001.4,171.4,081011,0.2,E,A*3B
$GPGGA,083350.00,4611.965417,N,01258.210401,E,1,07,1.3,141.89,M,46.25,M,,*66
$GPGLL,4611.965417,N,01258.210401,E,083350.00,A,A*66
$GPVTG,160.2,T,160.4,M,000.6,N,001.2,K,A*20
$GPGSV,3,1,09,04,19,046,30
$GPGSV,3,3,09,31,15,314,44,,,,,,,,,,,,*40
$GPGSA,M,3,02,12,14,25,29,30,31,,,,,,2.4,1.3,2.0*31
Trace #95 at position 23.500000
$GPZDA,083349.04,08,10,2011,00,00*6C
$GPRMC,083349.00,A,4611.965661,N,01258.210301,E,001.4,171.4,081011,0.2,E,A*3B
$GPGGA,083350.00,4611.965417,N,01258.210401,E,1,07,1.3,141.89,M,46.25,M,,*66
$GPGLL,4611.965417,N,01258.210401,E,083350.00,A,A*66
$GPVTG,160.2,T,160.4,M,000.6,N,001.2,K,A*20
$GPGSV,3,1,09,04,19,046,30
$GPGSV,3,3,09,31,15,314,44,,,,,,,,,,,,*40
$GPGSA,M,3,02,12,14,25,29,30,31,,,,,,2.4,1.3,2.0*31
Trace #96 at position 23.750000
$GPZDA,083349.04,08,10,2011,00,00*6C
$GPRMC,083349.00,A,4611.965661,N,01258.210301,E,001.4,171.4,081011,0.2,E,A*3B
$GPGGA,083350.00,4611.965417,N,01258.210401,E,1,07,1.3,141.89,M,46.25,M,,*66
$GPGLL,4611.965417,N,01258.210401,E,083350.00,A,A*66
$GPVTG,160.2,T,160.4,M,000.6,N,001.2,K,A*20
$GPGSV,3,1,09,04,19,046,30
$GPGSV,3,3,09,31,15,314,44,,,,,,,,,,,,*40
$GPGSA,M,3,02,12,14,25,29,30,31,,,,,,2.4,1.3,2.0*31
Trace #97 at position 24.000000
$GPZDA,083350.04,08,10,2011,00,00*64
$GPRMC,083350.00,A,4611.965417,N,01258.210401,E,000.6,160.2,081011,0.2,E,A*32
$GPGGA,083351.00,4611.965182,N,01258.210472,E,1,07,1.3,141.99,M,46.25,M,,*6B
$GPGLL,4611.965182,N,01258.210472,E,083351.00,A,A*6A
$GPVTG,178.7,T,178.8,M,001.3,N,002.3,K,A*2F
$GPGSV,3,1,09,04,19,046,36,02,37,093,38,09,30,148,30,12,66,060,40*7B
$GPGSV,3,2,09,14,34,265,45,25,68,306,50,29,40,217,,,,,2.4,1.3,2.0*31
$GPZDA,083351.04,08,10,2011,00,00*65
$GPRMC,083351.00,A,4611.965182,N,01258.210472,E,001.3,178.7,081011,0.2,E,A*36
$GPGGA,083352.00,4611.964844,N,01258.210486,E,1,07,1.3,141.81,M,46.25,M,,*68
$GPGLL,4611.964844,N,01258.210486,E,083352.00,A,A*60
$GPVTG,183.8,T,183.9,M,001.4,N,002.6,K,A*23
$GPGSV,3,1,09,04,19,046,35,02,37,093,38,09,30,148,,12,66,060,40*7B
$GPGSV,3,2,09,14,34,265,45,25,68,306,49,29,40,217,46,30,24,284,43*77
$GPGSV,3,3,09,31,15,314,45,,,,,,,,,,,,*41
$GPGSA,M,3,02,1211.964844,N,01258.210486,E,001.4,183.8,081011,0.2,E,A*30
Trace #98 at position 24.250000
$GPGGA,083353.00,4611.964606,N,01258.210444,E,1,07,1.3,141.74,M,46.25,M,,*65
$GPGLL,4611.964606,N,01258.210444,E,083353.00,A,A*67
$GPVTG,215.4,T,215.6,M,000.7,N,001.2,K,A*25
$GPGSV,3,1,09,04,19,046,36,02,37,093,37,09,30,148,,12,66,060,40*77
$GPGSV,3,2,09,14,34,265,45,25,68,306,49,29,40,217,46,30,24,284,44*70
$GPGSV,3,3,09,31,15,314,46,,,,,,,,,,,,*42
$GPGSA,M,3,02,12,14,25,29,30,31,,,,,,2.4,1.3,2.0*31
Trace #99 at position 24.500000
$GPGGA,083353.00,4611.964606,N,01258.210444,E,1,07,1.3,141.74,M,46.25,M,,*65
$GPGLL,4611.964606,N,01258.210444,E,083353.00,A,A*67
$GPVTG,215.4,T,215.6,M,000.7,N,001.2,K,A*25
$GPGSV,3,1,09,04,19,046,36,02,37,093,37,09,30,148,,12,66,060,40*77
$GPGSV,3,2,09,14,34,265,45,25,68,306,49,29,40,217,46,30,24,284,44*70
$GPGSV,3,3,09,31,15,314,46,,,,,,,,,,,,*42
$GPGSA,M,3,02,12,14,25,29,30,31,,,,,,2.4,1.3,2.0*31
Trace #100 at position 24.750000
$GPGGA,083353.00,4611.964606,N,01258.210444,E,1,07,1.3,141.74,M,46.25,M,,*65
$GPGLL,4611.964606,N,01258.210444,E,083353.00,A,A*67
$GPVTG,215.4,T,215.6,M,000.7,N,001.2,K,A*25
$GPGSV,3,1,09,04,19,046,36,02,37,093,37,09,30,148,,12,66,060,40*77
$GPGSV,3,2,09,14,34,265,45,25,68,306,49,29,40,217,46,30,24,284,44*70
$GPGSV,3,3,09,31,15,314,46,,,,,,,,,,,,*42
$GPGSA,M,3,02,12,14,25,29,30,31,,,,,,2.4,1.3,2.0*31
Trace #101 at position 25.000000
$GPZDA,083353.04,08,10,2011,00,00*67
$GPRM$GPGGA,083354.00,4611.964471,N,01258.210644,E,1,07,1.3,141.85,M,46.25,M,,*6C
$GPGLL,4611.964471,N,01258.210644,E,083354.00,A,A*60
$GPVTG,115.6,T,115.8,M,001.3,N,002.4,K,A*29
$GPGSV,3,1,09,04,19,046,34,02,37,093,37,09,30,148,32,12,66,060,40*74
$GPGSV,3,2,09,14,34,265,45,25,68,306,50,29,40,217,46,30,24,284,44*78
$GPGSV,3,3,09,31,15,314,46,,,,,,,,,,,,*42
$GPGSA,M,3,02,12,14,25,29,30,31,,,,,,2.4,1.3,2.0*31
Trace #102 at position 25.250000
$GPZDA,083357.04,08,10,2011,00,00*63
$GPRMC,083357.00,A,4611.963542,N,01258.211154,E,001.5,140.8,0$GPGGA,083358.00,4611.963351,N,01258.211392,E,1,07,1.3,141.67,M,46.25,M,,*61
$GPGLL,4611.963351,N,01258.211392,E,083358.00,A,A*61
$GPVTG,149.8,T,150.0,M,000.6,N,001.1,K,A*25
$GPGSV,3,1,09,04,19,046,37,02,37,093,39,09,30,148,35,12,66,060,41*7F
$GPGSV,3,2,09,14,34,265,46,25,68,307,50,29,40,217,46,30,24,284,43*7D
$GPGSV,3,3,09,31,15,314,45,,,,,,,,,,,,*41
$GPGSA,M,3,02,12,14,25,29,30,31,,,,,,2.4,1.3,2.0*31
Trace #103 at position 25.500000
$GPZDA,083358.04,08,10,2011,00,00*6C
$GPRMC,083358.00,A,4611.963351,N,01258.211392,E,000.6,149.8,0$GPGGA,083359.00,4611.963160,N,01258.211487,E,1,07,1.3,141.71,M,46.25,M,,*64
$GPGLL,4611.963160,N,01258.211487,E,083359.00,A,A*63
$GPVTG,169.1,T,169.2,M,001.1,N,002.1,K,A*23
$GPGSV,3,1,09,04,19,046,32,02,37,093,39,09,30,148,34,12,66,060,40*7A
$GPGSV,3,2,09,14,34,265,47,25,68,307,50,29,40,217,47,30,24,284,44*7A
$GPGSV,3,3,09,31,15,314,46,,,,,,,,,,,,*42
$GPGSA,M,3,02,12,14,25,29,30,31,,,,,,2.4,1.3,2.0*31
Trace #104 at position 25.750000
$GPZDA,083358.04,08,10,2011,00,00*6C
$GPRMC,083358.00,A,4611.963351,N,01258.211392,E,000.6,149.8,0$GPGGA,083359.00,4611.963160,N,01258.211487,E,1,07,1.3,141.71,M,46.25,M,,*64
$GPGLL,4611.963160,N,01258.211487,E,083359.00,A,A*63
$GPVTG,169.1,T,169.2,M,001.1,N,002.1,K,A*23
$GPGSV,3,1,09,04,19,046,32,02,37,093,39,09,30,148,34,12,66,060,40*7A
$GPGSV,3,2,09,14,34,265,47,25,68,307,50,29,40,217,47,30,24,284,44*7A
$GPGSV,3,3,09,31,15,314,46,,,,,,,,,,,,*42
$GPGSA,M,3,02,12,14,25,29,30,31,,,,,,2.4,1.3,2.0*31
Trace #105 at position 26.000000
$GPZDA,083359.04,08,10,2011,00,00*6D
$GPRMC,083359.00,A,4611.963160,N,01258.211487,E,001.1,169.1,046.25,M,,*65
$GPGLL,4611.962952,N,01258.211594,E,083400.00,A,A*63
$GPVTG,148.7,T,148.9,M,000.7,N,001.3,K,A*28
$GPGSV,3,1,09,04,19,046,,02,37,093,39,09,30,148,32,12,66,060,41*7C
$GPGSV,3,2,09,14,34,265,46,25,68,307,49,29,40,217,47,30,24,284,45*72
$GPGSV,3,3,09,31,15,314,46,,,,,,,,,,,,*42
$GPGSA,M,3,02,12,14,25,29,30,31,,,,,,2.4,1.3,2.0*31
Trace #106 at position 26.250000
$GPZDA,083359.04,08,10,2011,00,00*6D
$GPRMC,083359.00,A,4611.963160,N,01258.211487,E,001.1,169.1,046.25,M,,*65
$GPGLL,4611.962952,N,01258.211594,E,083400.00,A,A*63
$GPVTG,148.7,T,148.9,M,000.7,N,001.3,K,A*28
$GPGSV,3,1,09,04,19,046,,02,37,093,39,09,30,148,32,12,66,060,41*7C
$GPGSV,3,2,09,14,34,265,46,25,68,307,49,29,40,217,47,30,24,284,45*72
$GPGSV,3,3,09,31,15,314,46,,,,,,,,,,,,*42
$GPGSA,M,3,02,12,14,25,29,30,31,,,,,,2.4,1.3,2.0*31
Trace #107 at position 26.500000
$GPZDA,083400.04,08,10,2011,00,00*66
$GPRMC,083400.00,A,4611.962952,N,01258.211594,E,000.7,148.7,081011,0.2,E,A*39
$GPGGA,083401.00,4611.962923,N,01258.211606,E,1,6C
$GPVTG,314.0,T,314.1,M,000.4,N,000.8,K,A*2E
$GPGSV,3,1,09,04,19,046,34,02,37,093,39,09,30,148,26,12,66,060,42*7D
$GPGSV,3,2,09,14,34,265,46,25,68,307,49,29,40,217,46,30,24,284,44*72
$GPGSV,3,3,09,31,15,314,47,,,,,,,,,,,,*43
$GPGSA,M,3,02,12,14,25,29,30,31,,,,,,2.4,1.3,2.0*31
Trace #108 at position 26.750000
$GPZDA,083400.04,08,10,2011,00,00*66
$GPRMC,083400.00,A,4611.962952,N,01258.211594,E,000.7,148.7,081011,0.2,E,A*39
$GPGGA,083401.00,4611.962923,N,01258.211606,E,1,6C
$GPVTG,314.0,T,314.1,M,000.4,N,000.8,K,A*2E
$GPGSV,3,1,09,04,19,046,34,02,37,093,39,09,30,148,26,12,66,060,42*7D
$GPGSV,3,2,09,14,34,265,46,25,68,307,49,29,40,217,46,30,24,284,44*72
$GPGSV,3,3,09,31,15,314,47,,,,,,,,,,,,*43
$GPGSA,M,3,02,12,14,25,29,30,31,,,,,,2.4,1.3,2.0*31
Trace #109 at position 27.000000
$GPZDA,083400.04,08,10,2011,00,00*66
$GPRMC,083400.00,A,4611.962952,N,01258.211594,E,000.7,148.7,081011,0.2,E,A*39
$GPGGA,083401.00,4611.962923,N,01258.211606,E,1,6C
$GPVTG,314.0,T,314.1,M,000.4,N,000.8,K,A*2E
$GPGSV,3,1,09,04,19,046,34,02,37,093,39,09,30,148,26,12,66,060,42*7D
$GPGSV,3,2,09,14,34,265,46,25,68,307,49,29,40,217,46,30,24,284,44*72
$GPGSV,3,3,09,31,15,314,47,,,,,,,,,,,,*43
$GPGSA,M,3,02,12,14,25,29,30,31,,,,,,2.4,1.3,2.0*31
Trace #110 at position 27.250000
$GPZDA,083401.04,08,10,2011,00,00*67
$GPRMC,083401.00,A,4611.962923,N,01258.211606,E,000.4,314.0,081011,0.2,E,A*39
$GPGGA,083402.00,4611.962969,N,01258.211553,E,1,06,2.1,141.76,M,46.25,M,,*62
$GPGLL,4611.962969,N,01258.21155,04,19,046,32,02,37,093,31,09,30,148,36,12,66,060,42*72
$GPGSV,3,2,09,14,34,265,47,25,68,307,49,29,40,217,46,30,24,284,44*73
$GPGSV,3,3,09,31,15,314,47,,,,,,,,,,,,*43
$GPGSA,M,3,12,14,25,29,30,31,,,,,,,3.8,2.1,3.1*3F
Trace #111 at position 27.500000
$GPZDA,083402.04,08,10,2011,00,00*64
$GPRMC,083402.00,A,4611.962969,N,01258.211553,E,000.0,112.1,081011,0.2,E,A*36
$GPGGA,083403.00,4611.962969,N,01258.211564,E,1,06,2.1,141.76,M,46.25,M,,*67
$GPGLL,4611.962969,N,01258.211564,E,083403.00,A,A*67
$GPVTG,155.7,T,155.8,M,000.1,N,000.1,K,A*215,314,47,,,,,,,,,,,,*43
$GPGSA,M,3,12,14,25,29,30,31,,,,,,,3.8,2.1,3.1*3F
