Trace #1 at position 0.000000
$GPZDA,113732.02,08,10,2011,00,00*6A
$GPRMC,113730.00,V,,,,,,,,,,N*7A
$GPGGA,,,,,,0,02,,,M,,M,,*64
$GPGLL,,,,,,V,N*64
$GPVTG,,T,,,,N,,K,N*61
$GPGSV,2,1,08,16,18,307,,21,60,182,37,05,18,051,41,06,16,268,36*77
$GPGSV,2,2,08,25,28,132,,29,55,063,36,30,70,155,29,31,40,232,41*79
$GPGSA,M,1,,,,,,,,,,,,,45.5,27.3,36.4*0F
Trace #2 at position 0.250000
$GPZDA,113734.03,08,10,2011,00,00*6D
$GPRMC,113734.00,A,4611.963126,N,01258.221677,E,000.5,310.4,081011,0.2,E,A*3C
$GPGGA,113735.00,4611.966042,N,01258.219074,E,1,04,16.9,108.27,M,46.25,M,,*57
$GPGLL,4611.966042,N,01258.219074,E,113735.00,A,A*61
$GPVTG,314.5,T,314.7,M,000.8,N,001.4,K,A*2C
$GPGSV,2,1,08,16,18,307,35,21,60,182,41,05,18,051,35,06,16,268,39*7C
$GPGSV,2,2,08,25,28,132,,29,55,063,40,30,70,155,36,31,40,232,39*79
$GPGSA,M,3,21,06,29,31,,,,,,,,,32.9,16.9,28.2*0C
Trace #3 at position 0.500000
$GPZDA,113734.03,08,10,2011,00,00*6D
$GPRMC,113734.00,A,4611.963126,N,01258.221677,E,000.5,310.4,081011,0.2,E,A*3C
$GPGGA,113735.00,4611.966042,N,01258.219074,E,1,04,16.9,108.27,M,46.25,M,,*57
$GPGLL,4611.966042,N,01258.219074,E,113735.00,A,A*61
$GPVTG,314.5,T,314.7,M,000.8,N,001.4,K,A*2C
$GPGSV,2,1,08,16,18,307,35,21,60,182,41,05,18,051,35,06,16,268,39*7C
$GPGSV,2,2,08,25,28,132,,29,55,063,40,30,70,155,36,31,40,232,39*79
$GPGSA,M,3,21,06,29,31,,,,,,,,,32.9,16.9,28.2*0C
Trace #4 at position 0.750000
$GPZDA,113735.03,08,10,2011,00,00*6C
$GPRMC,113735.00,A,4611.966042,N,01258.219074,E,000.8,314.5,081011,0.2,E,A*3D
$GPGGA,113736.00,4611.968765,N,01258.216540,E,1,04,17.1,117.70,M,46.25,M,,*50
$GPGLL,4611.968765,N,01258.216540,E,113736.00,A,A*63
$GPVTG,312.9,T,313.1,M,002.1,N,003.9,K,A*23
$GPGSV,2,1,08,16,18,307,38,21,60,182,40,05,18,051,35,06,16,268,40*7E
$GPGSV,2,2,08,25,28,132,,29,55,063,40,30,70,155,34,31,40,232,41*74
$GPGSA,M,3,21,06,29,31,,,,,,,,,33.3,17.1,28.5*09
Trace #5 at position 1.000000
$GPZDA,113735.03,08,10,2011,00,00*6C
$GPRMC,113735.00,A,4611.966042,N,01258.219074,E,000.8,314.5,081011,0.2,E,A*3D
$GPGGA,113736.00,4611.968765,N,01258.216540,E,1,04,17.1,117.70,M,46.25,M,,*50
$GPGLL,4611.968765,N,01258.216540,E,113736.00,A,A*63
$GPVTG,312.9,T,313.1,M,002.1,N,003.9,K,A*23
$GPGSV,2,1,08,16,18,307,38,21,60,182,40,05,18,051,35,06,16,268,40*7E
$GPGSV,2,2,08,25,28,132,,29,55,063,40,30,70,155,34,31,40,232,41*74
$GPGSA,M,3,21,06,29,31,,,,,,,,,33.3,17.1,28.5*09
Trace #6 at position 1.250000
$GPZDA,113736.03,08,10,2011,00,00*6F
$GPRMC,113736.00,A,4611.968765,N,01258.216540,E,002.1,312.9,081011,0.2,E,A*3E
$GPGGA,,,,,,0,00,,,M,,M,,*66
$GPGLL,,,,,,V,N*64
$GPVTG,,T,,,,N,,K,N*61
$GPGSV,2,1,08,16,18,307,22,21,60,182,35,05,18,051,32,06,16,268,35*72
$GPGSV,2,2,08,25,28,132,,29,55,063,31,30,70,155,26,31,40,232,29*7F
$GPGSA,M,1,,,,,,,,,,,,,33.3,17.1,28.5*07
Trace #7 at position 1.500000
$GPZDA,113737.02,08,10,2011,00,00*6F
$GPRMC,113736.00,V,,,,,,,,,,N*7C
$GPGGA,,,,,,0,00,,,M,,M,,*66
$GPGLL,,,,,,V,N*64
$GPVTG,,T,,,,N,,K,N*61
$GPGSV,2,1,08,16,18,307,34,21,60,182,38,05,18,051,32,06,16,268,38*75
$GPGSV,2,2,08,25,28,132,,29,55,063,31,30,70,155,31,31,40,232,26*76
$GPGSA,M,1,,,,,,,,,,,,,33.3,17.1,28.5*07
Trace #8 at position 1.750000
$GPZDA,113737.02,08,10,2011,00,00*6F
$GPRMC,113736.00,V,,,,,,,,,,N*7C
$GPGGA,,,,,,0,00,,,M,,M,,*66
$GPGLL,,,,,,V,N*64
$GPVTG,,T,,,,N,,K,N*61
$GPGSV,2,1,08,16,18,307,34,21,60,182,38,05,18,051,32,06,16,268,38*75
$GPGSV,2,2,08,25,28,132,,29,55,063,31,30,70,155,31,31,40,232,26*76
$GPGSA,M,1,,,,,,,,,,,,,33.3,17.1,28.5*07
Trace #9 at position 2.000000
$GPZDA,113738.02,08,10,2011,00,00*60
$GPRMC,113736.00,V,,,,,,,,,,N*7C
$GPGGA,113739.00,4611.970571,N,01258.215274,E,1,05,3.3,122.90,M,46.25,M,,*6C
$GPGLL,4611.970571,N,01258.215274,E,113739.00,A,A*61
$GPVTG,334.9,T,335.0,M,000.2,N,000.4,K,A*2D
$GPGSV,2,1,08,16,18,307,34,21,60,182,41,05,18,051,41,06,16,268,40*70
$GPGSV,2,2,08,25,28,132,,29,55,063,43,30,70,155,38,31,40,232,40*7A
$GPGSA,M,3,21,05,06,29,31,,,,,,,,5.0,3.3,3.7*36
Trace #10 at position 2.250000
$GPZDA,113738.02,08,10,2011,00,00*60
$GPRMC,113736.00,V,,,,,,,,,,N*7C
$GPGGA,113739.00,4611.970571,N,01258.215274,E,1,05,3.3,122.90,M,46.25,M,,*6C
$GPGLL,4611.970571,N,01258.215274,E,113739.00,A,A*61
$GPVTG,334.9,T,335.0,M,000.2,N,000.4,K,A*2D
$GPGSV,2,1,08,16,18,307,34,21,60,182,41,05,18,051,41,06,16,268,40*70
$GPGSV,2,2,08,25,28,132,,29,55,063,43,30,70,155,38,31,40,232,40*7A
$GPGSA,M,3,21,05,06,29,31,,,,,,,,5.0,3.3,3.7*36
Trace #11 at position 2.500000
$GPZDA,113739.04,08,10,2011,00,00*67
$GPRMC,113739.00,A,4611.970571,N,01258.215274,E,000.2,334.9,081011,0.2,E,A*39
$GPGGA,113740.00,4611.971309,N,01258.215149,E,1,05,3.3,124.81,M,46.25,M,,*61
$GPGLL,4611.971309,N,01258.215149,E,113740.00,A,A*6A
$GPVTG,143.0,T,143.2,M,000.9,N,001.6,K,A*2F
$GPGSV,2,1,08,16,18,307,36,21,60,182,39,05,18,051,38,06,16,268,40*73
$GPGSV,2,2,08,25,28,132,,29,55,063,45,30,70,155,39,31,40,232,39*73
$GPGSA,M,3,21,05,06,29,31,,,,,,,,5.0,3.3,3.7*36
Trace #12 at position 2.750000
$GPZDA,113739.04,08,10,2011,00,00*67
$GPRMC,113739.00,A,4611.970571,N,01258.215274,E,000.2,334.9,081011,0.2,E,A*39
$GPGGA,113740.00,4611.971309,N,01258.215149,E,1,05,3.3,124.81,M,46.25,M,,*61
$GPGLL,4611.971309,N,01258.215149,E,113740.00,A,A*6A
$GPVTG,143.0,T,143.2,M,000.9,N,001.6,K,A*2F
$GPGSV,2,1,08,16,18,307,36,21,60,182,39,05,18,051,38,06,16,268,40*73
$GPGSV,2,2,08,25,28,132,,29,55,063,45,30,70,155,39,31,40,232,39*73
$GPGSA,M,3,21,05,06,29,31,,,,,,,,5.0,3.3,3.7*36
Trace #13 at position 3.000000
$GPZDA,113739.04,08,10,2011,00,00*67
$GPRMC,113739.00,A,4611.970571,N,01258.215274,E,000.2,334.9,081011,0.2,E,A*39
$GPGGA,113740.00,4611.971309,N,01258.215149,E,1,05,3.3,124.81,M,46.25,M,,*61
$GPGLL,4611.971309,N,01258.215149,E,113740.00,A,A*6A
$GPVTG,143.0,T,143.2,M,000.9,N,001.6,K,A*2F
$GPGSV,2,1,08,16,18,307,36,21,60,182,39,05,18,051,38,06,16,268,40*73
$GPGSV,2,2,08,25,28,132,,29,55,063,45,30,70,155,39,31,40,232,39*73
$GPGSA,M,3,21,05,06,29,31,,,,,,,,5.0,3.3,3.7*36
Trace #14 at position 3.250000
$GPZDA,113739.04,08,10,2011,00,00*67
$GPRMC,113739.00,A,4611.970571,N,01258.215274,E,000.2,334.9,081011,0.2,E,A*39
$GPGGA,113740.00,4611.971309,N,01258.215149,E,1,05,3.3,124.81,M,46.25,M,,*61
$GPGLL,4611.971309,N,01258.215149,E,113740.00,A,A*6A
$GPVTG,143.0,T,143.2,M,000.9,N,001.6,K,A*2F
$GPGSV,2,1,08,16,18,307,36,21,60,182,39,05,18,051,38,06,16,268,40*73
$GPGSV,2,2,08,25,28,132,,29,55,063,45,30,70,155,39,31,40,232,39*73
$GPGSA,M,3,21,05,06,29,31,,,,,,,,5.0,3.3,3.7*36
Trace #15 at position 3.500000
$GPZDA,113740.03,08,10,2011,00,00*6E
$GPRMC,113740.00,A,4611.971309,N,01258.215149,E,000.9,143.0,081011,0.2,E,A*32
$GPGGA,113741.00,4611.971815,N,01258.215181,E,1,06,3.3,126.27,M,46.25,M,,*6F
$GPGLL,4611.971815,N,01258.215181,E,113741.00,A,A*69
$GPVTG,144.7,T,144.9,M,001.0,N,001.9,K,A*24
$GPGSV,2,1,08,16,18,307,35,21,60,182,39,05,18,051,37,06,16,268,40*7F
$GPGSV,2,2,08,25,28,132,,29,55,063,46,30,70,155,40,31,40,232,40*70
$GPGSA,M,3,21,05,06,29,30,31,,,,,,,4.9,3.3,3.6*3C
Trace #16 at position 3.750000
$GPZDA,113740.03,08,10,2011,00,00*6E
$GPRMC,113740.00,A,4611.971309,N,01258.215149,E,000.9,143.0,081011,0.2,E,A*32
$GPGGA,113741.00,4611.971815,N,01258.215181,E,1,06,3.3,126.27,M,46.25,M,,*6F
$GPGLL,4611.971815,N,01258.215181,E,113741.00,A,A*69
$GPVTG,144.7,T,144.9,M,001.0,N,001.9,K,A*24
$GPGSV,2,1,08,16,18,307,35,21,60,182,39,05,18,051,37,06,16,268,40*7F
$GPGSV,2,2,08,25,28,132,,29,55,063,46,30,70,155,40,31,40,232,40*70
$GPGSA,M,3,21,05,06,29,30,31,,,,,,,4.9,3.3,3.6*3C
Trace #17 at position 4.000000
$GPZDA,113740.03,08,10,2011,00,00*6E
$GPRMC,113740.00,A,4611.971309,N,01258.215149,E,000.9,143.0,081011,0.2,E,A*32
$GPGGA,113741.00,4611.971815,N,01258.215181,E,1,06,3.3,126.27,M,46.25,M,,*6F
$GPGLL,4611.971815,N,01258.215181,E,113741.00,A,A*69
$GPVTG,144.7,T,144.9,M,001.0,N,001.9,K,A*24
$GPGSV,2,1,08,16,18,307,35,21,60,182,39,05,18,051,37,06,16,268,40*7F
$GPGSV,2,2,08,25,28,132,,29,55,063,46,30,70,155,40,31,40,232,40*70
$GPGSA,M,3,21,05,06,29,30,31,,,,,,,4.9,3.3,3.6*3C
Trace #18 at position 4.250000
$GPZDA,113741.04,08,10,2011,00,00*68
$GPRMC,113741.00,A,4611.971815,N,01258.215181,E,001.0,144.7,081011,0.2,E,A*39
$GPGGA,113742.00,4611.971825,N,01258.215786,E,1,05,10.7,125.98,M,46.25,M,,*5C
$GPGLL,4611.971825,N,01258.215786,E,113742.00,A,A*68
$GPVTG,146.8,T,147.0,M,001.9,N,003.6,K,A*27
$GPGSV,2,1,08,16,18,307,37,21,60,182,39,05,18,051,36,06,16,268,39*72
$GPGSV,2,2,08,25,28,132,,29,55,063,45,30,70,155,40,31,40,232,40*73
$GPGSA,M,3,21,06,29,30,31,,,,,,,,19.9,10.7,16.8*09
Trace #19 at position 4.500000
$GPZDA,113741.04,08,10,2011,00,00*68
$GPRMC,113741.00,A,4611.971815,N,01258.215181,E,001.0,144.7,081011,0.2,E,A*39
$GPGGA,113742.00,4611.971825,N,01258.215786,E,1,05,10.7,125.98,M,46.25,M,,*5C
$GPGLL,4611.971825,N,01258.215786,E,113742.00,A,A*68
$GPVTG,146.8,T,147.0,M,001.9,N,003.6,K,A*27
$GPGSV,2,1,08,16,18,307,37,21,60,182,39,05,18,051,36,06,16,268,39*72
$GPGSV,2,2,08,25,28,132,,29,55,063,45,30,70,155,40,31,40,232,40*73
$GPGSA,M,3,21,06,29,30,31,,,,,,,,19.9,10.7,16.8*09
Trace #20 at position 4.750000
$GPZDA,113741.04,08,10,2011,00,00*68
$GPRMC,113741.00,A,4611.971815,N,01258.215181,E,001.0,144.7,081011,0.2,E,A*39
$GPGGA,113742.00,4611.971825,N,01258.215786,E,1,05,10.7,125.98,M,46.25,M,,*5C
$GPGLL,4611.971825,N,01258.215786,E,113742.00,A,A*68
$GPVTG,146.8,T,147.0,M,001.9,N,003.6,K,A*27
$GPGSV,2,1,08,16,18,307,37,21,60,182,39,05,18,051,36,06,16,268,39*72
$GPGSV,2,2,08,25,28,132,,29,55,063,45,30,70,155,40,31,40,232,40*73
$GPGSA,M,3,21,06,29,30,31,,,,,,,,19.9,10.7,16.8*09
Trace #21 at position 5.000000
$GPZDA,113742.04,08,10,2011,00,00*6B
$GPRMC,113742.00,A,4611.971825,N,01258.215786,E,001.9,146.8,081011,0.2,E,A*3C
$GPGGA,113743.00,4611.971690,N,01258.216365,E,1,05,10.7,125.51,M,46.25,M,,*52
$GPGLL,4611.971690,N,01258.216365,E,113743.00,A,A*63
$GPVTG,170.2,T,170.3,M,002.3,N,004.2,K,A*25
$GPGSV,2,1,08,16,18,307,36,21,60,182,39,05,18,051,35,06,16,268,38*71
$GPGSV,2,2,08,25,28,132,31,29,55,063,45,30,70,155,39,31,40,232,41*7E
$GPGSA,M,3,21,06,29,30,31,,,,,,,,19.9,10.7,16.8*09
Trace #22 at position 5.250000
$GPZDA,113742.04,08,10,2011,00,00*6B
$GPRMC,113742.00,A,4611.971825,N,01258.215786,E,001.9,146.8,081011,0.2,E,A*3C
$GPGGA,113743.00,4611.971690,N,01258.216365,E,1,05,10.7,125.51,M,46.25,M,,*52
$GPGLL,4611.971690,N,01258.216365,E,113743.00,A,A*63
$GPVTG,170.2,T,170.3,M,002.3,N,004.2,K,A*25
$GPGSV,2,1,08,16,18,307,36,21,60,182,39,05,18,051,35,06,16,268,38*71
$GPGSV,2,2,08,25,28,132,31,29,55,063,45,30,70,155,39,31,40,232,41*7E
$GPGSA,M,3,21,06,29,30,31,,,,,,,,19.9,10.7,16.8*09
Trace #23 at position 5.500000
$GPZDA,113742.04,08,10,2011,00,00*6B
$GPRMC,113742.00,A,4611.971825,N,01258.215786,E,001.9,146.8,081011,0.2,E,A*3C
$GPGGA,113743.00,4611.971690,N,01258.216365,E,1,05,10.7,125.51,M,46.25,M,,*52
$GPGLL,4611.971690,N,01258.216365,E,113743.00,A,A*63
$GPVTG,170.2,T,170.3,M,002.3,N,004.2,K,A*25
$GPGSV,2,1,08,16,18,307,36,21,60,182,39,05,18,051,35,06,16,268,38*71
$GPGSV,2,2,08,25,28,132,31,29,55,063,45,30,70,155,39,31,40,232,41*7E
$GPGSA,M,3,21,06,29,30,31,,,,,,,,19.9,10.7,16.8*09
Trace #24 at position 5.750000
$GPZDA,113742.04,08,10,2011,00,00*6B
$GPRMC,113742.00,A,4611.971825,N,01258.215786,E,001.9,146.8,081011,0.2,E,A*3C
$GPGGA,113743.00,4611.971690,N,01258.216365,E,1,05,10.7,125.51,M,46.25,M,,*52
$GPGLL,4611.971690,N,01258.216365,E,113743.00,A,A*63
$GPVTG,170.2,T,170.3,M,002.3,N,004.2,K,A*25
$GPGSV,2,1,08,16,18,307,36,21,60,182,39,05,18,051,35,06,16,268,38*71
$GPGSV,2,2,08,25,28,132,31,29,55,063,45,30,70,155,39,31,40,232,41*7E
$GPGSA,M,3,21,06,29,30,31,,,,,,,,19.9,10.7,16.8*09
Trace #25 at position 6.000000
$GPZDA,113743.04,08,10,2011,00,00*6A
$GPRMC,113743.00,A,4611.971690,N,01258.216365,E,002.3,170.2,081011,0.2,E,A*31
$GPGGA,113744.00,4611.967966,N,01258.221558,E,1,04,38.1,112.26,M,46.25,M,,*51
$GPGLL,4611.967966,N,01258.221558,E,113744.00,A,A*69
$GPVTG,309.4,T,309.6,M,004.8,N,009.0,K,A*24
$GPGSV,2,1,08,16,18,307,34,21,60,181,33,05,18,051,33,06,16,268,38*7C
$GPGSV,2,2,08,25,28,132,29,29,55,063,45,30,70,155,38,31,40,232,40*77
$GPGSA,M,3,06,29,30,31,,,,,,,,,67.3,38.1,55.4*0E
Trace #26 at position 6.250000
$GPZDA,113743.04,08,10,2011,00,00*6A
$GPRMC,113743.00,A,4611.971690,N,01258.216365,E,002.3,170.2,081011,0.2,E,A*31
$GPGGA,113744.00,4611.967966,N,01258.221558,E,1,04,38.1,112.26,M,46.25,M,,*51
$GPGLL,4611.967966,N,01258.221558,E,113744.00,A,A*69
$GPVTG,309.4,T,309.6,M,004.8,N,009.0,K,A*24
$GPGSV,2,1,08,16,18,307,34,21,60,181,33,05,18,051,33,06,16,268,38*7C
$GPGSV,2,2,08,25,28,132,29,29,55,063,45,30,70,155,38,31,40,232,40*77
$GPGSA,M,3,06,29,30,31,,,,,,,,,67.3,38.1,55.4*0E
Trace #27 at position 6.500000
$GPZDA,113743.04,08,10,2011,00,00*6A
$GPRMC,113743.00,A,4611.971690,N,01258.216365,E,002.3,170.2,081011,0.2,E,A*31
$GPGGA,113744.00,4611.967966,N,01258.221558,E,1,04,38.1,112.26,M,46.25,M,,*51
$GPGLL,4611.967966,N,01258.221558,E,113744.00,A,A*69
$GPVTG,309.4,T,309.6,M,004.8,N,009.0,K,A*24
$GPGSV,2,1,08,16,18,307,34,21,60,181,33,05,18,051,33,06,16,268,38*7C
$GPGSV,2,2,08,25,28,132,29,29,55,063,45,30,70,155,38,31,40,232,40*77
$GPGSA,M,3,06,29,30,31,,,,,,,,,67.3,38.1,55.4*0E
Trace #28 at position 6.750000
$GPZDA,113743.04,08,10,2011,00,00*6A
$GPRMC,113743.00,A,4611.971690,N,01258.216365,E,002.3,170.2,081011,0.2,E,A*31
$GPGGA,113744.00,4611.967966,N,01258.221558,E,1,04,38.1,112.26,M,46.25,M,,*51
$GPGLL,4611.967966,N,01258.221558,E,113744.00,A,A*69
$GPVTG,309.4,T,309.6,M,004.8,N,009.0,K,A*24
$GPGSV,2,1,08,16,18,307,34,21,60,181,33,05,18,051,33,06,16,268,38*7C
$GPGSV,2,2,08,25,28,132,29,29,55,063,45,30,70,155,38,31,40,232,40*77
$GPGSA,M,3,06,29,30,31,,,,,,,,,67.3,38.1,55.4*0E
Trace #29 at position 7.000000
$GPZDA,113744.03,08,10,2011,00,00*6A
$GPRMC,113744.00,A,4611.967966,N,01258.221558,E,004.8,309.4,081011,0.2,E,A*3C
$GPGGA,113745.00,4611.964979,N,01258.225831,E,1,04,38.1,101.63,M,46.25,M,,*58
$GPGLL,4611.964979,N,01258.225831,E,113745.00,A,A*63
$GPVTG,284.3,T,284.5,M,001.2,N,002.3,K,A*27
$GPGSV,2,1,08,16,18,307,34,21,60,181,38,05,18,051,34,06,16,268,39*71
$GPGSV,2,2,08,25,28,132,,29,55,063,46,30,70,155,40,31,40,232,41*71
$GPGSA,M,3,06,29,30,31,,,,,,,,,67.3,38.1,55.4*0E
Trace #30 at position 7.250000
$GPZDA,113744.03,08,10,2011,00,00*6A
$GPRMC,113744.00,A,4611.967966,N,01258.221558,E,004.8,309.4,081011,0.2,E,A*3C
$GPGGA,113745.00,4611.964979,N,01258.225831,E,1,04,38.1,101.63,M,46.25,M,,*58
$GPGLL,4611.964979,N,01258.225831,E,113745.00,A,A*63
$GPVTG,284.3,T,284.5,M,001.2,N,002.3,K,A*27
$GPGSV,2,1,08,16,18,307,34,21,60,181,38,05,18,051,34,06,16,268,39*71
$GPGSV,2,2,08,25,28,132,,29,55,063,46,30,70,155,40,31,40,232,41*71
$GPGSA,M,3,06,29,30,31,,,,,,,,,67.3,38.1,55.4*0E
Trace #31 at position 7.500000
$GPZDA,113744.03,08,10,2011,00,00*6A
$GPRMC,113744.00,A,4611.967966,N,01258.221558,E,004.8,309.4,081011,0.2,E,A*3C
$GPGGA,113745.00,4611.964979,N,01258.225831,E,1,04,38.1,101.63,M,46.25,M,,*58
$GPGLL,4611.964979,N,01258.225831,E,113745.00,A,A*63
$GPVTG,284.3,T,284.5,M,001.2,N,002.3,K,A*27
$GPGSV,2,1,08,16,18,307,34,21,60,181,38,05,18,051,34,06,16,268,39*71
$GPGSV,2,2,08,25,28,132,,29,55,063,46,30,70,155,40,31,40,232,41*71
$GPGSA,M,3,06,29,30,31,,,,,,,,,67.3,38.1,55.4*0E
Trace #32 at position 7.750000
$GPZDA,113745.03,08,10,2011,00,00*6B
$GPRMC,113745.00,A,4611.964979,N,01258.225831,E,001.2,284.3,081011,0.2,E,A*3A
$GPGGA,113746.00,4611.961747,N,01258.230307,E,1,04,37.7,90.40,M,46.24,M,,*67
$GPGLL,4611.961747,N,01258.230307,E,113746.00,A,A*6C
$GPVTG,182.7,T,182.9,M,001.1,N,002.1,K,A*2E
$GPGSV,2,1,08,16,18,307,34,21,60,181,37,05,18,051,33,06,16,268,40*77
$GPGSV,2,2,08,25,28,132,32,29,55,063,45,30,70,155,38,31,40,232,42*7F
$GPGSA,M,3,06,29,30,31,,,,,,,,,66.7,37.7,55.0*06
Trace #33 at position 8.000000
$GPZDA,113745.03,08,10,2011,00,00*6B
$GPRMC,113745.00,A,4611.964979,N,01258.225831,E,001.2,284.3,081011,0.2,E,A*3A
$GPGGA,113746.00,4611.961747,N,01258.230307,E,1,04,37.7,90.40,M,46.24,M,,*67
$GPGLL,4611.961747,N,01258.230307,E,113746.00,A,A*6C
$GPVTG,182.7,T,182.9,M,001.1,N,002.1,K,A*2E
$GPGSV,2,1,08,16,18,307,34,21,60,181,37,05,18,051,33,06,16,268,40*77
$GPGSV,2,2,08,25,28,132,32,29,55,063,45,30,70,155,38,31,40,232,42*7F
$GPGSA,M,3,06,29,30,31,,,,,,,,,66.7,37.7,55.0*06
Trace #34 at position 8.250000
$GPZDA,113745.03,08,10,2011,00,00*6B
$GPRMC,113745.00,A,4611.964979,N,01258.225831,E,001.2,284.3,081011,0.2,E,A*3A
$GPGGA,113746.00,4611.961747,N,01258.230307,E,1,04,37.7,90.40,M,46.24,M,,*67
$GPGLL,4611.961747,N,01258.230307,E,113746.00,A,A*6C
$GPVTG,182.7,T,182.9,M,001.1,N,002.1,K,A*2E
$GPGSV,2,1,08,16,18,307,34,21,60,181,37,05,18,051,33,06,16,268,40*77
$GPGSV,2,2,08,25,28,132,32,29,55,063,45,30,70,155,38,31,40,232,42*7F
$GPGSA,M,3,06,29,30,31,,,,,,,,,66.7,37.7,55.0*06
Trace #35 at position 8.500000
$GPZDA,113746.03,08,10,2011,00,00*68
$GPRMC,113746.00,A,4611.961747,N,01258.230307,E,001.1,182.7,081011,0.2,E,A*37
$GPGGA,113747.00,4611.962693,N,01258.229006,E,1,05,10.8,94.66,M,46.24,M,,*6C
$GPGLL,4611.962693,N,01258.229006,E,113747.00,A,A*6C
$GPVTG,176.9,T,177.1,M,002.0,N,003.7,K,A*2C
$GPGSV,2,1,08,16,18,307,36,21,60,181,39,05,18,051,37,06,16,268,40*7F
$GPGSV,2,2,08,25,28,132,33,29,55,063,45,30,70,155,40,31,40,232,42*71
$GPGSA,M,3,21,06,29,30,31,,,,,,,,20.1,10.8,17.0*0D
Trace #36 at position 8.750000
$GPZDA,113746.03,08,10,2011,00,00*68
$GPRMC,113746.00,A,4611.961747,N,01258.230307,E,001.1,182.7,081011,0.2,E,A*37
$GPGGA,113747.00,4611.962693,N,01258.229006,E,1,05,10.8,94.66,M,46.24,M,,*6C
$GPGLL,4611.962693,N,01258.229006,E,113747.00,A,A*6C
$GPVTG,176.9,T,177.1,M,002.0,N,003.7,K,A*2C
$GPGSV,2,1,08,16,18,307,36,21,60,181,39,05,18,051,37,06,16,268,40*7F
$GPGSV,2,2,08,25,28,132,33,29,55,063,45,30,70,155,40,31,40,232,42*71
$GPGSA,M,3,21,06,29,30,31,,,,,,,,20.1,10.8,17.0*0D
Trace #37 at position 9.000000
$GPZDA,113746.03,08,10,2011,00,00*68
$GPRMC,113746.00,A,4611.961747,N,01258.230307,E,001.1,182.7,081011,0.2,E,A*37
$GPGGA,113747.00,4611.962693,N,01258.229006,E,1,05,10.8,94.66,M,46.24,M,,*6C
$GPGLL,4611.962693,N,01258.229006,E,113747.00,A,A*6C
$GPVTG,176.9,T,177.1,M,002.0,N,003.7,K,A*2C
$GPGSV,2,1,08,16,18,307,36,21,60,181,39,05,18,051,37,06,16,268,40*7F
$GPGSV,2,2,08,25,28,132,33,29,55,063,45,30,70,155,40,31,40,232,42*71
$GPGSA,M,3,21,06,29,30,31,,,,,,,,20.1,10.8,17.0*0D
Trace #38 at position 9.250000
$GPZDA,113747.04,08,10,2011,00,00*6E
$GPRMC,113747.00,A,4611.962693,N,01258.229006,E,002.0,176.9,081011,0.2,E,A*30
$GPGGA,113748.00,4611.963297,N,01258.228081,E,1,05,10.9,97.76,M,46.25,M,,*6E
$GPGLL,4611.963297,N,01258.228081,E,113748.00,A,A*6C
$GPVTG,160.1,T,160.3,M,002.5,N,004.6,K,A*24
$GPGSV,2,1,08,16,18,307,35,21,60,181,37,05,18,051,35,06,16,268,39*7E
$GPGSV,2,2,08,25,28,132,32,29,55,063,43,30,70,155,37,31,40,232,42*76
$GPGSA,M,3,21,06,29,30,31,,,,,,,,20.3,10.9,17.1*0F
Trace #39 at position 9.500000
$GPZDA,113747.04,08,10,2011,00,00*6E
$GPRMC,113747.00,A,4611.962693,N,01258.229006,E,002.0,176.9,081011,0.2,E,A*30
$GPGGA,113748.00,4611.963297,N,01258.228081,E,1,05,10.9,97.76,M,46.25,M,,*6E
$GPGLL,4611.963297,N,01258.228081,E,113748.00,A,A*6C
$GPVTG,160.1,T,160.3,M,002.5,N,004.6,K,A*24
$GPGSV,2,1,08,16,18,307,35,21,60,181,37,05,18,051,35,06,16,268,39*7E
$GPGSV,2,2,08,25,28,132,32,29,55,063,43,30,70,155,37,31,40,232,42*76
$GPGSA,M,3,21,06,29,30,31,,,,,,,,20.3,10.9,17.1*0F
Trace #40 at position 9.750000
$GPZDA,113747.04,08,10,2011,00,00*6E
$GPRMC,113747.00,A,4611.962693,N,01258.229006,E,002.0,176.9,081011,0.2,E,A*30
$GPGGA,113748.00,4611.963297,N,01258.228081,E,1,05,10.9,97.76,M,46.25,M,,*6E
$GPGLL,4611.963297,N,01258.228081,E,113748.00,A,A*6C
$GPVTG,160.1,T,160.3,M,002.5,N,004.6,K,A*24
$GPGSV,2,1,08,16,18,307,35,21,60,181,37,05,18,051,35,06,16,268,39*7E
$GPGSV,2,2,08,25,28,132,32,29,55,063,43,30,70,155,37,31,40,232,42*76
$GPGSA,M,3,21,06,29,30,31,,,,,,,,20.3,10.9,17.1*0F
Trace #41 at position 10.000000
$GPZDA,113748.04,08,10,2011,00,00*61
$GPRMC,113748.00,A,4611.963297,N,01258.228081,E,002.5,160.1,081011,0.2,E,A*3A
$GPGGA,113749.00,4611.963928,N,01258.227228,E,1,05,10.9,100.98,M,46.25,M,,*51
$GPGLL,4611.963928,N,01258.227228,E,113749.00,A,A*6C
$GPVTG,205.0,T,205.2,M,000.8,N,001.4,K,A*2C
$GPGSV,2,1,08,16,18,307,39,21,60,181,38,05,18,051,39,06,16,268,39*71
$GPGSV,2,2,08,25,28,132,32,29,55,063,45,30,70,155,39,31,40,232,43*7F
$GPGSA,M,3,21,06,29,30,31,,,,,,,,20.3,10.9,17.1*0F
Trace #42 at position 10.250000
$GPZDA,113748.04,08,10,2011,00,00*61
$GPRMC,113748.00,A,4611.963297,N,01258.228081,E,002.5,160.1,081011,0.2,E,A*3A
$GPGGA,113749.00,4611.963928,N,01258.227228,E,1,05,10.9,100.98,M,46.25,M,,*51
$GPGLL,4611.963928,N,01258.227228,E,113749.00,A,A*6C
$GPVTG,205.0,T,205.2,M,000.8,N,001.4,K,A*2C
$GPGSV,2,1,08,16,18,307,39,21,60,181,38,05,18,051,39,06,16,268,39*71
$GPGSV,2,2,08,25,28,132,32,29,55,063,45,30,70,155,39,31,40,232,43*7F
$GPGSA,M,3,21,06,29,30,31,,,,,,,,20.3,10.9,17.1*0F
Trace #43 at position 10.500000
$GPZDA,113748.04,08,10,2011,00,00*61
$GPRMC,113748.00,A,4611.963297,N,01258.228081,E,002.5,160.1,081011,0.2,E,A*3A
$GPGGA,113749.00,4611.963928,N,01258.227228,E,1,05,10.9,100.98,M,46.25,M,,*51
$GPGLL,4611.963928,N,01258.227228,E,113749.00,A,A*6C
$GPVTG,205.0,T,205.2,M,000.8,N,001.4,K,A*2C
$GPGSV,2,1,08,16,18,307,39,21,60,181,38,05,18,051,39,06,16,268,39*71
$GPGSV,2,2,08,25,28,132,32,29,55,063,45,30,70,155,39,31,40,232,43*7F
$GPGSA,M,3,21,06,29,30,31,,,,,,,,20.3,10.9,17.1*0F
Trace #44 at position 10.750000
$GPZDA,113749.03,08,10,2011,00,00*67
$GPRMC,113749.00,A,4611.963928,N,01258.227228,E,000.8,205.0,081011,0.2,E,A*34
$GPGGA,113750.00,4611.964521,N,01258.226404,E,1,05,10.9,104.04,M,46.25,M,,*53
$GPGLL,4611.964521,N,01258.226404,E,113750.00,A,A*6F
$GPVTG,171.4,T,171.6,M,001.5,N,002.8,K,A*2F
$GPGSV,2,1,08,16,18,307,37,21,60,181,39,05,18,051,39,06,16,268,40*70
$GPGSV,2,2,08,25,28,132,32,29,55,063,46,30,70,155,39,31,40,232,43*7C
$GPGSA,M,3,21,06,29,30,31,,,,,,,,20.4,10.9,17.2*0B
Trace #45 at position 11.000000
$GPZDA,113749.03,08,10,2011,00,00*67
$GPRMC,113749.00,A,4611.963928,N,01258.227228,E,000.8,205.0,081011,0.2,E,A*34
$GPGGA,113750.00,4611.964521,N,01258.226404,E,1,05,10.9,104.04,M,46.25,M,,*53
$GPGLL,4611.964521,N,01258.226404,E,113750.00,A,A*6F
$GPVTG,171.4,T,171.6,M,001.5,N,002.8,K,A*2F
$GPGSV,2,1,08,16,18,307,37,21,60,181,39,05,18,051,39,06,16,268,40*70
$GPGSV,2,2,08,25,28,132,32,29,55,063,46,30,70,155,39,31,40,232,43*7C
$GPGSA,M,3,21,06,29,30,31,,,,,,,,20.4,10.9,17.2*0B
Trace #46 at position 11.250000
$GPZDA,113749.03,08,10,2011,00,00*67
$GPRMC,113749.00,A,4611.963928,N,01258.227228,E,000.8,205.0,081011,0.2,E,A*34
$GPGGA,113750.00,4611.964521,N,01258.226404,E,1,05,10.9,104.04,M,46.25,M,,*53
$GPGLL,4611.964521,N,01258.226404,E,113750.00,A,A*6F
$GPVTG,171.4,T,171.6,M,001.5,N,002.8,K,A*2F
$GPGSV,2,1,08,16,18,307,37,21,60,181,39,05,18,051,39,06,16,268,40*70
$GPGSV,2,2,08,25,28,132,32,29,55,063,46,30,70,155,39,31,40,232,43*7C
$GPGSA,M,3,21,06,29,30,31,,,,,,,,20.4,10.9,17.2*0B
Trace #47 at position 11.500000
$GPZDA,113750.03,08,10,2011,00,00*6F
$GPRMC,113750.00,A,4611.964521,N,01258.226404,E,001.5,171.4,081011,0.2,E,A*3F
$GPGGA,113751.00,4611.965314,N,01258.225206,E,1,06,3.3,108.23,M,46.25,M,,*66
$GPGLL,4611.965314,N,01258.225206,E,113751.00,A,A*68
$GPVTG,158.1,T,158.3,M,001.8,N,003.3,K,A*28
$GPGSV,2,1,08,16,18,307,39,21,60,181,38,05,18,051,40,06,16,268,39*7F
$GPGSV,2,2,08,25,28,132,32,29,55,063,45,30,70,155,40,31,40,232,43*71
$GPGSA,M,3,21,05,06,29,30,31,,,,,,,4.9,3.3,3.6*3C
Trace #48 at position 11.750000
$GPZDA,113750.03,08,10,2011,00,00*6F
$GPRMC,113750.00,A,4611.964521,N,01258.226404,E,001.5,171.4,081011,0.2,E,A*3F
$GPGGA,113751.00,4611.965314,N,01258.225206,E,1,06,3.3,108.23,M,46.25,M,,*66
$GPGLL,4611.965314,N,01258.225206,E,113751.00,A,A*68
$GPVTG,158.1,T,158.3,M,001.8,N,003.3,K,A*28
$GPGSV,2,1,08,16,18,307,39,21,60,181,38,05,18,051,40,06,16,268,39*7F
$GPGSV,2,2,08,25,28,132,32,29,55,063,45,30,70,155,40,31,40,232,43*71
$GPGSA,M,3,21,05,06,29,30,31,,,,,,,4.9,3.3,3.6*3C
Trace #49 at position 12.000000
$GPZDA,113750.03,08,10,2011,00,00*6F
$GPRMC,113750.00,A,4611.964521,N,01258.226404,E,001.5,171.4,081011,0.2,E,A*3F
$GPGGA,113751.00,4611.965314,N,01258.225206,E,1,06,3.3,108.23,M,46.25,M,,*66
$GPGLL,4611.965314,N,01258.225206,E,113751.00,A,A*68
$GPVTG,158.1,T,158.3,M,001.8,N,003.3,K,A*28
$GPGSV,2,1,08,16,18,307,39,21,60,181,38,05,18,051,40,06,16,268,39*7F
$GPGSV,2,2,08,25,28,132,32,29,55,063,45,30,70,155,40,31,40,232,43*71
$GPGSA,M,3,21,05,06,29,30,31,,,,,,,4.9,3.3,3.6*3C
Trace #50 at position 12.250000
$GPZDA,113750.03,08,10,2011,00,00*6F
$GPRMC,113750.00,A,4611.964521,N,01258.226404,E,001.5,171.4,081011,0.2,E,A*3F
$GPGGA,113751.00,4611.965314,N,01258.225206,E,1,06,3.3,108.23,M,46.25,M,,*66
$GPGLL,4611.965314,N,01258.225206,E,113751.00,A,A*68
$GPVTG,158.1,T,158.3,M,001.8,N,003.3,K,A*28
$GPGSV,2,1,08,16,18,307,39,21,60,181,38,05,18,051,40,06,16,268,39*7F
$GPGSV,2,2,08,25,28,132,32,29,55,063,45,30,70,155,40,31,40,232,43*71
$GPGSA,M,3,21,05,06,29,30,31,,,,,,,4.9,3.3,3.6*3C
Trace #51 at position 12.500000
$GPZDA,113751.04,08,10,2011,00,00*69
$GPRMC,113751.00,A,4611.965314,N,01258.225206,E,001.8,158.1,081011,0.2,E,A*3B
$GPGGA,113752.00,4611.965633,N,01258.224534,E,1,07,1.8,111.03,M,46.25,M,,*60
$GPGLL,4611.965633,N,01258.224534,E,113752.00,A,A*6C
$GPVTG,170.5,T,170.6,M,001.4,N,002.6,K,A*21
$GPGSV,2,1,08,16,18,307,39,21,60,181,41,05,18,051,40,06,16,268,39*71
$GPGSV,2,2,08,25,28,132,33,29,55,063,45,30,70,155,40,31,40,232,43*70
$GPGSA,M,3,16,21,05,06,29,30,31,,,,,,3.3,1.8,2.7*3F
Trace #52 at position 12.750000
$GPZDA,113751.04,08,10,2011,00,00*69
$GPRMC,113751.00,A,4611.965314,N,01258.225206,E,001.8,158.1,081011,0.2,E,A*3B
$GPGGA,113752.00,4611.965633,N,01258.224534,E,1,07,1.8,111.03,M,46.25,M,,*60
$GPGLL,4611.965633,N,01258.224534,E,113752.00,A,A*6C
$GPVTG,170.5,T,170.6,M,001.4,N,002.6,K,A*21
$GPGSV,2,1,08,16,18,307,39,21,60,181,41,05,18,051,40,06,16,268,39*71
$GPGSV,2,2,08,25,28,132,33,29,55,063,45,30,70,155,40,31,40,232,43*70
$GPGSA,M,3,16,21,05,06,29,30,31,,,,,,3.3,1.8,2.7*3F
Trace #53 at position 13.000000
$GPZDA,113751.04,08,10,2011,00,00*69
$GPRMC,113751.00,A,4611.965314,N,01258.225206,E,001.8,158.1,081011,0.2,E,A*3B
$GPGGA,113752.00,4611.965633,N,01258.224534,E,1,07,1.8,111.03,M,46.25,M,,*60
$GPGLL,4611.965633,N,01258.224534,E,113752.00,A,A*6C
$GPVTG,170.5,T,170.6,M,001.4,N,002.6,K,A*21
$GPGSV,2,1,08,16,18,307,39,21,60,181,41,05,18,051,40,06,16,268,39*71
$GPGSV,2,2,08,25,28,132,33,29,55,063,45,30,70,155,40,31,40,232,43*70
$GPGSA,M,3,16,21,05,06,29,30,31,,,,,,3.3,1.8,2.7*3F
Trace #54 at position 13.250000
$GPZDA,113752.04,08,10,2011,00,00*6A
$GPRMC,113752.00,A,4611.965633,N,01258.224534,E,001.4,170.5,081011,0.2,E,A*3D
$GPGGA,113753.00,4611.965962,N,01258.223974,E,1,07,1.8,113.68,M,46.25,M,,*6A
$GPGLL,4611.965962,N,01258.223974,E,113753.00,A,A*69
$GPVTG,139.9,T,140.1,M,001.2,N,002.3,K,A*27
$GPGSV,2,1,08,16,18,307,38,21,60,181,39,05,18,051,38,06,16,268,40*7E
$GPGSV,2,2,08,25,28,132,33,29,55,063,45,30,70,155,39,31,40,232,42*7F
$GPGSA,M,3,16,21,05,06,29,30,31,,,,,,3.3,1.8,2.7*3F
Trace #55 at position 13.500000
$GPZDA,113752.04,08,10,2011,00,00*6A
$GPRMC,113752.00,A,4611.965633,N,01258.224534,E,001.4,170.5,081011,0.2,E,A*3D
$GPGGA,113753.00,4611.965962,N,01258.223974,E,1,07,1.8,113.68,M,46.25,M,,*6A
$GPGLL,4611.965962,N,01258.223974,E,113753.00,A,A*69
$GPVTG,139.9,T,140.1,M,001.2,N,002.3,K,A*27
$GPGSV,2,1,08,16,18,307,38,21,60,181,39,05,18,051,38,06,16,268,40*7E
$GPGSV,2,2,08,25,28,132,33,29,55,063,45,30,70,155,39,31,40,232,42*7F
$GPGSA,M,3,16,21,05,06,29,30,31,,,,,,3.3,1.8,2.7*3F
Trace #56 at position 13.750000
$GPZDA,113752.04,08,10,2011,00,00*6A
$GPRMC,113752.00,A,4611.965633,N,01258.224534,E,001.4,170.5,081011,0.2,E,A*3D
$GPGGA,113753.00,4611.965962,N,01258.223974,E,1,07,1.8,113.68,M,46.25,M,,*6A
$GPGLL,4611.965962,N,01258.223974,E,113753.00,A,A*69
$GPVTG,139.9,T,140.1,M,001.2,N,002.3,K,A*27
$GPGSV,2,1,08,16,18,307,38,21,60,181,39,05,18,051,38,06,16,268,40*7E
$GPGSV,2,2,08,25,28,132,33,29,55,063,45,30,70,155,39,31,40,232,42*7F
$GPGSA,M,3,16,21,05,06,29,30,31,,,,,,3.3,1.8,2.7*3F
Trace #57 at position 14.000000
$GPZDA,113752.04,08,10,2011,00,00*6A
$GPRMC,113752.00,A,4611.965633,N,01258.224534,E,001.4,170.5,081011,0.2,E,A*3D
$GPGGA,113753.00,4611.965962,N,01258.223974,E,1,07,1.8,113.68,M,46.25,M,,*6A
$GPGLL,4611.965962,N,01258.223974,E,113753.00,A,A*69
$GPVTG,139.9,T,140.1,M,001.2,N,002.3,K,A*27
$GPGSV,2,1,08,16,18,307,38,21,60,181,39,05,18,051,38,06,16,268,40*7E
$GPGSV,2,2,08,25,28,132,33,29,55,063,45,30,70,155,39,31,40,232,42*7F
$GPGSA,M,3,16,21,05,06,29,30,31,,,,,,3.3,1.8,2.7*3F
Trace #58 at position 14.250000
$GPZDA,113753.04,08,10,2011,00,00*6B
$GPRMC,113753.00,A,4611.965962,N,01258.223974,E,001.2,139.9,081011,0.2,E,A*3F
$GPGGA,113754.00,4611.966284,N,01258.223422,E,1,07,1.8,116.14,M,46.25,M,,*6D
$GPGLL,4611.966284,N,01258.223422,E,113754.00,A,A*60
$GPVTG,187.1,T,187.3,M,000.9,N,001.6,K,A*2F
$GPGSV,2,1,08,16,19,307,37,21,60,181,41,05,18,051,40,06,16,268,39*7E
$GPGSV,2,2,08,25,28,132,33,29,55,063,45,30,70,155,39,31,40,232,42*7F
$GPGSA,M,3,16,21,05,06,29,30,31,,,,,,3.3,1.8,2.7*3F
Trace #59 at position 14.500000
$GPZDA,113753.04,08,10,2011,00,00*6B
$GPRMC,113753.00,A,4611.965962,N,01258.223974,E,001.2,139.9,081011,0.2,E,A*3F
$GPGGA,113754.00,4611.966284,N,01258.223422,E,1,07,1.8,116.14,M,46.25,M,,*6D
$GPGLL,4611.966284,N,01258.223422,E,113754.00,A,A*60
$GPVTG,187.1,T,187.3,M,000.9,N,001.6,K,A*2F
$GPGSV,2,1,08,16,19,307,37,21,60,181,41,05,18,051,40,06,16,268,39*7E
$GPGSV,2,2,08,25,28,132,33,29,55,063,45,30,70,155,39,31,40,232,42*7F
$GPGSA,M,3,16,21,05,06,29,30,31,,,,,,3.3,1.8,2.7*3F
Trace #60 at position 14.750000
$GPZDA,113753.04,08,10,2011,00,00*6B
$GPRMC,113753.00,A,4611.965962,N,01258.223974,E,001.2,139.9,081011,0.2,E,A*3F
$GPGGA,113754.00,4611.966284,N,01258.223422,E,1,07,1.8,116.14,M,46.25,M,,*6D
$GPGLL,4611.966284,N,01258.223422,E,113754.00,A,A*60
$GPVTG,187.1,T,187.3,M,000.9,N,001.6,K,A*2F
$GPGSV,2,1,08,16,19,307,37,21,60,181,41,05,18,051,40,06,16,268,39*7E
$GPGSV,2,2,08,25,28,132,33,29,55,063,45,30,70,155,39,31,40,232,42*7F
$GPGSA,M,3,16,21,05,06,29,30,31,,,,,,3.3,1.8,2.7*3F
Trace #61 at position 15.000000
$GPZDA,113753.04,08,10,2011,00,00*6B
$GPRMC,113753.00,A,4611.965962,N,01258.223974,E,001.2,139.9,081011,0.2,E,A*3F
$GPGGA,113754.00,4611.966284,N,01258.223422,E,1,07,1.8,116.14,M,46.25,M,,*6D
$GPGLL,4611.966284,N,01258.223422,E,113754.00,A,A*60
$GPVTG,187.1,T,187.3,M,000.9,N,001.6,K,A*2F
$GPGSV,2,1,08,16,19,307,37,21,60,181,41,05,18,051,40,06,16,268,39*7E
$GPGSV,2,2,08,25,28,132,33,29,55,063,45,30,70,155,39,31,40,232,42*7F
$GPGSA,M,3,16,21,05,06,29,30,31,,,,,,3.3,1.8,2.7*3F
Trace #62 at position 15.250000
$GPZDA,113754.04,08,10,2011,00,00*6C
$GPRMC,113754.00,A,4611.966284,N,01258.223422,E,000.9,187.1,081011,0.2,E,A*31
$GPGGA,113755.00,4611.966629,N,01258.222778,E,1,06,3.3,118.53,M,46.25,M,,*67
$GPGLL,4611.966629,N,01258.222778,E,113755.00,A,A*6F
$GPVTG,155.6,T,155.7,M,001.5,N,002.7,K,A*23
$GPGSV,2,1,08,16,19,307,36,21,60,181,41,05,18,051,39,06,16,268,40*7F
$GPGSV,2,2,08,25,28,132,33,29,55,063,45,30,70,155,38,31,40,232,43*7F
$GPGSA,M,3,21,05,06,29,30,31,,,,,,,4.9,3.3,3.6*3C
Trace #63 at position 15.500000
$GPZDA,113754.04,08,10,2011,00,00*6C
$GPRMC,113754.00,A,4611.966284,N,01258.223422,E,000.9,187.1,081011,0.2,E,A*31
$GPGGA,113755.00,4611.966629,N,01258.222778,E,1,06,3.3,118.53,M,46.25,M,,*67
$GPGLL,4611.966629,N,01258.222778,E,113755.00,A,A*6F
$GPVTG,155.6,T,155.7,M,001.5,N,002.7,K,A*23
$GPGSV,2,1,08,16,19,307,36,21,60,181,41,05,18,051,39,06,16,268,40*7F
$GPGSV,2,2,08,25,28,132,33,29,55,063,45,30,70,155,38,31,40,232,43*7F
$GPGSA,M,3,21,05,06,29,30,31,,,,,,,4.9,3.3,3.6*3C
Trace #64 at position 15.750000
$GPZDA,113754.04,08,10,2011,00,00*6C
$GPRMC,113754.00,A,4611.966284,N,01258.223422,E,000.9,187.1,081011,0.2,E,A*31
$GPGGA,113755.00,4611.966629,N,01258.222778,E,1,06,3.3,118.53,M,46.25,M,,*67
$GPGLL,4611.966629,N,01258.222778,E,113755.00,A,A*6F
$GPVTG,155.6,T,155.7,M,001.5,N,002.7,K,A*23
$GPGSV,2,1,08,16,19,307,36,21,60,181,41,05,18,051,39,06,16,268,40*7F
$GPGSV,2,2,08,25,28,132,33,29,55,063,45,30,70,155,38,31,40,232,43*7F
$GPGSA,M,3,21,05,06,29,30,31,,,,,,,4.9,3.3,3.6*3C
Trace #65 at position 16.000000
$GPZDA,113754.04,08,10,2011,00,00*6C
$GPRMC,113754.00,A,4611.966284,N,01258.223422,E,000.9,187.1,081011,0.2,E,A*31
$GPGGA,113755.00,4611.966629,N,01258.222778,E,1,06,3.3,118.53,M,46.25,M,,*67
$GPGLL,4611.966629,N,01258.222778,E,113755.00,A,A*6F
$GPVTG,155.6,T,155.7,M,001.5,N,002.7,K,A*23
$GPGSV,2,1,08,16,19,307,36,21,60,181,41,05,18,051,39,06,16,268,40*7F
$GPGSV,2,2,08,25,28,132,33,29,55,063,45,30,70,155,38,31,40,232,43*7F
$GPGSA,M,3,21,05,06,29,30,31,,,,,,,4.9,3.3,3.6*3C
Trace #66 at position 16.250000
$GPZDA,113755.04,08,10,2011,00,00*6D
$GPRMC,113755.00,A,4611.966629,N,01258.222778,E,001.5,155.6,081011,0.2,E,A*3B
$GPGGA,113756.00,4611.966845,N,01258.222382,E,1,06,3.3,120.62,M,46.25,M,,*68
$GPGLL,4611.966845,N,01258.222382,E,113756.00,A,A*69
$GPVTG,147.7,T,147.9,M,001.5,N,002.8,K,A*23
$GPGSV,2,1,08,16,19,307,35,21,60,181,41,05,18,051,40,06,16,268,41*73
$GPGSV,2,2,08,25,28,132,34,29,55,063,45,30,70,155,39,31,40,232,42*78
$GPGSA,M,3,21,05,06,29,30,31,,,,,,,4.9,3.3,3.6*3C
Trace #67 at position 16.500000
$GPZDA,113755.04,08,10,2011,00,00*6D
$GPRMC,113755.00,A,4611.966629,N,01258.222778,E,001.5,155.6,081011,0.2,E,A*3B
$GPGGA,113756.00,4611.966845,N,01258.222382,E,1,06,3.3,120.62,M,46.25,M,,*68
$GPGLL,4611.966845,N,01258.222382,E,113756.00,A,A*69
$GPVTG,147.7,T,147.9,M,001.5,N,002.8,K,A*23
$GPGSV,2,1,08,16,19,307,35,21,60,181,41,05,18,051,40,06,16,268,41*73
$GPGSV,2,2,08,25,28,132,34,29,55,063,45,30,70,155,39,31,40,232,42*78
$GPGSA,M,3,21,05,06,29,30,31,,,,,,,4.9,3.3,3.6*3C
Trace #68 at position 16.750000
$GPZDA,113755.04,08,10,2011,00,00*6D
$GPRMC,113755.00,A,4611.966629,N,01258.222778,E,001.5,155.6,081011,0.2,E,A*3B
$GPGGA,113756.00,4611.966845,N,01258.222382,E,1,06,3.3,120.62,M,46.25,M,,*68
$GPGLL,4611.966845,N,01258.222382,E,113756.00,A,A*69
$GPVTG,147.7,T,147.9,M,001.5,N,002.8,K,A*23
$GPGSV,2,1,08,16,19,307,35,21,60,181,41,05,18,051,40,06,16,268,41*73
$GPGSV,2,2,08,25,28,132,34,29,55,063,45,30,70,155,39,31,40,232,42*78
$GPGSA,M,3,21,05,06,29,30,31,,,,,,,4.9,3.3,3.6*3C
Trace #69 at position 17.000000
$GPZDA,113755.04,08,10,2011,00,00*6D
$GPRMC,113755.00,A,4611.966629,N,01258.222778,E,001.5,155.6,081011,0.2,E,A*3B
$GPGGA,113756.00,4611.966845,N,01258.222382,E,1,06,3.3,120.62,M,46.25,M,,*68
$GPGLL,4611.966845,N,01258.222382,E,113756.00,A,A*69
$GPVTG,147.7,T,147.9,M,001.5,N,002.8,K,A*23
$GPGSV,2,1,08,16,19,307,35,21,60,181,41,05,18,051,40,06,16,268,41*73
$GPGSV,2,2,08,25,28,132,34,29,55,063,45,30,70,155,39,31,40,232,42*78
$GPGSA,M,3,21,05,06,29,30,31,,,,,,,4.9,3.3,3.6*3C
Trace #70 at position 17.250000
$GPZDA,113756.04,08,10,2011,00,00*6E
$GPRMC,113756.00,A,4611.966845,N,01258.222382,E,001.5,147.7,081011,0.2,E,A*3F
$GPGGA,113757.00,4611.966995,N,01258.222009,E,1,06,3.3,122.34,M,46.25,M,,*64
$GPGLL,4611.966995,N,01258.222009,E,113757.00,A,A*64
$GPVTG,163.5,T,163.6,M,001.4,N,002.5,K,A*22
$GPGSV,2,1,08,16,19,307,36,21,60,181,41,05,18,051,40,06,16,268,40*71
$GPGSV,2,2,08,25,28,132,32,29,55,063,45,30,70,155,39,31,40,232,43*7F
$GPGSA,M,3,21,05,06,29,30,31,,,,,,,4.9,3.3,3.6*3C
Trace #71 at position 17.500000
$GPZDA,113756.04,08,10,2011,00,00*6E
$GPRMC,113756.00,A,4611.966845,N,01258.222382,E,001.5,147.7,081011,0.2,E,A*3F
$GPGGA,113757.00,4611.966995,N,01258.222009,E,1,06,3.3,122.34,M,46.25,M,,*64
$GPGLL,4611.966995,N,01258.222009,E,113757.00,A,A*64
$GPVTG,163.5,T,163.6,M,001.4,N,002.5,K,A*22
$GPGSV,2,1,08,16,19,307,36,21,60,181,41,05,18,051,40,06,16,268,40*71
$GPGSV,2,2,08,25,28,132,32,29,55,063,45,30,70,155,39,31,40,232,43*7F
$GPGSA,M,3,21,05,06,29,30,31,,,,,,,4.9,3.3,3.6*3C
Trace #72 at position 17.750000
$GPZDA,113756.04,08,10,2011,00,00*6E
$GPRMC,113756.00,A,4611.966845,N,01258.222382,E,001.5,147.7,081011,0.2,E,A*3F
$GPGGA,113757.00,4611.966995,N,01258.222009,E,1,06,3.3,122.34,M,46.25,M,,*64
$GPGLL,4611.966995,N,01258.222009,E,113757.00,A,A*64
$GPVTG,163.5,T,163.6,M,001.4,N,002.5,K,A*22
$GPGSV,2,1,08,16,19,307,36,21,60,181,41,05,18,051,40,06,16,268,40*71
$GPGSV,2,2,08,25,28,132,32,29,55,063,45,30,70,155,39,31,40,232,43*7F
$GPGSA,M,3,21,05,06,29,30,31,,,,,,,4.9,3.3,3.6*3C
Trace #73 at position 18.000000
$GPZDA,113756.04,08,10,2011,00,00*6E
$GPRMC,113756.00,A,4611.966845,N,01258.222382,E,001.5,147.7,081011,0.2,E,A*3F
$GPGGA,113757.00,4611.966995,N,01258.222009,E,1,06,3.3,122.34,M,46.25,M,,*64
$GPGLL,4611.966995,N,01258.222009,E,113757.00,A,A*64
$GPVTG,163.5,T,163.6,M,001.4,N,002.5,K,A*22
$GPGSV,2,1,08,16,19,307,36,21,60,181,41,05,18,051,40,06,16,268,40*71
$GPGSV,2,2,08,25,28,132,32,29,55,063,45,30,70,155,39,31,40,232,43*7F
$GPGSA,M,3,21,05,06,29,30,31,,,,,,,4.9,3.3,3.6*3C
Trace #74 at position 18.250000
$GPZDA,113757.04,08,10,2011,00,00*6F
$GPRMC,113757.00,A,4611.966995,N,01258.222009,E,001.4,163.5,081011,0.2,E,A*37
$GPGGA,113758.00,4611.967021,N,01258.221617,E,1,06,3.3,123.84,M,46.25,M,,*6C
$GPGLL,4611.967021,N,01258.221617,E,113758.00,A,A*66
$GPVTG,167.4,T,167.6,M,001.8,N,003.4,K,A*2F
$GPGSV,2,1,08,16,19,307,34,21,60,181,40,05,18,051,38,06,16,268,39*73
$GPGSV,2,2,08,25,28,132,31,29,55,063,45,30,70,155,38,31,40,232,42*7C
$GPGSA,M,3,21,05,06,29,30,31,,,,,,,4.9,3.3,3.6*3C
Trace #75 at position 18.500000
$GPZDA,113757.04,08,10,2011,00,00*6F
$GPRMC,113757.00,A,4611.966995,N,01258.222009,E,001.4,163.5,081011,0.2,E,A*37
$GPGGA,113758.00,4611.967021,N,01258.221617,E,1,06,3.3,123.84,M,46.25,M,,*6C
$GPGLL,4611.967021,N,01258.221617,E,113758.00,A,A*66
$GPVTG,167.4,T,167.6,M,001.8,N,003.4,K,A*2F
$GPGSV,2,1,08,16,19,307,34,21,60,181,40,05,18,051,38,06,16,268,39*73
$GPGSV,2,2,08,25,28,132,31,29,55,063,45,30,70,155,38,31,40,232,42*7C
$GPGSA,M,3,21,05,06,29,30,31,,,,,,,4.9,3.3,3.6*3C
Trace #76 at position 18.750000
$GPZDA,113757.04,08,10,2011,00,00*6F
$GPRMC,113757.00,A,4611.966995,N,01258.222009,E,001.4,163.5,081011,0.2,E,A*37
$GPGGA,113758.00,4611.967021,N,01258.221617,E,1,06,3.3,123.84,M,46.25,M,,*6C
$GPGLL,4611.967021,N,01258.221617,E,113758.00,A,A*66
$GPVTG,167.4,T,167.6,M,001.8,N,003.4,K,A*2F
$GPGSV,2,1,08,16,19,307,34,21,60,181,40,05,18,051,38,06,16,268,39*73
$GPGSV,2,2,08,25,28,132,31,29,55,063,45,30,70,155,38,31,40,232,42*7C
$GPGSA,M,3,21,05,06,29,30,31,,,,,,,4.9,3.3,3.6*3C
Trace #77 at position 19.000000
$GPZDA,113758.04,08,10,2011,00,00*60
$GPRMC,113758.00,A,4611.967021,N,01258.221617,E,001.8,167.4,081011,0.2,E,A*3C
$GPGGA,113759.00,4611.966952,N,01258.221298,E,1,06,3.3,125.30,M,46.25,M,,*6B
$GPGLL,4611.966952,N,01258.221298,E,113759.00,A,A*68
$GPVTG,165.1,T,165.3,M,001.7,N,003.2,K,A*26
$GPGSV,2,1,08,16,19,307,35,21,60,181,41,05,18,051,37,06,16,268,40*72
$GPGSV,2,2,08,25,28,132,32,29,55,063,44,30,70,155,39,31,40,232,41*7C
$GPGSA,M,3,21,05,06,29,30,31,,,,,,,4.9,3.3,3.6*3C
Trace #78 at position 19.250000
$GPZDA,113758.04,08,10,2011,00,00*60
$GPRMC,113758.00,A,4611.967021,N,01258.221617,E,001.8,167.4,081011,0.2,E,A*3C
$GPGGA,113759.00,4611.966952,N,01258.221298,E,1,06,3.3,125.30,M,46.25,M,,*6B
$GPGLL,4611.966952,N,01258.221298,E,113759.00,A,A*68
$GPVTG,165.1,T,165.3,M,001.7,N,003.2,K,A*26
$GPGSV,2,1,08,16,19,307,35,21,60,181,41,05,18,051,37,06,16,268,40*72
$GPGSV,2,2,08,25,28,132,32,29,55,063,44,30,70,155,39,31,40,232,41*7C
$GPGSA,M,3,21,05,06,29,30,31,,,,,,,4.9,3.3,3.6*3C
Trace #79 at position 19.500000
$GPZDA,113758.04,08,10,2011,00,00*60
$GPRMC,113758.00,A,4611.967021,N,01258.221617,E,001.8,167.4,081011,0.2,E,A*3C
$GPGGA,113759.00,4611.966952,N,01258.221298,E,1,06,3.3,125.30,M,46.25,M,,*6B
$GPGLL,4611.966952,N,01258.221298,E,113759.00,A,A*68
$GPVTG,165.1,T,165.3,M,001.7,N,003.2,K,A*26
$GPGSV,2,1,08,16,19,307,35,21,60,181,41,05,18,051,37,06,16,268,40*72
$GPGSV,2,2,08,25,28,132,32,29,55,063,44,30,70,155,39,31,40,232,41*7C
$GPGSA,M,3,21,05,06,29,30,31,,,,,,,4.9,3.3,3.6*3C
Trace #80 at position 19.750000
$GPZDA,113758.04,08,10,2011,00,00*60
$GPRMC,113758.00,A,4611.967021,N,01258.221617,E,001.8,167.4,081011,0.2,E,A*3C
$GPGGA,113759.00,4611.966952,N,01258.221298,E,1,06,3.3,125.30,M,46.25,M,,*6B
$GPGLL,4611.966952,N,01258.221298,E,113759.00,A,A*68
$GPVTG,165.1,T,165.3,M,001.7,N,003.2,K,A*26
$GPGSV,2,1,08,16,19,307,35,21,60,181,41,05,18,051,37,06,16,268,40*72
$GPGSV,2,2,08,25,28,132,32,29,55,063,44,30,70,155,39,31,40,232,41*7C
$GPGSA,M,3,21,05,06,29,30,31,,,,,,,4.9,3.3,3.6*3C
Trace #81 at position 20.000000
$GPZDA,113759.04,08,10,2011,00,00*61
$GPRMC,113759.00,A,4611.966952,N,01258.221298,E,001.7,165.1,081011,0.2,E,A*3A
$GPGGA,113800.00,4611.966859,N,01258.221066,E,1,06,3.3,126.65,M,46.25,M,,*62
$GPGLL,4611.966859,N,01258.221066,E,113800.00,A,A*62
$GPVTG,160.3,T,160.4,M,001.7,N,003.2,K,A*23
$GPGSV,2,1,08,16,19,307,35,21,60,181,42,05,18,051,38,06,16,268,40*7E
$GPGSV,2,2,08,25,28,132,32,29,55,063,45,30,70,155,40,31,40,232,42*70
$GPGSA,M,3,21,05,06,29,30,31,,,,,,,4.9,3.3,3.6*3C
Trace #82 at position 20.250000
$GPZDA,113759.04,08,10,2011,00,00*61
$GPRMC,113759.00,A,4611.966952,N,01258.221298,E,001.7,165.1,081011,0.2,E,A*3A
$GPGGA,113800.00,4611.966859,N,01258.221066,E,1,06,3.3,126.65,M,46.25,M,,*62
$GPGLL,4611.966859,N,01258.221066,E,113800.00,A,A*62
$GPVTG,160.3,T,160.4,M,001.7,N,003.2,K,A*23
$GPGSV,2,1,08,16,19,307,35,21,60,181,42,05,18,051,38,06,16,268,40*7E
$GPGSV,2,2,08,25,28,132,32,29,55,063,45,30,70,155,40,31,40,232,42*70
$GPGSA,M,3,21,05,06,29,30,31,,,,,,,4.9,3.3,3.6*3C
Trace #83 at position 20.500000
$GPZDA,113759.04,08,10,2011,00,00*61
$GPRMC,113759.00,A,4611.966952,N,01258.221298,E,001.7,165.1,081011,0.2,E,A*3A
$GPGGA,113800.00,4611.966859,N,01258.221066,E,1,06,3.3,126.65,M,46.25,M,,*62
$GPGLL,4611.966859,N,01258.221066,E,113800.00,A,A*62
$GPVTG,160.3,T,160.4,M,001.7,N,003.2,K,A*23
$GPGSV,2,1,08,16,19,307,35,21,60,181,42,05,18,051,38,06,16,268,40*7E
$GPGSV,2,2,08,25,28,132,32,29,55,063,45,30,70,155,40,31,40,232,42*70
$GPGSA,M,3,21,05,06,29,30,31,,,,,,,4.9,3.3,3.6*3C
Trace #84 at position 20.750000
$GPZDA,113759.04,08,10,2011,00,00*61
$GPRMC,113759.00,A,4611.966952,N,01258.221298,E,001.7,165.1,081011,0.2,E,A*3A
$GPGGA,113800.00,4611.966859,N,01258.221066,E,1,06,3.3,126.65,M,46.25,M,,*62
$GPGLL,4611.966859,N,01258.221066,E,113800.00,A,A*62
$GPVTG,160.3,T,160.4,M,001.7,N,003.2,K,A*23
$GPGSV,2,1,08,16,19,307,35,21,60,181,42,05,18,051,38,06,16,268,40*7E
$GPGSV,2,2,08,25,28,132,32,29,55,063,45,30,70,155,40,31,40,232,42*70
$GPGSA,M,3,21,05,06,29,30,31,,,,,,,4.9,3.3,3.6*3C
Trace #85 at position 21.000000
$GPZDA,113800.04,08,10,2011,00,00*62
$GPRMC,113800.00,A,4611.966859,N,01258.221066,E,001.7,160.3,081011,0.2,E,A*37
$GPGGA,113801.00,4611.966795,N,01258.220838,E,1,06,3.3,128.04,M,46.25,M,,*67
$GPGLL,4611.966795,N,01258.220838,E,113801.00,A,A*6E
$GPVTG,157.9,T,158.0,M,001.9,N,003.4,K,A*2A
$GPGSV,2,1,08,16,19,307,33,21,60,181,40,05,18,051,39,06,16,268,41*7A
$GPGSV,2,2,08,25,28,132,33,29,55,063,46,30,70,155,40,31,40,232,43*73
$GPGSA,M,3,21,05,06,29,30,31,,,,,,,4.9,3.3,3.6*3C
Trace #86 at position 21.250000
$GPZDA,113800.04,08,10,2011,00,00*62
$GPRMC,113800.00,A,4611.966859,N,01258.221066,E,001.7,160.3,081011,0.2,E,A*37
$GPGGA,113801.00,4611.966795,N,01258.220838,E,1,06,3.3,128.04,M,46.25,M,,*67
$GPGLL,4611.966795,N,01258.220838,E,113801.00,A,A*6E
$GPVTG,157.9,T,158.0,M,001.9,N,003.4,K,A*2A
$GPGSV,2,1,08,16,19,307,33,21,60,181,40,05,18,051,39,06,16,268,41*7A
$GPGSV,2,2,08,25,28,132,33,29,55,063,46,30,70,155,40,31,40,232,43*73
$GPGSA,M,3,21,05,06,29,30,31,,,,,,,4.9,3.3,3.6*3C
Trace #87 at position 21.500000
$GPZDA,113800.04,08,10,2011,00,00*62
$GPRMC,113800.00,A,4611.966859,N,01258.221066,E,001.7,160.3,081011,0.2,E,A*37
$GPGGA,113801.00,4611.966795,N,01258.220838,E,1,06,3.3,128.04,M,46.25,M,,*67
$GPGLL,4611.966795,N,01258.220838,E,113801.00,A,A*6E
$GPVTG,157.9,T,158.0,M,001.9,N,003.4,K,A*2A
$GPGSV,2,1,08,16,19,307,33,21,60,181,40,05,18,051,39,06,16,268,41*7A
$GPGSV,2,2,08,25,28,132,33,29,55,063,46,30,70,155,40,31,40,232,43*73
$GPGSA,M,3,21,05,06,29,30,31,,,,,,,4.9,3.3,3.6*3C
Trace #88 at position 21.750000
$GPZDA,113801.04,08,10,2011,00,00*63
$GPRMC,113801.00,A,4611.966795,N,01258.220838,E,001.9,157.9,081011,0.2,E,A*3B
$GPGGA,113802.00,4611.966648,N,01258.220703,E,1,06,3.3,129.23,M,46.25,M,,*66
$GPGLL,4611.966648,N,01258.220703,E,113802.00,A,A*6B
$GPVTG,156.7,T,156.8,M,002.0,N,003.7,K,A*2A
$GPGSV,2,1,08,16,19,307,35,21,61,181,40,05,18,051,38,06,16,268,41*7C
$GPGSV,2,2,08,25,28,132,33,29,55,063,45,30,70,155,40,31,40,232,43*70
$GPGSA,M,3,21,05,06,29,30,31,,,,,,,4.9,3.3,3.6*3C
Trace #89 at position 22.000000
$GPZDA,113801.04,08,10,2011,00,00*63
$GPRMC,113801.00,A,4611.966795,N,01258.220838,E,001.9,157.9,081011,0.2,E,A*3B
$GPGGA,113802.00,4611.966648,N,01258.220703,E,1,06,3.3,129.23,M,46.25,M,,*66
$GPGLL,4611.966648,N,01258.220703,E,113802.00,A,A*6B
$GPVTG,156.7,T,156.8,M,002.0,N,003.7,K,A*2A
$GPGSV,2,1,08,16,19,307,35,21,61,181,40,05,18,051,38,06,16,268,41*7C
$GPGSV,2,2,08,25,28,132,33,29,55,063,45,30,70,155,40,31,40,232,43*70
$GPGSA,M,3,21,05,06,29,30,31,,,,,,,4.9,3.3,3.6*3C
Trace #90 at position 22.250000
$GPZDA,113801.04,08,10,2011,00,00*63
$GPRMC,113801.00,A,4611.966795,N,01258.220838,E,001.9,157.9,081011,0.2,E,A*3B
$GPGGA,113802.00,4611.966648,N,01258.220703,E,1,06,3.3,129.23,M,46.25,M,,*66
$GPGLL,4611.966648,N,01258.220703,E,113802.00,A,A*6B
$GPVTG,156.7,T,156.8,M,002.0,N,003.7,K,A*2A
$GPGSV,2,1,08,16,19,307,35,21,61,181,40,05,18,051,38,06,16,268,41*7C
$GPGSV,2,2,08,25,28,132,33,29,55,063,45,30,70,155,40,31,40,232,43*70
$GPGSA,M,3,21,05,06,29,30,31,,,,,,,4.9,3.3,3.6*3C
Trace #91 at position 22.500000
$GPZDA,113801.04,08,10,2011,00,00*63
$GPRMC,113801.00,A,4611.966795,N,01258.220838,E,001.9,157.9,081011,0.2,E,A*3B
$GPGGA,113802.00,4611.966648,N,01258.220703,E,1,06,3.3,129.23,M,46.25,M,,*66
$GPGLL,4611.966648,N,01258.220703,E,113802.00,A,A*6B
$GPVTG,156.7,T,156.8,M,002.0,N,003.7,K,A*2A
$GPGSV,2,1,08,16,19,307,35,21,61,181,40,05,18,051,38,06,16,268,41*7C
$GPGSV,2,2,08,25,28,132,33,29,55,063,45,30,70,155,40,31,40,232,43*70
$GPGSA,M,3,21,05,06,29,30,31,,,,,,,4.9,3.3,3.6*3C
Trace #92 at position 22.750000
$GPZDA,113802.04,08,10,2011,00,00*60
$GPRMC,113802.00,A,4611.966648,N,01258.220703,E,002.0,156.7,081011,0.2,E,A*3B
$GPGGA,113803.00,4611.966438,N,01258.220606,E,1,06,3.3,130.41,M,46.25,M,,*6A
$GPGLL,4611.966438,N,01258.220606,E,113803.00,A,A*6B
$GPVTG,160.3,T,160.5,M,002.0,N,003.6,K,A*22
$GPGSV,2,1,08,16,19,307,36,21,61,181,41,05,18,051,37,06,16,268,41*71
$GPGSV,2,2,08,25,28,132,,29,55,063,45,30,70,155,39,31,40,232,43*7E
$GPGSA,M,3,21,05,06,29,30,31,,,,,,,4.9,3.3,3.6*3C
Trace #93 at position 23.000000
$GPZDA,113802.04,08,10,2011,00,00*60
$GPRMC,113802.00,A,4611.966648,N,01258.220703,E,002.0,156.7,081011,0.2,E,A*3B
$GPGGA,113803.00,4611.966438,N,01258.220606,E,1,06,3.3,130.41,M,46.25,M,,*6A
$GPGLL,4611.966438,N,01258.220606,E,113803.00,A,A*6B
$GPVTG,160.3,T,160.5,M,002.0,N,003.6,K,A*22
$GPGSV,2,1,08,16,19,307,36,21,61,181,41,05,18,051,37,06,16,268,41*71
$GPGSV,2,2,08,25,28,132,,29,55,063,45,30,70,155,39,31,40,232,43*7E
$GPGSA,M,3,21,05,06,29,30,31,,,,,,,4.9,3.3,3.6*3C
Trace #94 at position 23.250000
$GPZDA,113802.04,08,10,2011,00,00*60
$GPRMC,113802.00,A,4611.966648,N,01258.220703,E,002.0,156.7,081011,0.2,E,A*3B
$GPGGA,113803.00,4611.966438,N,01258.220606,E,1,06,3.3,130.41,M,46.25,M,,*6A
$GPGLL,4611.966438,N,01258.220606,E,113803.00,A,A*6B
$GPVTG,160.3,T,160.5,M,002.0,N,003.6,K,A*22
$GPGSV,2,1,08,16,19,307,36,21,61,181,41,05,18,051,37,06,16,268,41*71
$GPGSV,2,2,08,25,28,132,,29,55,063,45,30,70,155,39,31,40,232,43*7E
$GPGSA,M,3,21,05,06,29,30,31,,,,,,,4.9,3.3,3.6*3C
Trace #95 at position 23.500000
$GPZDA,113803.04,08,10,2011,00,00*61
$GPRMC,113803.00,A,4611.966438,N,01258.220606,E,002.0,160.3,081011,0.2,E,A*3A
$GPGGA,113804.00,4611.966170,N,01258.220505,E,1,06,3.3,131.34,M,46.25,M,,*67
$GPGLL,4611.966170,N,01258.220505,E,113804.00,A,A*65
$GPVTG,164.7,T,164.9,M,002.1,N,003.9,K,A*24
$GPGSV,2,1,08,16,19,307,37,21,61,181,39,05,18,051,38,06,16,268,41*70
$GPGSV,2,2,08,25,28,132,33,29,55,063,45,30,70,155,40,31,40,232,44*77
$GPGSA,M,3,21,05,06,29,30,31,,,,,,,4.9,3.3,3.6*3C
Trace #96 at position 23.750000
$GPZDA,113803.04,08,10,2011,00,00*61
$GPRMC,113803.00,A,4611.966438,N,01258.220606,E,002.0,160.3,081011,0.2,E,A*3A
$GPGGA,113804.00,4611.966170,N,01258.220505,E,1,06,3.3,131.34,M,46.25,M,,*67
$GPGLL,4611.966170,N,01258.220505,E,113804.00,A,A*65
$GPVTG,164.7,T,164.9,M,002.1,N,003.9,K,A*24
$GPGSV,2,1,08,16,19,307,37,21,61,181,39,05,18,051,38,06,16,268,41*70
$GPGSV,2,2,08,25,28,132,33,29,55,063,45,30,70,155,40,31,40,232,44*77
$GPGSA,M,3,21,05,06,29,30,31,,,,,,,4.9,3.3,3.6*3C
Trace #97 at position 24.000000
$GPZDA,113804.04,08,10,2011,00,00*66
$GPRMC,113804.00,A,4611.966170,N,01258.220505,E,002.1,164.7,081011,0.2,E,A*35
$GPGGA,113805.00,4611.965936,N,01258.220425,E,1,06,3.3,132.07,M,46.25,M,,*6F
$GPGLL,4611.965936,N,01258.220425,E,113805.00,A,A*6E
$GPVTG,157.3,T,157.4,M,001.5,N,002.7,K,A*25
$GPGSV,2,1,08,16,19,307,36,21,61,181,42,05,18,051,36,06,16,268,41*73
$GPGSV,2,2,08,25,28,132,32,29,55,063,46,30,70,155,40,31,40,232,43*72
$GPGSA,M,3,21,05,06,29,30,31,,,,,,,4.9,3.3,3.6*3C
Trace #98 at position 24.250000
$GPZDA,113805.04,08,10,2011,00,00*67
$GPRMC,113805.00,A,4611.965936,N,01258.220425,E,001.5,157.3,081011,0.2,E,A*3D
$GPGGA,113806.00,4611.965770,N,01258.220384,E,1,06,3.3,132.87,M,46.25,M,,*64
$GPGLL,4611.965770,N,01258.220384,E,113806.00,A,A*6D
$GPVTG,156.9,T,157.0,M,001.4,N,002.7,K,A*2B
$GPGSV,2,1,08,16,19,307,35,21,61,181,39,05,18,051,37,06,16,268,40*7C
$GPGSV,2,2,08,25,28,132,31,29,55,063,45,30,70,155,40,31,40,232,43*72
$GPGSA,M,3,21,05,06,29,30,31,,,,,,,4.9,3.3,3.6*3C
Trace #99 at position 24.500000
$GPZDA,113806.04,08,10,2011,00,00*64
$GPRMC,113806.00,A,4611.965770,N,01258.220384,E,001.4,156.9,081011,0.2,E,A*34
$GPGGA,113807.00,4611.965500,N,01258.220339,E,1,06,3.3,133.58,M,46.25,M,,*65
$GPGLL,4611.965500,N,01258.220339,E,113807.00,A,A*6F
$GPVTG,167.9,T,168.0,M,002.0,N,003.6,K,A*22
$GPGSV,2,1,08,16,19,307,34,21,61,181,42,05,18,051,38,06,16,268,41*7F
$GPGSV,2,2,08,25,28,132,33,29,55,063,45,30,70,155,40,31,40,232,42*71
$GPGSA,M,3,21,05,06,29,30,31,,,,,,,4.9,3.3,3.6*3C
Trace #100 at position 24.750000
$GPZDA,113812.03,08,10,2011,00,00*66
$GPRMC,113812.00,A,4611.965009,N,01258.220256,E,000.3,27.8,081011,0.2,E,A*06
$GPGGA,113813.00,4611.965120,N,01258.220135,E,1,05,3.3,136.54,M,46.25,M,,*62
$GPGLL,4611.965120,N,01258.220135,E,113813.00,A,A*62
$GPVTG,311.6,T,311.8,M,000.1,N,000.2,K,A*2E
$GPGSV,2,1,08,16,19,307,37,21,61,181,40,05,18,051,39,06,16,268,39*70
$GPGSV,2,2,08,25,28,132,,29,55,063,41,30,70,155,35,31,40,232,42*77
$GPGSA,M,3,21,05,06,29,31,,,,,,,,5.0,3.3,3.8*39
Trace #101 at position 25.000000
$GPZDA,113812.03,08,10,2011,00,00*66
$GPRMC,113812.00,A,4611.965009,N,01258.220256,E,000.3,27.8,081011,0.2,E,A*06
$GPGGA,113813.00,4611.965120,N,01258.220135,E,1,05,3.3,136.54,M,46.25,M,,*62
$GPGLL,4611.965120,N,01258.220135,E,113813.00,A,A*62
$GPVTG,311.6,T,311.8,M,000.1,N,000.2,K,A*2E
$GPGSV,2,1,08,16,19,307,37,21,61,181,40,05,18,051,39,06,16,268,39*70
$GPGSV,2,2,08,25,28,132,,29,55,063,41,30,70,155,35,31,40,232,42*77
$GPGSA,M,3,21,05,06,29,31,,,,,,,,5.0,3.3,3.8*39
Trace #102 at position 25.250000
$GPZDA,113812.03,08,10,2011,00,00*66
$GPRMC,113812.00,A,4611.965009,N,01258.220256,E,000.3,27.8,081011,0.2,E,A*06
$GPGGA,113813.00,4611.965120,N,01258.220135,E,1,05,3.3,136.54,M,46.25,M,,*62
$GPGLL,4611.965120,N,01258.220135,E,113813.00,A,A*62
$GPVTG,311.6,T,311.8,M,000.1,N,000.2,K,A*2E
$GPGSV,2,1,08,16,19,307,37,21,61,181,40,05,18,051,39,06,16,268,39*70
$GPGSV,2,2,08,25,28,132,,29,55,063,41,30,70,155,35,31,40,232,42*77
$GPGSA,M,3,21,05,06,29,31,,,,,,,,5.0,3.3,3.8*39
Trace #103 at position 25.500000
$GPZDA,113813.03,08,10,2011,00,00*67
$GPRMC,113813.00,A,4611.965120,N,01258.220135,E,000.1,311.6,081011,0.2,E,A*31
$GPGGA,113814.00,4611.964664,N,01258.220779,E,1,05,11.7,134.53,M,46.25,M,,*5F
$GPGLL,4611.964664,N,01258.220779,E,113814.00,A,A*6D
$GPVTG,163.0,T,163.2,M,000.1,N,000.3,K,A*23
$GPGSV,2,1,08,16,19,307,35,21,61,181,40,05,18,051,35,06,16,268,39*7E
$GPGSV,2,2,08,25,28,132,,29,55,063,45,30,70,155,40,31,40,232,42*71
$GPGSA,M,3,21,06,29,30,31,,,,,,,,22.0,11.7,18.6*09
Trace #104 at position 25.750000
$GPZDA,113813.03,08,10,2011,00,00*67
$GPRMC,113813.00,A,4611.965120,N,01258.220135,E,000.1,311.6,081011,0.2,E,A*31
$GPGGA,113814.00,4611.964664,N,01258.220779,E,1,05,11.7,134.53,M,46.25,M,,*5F
$GPGLL,4611.964664,N,01258.220779,E,113814.00,A,A*6D
$GPVTG,163.0,T,163.2,M,000.1,N,000.3,K,A*23
$GPGSV,2,1,08,16,19,307,35,21,61,181,40,05,18,051,35,06,16,268,39*7E
$GPGSV,2,2,08,25,28,132,,29,55,063,45,30,70,155,40,31,40,232,42*71
$GPGSA,M,3,21,06,29,30,31,,,,,,,,22.0,11.7,18.6*09
Trace #105 at position 26.000000
$GPZDA,113813.03,08,10,2011,00,00*67
$GPRMC,113813.00,A,4611.965120,N,01258.220135,E,000.1,311.6,081011,0.2,E,A*31
$GPGGA,113814.00,4611.964664,N,01258.220779,E,1,05,11.7,134.53,M,46.25,M,,*5F
$GPGLL,4611.964664,N,01258.220779,E,113814.00,A,A*6D
$GPVTG,163.0,T,163.2,M,000.1,N,000.3,K,A*23
$GPGSV,2,1,08,16,19,307,35,21,61,181,40,05,18,051,35,06,16,268,39*7E
$GPGSV,2,2,08,25,28,132,,29,55,063,45,30,70,155,40,31,40,232,42*71
$GPGSA,M,3,21,06,29,30,31,,,,,,,,22.0,11.7,18.6*09
Trace #106 at position 26.250000
$GPZDA,113814.04,08,10,2011,00,00*67
$GPRMC,113814.00,A,4611.964664,N,01258.220779,E,000.1,163.0,081011,0.2,E,A*3F
$GPGGA,113815.00,4611.964262,N,01258.221348,E,1,05,11.7,132.74,M,46.25,M,,*58
$GPGLL,4611.964262,N,01258.221348,E,113815.00,A,A*69
$GPVTG,317.5,T,317.7,M,000.2,N,000.4,K,A*27
$GPGSV,2,1,08,16,19,307,36,21,61,181,40,05,18,051,35,06,16,268,40*73
$GPGSV,2,2,08,25,28,132,,29,55,063,43,30,70,155,39,31,40,232,43*78
$GPGSA,M,3,21,06,29,30,31,,,,,,,,22.0,11.7,18.6*09
Trace #107 at position 26.500000
$GPZDA,113814.04,08,10,2011,00,00*67
$GPRMC,113814.00,A,4611.964664,N,01258.220779,E,000.1,163.0,081011,0.2,E,A*3F
$GPGGA,113815.00,4611.964262,N,01258.221348,E,1,05,11.7,132.74,M,46.25,M,,*58
$GPGLL,4611.964262,N,01258.221348,E,113815.00,A,A*69
$GPVTG,317.5,T,317.7,M,000.2,N,000.4,K,A*27
$GPGSV,2,1,08,16,19,307,36,21,61,181,40,05,18,051,35,06,16,268,40*73
$GPGSV,2,2,08,25,28,132,,29,55,063,43,30,70,155,39,31,40,232,43*78
$GPGSA,M,3,21,06,29,30,31,,,,,,,,22.0,11.7,18.6*09
Trace #108 at position 26.750000
$GPZDA,113814.04,08,10,2011,00,00*67
$GPRMC,113814.00,A,4611.964664,N,01258.220779,E,000.1,163.0,081011,0.2,E,A*3F
$GPGGA,113815.00,4611.964262,N,01258.221348,E,1,05,11.7,132.74,M,46.25,M,,*58
$GPGLL,4611.964262,N,01258.221348,E,113815.00,A,A*69
$GPVTG,317.5,T,317.7,M,000.2,N,000.4,K,A*27
$GPGSV,2,1,08,16,19,307,36,21,61,181,40,05,18,051,35,06,16,268,40*73
$GPGSV,2,2,08,25,28,132,,29,55,063,43,30,70,155,39,31,40,232,43*78
$GPGSA,M,3,21,06,29,30,31,,,,,,,,22.0,11.7,18.6*09
Trace #109 at position 27.000000
$GPZDA,113814.04,08,10,2011,00,00*67
$GPRMC,113814.00,A,4611.964664,N,01258.220779,E,000.1,163.0,081011,0.2,E,A*3F
$GPGGA,113815.00,4611.964262,N,01258.221348,E,1,05,11.7,132.74,M,46.25,M,,*58
$GPGLL,4611.964262,N,01258.221348,E,113815.00,A,A*69
$GPVTG,317.5,T,317.7,M,000.2,N,000.4,K,A*27
$GPGSV,2,1,08,16,19,307,36,21,61,181,40,05,18,051,35,06,16,268,40*73
$GPGSV,2,2,08,25,28,132,,29,55,063,43,30,70,155,39,31,40,232,43*78
$GPGSA,M,3,21,06,29,30,31,,,,,,,,22.0,11.7,18.6*09
Trace #110 at position 27.250000
$GPZDA,113815.03,08,10,2011,00,00*61
$GPRMC,113815.00,A,4611.964262,N,01258.221348,E,000.2,317.5,081011,0.2,E,A*3C
$GPGGA,113816.00,4611.964463,N,01258.221031,E,1,06,3.3,133.56,M,46.25,M,,*64
$GPGLL,4611.964463,N,01258.221031,E,113816.00,A,A*60
$GPVTG,320.6,T,320.8,M,000.4,N,000.8,K,A*21
$GPGSV,2,1,08,16,19,307,38,21,61,181,40,05,18,051,41,06,16,268,41*7F
$GPGSV,2,2,08,25,28,132,,29,55,063,43,30,70,155,40,31,40,232,43*76
$GPGSA,M,3,21,05,06,29,30,31,,,,,,,4.9,3.3,3.6*3C
Trace #111 at position 27.500000
$GPZDA,113815.03,08,10,2011,00,00*61
$GPRMC,113815.00,A,4611.964262,N,01258.221348,E,000.2,317.5,081011,0.2,E,A*3C
$GPGGA,113816.00,4611.964463,N,01258.221031,E,1,06,3.3,133.56,M,46.25,M,,*64
$GPGLL,4611.964463,N,01258.221031,E,113816.00,A,A*60
$GPVTG,320.6,T,320.8,M,000.4,N,000.8,K,A*21
$GPGSV,2,1,08,16,19,307,38,21,61,181,40,05,18,051,41,06,16,268,41*7F
$GPGSV,2,2,08,25,28,132,,29,55,063,43,30,70,155,40,31,40,232,43*76
$GPGSA,M,3,21,05,06,29,30,31,,,,,,,4.9,3.3,3.6*3C
Trace #112 at position 27.750000
$GPZDA,113815.03,08,10,2011,00,00*61
$GPRMC,113815.00,A,4611.964262,N,01258.221348,E,000.2,317.5,081011,0.2,E,A*3C
$GPGGA,113816.00,4611.964463,N,01258.221031,E,1,06,3.3,133.56,M,46.25,M,,*64
$GPGLL,4611.964463,N,01258.221031,E,113816.00,A,A*60
$GPVTG,320.6,T,320.8,M,000.4,N,000.8,K,A*21
$GPGSV,2,1,08,16,19,307,38,21,61,181,40,05,18,051,41,06,16,268,41*7F
$GPGSV,2,2,08,25,28,132,,29,55,063,43,30,70,155,40,31,40,232,43*76
$GPGSA,M,3,21,05,06,29,30,31,,,,,,,4.9,3.3,3.6*3C
Trace #113 at position 28.000000
$GPZDA,113815.03,08,10,2011,00,00*61
$GPRMC,113815.00,A,4611.964262,N,01258.221348,E,000.2,317.5,081011,0.2,E,A*3C
$GPGGA,113816.00,4611.964463,N,01258.221031,E,1,06,3.3,133.56,M,46.25,M,,*64
$GPGLL,4611.964463,N,01258.221031,E,113816.00,A,A*60
$GPVTG,320.6,T,320.8,M,000.4,N,000.8,K,A*21
$GPGSV,2,1,08,16,19,307,38,21,61,181,40,05,18,051,41,06,16,268,41*7F
$GPGSV,2,2,08,25,28,132,,29,55,063,43,30,70,155,40,31,40,232,43*76
$GPGSA,M,3,21,05,06,29,30,31,,,,,,,4.9,3.3,3.6*3C
Trace #114 at position 28.250000
$GPZDA,113816.04,08,10,2011,00,00*65
$GPRMC,113816.00,A,4611.964463,N,01258.221031,E,000.4,320.6,081011,0.2,E,A*34
$GPGGA,113817.00,4611.964607,N,01258.220788,E,1,06,3.3,134.17,M,46.25,M,,*63
$GPGLL,4611.964607,N,01258.220788,E,113817.00,A,A*65
$GPVTG,146.5,T,146.6,M,000.1,N,000.2,K,A*23
$GPGSV,2,1,08,16,19,307,36,21,61,181,40,05,18,051,39,06,16,268,41*7E
$GPGSV,2,2,08,25,28,132,,29,55,063,42,30,70,155,40,31,40,232,41*75
$GPGSA,M,3,21,05,06,29,30,31,,,,,,,4.9,3.3,3.6*3C
Trace #115 at position 28.500000
$GPZDA,113816.04,08,10,2011,00,00*65
$GPRMC,113816.00,A,4611.964463,N,01258.221031,E,000.4,320.6,081011,0.2,E,A*34
$GPGGA,113817.00,4611.964607,N,01258.220788,E,1,06,3.3,134.17,M,46.25,M,,*63
$GPGLL,4611.964607,N,01258.220788,E,113817.00,A,A*65
$GPVTG,146.5,T,146.6,M,000.1,N,000.2,K,A*23
$GPGSV,2,1,08,16,19,307,36,21,61,181,40,05,18,051,39,06,16,268,41*7E
$GPGSV,2,2,08,25,28,132,,29,55,063,42,30,70,155,40,31,40,232,41*75
$GPGSA,M,3,21,05,06,29,30,31,,,,,,,4.9,3.3,3.6*3C
Trace #116 at position 28.750000
$GPZDA,113816.04,08,10,2011,00,00*65
$GPRMC,113816.00,A,4611.964463,N,01258.221031,E,000.4,320.6,081011,0.2,E,A*34
$GPGGA,113817.00,4611.964607,N,01258.220788,E,1,06,3.3,134.17,M,46.25,M,,*63
