Trace #1 at position 0.000000
$GPZDA,113452.03,08,10,2011,00,00*6E
$GPRMC,113452.00,A,4611.953744,N,01258.224167,E,000.1,151.2,081011,0.2,E,A*38
$GPGGA,113453.00,4611.953693,N,01258.224179,E,1,06,1.6,133.53,M,46.25,M,,*6A
$GPGLL,4611.953693,N,01258.224179,E,113453.00,A,A*6C
$GPVTG,131.7,T,131.9,M,000.1,N,000.2,K,A*2E
$GPGSV,2,1,08,16,17,307,33,21,59,182,45,05,18,052,39,06,15,268,33*7D
$GPGSV,2,2,08,25,29,131,47,29,56,062,44,30,72,155,46,31,41,234,42*70
$GPGSA,M,3,21,05,25,29,30,31,,,,,,,2.6,1.6,2.1*35
Trace #2 at position 0.250000
$GPZDA,113456.04,08,10,2011,00,00*6D
$GPRMC,113456.00,A,4611.953601,N,01258.224171,E,000.0,195.6,081011,0.2,E,A*36
$GPGGA,113457.00,4611.953451,N,01258.224264,E,1,06,1.6,134.06,M,46.25,M,,*6A
$GPGLL,4611.953451,N,01258.224264,E,113457.00,A,A*6B
$GPVTG,150.4,T,150.6,M,001.1,N,002.1,K,A*22
$GPGSV,2,1,08,16,17,307,33,21,59,182,43,05,18,052,38,06,15,268,32*7B
$GPGSV,2,2,08,25,29,131,41,29,56,062,43,30,72,155,44,31,41,233,45*73
$GPGSA,M,3,21,05,25,29,30,31,,,,,,,2.6,1.6,2.1*35
Trace #3 at position 0.500000
$GPZDA,113457.04,08,10,2011,00,00*6C
$GPRMC,113457.00,A,4611.953451,N,01258.224264,E,001.1,150.4,081011,0.2,E,A*3C
$GPGGA,113458.00,4611.953329,N,01258.224341,E,1,06,1.6,134.08,M,46.25,M,,*65
$GPGLL,4611.953329,N,01258.224341,E,113458.00,A,A*6A
$GPVTG,329.4,T,329.6,M,000.1,N,000.1,K,A*21
$GPGSV,2,1,08,16,17,307,26,21,59,182,46,05,18,052,43,06,15,268,37*73
$GPGSV,2,2,08,25,29,131,46,29,56,062,45,30,72,155,47,31,41,233,46*72
$GPGSA,M,3,21,05,25,29,30,31,,,,,,,2.6,1.6,2.1*35
Trace #4 at position 0.750000
$GPZDA,113458.04,08,10,2011,00,00*63
$GPRMC,113458.00,A,4611.953329,N,01258.224341,E,000.1,329.4,081011,0.2,E,A*30
$GPGGA,113459.00,4611.953418,N,01258.224324,E,1,06,1.6,134.17,M,46.25,M,,*6C
$GPGLL,4611.953418,N,01258.224324,E,113459.00,A,A*6D
$GPVTG,10.3,T,10.5,M,000.5,N,001.0,K,A*21
$GPGSV,2,1,08,16,17,307,25,21,59,182,46,05,18,052,41,06,15,268,36*73
$GPGSV,2,2,08,25,29,131,45,29,56,062,44,30,72,155,47,31,41,233,46*70
$GPGSA,M,3,21,05,25,29,30,31,,,,,,,2.6,1.6,2.1*35
Trace #5 at position 1.000000
$GPZDA,113458.04,08,10,2011,00,00*63
$GPRMC,113458.00,A,4611.953329,N,01258.224341,E,000.1,329.4,081011,0.2,E,A*30
$GPGGA,113459.00,4611.953418,N,01258.224324,E,1,06,1.6,134.17,M,46.25,M,,*6C
$GPGLL,4611.953418,N,01258.224324,E,113459.00,A,A*6D
$GPVTG,10.3,T,10.5,M,000.5,N,001.0,K,A*21
$GPGSV,2,1,08,16,17,307,25,21,59,182,46,05,18,052,41,06,15,268,36*73
$GPGSV,2,2,08,25,29,131,45,29,56,062,44,30,72,155,47,31,41,233,46*70
$GPGSA,M,3,21,05,25,29,30,31,,,,,,,2.6,1.6,2.1*35
Trace #6 at position 1.250000
$GPZDA,113459.04,08,10,2011,00,00*62
$GPRMC,113459.00,A,4611.953418,N,01258.224324,E,000.5,10.3,081011,0.2,E,A*0D
$GPGGA,113500.00,4611.953567,N,01258.224252,E,1,06,1.6,134.24,M,46.25,M,,*68
$GPGLL,4611.953567,N,01258.224252,E,113500.00,A,A*69
$GPVTG,329.2,T,329.3,M,000.6,N,001.1,K,A*24
$GPGSV,2,1,08,16,17,307,,21,59,182,45,05,18,052,41,06,15,268,36*77
$GPGSV,2,2,08,25,29,131,45,29,56,062,43,30,72,155,47,31,41,233,47*76
$GPGSA,M,3,21,05,25,29,30,31,,,,,,,2.6,1.6,2.1*35
Trace #7 at position 1.500000
$GPZDA,113459.04,08,10,2011,00,00*62
$GPRMC,113459.00,A,4611.953418,N,01258.224324,E,000.5,10.3,081011,0.2,E,A*0D
$GPGGA,113500.00,4611.953567,N,01258.224252,E,1,06,1.6,134.24,M,46.25,M,,*68
$GPGLL,4611.953567,N,01258.224252,E,113500.00,A,A*69
$GPVTG,329.2,T,329.3,M,000.6,N,001.1,K,A*24
$GPGSV,2,1,08,16,17,307,,21,59,182,45,05,18,052,41,06,15,268,36*77
$GPGSV,2,2,08,25,29,131,45,29,56,062,43,30,72,155,47,31,41,233,47*76
$GPGSA,M,3,21,05,25,29,30,31,,,,,,,2.6,1.6,2.1*35
Trace #8 at position 1.750000
$GPZDA,113500.04,08,10,2011,00,00*6F
$GPRMC,113500.00,A,4611.953567,N,01258.224252,E,000.6,329.2,081011,0.2,E,A*32
$GPGGA,113501.00,4611.953751,N,01258.224101,E,1,06,1.6,134.33,M,46.25,M,,*6D
$GPGLL,4611.953751,N,01258.224101,E,113501.00,A,A*6A
$GPVTG,336.0,T,336.1,M,000.9,N,001.6,K,A*2C
$GPGSV,2,1,08,16,17,307,28,21,59,182,45,05,18,052,39,06,15,268,35*71
$GPGSV,2,2,08,25,29,131,45,29,56,062,42,30,72,155,46,31,41,233,46*77
$GPGSA,M,3,21,05,25,29,30,31,,,,,,,2.6,1.6,2.1*35
Trace #9 at position 2.000000
$GPZDA,113501.04,08,10,2011,00,00*6E
$GPRMC,113501.00,A,4611.953751,N,01258.224101,E,000.9,336.0,081011,0.2,E,A*32
$GPGGA,113502.00,4611.953950,N,01258.223992,E,1,06,1.6,134.36,M,46.25,M,,*61
$GPGLL,4611.953950,N,01258.223992,E,113502.00,A,A*63
$GPVTG,349.9,T,350.0,M,000.6,N,001.1,K,A*24
$GPGSV,2,1,08,16,17,307,29,21,59,182,45,05,18,052,41,06,15,268,36*7C
$GPGSV,2,2,08,25,29,131,45,29,56,062,44,30,72,155,47,31,41,233,44*72
$GPGSA,M,3,21,05,25,29,30,31,,,,,,,2.6,1.6,2.1*35
Trace #10 at position 2.250000
$GPZDA,113501.04,08,10,2011,00,00*6E
$GPRMC,113501.00,A,4611.953751,N,01258.224101,E,000.9,336.0,081011,0.2,E,A*32
$GPGGA,113502.00,4611.953950,N,01258.223992,E,1,06,1.6,134.36,M,46.25,M,,*61
$GPGLL,4611.953950,N,01258.223992,E,113502.00,A,A*63
$GPVTG,349.9,T,350.0,M,000.6,N,001.1,K,A*24
$GPGSV,2,1,08,16,17,307,29,21,59,182,45,05,18,052,41,06,15,268,36*7C
$GPGSV,2,2,08,25,29,131,45,29,56,062,44,30,72,155,47,31,41,233,44*72
$GPGSA,M,3,21,05,25,29,30,31,,,,,,,2.6,1.6,2.1*35
Trace #11 at position 2.500000
$GPZDA,113502.04,08,10,2011,00,00*6D
$GPRMC,113502.00,A,4611.953950,N,01258.223992,E,000.6,349.9,081011,0.2,E,A*35
$GPGGA,113503.00,4611.954133,N,01258.223864,E,1,06,1.6,134.37,M,46.25,M,,*63
$GPGLL,4611.954133,N,01258.223864,E,113503.00,A,A*60
$GPVTG,324.0,T,324.1,M,000.8,N,001.5,K,A*2E
$GPGSV,2,1,08,16,17,307,30,21,59,182,46,05,18,052,41,06,15,268,33*72
$GPGSV,2,2,08,25,29,131,44,29,56,062,43,30,72,155,47,31,41,233,46*76
$GPGSA,M,3,21,05,25,29,30,31,,,,,,,2.6,1.6,2.1*35
Trace #12 at position 2.750000
$GPZDA,113502.04,08,10,2011,00,00*6D
$GPRMC,113502.00,A,4611.953950,N,01258.223992,E,000.6,349.9,081011,0.2,E,A*35
$GPGGA,113503.00,4611.954133,N,01258.223864,E,1,06,1.6,134.37,M,46.25,M,,*63
$GPGLL,4611.954133,N,01258.223864,E,113503.00,A,A*60
$GPVTG,324.0,T,324.1,M,000.8,N,001.5,K,A*2E
$GPGSV,2,1,08,16,17,307,30,21,59,182,46,05,18,052,41,06,15,268,33*72
$GPGSV,2,2,08,25,29,131,44,29,56,062,43,30,72,155,47,31,41,233,46*76
$GPGSA,M,3,21,05,25,29,30,31,,,,,,,2.6,1.6,2.1*35
Trace #13 at position 3.000000
$GPZDA,113503.04,08,10,2011,00,00*6C
$GPRMC,113503.00,A,4611.954133,N,01258.223864,E,000.8,324.0,081011,0.2,E,A*3A
$GPGGA,113504.00,4611.954316,N,01258.223730,E,1,06,1.6,134.46,M,46.25,M,,*69
$GPGLL,4611.954316,N,01258.223730,E,113504.00,A,A*6C
$GPVTG,347.2,T,347.3,M,000.6,N,001.1,K,A*24
$GPGSV,2,1,08,16,17,307,25,21,59,182,46,05,18,052,40,06,15,268,33*77
$GPGSV,2,2,08,25,29,131,45,29,56,062,43,30,72,155,45,31,41,233,47*74
$GPGSA,M,3,21,05,25,29,30,31,,,,,,,2.6,1.6,2.1*35
Trace #14 at position 3.250000
$GPZDA,113503.04,08,10,2011,00,00*6C
$GPRMC,113503.00,A,4611.954133,N,01258.223864,E,000.8,324.0,081011,0.2,E,A*3A
$GPGGA,113504.00,4611.954316,N,01258.223730,E,1,06,1.6,134.46,M,46.25,M,,*69
$GPGLL,4611.954316,N,01258.223730,E,113504.00,A,A*6C
$GPVTG,347.2,T,347.3,M,000.6,N,001.1,K,A*24
$GPGSV,2,1,08,16,17,307,25,21,59,182,46,05,18,052,40,06,15,268,33*77
$GPGSV,2,2,08,25,29,131,45,29,56,062,43,30,72,155,45,31,41,233,47*74
$GPGSA,M,3,21,05,25,29,30,31,,,,,,,2.6,1.6,2.1*35
Trace #15 at position 3.500000
$GPZDA,113504.04,08,10,2011,00,00*6B
$GPRMC,113504.00,A,4611.954316,N,01258.223730,E,000.6,347.2,081011,0.2,E,A*3F
$GPGGA,113505.00,4611.954578,N,01258.223522,E,1,06,1.6,134.49,M,46.25,M,,*68
$GPGLL,4611.954578,N,01258.223522,E,113505.00,A,A*62
$GPVTG,323.8,T,323.9,M,001.5,N,002.9,K,A*2D
$GPGSV,2,1,08,16,17,307,30,21,59,182,46,05,18,052,39,06,15,268,32*7C
$GPGSV,2,2,08,25,29,131,44,29,56,062,44,30,72,155,45,31,41,233,44*71
$GPGSA,M,3,21,05,25,29,30,31,,,,,,,2.6,1.6,2.1*35
Trace #16 at position 3.750000
$GPZDA,113504.04,08,10,2011,00,00*6B
$GPRMC,113504.00,A,4611.954316,N,01258.223730,E,000.6,347.2,081011,0.2,E,A*3F
$GPGGA,113505.00,4611.954578,N,01258.223522,E,1,06,1.6,134.49,M,46.25,M,,*68
$GPGLL,4611.954578,N,01258.223522,E,113505.00,A,A*62
$GPVTG,323.8,T,323.9,M,001.5,N,002.9,K,A*2D
$GPGSV,2,1,08,16,17,307,30,21,59,182,46,05,18,052,39,06,15,268,32*7C
$GPGSV,2,2,08,25,29,131,44,29,56,062,44,30,72,155,45,31,41,233,44*71
$GPGSA,M,3,21,05,25,29,30,31,,,,,,,2.6,1.6,2.1*35
Trace #17 at position 4.000000
$GPZDA,113505.04,08,10,2011,00,00*6A
$GPRMC,113505.00,A,4611.954578,N,01258.223522,E,001.5,323.8,081011,0.2,E,A*3B
$GPGGA,113506.00,4611.954871,N,01258.223346,E,1,06,1.6,134.50,M,46.25,M,,*63
$GPGLL,4611.954871,N,01258.223346,E,113506.00,A,A*61
$GPVTG,357.4,T,357.5,M,000.9,N,001.7,K,A*2D
$GPGSV,2,1,08,16,17,307,30,21,59,182,45,05,18,052,38,06,15,268,32*7E
$GPGSV,2,2,08,25,29,131,43,29,56,062,42,30,71,155,46,31,41,233,46*72
$GPGSA,M,3,21,05,25,29,30,31,,,,,,,2.6,1.6,2.1*35
Trace #18 at position 4.250000
$GPZDA,113506.04,08,10,2011,00,00*69
$GPRMC,113506.00,A,4611.954871,N,01258.223346,E,000.9,357.4,081011,0.2,E,A*3A
$GPGGA,113507.00,4611.955075,N,01258.223303,E,1,06,1.6,134.55,M,46.25,M,,*6B
$GPGLL,4611.955075,N,01258.223303,E,113507.00,A,A*6C
$GPVTG,337.7,T,337.9,M,000.6,N,001.1,K,A*2B
$GPGSV,2,1,08,16,17,307,28,21,59,182,45,05,18,052,38,06,15,268,35*70
$GPGSV,2,2,08,25,29,131,42,29,56,062,43,30,71,155,46,31,41,233,45*71
$GPGSA,M,3,21,05,25,29,30,31,,,,,,,2.6,1.6,2.1*35
Trace #19 at position 4.500000
$GPZDA,113506.04,08,10,2011,00,00*69
$GPRMC,113506.00,A,4611.954871,N,01258.223346,E,000.9,357.4,081011,0.2,E,A*3A
$GPGGA,113507.00,4611.955075,N,01258.223303,E,1,06,1.6,134.55,M,46.25,M,,*6B
$GPGLL,4611.955075,N,01258.223303,E,113507.00,A,A*6C
$GPVTG,337.7,T,337.9,M,000.6,N,001.1,K,A*2B
$GPGSV,2,1,08,16,17,307,28,21,59,182,45,05,18,052,38,06,15,268,35*70
$GPGSV,2,2,08,25,29,131,42,29,56,062,43,30,71,155,46,31,41,233,45*71
$GPGSA,M,3,21,05,25,29,30,31,,,,,,,2.6,1.6,2.1*35
Trace #20 at position 4.750000
$GPZDA,113514.03,08,10,2011,00,00*6D
$GPRMC,113514.00,A,4611.956150,N,01258.223060,E,000.1,344.1,081011,0.2,E,A*39
$GPGGA,113515.00,4611.956233,N,01258.223035,E,1,05,2.2,132.33,M,46.25,M,,*6F
$GPGLL,4611.956233,N,01258.223035,E,113515.00,A,A*6A
$GPVTG,335.1,T,335.2,M,000.0,N,000.1,K,A*21
$GPGSV,2,1,08,16,17,307,,21,59,182,45,05,18,052,37,06,15,268,34*74
$GPGSV,2,2,08,25,29,131,43,29,56,062,43,30,71,155,46,31,41,233,44*71
$GPGSA,M,3,21,25,29,30,31,,,,,,,,3.9,2.2,3.3*3A
Trace #21 at position 5.000000
$GPZDA,113514.03,08,10,2011,00,00*6D
$GPRMC,113514.00,A,4611.956150,N,01258.223060,E,000.1,344.1,081011,0.2,E,A*39
$GPGGA,113515.00,4611.956233,N,01258.223035,E,1,05,2.2,132.33,M,46.25,M,,*6F
$GPGLL,4611.956233,N,01258.223035,E,113515.00,A,A*6A
$GPVTG,335.1,T,335.2,M,000.0,N,000.1,K,A*21
$GPGSV,2,1,08,16,17,307,,21,59,182,45,05,18,052,37,06,15,268,34*74
$GPGSV,2,2,08,25,29,131,43,29,56,062,43,30,71,155,46,31,41,233,44*71
$GPGSA,M,3,21,25,29,30,31,,,,,,,,3.9,2.2,3.3*3A
Trace #22 at position 5.250000
$GPZDA,113515.03,08,10,2011,00,00*6C
$GPRMC,113515.00,A,4611.956233,N,01258.223035,E,000.0,335.1,081011,0.2,E,A*39
$GPGGA,113516.00,4611.956298,N,01258.223006,E,1,05,2.2,132.09,M,46.25,M,,*64
$GPGLL,4611.956298,N,01258.223006,E,113516.00,A,A*68
$GPVTG,264.3,T,264.5,M,000.0,N,000.1,K,A*24
$GPGSV,2,1,08,16,17,307,,21,59,182,45,05,18,052,37,06,15,268,34*74
$GPGSV,2,2,08,25,29,131,43,29,56,062,43,30,71,155,46,31,41,233,44*71
$GPGSA,M,3,21,25,29,30,31,,,,,,,,3.9,2.2,3.3*3A
Trace #23 at position 5.500000
$GPZDA,113515.03,08,10,2011,00,00*6C
$GPRMC,113515.00,A,4611.956233,N,01258.223035,E,000.0,335.1,081011,0.2,E,A*39
$GPGGA,113516.00,4611.956298,N,01258.223006,E,1,05,2.2,132.09,M,46.25,M,,*64
$GPGLL,4611.956298,N,01258.223006,E,113516.00,A,A*68
$GPVTG,264.3,T,264.5,M,000.0,N,000.1,K,A*24
$GPGSV,2,1,08,16,17,307,,21,59,182,45,05,18,052,37,06,15,268,34*74
$GPGSV,2,2,08,25,29,131,43,29,56,062,43,30,71,155,46,31,41,233,44*71
$GPGSA,M,3,21,25,29,30,31,,,,,,,,3.9,2.2,3.3*3A
Trace #24 at position 5.750000
$GPZDA,113515.03,08,10,2011,00,00*6C
$GPRMC,113515.00,A,4611.956233,N,01258.223035,E,000.0,335.1,081011,0.2,E,A*39
$GPGGA,113516.00,4611.956298,N,01258.223006,E,1,05,2.2,132.09,M,46.25,M,,*64
$GPGLL,4611.956298,N,01258.223006,E,113516.00,A,A*68
$GPVTG,264.3,T,264.5,M,000.0,N,000.1,K,A*24
$GPGSV,2,1,08,16,17,307,,21,59,182,45,05,18,052,37,06,15,268,34*74
$GPGSV,2,2,08,25,29,131,43,29,56,062,43,30,71,155,46,31,41,233,44*71
$GPGSA,M,3,21,25,29,30,31,,,,,,,,3.9,2.2,3.3*3A
Trace #25 at position 6.000000
$GPZDA,113516.03,08,10,2011,00,00*6F
$GPRMC,113516.00,A,4611.956298,N,01258.223006,E,000.0,264.3,081011,0.2,E,A*3C
$GPGGA,113517.00,4611.956371,N,01258.222978,E,1,05,2.2,131.90,M,46.25,M,,*61
$GPGLL,4611.956371,N,01258.222978,E,113517.00,A,A*6E
$GPVTG,349.5,T,349.7,M,000.2,N,000.3,K,A*20
$GPGSV,2,1,08,16,17,307,,21,59,182,45,05,18,052,36,06,15,268,33*72
$GPGSV,2,2,08,25,29,131,43,29,56,062,42,30,71,155,46,31,41,233,44*70
$GPGSA,M,3,21,25,29,30,31,,,,,,,,3.9,2.2,3.3*3A
Trace #26 at position 6.250000
$GPZDA,113516.03,08,10,2011,00,00*6F
$GPRMC,113516.00,A,4611.956298,N,01258.223006,E,000.0,264.3,081011,0.2,E,A*3C
$GPGGA,113517.00,4611.956371,N,01258.222978,E,1,05,2.2,131.90,M,46.25,M,,*61
$GPGLL,4611.956371,N,01258.222978,E,113517.00,A,A*6E
$GPVTG,349.5,T,349.7,M,000.2,N,000.3,K,A*20
$GPGSV,2,1,08,16,17,307,,21,59,182,45,05,18,052,36,06,15,268,33*72
$GPGSV,2,2,08,25,29,131,43,29,56,062,42,30,71,155,46,31,41,233,44*70
$GPGSA,M,3,21,25,29,30,31,,,,,,,,3.9,2.2,3.3*3A
Trace #27 at position 6.500000
$GPZDA,113516.03,08,10,2011,00,00*6F
$GPRMC,113516.00,A,4611.956298,N,01258.223006,E,000.0,264.3,081011,0.2,E,A*3C
$GPGGA,113517.00,4611.956371,N,01258.222978,E,1,05,2.2,131.90,M,46.25,M,,*61
$GPGLL,4611.956371,N,01258.222978,E,113517.00,A,A*6E
$GPVTG,349.5,T,349.7,M,000.2,N,000.3,K,A*20
$GPGSV,2,1,08,16,17,307,,21,59,182,45,05,18,052,36,06,15,268,33*72
$GPGSV,2,2,08,25,29,131,43,29,56,062,42,30,71,155,46,31,41,233,44*70
$GPGSA,M,3,21,25,29,30,31,,,,,,,,3.9,2.2,3.3*3A
Trace #28 at position 6.750000
$GPZDA,113516.03,08,10,2011,00,00*6F
$GPRMC,113516.00,A,4611.956298,N,01258.223006,E,000.0,264.3,081011,0.2,E,A*3C
$GPGGA,113517.00,4611.956371,N,01258.222978,E,1,05,2.2,131.90,M,46.25,M,,*61
$GPGLL,4611.956371,N,01258.222978,E,113517.00,A,A*6E
$GPVTG,349.5,T,349.7,M,000.2,N,000.3,K,A*20
$GPGSV,2,1,08,16,17,307,,21,59,182,45,05,18,052,36,06,15,268,33*72
$GPGSV,2,2,08,25,29,131,43,29,56,062,42,30,71,155,46,31,41,233,44*70
$GPGSA,M,3,21,25,29,30,31,,,,,,,,3.9,2.2,3.3*3A
Trace #29 at position 7.000000
$GPZDA,113517.03,08,10,2011,00,00*6E
$GPRMC,113517.00,A,4611.956371,N,01258.222978,E,000.2,349.5,081011,0.2,E,A*30
$GPGGA,113518.00,4611.956615,N,01258.222914,E,1,05,2.2,131.69,M,46.25,M,,*65
$GPGLL,4611.956615,N,01258.222914,E,113518.00,A,A*6C
$GPVTG,350.6,T,350.7,M,001.3,N,002.5,K,A*27
$GPGSV,2,1,08,16,17,307,,21,59,182,44,05,18,052,38,06,15,268,32*7C
$GPGSV,2,2,08,25,29,131,43,29,56,062,42,30,71,155,46,31,41,233,44*70
$GPGSA,M,3,21,25,29,30,31,,,,,,,,3.9,2.2,3.3*3A
Trace #30 at position 7.250000
$GPZDA,113517.03,08,10,2011,00,00*6E
$GPRMC,113517.00,A,4611.956371,N,01258.222978,E,000.2,349.5,081011,0.2,E,A*30
$GPGGA,113518.00,4611.956615,N,01258.222914,E,1,05,2.2,131.69,M,46.25,M,,*65
$GPGLL,4611.956615,N,01258.222914,E,113518.00,A,A*6C
$GPVTG,350.6,T,350.7,M,001.3,N,002.5,K,A*27
$GPGSV,2,1,08,16,17,307,,21,59,182,44,05,18,052,38,06,15,268,32*7C
$GPGSV,2,2,08,25,29,131,43,29,56,062,42,30,71,155,46,31,41,233,44*70
$GPGSA,M,3,21,25,29,30,31,,,,,,,,3.9,2.2,3.3*3A
Trace #31 at position 7.500000
$GPZDA,113517.03,08,10,2011,00,00*6E
$GPRMC,113517.00,A,4611.956371,N,01258.222978,E,000.2,349.5,081011,0.2,E,A*30
$GPGGA,113518.00,4611.956615,N,01258.222914,E,1,05,2.2,131.69,M,46.25,M,,*65
$GPGLL,4611.956615,N,01258.222914,E,113518.00,A,A*6C
$GPVTG,350.6,T,350.7,M,001.3,N,002.5,K,A*27
$GPGSV,2,1,08,16,17,307,,21,59,182,44,05,18,052,38,06,15,268,32*7C
$GPGSV,2,2,08,25,29,131,43,29,56,062,42,30,71,155,46,31,41,233,44*70
$GPGSA,M,3,21,25,29,30,31,,,,,,,,3.9,2.2,3.3*3A
Trace #32 at position 7.750000
$GPZDA,113517.03,08,10,2011,00,00*6E
$GPRMC,113517.00,A,4611.956371,N,01258.222978,E,000.2,349.5,081011,0.2,E,A*30
$GPGGA,113518.00,4611.956615,N,01258.222914,E,1,05,2.2,131.69,M,46.25,M,,*65
$GPGLL,4611.956615,N,01258.222914,E,113518.00,A,A*6C
$GPVTG,350.6,T,350.7,M,001.3,N,002.5,K,A*27
$GPGSV,2,1,08,16,17,307,,21,59,182,44,05,18,052,38,06,15,268,32*7C
$GPGSV,2,2,08,25,29,131,43,29,56,062,42,30,71,155,46,31,41,233,44*70
$GPGSA,M,3,21,25,29,30,31,,,,,,,,3.9,2.2,3.3*3A
Trace #33 at position 8.000000
$GPZDA,113518.03,08,10,2011,00,00*61
$GPRMC,113518.00,A,4611.956615,N,01258.222914,E,001.3,350.6,081011,0.2,E,A*39
$GPGGA,113519.00,4611.957084,N,01258.222775,E,1,05,2.2,131.44,M,46.25,M,,*6D
$GPGLL,4611.957084,N,01258.222775,E,113519.00,A,A*6B
$GPVTG,348.3,T,348.5,M,001.9,N,003.6,K,A*28
$GPGSV,2,1,08,16,17,307,,21,59,182,44,05,18,052,39,06,15,268,33*7C
$GPGSV,2,2,08,25,29,131,44,29,56,062,43,30,71,155,45,31,41,233,44*75
$GPGSA,M,3,21,25,29,30,31,,,,,,,,3.9,2.2,3.3*3A
Trace #34 at position 8.250000
$GPZDA,113518.03,08,10,2011,00,00*61
$GPRMC,113518.00,A,4611.956615,N,01258.222914,E,001.3,350.6,081011,0.2,E,A*39
$GPGGA,113519.00,4611.957084,N,01258.222775,E,1,05,2.2,131.44,M,46.25,M,,*6D
$GPGLL,4611.957084,N,01258.222775,E,113519.00,A,A*6B
$GPVTG,348.3,T,348.5,M,001.9,N,003.6,K,A*28
$GPGSV,2,1,08,16,17,307,,21,59,182,44,05,18,052,39,06,15,268,33*7C
$GPGSV,2,2,08,25,29,131,44,29,56,062,43,30,71,155,45,31,41,233,44*75
$GPGSA,M,3,21,25,29,30,31,,,,,,,,3.9,2.2,3.3*3A
Trace #35 at position 8.500000
$GPZDA,113518.03,08,10,2011,00,00*61
$GPRMC,113518.00,A,4611.956615,N,01258.222914,E,001.3,350.6,081011,0.2,E,A*39
$GPGGA,113519.00,4611.957084,N,01258.222775,E,1,05,2.2,131.44,M,46.25,M,,*6D
$GPGLL,4611.957084,N,01258.222775,E,113519.00,A,A*6B
$GPVTG,348.3,T,348.5,M,001.9,N,003.6,K,A*28
$GPGSV,2,1,08,16,17,307,,21,59,182,44,05,18,052,39,06,15,268,33*7C
$GPGSV,2,2,08,25,29,131,44,29,56,062,43,30,71,155,45,31,41,233,44*75
$GPGSA,M,3,21,25,29,30,31,,,,,,,,3.9,2.2,3.3*3A
Trace #36 at position 8.750000
$GPZDA,113518.03,08,10,2011,00,00*61
$GPRMC,113518.00,A,4611.956615,N,01258.222914,E,001.3,350.6,081011,0.2,E,A*39
$GPGGA,113519.00,4611.957084,N,01258.222775,E,1,05,2.2,131.44,M,46.25,M,,*6D
$GPGLL,4611.957084,N,01258.222775,E,113519.00,A,A*6B
$GPVTG,348.3,T,348.5,M,001.9,N,003.6,K,A*28
$GPGSV,2,1,08,16,17,307,,21,59,182,44,05,18,052,39,06,15,268,33*7C
$GPGSV,2,2,08,25,29,131,44,29,56,062,43,30,71,155,45,31,41,233,44*75
$GPGSA,M,3,21,25,29,30,31,,,,,,,,3.9,2.2,3.3*3A
Trace #37 at position 9.000000
$GPZDA,113519.03,08,10,2011,00,00*60
$GPRMC,113519.00,A,4611.957084,N,01258.222775,E,001.9,348.3,081011,0.2,E,A*38
$GPGGA,113520.00,4611.957589,N,01258.222592,E,1,05,2.2,131.22,M,46.25,M,,*64
$GPGLL,4611.957589,N,01258.222592,E,113520.00,A,A*62
$GPVTG,346.5,T,346.6,M,001.7,N,003.2,K,A*27
$GPGSV,2,1,08,16,17,307,,21,59,182,45,05,18,052,38,06,15,268,32*7D
$GPGSV,2,2,08,25,29,131,45,29,56,062,42,30,71,155,46,31,41,233,42*70
$GPGSA,M,3,21,25,29,30,31,,,,,,,,3.9,2.2,3.3*3A
Trace #38 at position 9.250000
$GPZDA,113519.03,08,10,2011,00,00*60
$GPRMC,113519.00,A,4611.957084,N,01258.222775,E,001.9,348.3,081011,0.2,E,A*38
$GPGGA,113520.00,4611.957589,N,01258.222592,E,1,05,2.2,131.22,M,46.25,M,,*64
$GPGLL,4611.957589,N,01258.222592,E,113520.00,A,A*62
$GPVTG,346.5,T,346.6,M,001.7,N,003.2,K,A*27
$GPGSV,2,1,08,16,17,307,,21,59,182,45,05,18,052,38,06,15,268,32*7D
$GPGSV,2,2,08,25,29,131,45,29,56,062,42,30,71,155,46,31,41,233,42*70
$GPGSA,M,3,21,25,29,30,31,,,,,,,,3.9,2.2,3.3*3A
Trace #39 at position 9.500000
$GPZDA,113519.03,08,10,2011,00,00*60
$GPRMC,113519.00,A,4611.957084,N,01258.222775,E,001.9,348.3,081011,0.2,E,A*38
$GPGGA,113520.00,4611.957589,N,01258.222592,E,1,05,2.2,131.22,M,46.25,M,,*64
$GPGLL,4611.957589,N,01258.222592,E,113520.00,A,A*62
$GPVTG,346.5,T,346.6,M,001.7,N,003.2,K,A*27
$GPGSV,2,1,08,16,17,307,,21,59,182,45,05,18,052,38,06,15,268,32*7D
$GPGSV,2,2,08,25,29,131,45,29,56,062,42,30,71,155,46,31,41,233,42*70
$GPGSA,M,3,21,25,29,30,31,,,,,,,,3.9,2.2,3.3*3A
Trace #40 at position 9.750000
$GPZDA,113520.03,08,10,2011,00,00*6A
$GPRMC,113520.00,A,4611.957589,N,01258.222592,E,001.7,346.5,081011,0.2,E,A*37
$GPGGA,113521.00,4611.958082,N,01258.222327,E,1,05,2.2,131.07,M,46.25,M,,*6B
$GPGLL,4611.958082,N,01258.222327,E,113521.00,A,A*6A
$GPVTG,336.1,T,336.3,M,002.0,N,003.6,K,A*26
$GPGSV,2,1,08,16,17,307,,21,59,182,44,05,18,052,38,06,15,268,30*7E
$GPGSV,2,2,08,25,29,131,45,29,56,062,42,30,71,155,46,31,41,233,44*76
$GPGSA,M,3,21,25,29,30,31,,,,,,,,3.9,2.2,3.3*3A
Trace #41 at position 10.000000
$GPZDA,113520.03,08,10,2011,00,00*6A
$GPRMC,113520.00,A,4611.957589,N,01258.222592,E,001.7,346.5,081011,0.2,E,A*37
$GPGGA,113521.00,4611.958082,N,01258.222327,E,1,05,2.2,131.07,M,46.25,M,,*6B
$GPGLL,4611.958082,N,01258.222327,E,113521.00,A,A*6A
$GPVTG,336.1,T,336.3,M,002.0,N,003.6,K,A*26
$GPGSV,2,1,08,16,17,307,,21,59,182,44,05,18,052,38,06,15,268,30*7E
$GPGSV,2,2,08,25,29,131,45,29,56,062,42,30,71,155,46,31,41,233,44*76
$GPGSA,M,3,21,25,29,30,31,,,,,,,,3.9,2.2,3.3*3A
Trace #42 at position 10.250000
$GPZDA,113520.03,08,10,2011,00,00*6A
$GPRMC,113520.00,A,4611.957589,N,01258.222592,E,001.7,346.5,081011,0.2,E,A*37
$GPGGA,113521.00,4611.958082,N,01258.222327,E,1,05,2.2,131.07,M,46.25,M,,*6B
$GPGLL,4611.958082,N,01258.222327,E,113521.00,A,A*6A
$GPVTG,336.1,T,336.3,M,002.0,N,003.6,K,A*26
$GPGSV,2,1,08,16,17,307,,21,59,182,44,05,18,052,38,06,15,268,30*7E
$GPGSV,2,2,08,25,29,131,45,29,56,062,42,30,71,155,46,31,41,233,44*76
$GPGSA,M,3,21,25,29,30,31,,,,,,,,3.9,2.2,3.3*3A
Trace #43 at position 10.500000
$GPZDA,113520.03,08,10,2011,00,00*6A
$GPRMC,113520.00,A,4611.957589,N,01258.222592,E,001.7,346.5,081011,0.2,E,A*37
$GPGGA,113521.00,4611.958082,N,01258.222327,E,1,05,2.2,131.07,M,46.25,M,,*6B
$GPGLL,4611.958082,N,01258.222327,E,113521.00,A,A*6A
$GPVTG,336.1,T,336.3,M,002.0,N,003.6,K,A*26
$GPGSV,2,1,08,16,17,307,,21,59,182,44,05,18,052,38,06,15,268,30*7E
$GPGSV,2,2,08,25,29,131,45,29,56,062,42,30,71,155,46,31,41,233,44*76
$GPGSA,M,3,21,25,29,30,31,,,,,,,,3.9,2.2,3.3*3A
Trace #44 at position 10.750000
$GPZDA,113521.03,08,10,2011,00,00*6B
$GPRMC,113521.00,A,4611.958082,N,01258.222327,E,002.0,336.1,081011,0.2,E,A*38
$GPGGA,113522.00,4611.958559,N,01258.222100,E,1,05,2.2,130.97,M,46.25,M,,*64
$GPGLL,4611.958559,N,01258.222100,E,113522.00,A,A*6D
$GPVTG,352.8,T,352.9,M,001.6,N,002.9,K,A*2E
$GPGSV,2,1,08,16,17,307,,21,59,182,47,05,18,052,37,06,15,268,33*71
$GPGSV,2,2,08,25,29,131,45,29,56,062,42,30,71,155,47,31,41,233,45*76
$GPGSA,M,3,21,25,29,30,31,,,,,,,,3.9,2.2,3.3*3A
Trace #45 at position 11.000000
$GPZDA,113521.03,08,10,2011,00,00*6B
$GPRMC,113521.00,A,4611.958082,N,01258.222327,E,002.0,336.1,081011,0.2,E,A*38
$GPGGA,113522.00,4611.958559,N,01258.222100,E,1,05,2.2,130.97,M,46.25,M,,*64
$GPGLL,4611.958559,N,01258.222100,E,113522.00,A,A*6D
$GPVTG,352.8,T,352.9,M,001.6,N,002.9,K,A*2E
$GPGSV,2,1,08,16,17,307,,21,59,182,47,05,18,052,37,06,15,268,33*71
$GPGSV,2,2,08,25,29,131,45,29,56,062,42,30,71,155,47,31,41,233,45*76
$GPGSA,M,3,21,25,29,30,31,,,,,,,,3.9,2.2,3.3*3A
Trace #46 at position 11.250000
$GPZDA,113521.03,08,10,2011,00,00*6B
$GPRMC,113521.00,A,4611.958082,N,01258.222327,E,002.0,336.1,081011,0.2,E,A*38
$GPGGA,113522.00,4611.958559,N,01258.222100,E,1,05,2.2,130.97,M,46.25,M,,*64
$GPGLL,4611.958559,N,01258.222100,E,113522.00,A,A*6D
$GPVTG,352.8,T,352.9,M,001.6,N,002.9,K,A*2E
$GPGSV,2,1,08,16,17,307,,21,59,182,47,05,18,052,37,06,15,268,33*71
$GPGSV,2,2,08,25,29,131,45,29,56,062,42,30,71,155,47,31,41,233,45*76
$GPGSA,M,3,21,25,29,30,31,,,,,,,,3.9,2.2,3.3*3A
Trace #47 at position 11.500000
$GPZDA,113522.03,08,10,2011,00,00*68
$GPRMC,113522.00,A,4611.958559,N,01258.222100,E,001.6,352.8,081011,0.2,E,A*31
$GPGGA,113523.00,4611.959025,N,01258.221908,E,1,05,2.2,130.94,M,46.25,M,,*6A
$GPGLL,4611.959025,N,01258.221908,E,113523.00,A,A*60
$GPVTG,340.7,T,340.9,M,001.8,N,003.3,K,A*24
$GPGSV,2,1,08,16,17,307,,21,59,182,45,05,18,052,38,06,15,268,26*78
$GPGSV,2,2,08,25,29,131,44,29,56,062,42,30,71,155,46,31,41,233,44*77
$GPGSA,M,3,21,25,29,30,31,,,,,,,,3.9,2.2,3.3*3A
Trace #48 at position 11.750000
$GPZDA,113522.03,08,10,2011,00,00*68
$GPRMC,113522.00,A,4611.958559,N,01258.222100,E,001.6,352.8,081011,0.2,E,A*31
$GPGGA,113523.00,4611.959025,N,01258.221908,E,1,05,2.2,130.94,M,46.25,M,,*6A
$GPGLL,4611.959025,N,01258.221908,E,113523.00,A,A*60
$GPVTG,340.7,T,340.9,M,001.8,N,003.3,K,A*24
$GPGSV,2,1,08,16,17,307,,21,59,182,45,05,18,052,38,06,15,268,26*78
$GPGSV,2,2,08,25,29,131,44,29,56,062,42,30,71,155,46,31,41,233,44*77
$GPGSA,M,3,21,25,29,30,31,,,,,,,,3.9,2.2,3.3*3A
Trace #49 at position 12.000000
$GPZDA,113522.03,08,10,2011,00,00*68
$GPRMC,113522.00,A,4611.958559,N,01258.222100,E,001.6,352.8,081011,0.2,E,A*31
$GPGGA,113523.00,4611.959025,N,01258.221908,E,1,05,2.2,130.94,M,46.25,M,,*6A
$GPGLL,4611.959025,N,01258.221908,E,113523.00,A,A*60
$GPVTG,340.7,T,340.9,M,001.8,N,003.3,K,A*24
$GPGSV,2,1,08,16,17,307,,21,59,182,45,05,18,052,38,06,15,268,26*78
$GPGSV,2,2,08,25,29,131,44,29,56,062,42,30,71,155,46,31,41,233,44*77
$GPGSA,M,3,21,25,29,30,31,,,,,,,,3.9,2.2,3.3*3A
Trace #50 at position 12.250000
$GPZDA,113523.04,08,10,2011,00,00*6E
$GPRMC,113523.00,A,4611.959025,N,01258.221908,E,001.8,340.7,081011,0.2,E,A*3E
$GPGGA,113524.00,4611.959458,N,01258.221676,E,1,05,2.2,130.90,M,46.25,M,,*61
$GPGLL,4611.959458,N,01258.221676,E,113524.00,A,A*6F
$GPVTG,341.7,T,341.9,M,001.4,N,002.5,K,A*2F
$GPGSV,2,1,08,16,18,307,,21,59,182,45,05,18,052,37,06,15,268,27*79
$GPGSV,2,2,08,25,29,131,45,29,56,062,41,30,71,155,46,31,41,233,45*74
$GPGSA,M,3,21,25,29,30,31,,,,,,,,3.9,2.2,3.3*3A
Trace #51 at position 12.500000
$GPZDA,113523.04,08,10,2011,00,00*6E
$GPRMC,113523.00,A,4611.959025,N,01258.221908,E,001.8,340.7,081011,0.2,E,A*3E
$GPGGA,113524.00,4611.959458,N,01258.221676,E,1,05,2.2,130.90,M,46.25,M,,*61
$GPGLL,4611.959458,N,01258.221676,E,113524.00,A,A*6F
$GPVTG,341.7,T,341.9,M,001.4,N,002.5,K,A*2F
$GPGSV,2,1,08,16,18,307,,21,59,182,45,05,18,052,37,06,15,268,27*79
$GPGSV,2,2,08,25,29,131,45,29,56,062,41,30,71,155,46,31,41,233,45*74
$GPGSA,M,3,21,25,29,30,31,,,,,,,,3.9,2.2,3.3*3A
Trace #52 at position 12.750000
$GPZDA,113523.04,08,10,2011,00,00*6E
$GPRMC,113523.00,A,4611.959025,N,01258.221908,E,001.8,340.7,081011,0.2,E,A*3E
$GPGGA,113524.00,4611.959458,N,01258.221676,E,1,05,2.2,130.90,M,46.25,M,,*61
$GPGLL,4611.959458,N,01258.221676,E,113524.00,A,A*6F
$GPVTG,341.7,T,341.9,M,001.4,N,002.5,K,A*2F
$GPGSV,2,1,08,16,18,307,,21,59,182,45,05,18,052,37,06,15,268,27*79
$GPGSV,2,2,08,25,29,131,45,29,56,062,41,30,71,155,46,31,41,233,45*74
$GPGSA,M,3,21,25,29,30,31,,,,,,,,3.9,2.2,3.3*3A
Trace #53 at position 13.000000
$GPZDA,113524.03,08,10,2011,00,00*6E
$GPRMC,113524.00,A,4611.959458,N,01258.221676,E,001.4,341.7,081011,0.2,E,A*3C
$GPGGA,113525.00,4611.959874,N,01258.221353,E,1,05,2.2,130.81,M,46.25,M,,*60
$GPGLL,4611.959874,N,01258.221353,E,113525.00,A,A*6E
$GPVTG,323.6,T,323.7,M,002.0,N,003.6,K,A*25
$GPGSV,2,1,08,16,18,307,,21,59,182,46,05,18,052,38,06,15,268,26*74
$GPGSV,2,2,08,25,29,131,45,29,56,062,42,30,71,155,46,31,41,233,46*74
$GPGSA,M,3,21,25,29,30,31,,,,,,,,3.9,2.2,3.3*3A
Trace #54 at position 13.250000
$GPZDA,113524.03,08,10,2011,00,00*6E
$GPRMC,113524.00,A,4611.959458,N,01258.221676,E,001.4,341.7,081011,0.2,E,A*3C
$GPGGA,113525.00,4611.959874,N,01258.221353,E,1,05,2.2,130.81,M,46.25,M,,*60
$GPGLL,4611.959874,N,01258.221353,E,113525.00,A,A*6E
$GPVTG,323.6,T,323.7,M,002.0,N,003.6,K,A*25
$GPGSV,2,1,08,16,18,307,,21,59,182,46,05,18,052,38,06,15,268,26*74
$GPGSV,2,2,08,25,29,131,45,29,56,062,42,30,71,155,46,31,41,233,46*74
$GPGSA,M,3,21,25,29,30,31,,,,,,,,3.9,2.2,3.3*3A
Trace #55 at position 13.500000
$GPZDA,113524.03,08,10,2011,00,00*6E
$GPRMC,113524.00,A,4611.959458,N,01258.221676,E,001.4,341.7,081011,0.2,E,A*3C
$GPGGA,113525.00,4611.959874,N,01258.221353,E,1,05,2.2,130.81,M,46.25,M,,*60
$GPGLL,4611.959874,N,01258.221353,E,113525.00,A,A*6E
$GPVTG,323.6,T,323.7,M,002.0,N,003.6,K,A*25
$GPGSV,2,1,08,16,18,307,,21,59,182,46,05,18,052,38,06,15,268,26*74
$GPGSV,2,2,08,25,29,131,45,29,56,062,42,30,71,155,46,31,41,233,46*74
$GPGSA,M,3,21,25,29,30,31,,,,,,,,3.9,2.2,3.3*3A
Trace #56 at position 13.750000
$GPZDA,113525.03,08,10,2011,00,00*6F
$GPRMC,113525.00,A,4611.959874,N,01258.221353,E,002.0,323.6,081011,0.2,E,A*3F
$GPGGA,113526.00,4611.960326,N,01258.221098,E,1,05,2.2,130.72,M,46.25,M,,*6D
$GPGLL,4611.960326,N,01258.221098,E,113526.00,A,A*6F
$GPVTG,353.4,T,353.6,M,001.6,N,003.0,K,A*25
$GPGSV,2,1,08,16,18,307,,21,59,182,46,05,18,052,38,06,15,268,31*72
$GPGSV,2,2,08,25,29,131,44,29,56,062,43,30,71,155,47,31,41,233,45*76
$GPGSA,M,3,21,25,29,30,31,,,,,,,,3.9,2.2,3.3*3A
Trace #57 at position 14.000000
$GPZDA,113525.03,08,10,2011,00,00*6F
$GPRMC,113525.00,A,4611.959874,N,01258.221353,E,002.0,323.6,081011,0.2,E,A*3F
$GPGGA,113526.00,4611.960326,N,01258.221098,E,1,05,2.2,130.72,M,46.25,M,,*6D
$GPGLL,4611.960326,N,01258.221098,E,113526.00,A,A*6F
$GPVTG,353.4,T,353.6,M,001.6,N,003.0,K,A*25
$GPGSV,2,1,08,16,18,307,,21,59,182,46,05,18,052,38,06,15,268,31*72
$GPGSV,2,2,08,25,29,131,44,29,56,062,43,30,71,155,47,31,41,233,45*76
$GPGSA,M,3,21,25,29,30,31,,,,,,,,3.9,2.2,3.3*3A
Trace #58 at position 14.250000
$GPZDA,113525.03,08,10,2011,00,00*6F
$GPRMC,113525.00,A,4611.959874,N,01258.221353,E,002.0,323.6,081011,0.2,E,A*3F
$GPGGA,113526.00,4611.960326,N,01258.221098,E,1,05,2.2,130.72,M,46.25,M,,*6D
$GPGLL,4611.960326,N,01258.221098,E,113526.00,A,A*6F
$GPVTG,353.4,T,353.6,M,001.6,N,003.0,K,A*25
$GPGSV,2,1,08,16,18,307,,21,59,182,46,05,18,052,38,06,15,268,31*72
$GPGSV,2,2,08,25,29,131,44,29,56,062,43,30,71,155,47,31,41,233,45*76
$GPGSA,M,3,21,25,29,30,31,,,,,,,,3.9,2.2,3.3*3A
Trace #59 at position 14.500000
$GPZDA,113526.03,08,10,2011,00,00*6C
$GPRMC,113526.00,A,4611.960326,N,01258.221098,E,001.6,353.4,081011,0.2,E,A*3E
$GPGGA,113527.00,4611.960645,N,01258.220910,E,1,06,1.6,131.24,M,46.25,M,,*62
$GPGLL,4611.960645,N,01258.220910,E,113527.00,A,A*66
$GPVTG,328.0,T,328.2,M,001.8,N,003.3,K,A*28
$GPGSV,2,1,08,16,18,307,,21,59,182,46,05,18,052,41,06,15,268,35*78
$GPGSV,2,2,08,25,29,131,44,29,56,062,43,30,71,155,47,31,41,233,45*76
$GPGSA,M,3,21,05,25,29,30,31,,,,,,,2.6,1.6,2.1*35
Trace #60 at position 14.750000
$GPZDA,113526.03,08,10,2011,00,00*6C
$GPRMC,113526.00,A,4611.960326,N,01258.221098,E,001.6,353.4,081011,0.2,E,A*3E
$GPGGA,113527.00,4611.960645,N,01258.220910,E,1,06,1.6,131.24,M,46.25,M,,*62
$GPGLL,4611.960645,N,01258.220910,E,113527.00,A,A*66
$GPVTG,328.0,T,328.2,M,001.8,N,003.3,K,A*28
$GPGSV,2,1,08,16,18,307,,21,59,182,46,05,18,052,41,06,15,268,35*78
$GPGSV,2,2,08,25,29,131,44,29,56,062,43,30,71,155,47,31,41,233,45*76
$GPGSA,M,3,21,05,25,29,30,31,,,,,,,2.6,1.6,2.1*35
Trace #61 at position 15.000000
$GPZDA,113527.04,08,10,2011,00,00*6A
$GPRMC,113527.00,A,4611.960645,N,01258.220910,E,001.8,328.0,081011,0.2,E,A*31
$GPGGA,113528.00,4611.960889,N,01258.220651,E,1,06,1.6,131.79,M,46.25,M,,*61
$GPGLL,4611.960889,N,01258.220651,E,113528.00,A,A*6D
$GPVTG,328.3,T,328.4,M,001.1,N,002.0,K,A*26
$GPGSV,2,1,08,16,18,307,,21,59,182,46,05,18,052,41,06,15,268,35*78
$GPGSV,2,2,08,25,29,131,43,29,56,062,42,30,71,155,46,31,41,233,45*71
$GPGSA,M,3,21,05,25,29,30,31,,,,,,,2.6,1.6,2.1*35
Trace #62 at position 15.250000
$GPZDA,113527.04,08,10,2011,00,00*6A
$GPRMC,113527.00,A,4611.960645,N,01258.220910,E,001.8,328.0,081011,0.2,E,A*31
$GPGGA,113528.00,4611.960889,N,01258.220651,E,1,06,1.6,131.79,M,46.25,M,,*61
$GPGLL,4611.960889,N,01258.220651,E,113528.00,A,A*6D
$GPVTG,328.3,T,328.4,M,001.1,N,002.0,K,A*26
$GPGSV,2,1,08,16,18,307,,21,59,182,46,05,18,052,41,06,15,268,35*78
$GPGSV,2,2,08,25,29,131,43,29,56,062,42,30,71,155,46,31,41,233,45*71
$GPGSA,M,3,21,05,25,29,30,31,,,,,,,2.6,1.6,2.1*35
Trace #63 at position 15.500000
$GPZDA,113527.04,08,10,2011,00,00*6A
$GPRMC,113527.00,A,4611.960645,N,01258.220910,E,001.8,328.0,081011,0.2,E,A*31
$GPGGA,113528.00,4611.960889,N,01258.220651,E,1,06,1.6,131.79,M,46.25,M,,*61
$GPGLL,4611.960889,N,01258.220651,E,113528.00,A,A*6D
$GPVTG,328.3,T,328.4,M,001.1,N,002.0,K,A*26
$GPGSV,2,1,08,16,18,307,,21,59,182,46,05,18,052,41,06,15,268,35*78
$GPGSV,2,2,08,25,29,131,43,29,56,062,42,30,71,155,46,31,41,233,45*71
$GPGSA,M,3,21,05,25,29,30,31,,,,,,,2.6,1.6,2.1*35
Trace #64 at position 15.750000
$GPZDA,113528.04,08,10,2011,00,00*65
$GPRMC,113528.00,A,4611.960889,N,01258.220651,E,001.1,328.3,081011,0.2,E,A*30
$GPGGA,113529.00,4611.961103,N,01258.220427,E,1,06,1.6,132.23,M,46.25,M,,*65
$GPGLL,4611.961103,N,01258.220427,E,113529.00,A,A*65
$GPVTG,325.8,T,326.0,M,001.5,N,002.7,K,A*29
$GPGSV,2,1,08,16,18,307,,21,59,182,45,05,18,052,38,06,15,268,35*75
$GPGSV,2,2,08,25,29,131,44,29,56,062,41,30,71,155,46,31,41,233,43*73
$GPGSA,M,3,21,05,25,29,30,31,,,,,,,2.6,1.6,2.1*35
Trace #65 at position 16.000000
$GPZDA,113528.04,08,10,2011,00,00*65
$GPRMC,113528.00,A,4611.960889,N,01258.220651,E,001.1,328.3,081011,0.2,E,A*30
$GPGGA,113529.00,4611.961103,N,01258.220427,E,1,06,1.6,132.23,M,46.25,M,,*65
$GPGLL,4611.961103,N,01258.220427,E,113529.00,A,A*65
$GPVTG,325.8,T,326.0,M,001.5,N,002.7,K,A*29
$GPGSV,2,1,08,16,18,307,,21,59,182,45,05,18,052,38,06,15,268,35*75
$GPGSV,2,2,08,25,29,131,44,29,56,062,41,30,71,155,46,31,41,233,43*73
$GPGSA,M,3,21,05,25,29,30,31,,,,,,,2.6,1.6,2.1*35
Trace #66 at position 16.250000
$GPZDA,113528.04,08,10,2011,00,00*65
$GPRMC,113528.00,A,4611.960889,N,01258.220651,E,001.1,328.3,081011,0.2,E,A*30
$GPGGA,113529.00,4611.961103,N,01258.220427,E,1,06,1.6,132.23,M,46.25,M,,*65
$GPGLL,4611.961103,N,01258.220427,E,113529.00,A,A*65
$GPVTG,325.8,T,326.0,M,001.5,N,002.7,K,A*29
$GPGSV,2,1,08,16,18,307,,21,59,182,45,05,18,052,38,06,15,268,35*75
$GPGSV,2,2,08,25,29,131,44,29,56,062,41,30,71,155,46,31,41,233,43*73
$GPGSA,M,3,21,05,25,29,30,31,,,,,,,2.6,1.6,2.1*35
Trace #67 at position 16.500000
$GPZDA,113528.04,08,10,2011,00,00*65
$GPRMC,113528.00,A,4611.960889,N,01258.220651,E,001.1,328.3,081011,0.2,E,A*30
$GPGGA,113529.00,4611.961103,N,01258.220427,E,1,06,1.6,132.23,M,46.25,M,,*65
$GPGLL,4611.961103,N,01258.220427,E,113529.00,A,A*65
$GPVTG,325.8,T,326.0,M,001.5,N,002.7,K,A*29
$GPGSV,2,1,08,16,18,307,,21,59,182,45,05,18,052,38,06,15,268,35*75
$GPGSV,2,2,08,25,29,131,44,29,56,062,41,30,71,155,46,31,41,233,43*73
$GPGSA,M,3,21,05,25,29,30,31,,,,,,,2.6,1.6,2.1*35
Trace #68 at position 16.750000
$GPZDA,113529.04,08,10,2011,00,00*64
$GPRMC,113529.00,A,4611.961103,N,01258.220427,E,001.5,325.8,081011,0.2,E,A*3A
$GPGGA,113530.00,4611.961393,N,01258.220285,E,1,06,1.6,132.50,M,46.25,M,,*6C
$GPGLL,4611.961393,N,01258.220285,E,113530.00,A,A*68
$GPVTG,352.4,T,352.6,M,001.4,N,002.6,K,A*20
$GPGSV,2,1,08,16,18,307,,21,59,182,44,05,18,052,37,06,15,268,32*7C
$GPGSV,2,2,08,25,29,131,44,29,56,062,42,30,71,155,46,31,41,233,44*77
$GPGSA,M,3,21,05,25,29,30,31,,,,,,,2.6,1.6,2.1*35
Trace #69 at position 17.000000
$GPZDA,113529.04,08,10,2011,00,00*64
$GPRMC,113529.00,A,4611.961103,N,01258.220427,E,001.5,325.8,081011,0.2,E,A*3A
$GPGGA,113530.00,4611.961393,N,01258.220285,E,1,06,1.6,132.50,M,46.25,M,,*6C
$GPGLL,4611.961393,N,01258.220285,E,113530.00,A,A*68
$GPVTG,352.4,T,352.6,M,001.4,N,002.6,K,A*20
$GPGSV,2,1,08,16,18,307,,21,59,182,44,05,18,052,37,06,15,268,32*7C
$GPGSV,2,2,08,25,29,131,44,29,56,062,42,30,71,155,46,31,41,233,44*77
$GPGSA,M,3,21,05,25,29,30,31,,,,,,,2.6,1.6,2.1*35
Trace #70 at position 17.250000
$GPZDA,113529.04,08,10,2011,00,00*64
$GPRMC,113529.00,A,4611.961103,N,01258.220427,E,001.5,325.8,081011,0.2,E,A*3A
$GPGGA,113530.00,4611.961393,N,01258.220285,E,1,06,1.6,132.50,M,46.25,M,,*6C
$GPGLL,4611.961393,N,01258.220285,E,113530.00,A,A*68
$GPVTG,352.4,T,352.6,M,001.4,N,002.6,K,A*20
$GPGSV,2,1,08,16,18,307,,21,59,182,44,05,18,052,37,06,15,268,32*7C
$GPGSV,2,2,08,25,29,131,44,29,56,062,42,30,71,155,46,31,41,233,44*77
$GPGSA,M,3,21,05,25,29,30,31,,,,,,,2.6,1.6,2.1*35
Trace #71 at position 17.500000
$GPZDA,113530.03,08,10,2011,00,00*6B
$GPRMC,113530.00,A,4611.961393,N,01258.220285,E,001.4,352.4,081011,0.2,E,A*3A
$GPGGA,113531.00,4611.961751,N,01258.220330,E,1,06,1.6,132.64,M,46.25,M,,*6F
$GPGLL,4611.961751,N,01258.220330,E,113531.00,A,A*6C
$GPVTG,8.2,T,8.4,M,001.7,N,003.2,K,A*22
$GPGSV,2,1,08,16,18,307,,21,59,182,45,05,18,052,37,06,15,268,32*7D
$GPGSV,2,2,08,25,29,131,44,29,56,062,44,30,71,155,46,31,41,233,44*71
$GPGSA,M,3,21,05,25,29,30,31,,,,,,,2.6,1.6,2.1*35
Trace #72 at position 17.750000
$GPZDA,113530.03,08,10,2011,00,00*6B
$GPRMC,113530.00,A,4611.961393,N,01258.220285,E,001.4,352.4,081011,0.2,E,A*3A
$GPGGA,113531.00,4611.961751,N,01258.220330,E,1,06,1.6,132.64,M,46.25,M,,*6F
$GPGLL,4611.961751,N,01258.220330,E,113531.00,A,A*6C
$GPVTG,8.2,T,8.4,M,001.7,N,003.2,K,A*22
$GPGSV,2,1,08,16,18,307,,21,59,182,45,05,18,052,37,06,15,268,32*7D
$GPGSV,2,2,08,25,29,131,44,29,56,062,44,30,71,155,46,31,41,233,44*71
$GPGSA,M,3,21,05,25,29,30,31,,,,,,,2.6,1.6,2.1*35
Trace #73 at position 18.000000
$GPZDA,113530.03,08,10,2011,00,00*6B
$GPRMC,113530.00,A,4611.961393,N,01258.220285,E,001.4,352.4,081011,0.2,E,A*3A
$GPGGA,113531.00,4611.961751,N,01258.220330,E,1,06,1.6,132.64,M,46.25,M,,*6F
$GPGLL,4611.961751,N,01258.220330,E,113531.00,A,A*6C
$GPVTG,8.2,T,8.4,M,001.7,N,003.2,K,A*22
$GPGSV,2,1,08,16,18,307,,21,59,182,45,05,18,052,37,06,15,268,32*7D
$GPGSV,2,2,08,25,29,131,44,29,56,062,44,30,71,155,46,31,41,233,44*71
$GPGSA,M,3,21,05,25,29,30,31,,,,,,,2.6,1.6,2.1*35
Trace #74 at position 18.250000
$GPZDA,113531.03,08,10,2011,00,00*6A
$GPRMC,113531.00,A,4611.961751,N,01258.220330,E,001.7,8.2,081011,0.2,E,A*37
$GPGGA,113532.00,4611.962156,N,01258.220372,E,1,06,1.6,132.81,M,46.25,M,,*63
$GPGLL,4611.962156,N,01258.220372,E,113532.00,A,A*6B
$GPVTG,357.9,T,358.0,M,001.7,N,003.2,K,A*22
$GPGSV,2,1,08,16,18,307,,21,59,182,45,05,18,052,38,06,15,268,36*76
$GPGSV,2,2,08,25,29,131,43,29,56,062,42,30,71,155,45,31,41,233,42*75
$GPGSA,M,3,21,05,25,29,30,31,,,,,,,2.6,1.6,2.1*35
Trace #75 at position 18.500000
$GPZDA,113531.03,08,10,2011,00,00*6A
$GPRMC,113531.00,A,4611.961751,N,01258.220330,E,001.7,8.2,081011,0.2,E,A*37
$GPGGA,113532.00,4611.962156,N,01258.220372,E,1,06,1.6,132.81,M,46.25,M,,*63
$GPGLL,4611.962156,N,01258.220372,E,113532.00,A,A*6B
$GPVTG,357.9,T,358.0,M,001.7,N,003.2,K,A*22
$GPGSV,2,1,08,16,18,307,,21,59,182,45,05,18,052,38,06,15,268,36*76
$GPGSV,2,2,08,25,29,131,43,29,56,062,42,30,71,155,45,31,41,233,42*75
$GPGSA,M,3,21,05,25,29,30,31,,,,,,,2.6,1.6,2.1*35
Trace #76 at position 18.750000
$GPZDA,113531.03,08,10,2011,00,00*6A
$GPRMC,113531.00,A,4611.961751,N,01258.220330,E,001.7,8.2,081011,0.2,E,A*37
$GPGGA,113532.00,4611.962156,N,01258.220372,E,1,06,1.6,132.81,M,46.25,M,,*63
$GPGLL,4611.962156,N,01258.220372,E,113532.00,A,A*6B
$GPVTG,357.9,T,358.0,M,001.7,N,003.2,K,A*22
$GPGSV,2,1,08,16,18,307,,21,59,182,45,05,18,052,38,06,15,268,36*76
$GPGSV,2,2,08,25,29,131,43,29,56,062,42,30,71,155,45,31,41,233,42*75
$GPGSA,M,3,21,05,25,29,30,31,,,,,,,2.6,1.6,2.1*35
Trace #77 at position 19.000000
$GPZDA,113532.03,08,10,2011,00,00*69
$GPRMC,113532.00,A,4611.962156,N,01258.220372,E,001.7,357.9,081011,0.2,E,A*32
$GPGGA,113533.00,4611.962588,N,01258.220267,E,1,06,1.6,133.15,M,46.25,M,,*6C
$GPGLL,4611.962588,N,01258.220267,E,113533.00,A,A*68
$GPVTG,348.1,T,348.3,M,002.0,N,003.6,K,A*26
$GPGSV,2,1,08,16,18,307,,21,59,182,45,05,18,052,37,06,15,268,34*7B
$GPGSV,2,2,08,25,29,131,43,29,56,062,43,30,71,155,45,31,41,233,44*72
$GPGSA,M,3,21,05,25,29,30,31,,,,,,,2.6,1.6,2.1*35
Trace #78 at position 19.250000
$GPZDA,113532.03,08,10,2011,00,00*69
$GPRMC,113532.00,A,4611.962156,N,01258.220372,E,001.7,357.9,081011,0.2,E,A*32
$GPGGA,113533.00,4611.962588,N,01258.220267,E,1,06,1.6,133.15,M,46.25,M,,*6C
$GPGLL,4611.962588,N,01258.220267,E,113533.00,A,A*68
$GPVTG,348.1,T,348.3,M,002.0,N,003.6,K,A*26
$GPGSV,2,1,08,16,18,307,,21,59,182,45,05,18,052,37,06,15,268,34*7B
$GPGSV,2,2,08,25,29,131,43,29,56,062,43,30,71,155,45,31,41,233,44*72
$GPGSA,M,3,21,05,25,29,30,31,,,,,,,2.6,1.6,2.1*35
Trace #79 at position 19.500000
$GPZDA,113532.03,08,10,2011,00,00*69
$GPRMC,113532.00,A,4611.962156,N,01258.220372,E,001.7,357.9,081011,0.2,E,A*32
$GPGGA,113533.00,4611.962588,N,01258.220267,E,1,06,1.6,133.15,M,46.25,M,,*6C
$GPGLL,4611.962588,N,01258.220267,E,113533.00,A,A*68
$GPVTG,348.1,T,348.3,M,002.0,N,003.6,K,A*26
$GPGSV,2,1,08,16,18,307,,21,59,182,45,05,18,052,37,06,15,268,34*7B
$GPGSV,2,2,08,25,29,131,43,29,56,062,43,30,71,155,45,31,41,233,44*72
$GPGSA,M,3,21,05,25,29,30,31,,,,,,,2.6,1.6,2.1*35
Trace #80 at position 19.750000
$GPZDA,113533.04,08,10,2011,00,00*6F
$GPRMC,113533.00,A,4611.962588,N,01258.220267,E,002.0,348.1,081011,0.2,E,A*33
$GPGGA,113534.00,4611.962972,N,01258.220142,E,1,06,1.6,133.44,M,46.25,M,,*62
$GPGLL,4611.962972,N,01258.220142,E,113534.00,A,A*62
$GPVTG,354.9,T,355.1,M,001.4,N,002.6,K,A*2B
$GPGSV,2,1,08,16,18,307,,21,59,182,46,05,18,052,37,06,15,268,35*79
$GPGSV,2,2,08,25,29,131,43,29,56,062,42,30,71,155,45,31,41,233,44*73
$GPGSA,M,3,21,05,25,29,30,31,,,,,,,2.6,1.6,2.1*35
Trace #81 at position 20.000000
$GPZDA,113533.04,08,10,2011,00,00*6F
$GPRMC,113533.00,A,4611.962588,N,01258.220267,E,002.0,348.1,081011,0.2,E,A*33
$GPGGA,113534.00,4611.962972,N,01258.220142,E,1,06,1.6,133.44,M,46.25,M,,*62
$GPGLL,4611.962972,N,01258.220142,E,113534.00,A,A*62
$GPVTG,354.9,T,355.1,M,001.4,N,002.6,K,A*2B
$GPGSV,2,1,08,16,18,307,,21,59,182,46,05,18,052,37,06,15,268,35*79
$GPGSV,2,2,08,25,29,131,43,29,56,062,42,30,71,155,45,31,41,233,44*73
$GPGSA,M,3,21,05,25,29,30,31,,,,,,,2.6,1.6,2.1*35
Trace #82 at position 20.250000
$GPZDA,113533.04,08,10,2011,00,00*6F
$GPRMC,113533.00,A,4611.962588,N,01258.220267,E,002.0,348.1,081011,0.2,E,A*33
$GPGGA,113534.00,4611.962972,N,01258.220142,E,1,06,1.6,133.44,M,46.25,M,,*62
$GPGLL,4611.962972,N,01258.220142,E,113534.00,A,A*62
$GPVTG,354.9,T,355.1,M,001.4,N,002.6,K,A*2B
$GPGSV,2,1,08,16,18,307,,21,59,182,46,05,18,052,37,06,15,268,35*79
$GPGSV,2,2,08,25,29,131,43,29,56,062,42,30,71,155,45,31,41,233,44*73
$GPGSA,M,3,21,05,25,29,30,31,,,,,,,2.6,1.6,2.1*35
Trace #83 at position 20.500000
$GPZDA,113534.03,08,10,2011,00,00*6F
$GPRMC,113534.00,A,4611.962972,N,01258.220142,E,001.4,354.9,081011,0.2,E,A*3B
$GPGGA,113535.00,4611.963485,N,01258.220093,E,1,05,2.2,133.12,M,46.25,M,,*6D
$GPGLL,4611.963485,N,01258.220093,E,113535.00,A,A*6A
$GPVTG,5.6,T,5.7,M,002.0,N,003.6,K,A*25
$GPGSV,2,1,08,16,18,307,,21,59,182,46,05,18,052,35,06,15,268,34*7A
$GPGSV,2,2,08,25,29,131,42,29,56,062,43,30,71,155,46,31,41,233,45*71
$GPGSA,M,3,21,25,29,30,31,,,,,,,,3.9,2.2,3.3*3A
Trace #84 at position 20.750000
$GPZDA,113534.03,08,10,2011,00,00*6F
$GPRMC,113534.00,A,4611.962972,N,01258.220142,E,001.4,354.9,081011,0.2,E,A*3B
$GPGGA,113535.00,4611.963485,N,01258.220093,E,1,05,2.2,133.12,M,46.25,M,,*6D
$GPGLL,4611.963485,N,01258.220093,E,113535.00,A,A*6A
$GPVTG,5.6,T,5.7,M,002.0,N,003.6,K,A*25
$GPGSV,2,1,08,16,18,307,,21,59,182,46,05,18,052,35,06,15,268,34*7A
$GPGSV,2,2,08,25,29,131,42,29,56,062,43,30,71,155,46,31,41,233,45*71
$GPGSA,M,3,21,25,29,30,31,,,,,,,,3.9,2.2,3.3*3A
Trace #85 at position 21.000000
$GPZDA,113534.03,08,10,2011,00,00*6F
$GPRMC,113534.00,A,4611.962972,N,01258.220142,E,001.4,354.9,081011,0.2,E,A*3B
$GPGGA,113535.00,4611.963485,N,01258.220093,E,1,05,2.2,133.12,M,46.25,M,,*6D
$GPGLL,4611.963485,N,01258.220093,E,113535.00,A,A*6A
$GPVTG,5.6,T,5.7,M,002.0,N,003.6,K,A*25
$GPGSV,2,1,08,16,18,307,,21,59,182,46,05,18,052,35,06,15,268,34*7A
$GPGSV,2,2,08,25,29,131,42,29,56,062,43,30,71,155,46,31,41,233,45*71
$GPGSA,M,3,21,25,29,30,31,,,,,,,,3.9,2.2,3.3*3A
Trace #86 at position 21.250000
$GPZDA,113535.04,08,10,2011,00,00*69
$GPRMC,113535.00,A,4611.963485,N,01258.220093,E,002.0,5.6,081011,0.2,E,A*3C
$GPGGA,113536.00,4611.963969,N,01258.219896,E,1,05,2.2,132.88,M,46.25,M,,*64
$GPGLL,4611.963969,N,01258.219896,E,113536.00,A,A*61
$GPVTG,325.9,T,326.1,M,001.6,N,002.9,K,A*24
$GPGSV,2,1,08,16,18,307,,21,59,182,46,05,18,052,36,06,15,268,32*7F
$GPGSV,2,2,08,25,29,131,44,29,56,062,43,30,71,155,46,31,41,233,45*77
$GPGSA,M,3,21,25,29,30,31,,,,,,,,3.9,2.2,3.2*3B
Trace #87 at position 21.500000
$GPZDA,113535.04,08,10,2011,00,00*69
$GPRMC,113535.00,A,4611.963485,N,01258.220093,E,002.0,5.6,081011,0.2,E,A*3C
$GPGGA,113536.00,4611.963969,N,01258.219896,E,1,05,2.2,132.88,M,46.25,M,,*64
$GPGLL,4611.963969,N,01258.219896,E,113536.00,A,A*61
$GPVTG,325.9,T,326.1,M,001.6,N,002.9,K,A*24
$GPGSV,2,1,08,16,18,307,,21,59,182,46,05,18,052,36,06,15,268,32*7F
$GPGSV,2,2,08,25,29,131,44,29,56,062,43,30,71,155,46,31,41,233,45*77
$GPGSA,M,3,21,25,29,30,31,,,,,,,,3.9,2.2,3.2*3B
Trace #88 at position 21.750000
$GPZDA,113535.04,08,10,2011,00,00*69
$GPRMC,113535.00,A,4611.963485,N,01258.220093,E,002.0,5.6,081011,0.2,E,A*3C
$GPGGA,113536.00,4611.963969,N,01258.219896,E,1,05,2.2,132.88,M,46.25,M,,*64
$GPGLL,4611.963969,N,01258.219896,E,113536.00,A,A*61
$GPVTG,325.9,T,326.1,M,001.6,N,002.9,K,A*24
$GPGSV,2,1,08,16,18,307,,21,59,182,46,05,18,052,36,06,15,268,32*7F
$GPGSV,2,2,08,25,29,131,44,29,56,062,43,30,71,155,46,31,41,233,45*77
$GPGSA,M,3,21,25,29,30,31,,,,,,,,3.9,2.2,3.2*3B
Trace #89 at position 22.000000
$GPZDA,113536.03,08,10,2011,00,00*6D
$GPRMC,113536.00,A,4611.963969,N,01258.219896,E,001.6,325.9,081011,0.2,E,A*3C
$GPGGA,113537.00,4611.964388,N,01258.219596,E,1,05,2.2,132.64,M,46.25,M,,*68
$GPGLL,4611.964388,N,01258.219596,E,113537.00,A,A*6F
$GPVTG,343.9,T,344.1,M,001.6,N,002.9,K,A*20
$GPGSV,2,1,08,16,18,307,,21,59,182,46,05,18,052,36,06,15,268,33*7E
$GPGSV,2,2,08,25,29,131,43,29,56,062,42,30,71,155,45,31,41,233,43*74
$GPGSA,M,3,21,25,29,30,31,,,,,,,,3.9,2.2,3.2*3B
Trace #90 at position 22.250000
$GPZDA,113536.03,08,10,2011,00,00*6D
$GPRMC,113536.00,A,4611.963969,N,01258.219896,E,001.6,325.9,081011,0.2,E,A*3C
$GPGGA,113537.00,4611.964388,N,01258.219596,E,1,05,2.2,132.64,M,46.25,M,,*68
$GPGLL,4611.964388,N,01258.219596,E,113537.00,A,A*6F
$GPVTG,343.9,T,344.1,M,001.6,N,002.9,K,A*20
$GPGSV,2,1,08,16,18,307,,21,59,182,46,05,18,052,36,06,15,268,33*7E
$GPGSV,2,2,08,25,29,131,43,29,56,062,42,30,71,155,45,31,41,233,43*74
$GPGSA,M,3,21,25,29,30,31,,,,,,,,3.9,2.2,3.2*3B
Trace #91 at position 22.500000
$GPZDA,113536.03,08,10,2011,00,00*6D
$GPRMC,113536.00,A,4611.963969,N,01258.219896,E,001.6,325.9,081011,0.2,E,A*3C
$GPGGA,113537.00,4611.964388,N,01258.219596,E,1,05,2.2,132.64,M,46.25,M,,*68
$GPGLL,4611.964388,N,01258.219596,E,113537.00,A,A*6F
$GPVTG,343.9,T,344.1,M,001.6,N,002.9,K,A*20
$GPGSV,2,1,08,16,18,307,,21,59,182,46,05,18,052,36,06,15,268,33*7E
$GPGSV,2,2,08,25,29,131,43,29,56,062,42,30,71,155,45,31,41,233,43*74
$GPGSA,M,3,21,25,29,30,31,,,,,,,,3.9,2.2,3.2*3B
Trace #92 at position 22.750000
$GPZDA,113537.03,08,10,2011,00,00*6C
$GPRMC,113537.00,A,4611.964388,N,01258.219596,E,001.6,343.9,081011,0.2,E,A*32
$GPGGA,113538.00,4611.964751,N,01258.219394,E,1,05,2.2,132.40,M,46.25,M,,*65
$GPGLL,4611.964751,N,01258.219394,E,113538.00,A,A*64
$GPVTG,335.1,T,335.3,M,001.0,N,001.9,K,A*28
$GPGSV,2,1,08,16,18,307,,21,59,182,45,05,18,052,37,06,15,268,34*7B
$GPGSV,2,2,08,25,29,131,43,29,56,062,43,30,71,155,46,31,41,233,45*70
$GPGSA,M,3,21,25,29,30,31,,,,,,,,3.9,2.2,3.2*3B
Trace #93 at position 23.000000
$GPZDA,113537.03,08,10,2011,00,00*6C
$GPRMC,113537.00,A,4611.964388,N,01258.219596,E,001.6,343.9,081011,0.2,E,A*32
$GPGGA,113538.00,4611.964751,N,01258.219394,E,1,05,2.2,132.40,M,46.25,M,,*65
$GPGLL,4611.964751,N,01258.219394,E,113538.00,A,A*64
$GPVTG,335.1,T,335.3,M,001.0,N,001.9,K,A*28
$GPGSV,2,1,08,16,18,307,,21,59,182,45,05,18,052,37,06,15,268,34*7B
$GPGSV,2,2,08,25,29,131,43,29,56,062,43,30,71,155,46,31,41,233,45*70
$GPGSA,M,3,21,25,29,30,31,,,,,,,,3.9,2.2,3.2*3B
Trace #94 at position 23.250000
$GPZDA,113537.03,08,10,2011,00,00*6C
$GPRMC,113537.00,A,4611.964388,N,01258.219596,E,001.6,343.9,081011,0.2,E,A*32
$GPGGA,113538.00,4611.964751,N,01258.219394,E,1,05,2.2,132.40,M,46.25,M,,*65
$GPGLL,4611.964751,N,01258.219394,E,113538.00,A,A*64
$GPVTG,335.1,T,335.3,M,001.0,N,001.9,K,A*28
$GPGSV,2,1,08,16,18,307,,21,59,182,45,05,18,052,37,06,15,268,34*7B
$GPGSV,2,2,08,25,29,131,43,29,56,062,43,30,71,155,46,31,41,233,45*70
$GPGSA,M,3,21,25,29,30,31,,,,,,,,3.9,2.2,3.2*3B
Trace #95 at position 23.500000
$GPZDA,113538.04,08,10,2011,00,00*64
$GPRMC,113538.00,A,4611.964751,N,01258.219394,E,001.0,335.1,081011,0.2,E,A*36
$GPGGA,113539.00,4611.965071,N,01258.219218,E,1,05,2.2,132.24,M,46.25,M,,*67
$GPGLL,4611.965071,N,01258.219218,E,113539.00,A,A*64
$GPVTG,344.6,T,344.8,M,001.2,N,002.3,K,A*2F
$GPGSV,2,1,08,16,18,307,,21,59,182,45,05,18,052,34,06,15,268,35*79
$GPGSV,2,2,08,25,29,131,43,29,56,062,44,30,71,155,46,31,41,233,45*77
$GPGSA,M,3,21,25,29,30,31,,,,,,,,3.9,2.2,3.2*3B
Trace #96 at position 23.750000
$GPZDA,113538.04,08,10,2011,00,00*64
$GPRMC,113538.00,A,4611.964751,N,01258.219394,E,001.0,335.1,081011,0.2,E,A*36
$GPGGA,113539.00,4611.965071,N,01258.219218,E,1,05,2.2,132.24,M,46.25,M,,*67
$GPGLL,4611.965071,N,01258.219218,E,113539.00,A,A*64
$GPVTG,344.6,T,344.8,M,001.2,N,002.3,K,A*2F
$GPGSV,2,1,08,16,18,307,,21,59,182,45,05,18,052,34,06,15,268,35*79
$GPGSV,2,2,08,25,29,131,43,29,56,062,44,30,71,155,46,31,41,233,45*77
$GPGSA,M,3,21,25,29,30,31,,,,,,,,3.9,2.2,3.2*3B
Trace #97 at position 24.000000
$GPZDA,113539.03,08,10,2011,00,00*62
$GPRMC,113539.00,A,4611.965071,N,01258.219218,E,001.2,344.6,081011,0.2,E,A*35
$GPGGA,113540.00,4611.965446,N,01258.219056,E,1,05,2.2,132.14,M,46.25,M,,*62
$GPGLL,4611.965446,N,01258.219056,E,113540.00,A,A*62
$GPVTG,344.5,T,344.6,M,001.3,N,002.5,K,A*25
$GPGSV,2,1,08,16,18,307,,21,59,182,45,05,18,052,36,06,15,268,34*7A
$GPGSV,2,2,08,25,29,131,43,29,56,062,43,30,71,155,45,31,41,233,43*75
$GPGSA,M,3,21,25,29,30,31,,,,,,,,3.9,2.2,3.2*3B
Trace #98 at position 24.250000
$GPZDA,113539.03,08,10,2011,00,00*62
$GPRMC,113539.00,A,4611.965071,N,01258.219218,E,001.2,344.6,081011,0.2,E,A*35
$GPGGA,113540.00,4611.965446,N,01258.219056,E,1,05,2.2,132.14,M,46.25,M,,*62
$GPGLL,4611.965446,N,01258.219056,E,113540.00,A,A*62
$GPVTG,344.5,T,344.6,M,001.3,N,002.5,K,A*25
$GPGSV,2,1,08,16,18,307,,21,59,182,45,05,18,052,36,06,15,268,34*7A
$GPGSV,2,2,08,25,29,131,43,29,56,062,43,30,71,155,45,31,41,233,43*75
$GPGSA,M,3,21,25,29,30,31,,,,,,,,3.9,2.2,3.2*3B
Trace #99 at position 24.500000
$GPZDA,113540.03,08,10,2011,00,00*6C
$GPRMC,113540.00,A,4611.965446,N,01258.219056,E,001.3,344.5,081011,0.2,E,A*31
$GPGGA,113541.00,4611.965855,N,01258.218878,E,1,05,2.2,132.02,M,46.25,M,,*6F
$GPGLL,4611.965855,N,01258.218878,E,113541.00,A,A*68
$GPVTG,345.2,T,345.4,M,001.5,N,002.8,K,A*2B
$GPGSV,2,1,08,16,18,307,,21,59,182,46,05,18,052,36,06,15,268,35*78
$GPGSV,2,2,08,25,29,131,44,29,56,062,44,30,71,155,46,31,41,233,45*70
$GPGSA,M,3,21,25,29,30,31,,,,,,,,3.9,2.2,3.2*3B
Trace #100 at position 24.750000
$GPZDA,113541.03,08,10,2011,00,00*6D
$GPRMC,113541.00,A,4611.965855,N,01258.218878,E,001.5,345.2,081011,0.2,E,A*3B
$GPGGA,113542.00,4611.966244,N,01258.218645,E,1,05,2.2,131.93,M,46.25,M,,*6E
$GPGLL,4611.966244,N,01258.218645,E,113542.00,A,A*62
$GPVTG,329.8,T,330.0,M,001.4,N,002.5,K,A*21
$GPGSV,2,1,08,16,18,307,,21,59,182,46,05,18,052,36,06,15,268,32*7F
$GPGSV,2,2,08,25,29,131,44,29,56,062,43,30,71,155,46,31,41,233,45*77
$GPGSA,M,3,21,25,29,30,31,,,,,,,,3.9,2.2,3.2*3B
Trace #101 at position 25.000000
$GPZDA,113546.03,08,10,2011,00,00*6A
$GPRMC,113546.00,A,4611.967229,N,01258.218094,E,000.1,336.9,081011,0.2,E,A*3F
$GPGGA,113547.00,4611.967242,N,01258.218097,E,1,05,2.2,131.44,M,46.25,M,,*6F
$GPGLL,4611.967242,N,01258.218097,E,113547.00,A,A*69
$GPVTG,354.7,T,354.8,M,000.1,N,000.1,K,A*2C
$GPGSV,2,1,08,16,18,307,,21,59,182,45,05,18,052,37,06,15,268,28*76
$GPGSV,2,2,08,25,29,131,45,29,56,062,45,30,71,155,46,31,41,233,48*7D
$GPGSA,M,3,21,25,29,30,31,,,,,,,,3.9,2.2,3.2*3B
Trace #102 at position 25.250000
$GPZDA,113547.03,08,10,2011,00,00*6B
$GPRMC,113547.00,A,4611.967242,N,01258.218097,E,000.1,354.7,081011,0.2,E,A*3A
$GPGGA,113548.00,4611.967219,N,01258.218131,E,1,05,2.2,131.47,M,46.25,M,,*60
$GPGLL,4611.967219,N,01258.218131,E,113548.00,A,A*65
$GPVTG,144.4,T,144.6,M,000.2,N,000.5,K,A*26
$GPGSV,2,1,08,16,18,307,,21,59,182,44,05,18,052,35,06,15,268,29*74
$GPGSV,2,2,08,25,29,131,43,29,55,062,43,30,71,155,46,31,41,233,41*77
$GPGSA,M,3,21,25,29,30,31,,,,,,,,3.9,2.2,3.2*3B
Trace #103 at position 25.500000
$GPZDA,113547.03,08,10,2011,00,00*6B
$GPRMC,113547.00,A,4611.967242,N,01258.218097,E,000.1,354.7,081011,0.2,E,A*3A
$GPGGA,113548.00,4611.967219,N,01258.218131,E,1,05,2.2,131.47,M,46.25,M,,*60
$GPGLL,4611.967219,N,01258.218131,E,113548.00,A,A*65
$GPVTG,144.4,T,144.6,M,000.2,N,000.5,K,A*26
$GPGSV,2,1,08,16,18,307,,21,59,182,44,05,18,052,35,06,15,268,29*74
$GPGSV,2,2,08,25,29,131,43,29,55,062,43,30,71,155,46,31,41,233,41*77
$GPGSA,M,3,21,25,29,30,31,,,,,,,,3.9,2.2,3.2*3B
Trace #104 at position 25.750000
$GPZDA,113548.03,08,10,2011,00,00*64
$GPRMC,113548.00,A,4611.967219,N,01258.218131,E,000.2,144.4,081011,0.2,E,A*35
$GPGGA,113549.00,4611.967191,N,01258.218157,E,1,05,2.2,131.47,M,46.25,M,,*62
$GPGLL,4611.967191,N,01258.218157,E,113549.00,A,A*67
$GPVTG,255.4,T,255.5,M,000.0,N,000.1,K,A*23
$GPGSV,2,1,08,16,18,307,,21,59,182,43,05,18,052,38,06,15,268,32*74
$GPGSV,2,2,08,25,29,131,43,29,55,062,44,30,71,155,45,31,41,233,39*7C
$GPGSA,M,3,21,25,29,30,31,,,,,,,,3.9,2.2,3.2*3B
Trace #105 at position 26.000000
$GPZDA,113548.03,08,10,2011,00,00*64
$GPRMC,113548.00,A,4611.967219,N,01258.218131,E,000.2,144.4,081011,0.2,E,A*35
$GPGGA,113549.00,4611.967191,N,01258.218157,E,1,05,2.2,131.47,M,46.25,M,,*62
$GPGLL,4611.967191,N,01258.218157,E,113549.00,A,A*67
$GPVTG,255.4,T,255.5,M,000.0,N,000.1,K,A*23
$GPGSV,2,1,08,16,18,307,,21,59,182,43,05,18,052,38,06,15,268,32*74
$GPGSV,2,2,08,25,29,131,43,29,55,062,44,30,71,155,45,31,41,233,39*7C
$GPGSA,M,3,21,25,29,30,31,,,,,,,,3.9,2.2,3.2*3B
Trace #106 at position 26.250000
$GPZDA,113549.03,08,10,2011,00,00*65
$GPRMC,113549.00,A,4611.967191,N,01258.218157,E,000.0,255.4,081011,0.2,E,A*36
$GPGGA,113550.00,4611.967204,N,01258.218168,E,1,05,2.2,131.34,M,46.25,M,,*6D
$GPGLL,4611.967204,N,01258.218168,E,113550.00,A,A*6C
$GPVTG,33.8,T,34.0,M,000.1,N,000.2,K,A*2F
$GPGSV,2,1,08,16,18,307,,21,59,182,44,05,18,052,37,06,15,268,30*7E
$GPGSV,2,2,08,25,29,131,43,29,55,062,43,30,71,155,44,31,41,233,41*75
$GPGSA,M,3,21,25,29,30,31,,,,,,,,3.9,2.2,3.2*3B
Trace #107 at position 26.500000
$GPZDA,113549.03,08,10,2011,00,00*65
$GPRMC,113549.00,A,4611.967191,N,01258.218157,E,000.0,255.4,081011,0.2,E,A*36
$GPGGA,113550.00,4611.967204,N,01258.218168,E,1,05,2.2,131.34,M,46.25,M,,*6D
$GPGLL,4611.967204,N,01258.218168,E,113550.00,A,A*6C
$GPVTG,33.8,T,34.0,M,000.1,N,000.2,K,A*2F
$GPGSV,2,1,08,16,18,307,,21,59,182,44,05,18,052,37,06,15,268,30*7E
$GPGSV,2,2,08,25,29,131,43,29,55,062,43,30,71,155,44,31,41,233,41*75
$GPGSA,M,3,21,25,29,30,31,,,,,,,,3.9,2.2,3.2*3B
Trace #108 at position 26.750000
$GPZDA,113550.03,08,10,2011,00,00*6D
$GPRMC,113550.00,A,4611.967204,N,01258.218168,E,000.1,33.8,081011,0.2,E,A*02
$GPGGA,113551.00,4611.967351,N,01258.218112,E,1,05,2.2,131.25,M,46.25,M,,*60
$GPGLL,4611.967351,N,01258.218112,E,113551.00,A,A*61
$GPVTG,340.5,T,340.7,M,001.1,N,002.0,K,A*23
$GPGSV,2,1,08,16,18,307,,21,59,182,46,05,18,052,38,06,15,268,36*75
$GPGSV,2,2,08,25,29,131,44,29,55,062,43,30,71,155,46,31,41,233,46*77
$GPGSA,M,3,21,25,29,30,31,,,,,,,,3.9,2.2,3.2*3B
Trace #109 at position 27.000000
$GPZDA,113550.03,08,10,2011,00,00*6D
$GPRMC,113550.00,A,4611.967204,N,01258.218168,E,000.1,33.8,081011,0.2,E,A*02
$GPGGA,113551.00,4611.967351,N,01258.218112,E,1,05,2.2,131.25,M,46.25,M,,*60
$GPGLL,4611.967351,N,01258.218112,E,113551.00,A,A*61
$GPVTG,340.5,T,340.7,M,001.1,N,002.0,K,A*23
$GPGSV,2,1,08,16,18,307,,21,59,182,46,05,18,052,38,06,15,268,36*75
$GPGSV,2,2,08,25,29,131,44,29,55,062,43,30,71,155,46,31,41,233,46*77
$GPGSA,M,3,21,25,29,30,31,,,,,,,,3.9,2.2,3.2*3B
Trace #110 at position 27.250000
$GPZDA,113551.03,08,10,2011,00,00*6C
$GPRMC,113551.00,A,4611.967351,N,01258.218112,E,001.1,340.5,081011,0.2,E,A*34
$GPGGA,113552.00,4611.967632,N,01258.218030,E,1,05,2.2,131.24,M,46.25,M,,*63
$GPGLL,4611.967632,N,01258.218030,E,113552.00,A,A*63
$GPVTG,357.0,T,357.1,M,001.1,N,002.0,K,A*20
$GPGSV,2,1,08,16,18,307,,21,59,182,46,05,18,052,36,06,15,268,35*78
$GPGSV,2,2,08,25,29,131,44,29,55,062,43,30,71,155,46,31,41,233,43*72
$GPGSA,M,3,21,25,29,30,31,,,,,,,,3.9,2.2,3.2*3B
Trace #111 at position 27.500000
$GPZDA,113552.03,08,10,2011,00,00*6F
$GPRMC,113552.00,A,4611.967632,N,01258.218030,E,001.1,357.0,081011,0.2,E,A*35
$GPGGA,113553.00,4611.967887,N,01258.217965,E,1,05,2.2,131.23,M,46.25,M,,*63
$GPGLL,4611.967887,N,01258.217965,E,113553.00,A,A*64
$GPVTG,343.7,T,343.9,M,000.8,N,001.5,K,A*21
$GPGSV,2,1,08,16,18,307,,21,59,182,45,05,18,052,33,06,15,268,*78
$GPGSV,2,2,08,25,29,131,42,29,55,062,41,30,71,155,45,31,41,233,43*75
$GPGSA,M,3,21,25,29,30,31,,,,,,,,3.9,2.2,3.2*3B
Trace #112 at position 27.750000
$GPZDA,113552.03,08,10,2011,00,00*6F
$GPRMC,113552.00,A,4611.967632,N,01258.218030,E,001.1,357.0,081011,0.2,E,A*35
$GPGGA,113553.00,4611.967887,N,01258.217965,E,1,05,2.2,131.23,M,46.25,M,,*63
$GPGLL,4611.967887,N,01258.217965,E,113553.00,A,A*64
$GPVTG,343.7,T,343.9,M,000.8,N,001.5,K,A*21
$GPGSV,2,1,08,16,18,307,,21,59,182,45,05,18,052,33,06,15,268,*78
$GPGSV,2,2,08,25,29,131,42,29,55,062,41,30,71,155,45,31,41,233,43*75
$GPGSA,M,3,21,25,29,30,31,,,,,,,,3.9,2.2,3.2*3B
Trace #113 at position 28.000000
$GPZDA,113553.04,08,10,2011,00,00*69
$GPRMC,113553.00,A,4611.967887,N,01258.217965,E,000.8,343.7,081011,0.2,E,A*38
$GPGGA,113554.00,4611.968145,N,01258.217967,E,1,05,2.2,131.16,M,46.25,M,,*68
$GPGLL,4611.968145,N,01258.217967,E,113554.00,A,A*69
$GPVTG,16.7,T,16.8,M,001.2,N,002.3,K,A*2E
$GPGSV,2,1,08,16,18,307,,21,60,182,45,05,18,052,34,06,15,268,32*74
$GPGSV,2,2,08,25,29,131,42,29,55,062,42,30,71,155,45,31,41,233,43*76
$GPGSA,M,3,21,25,29,30,31,,,,,,,,3.9,2.2,3.2*3B
Trace #114 at position 28.250000
$GPZDA,113554.03,08,10,2011,00,00*69
$GPRMC,113554.00,A,4611.968145,N,01258.217967,E,001.2,16.7,081011,0.2,E,A*0D
$GPGGA,113555.00,4611.968409,N,01258.217943,E,1,05,2.2,131.12,M,46.25,M,,*66
$GPGLL,4611.968409,N,01258.217943,E,113555.00,A,A*63
$GPVTG,340.2,T,340.3,M,000.9,N,001.7,K,A*2D
$GPGSV,2,1,08,16,18,307,,21,60,182,45,05,18,052,36,06,15,268,33*77
$GPGSV,2,2,08,25,29,131,44,29,55,062,42,30,71,155,44,31,41,233,44*76
$GPGSA,M,3,21,25,29,30,31,,,,,,,,3.9,2.2,3.2*3B
Trace #115 at position 28.500000
$GPZDA,113554.03,08,10,2011,00,00*69
$GPRMC,113554.00,A,4611.968145,N,01258.217967,E,001.2,16.7,081011,0.2,E,A*0D
$GPGGA,113555.00,4611.968409,N,01258.217943,E,1,05,2.2,131.12,M,46.25,M,,*66
$GPGLL,4611.968409,N,01258.217943,E,113555.00,A,A*63
$GPVTG,340.2,T,340.3,M,000.9,N,001.7,K,A*2D
$GPGSV,2,1,08,16,18,307,,21,60,182,45,05,18,052,36,06,15,268,33*77
