Trace #1 at position 0.000000
$GPZDA,121025.03,06,10,2011,00,00*65
$GPRMC,121025.00,A,4611.975797,N,01258.197173,E,000.4,95.6,061011,0.2,E,A*0F
$GPGGA,121026.00,4611.975788,N,01258.197117,E,1,04,8.4,186.42,M,46.25,M,,*66
$GPGLL,4611.975788,N,01258.197117,E,121026.00,A,A*67
$GPVTG,110.7,T,110.8,M,000.2,N,000.4,K,A*2A
$GPGSV,3,1,10,05,14,041,,16,28,309,41,31,31,223,39,18,5,18,137,*7C
$GPGSV,3,3,10,03,09,276,34,06,25,275,36,,,,,,,,*72
$GPGSA,M,3,16,31,29,06,,,,,,,,,46.8,8.4,46.0*32
Trace #2 at position 0.250000
$GPZDA,121027.03,06,10,2011,00,00*67
$GPRMC,121027.00,A,4611.975775,N,01258.196972,E,000.2,249.4,061011,0.2,E,A*3E
$GPGGA,121028.00,4611.975775,N,01258.196772,E,1,04,8.5,189.08,M,46.25,M,,*6E
$GPGLL,4611.975775,N,01258.196772,E,121028.00,A,A*6F
$GPVTG,278.2,T,278.4,M,000.2,N,000.3,K,A*24
$GPGSV,3,1,10,05,14,041,,16,28,309,40,31,31,223,39,18,15,150,*7C
$GPGSV,3,2,10,29,45,072,38,30,56,155,,21,71,172,31,25,18,137,*74
$GPGSV,3,3,10,03,09,276,34,06,25,2753,06,10,2011,00,00*68
$GPRMC,121028.00,A,4611.975775,N,01258.196772,E,000.2,278.2,061011,0.2,E,A*3B
$GPGGA,121029.00,4611.975794,N,01258.196462,E,1,04,8.5,191.39,M,46.25,M,,*69
$GPGLL,4611.975794,N,01258.196462,E,121029.00,A,A*63
$GPVTG,275.6,T,275.8,M,001.0,N,001.8,K,A*25
$GPGSV,3,1,10,05,14,041,,16,28,309,39,31,31,223,40,18,15,150,*7C
$GPGSV,3,2,10,29,45,072,39,30,56,155,,21,71,172,33,25,18,137,*77
$GPGSV,3,3,10,03,09,276,35,06,25,275,33,,,,,,,,*76
$GPGSA,M,3,16,31,29,06,,,,,,,,,47.3,8.5,46.6*3F
Trace #3 at position 0.500000
5794,N,01258.196462,E,001.0,275.6,061011,0.2,E,A*3D
$GPGGA,121030.00,4611.975807,N,01258.196181,E,1,04,8.5,193.47,M,46.25,M,,*67
$GPGLL,4611.975807,N,01258.196181,E,121030.00,A,A*66
$GPVTG,265.3,T,265.4,M,000.2,N,000.3,K,A*25
$GPGSV,3,1,10,05,14,041,,16,28,309,39,31,31,223,39,18,15,150,*72
$GPGSV,3,2,10,29,45,072,40,30,56,155,,21,71,172,32,25,18,137,*78
$GPGSV,3,3,10,03,09,276,33,06,25,275,36,,,,,,,,*75
$GPGSA,M,3,16,31,29,06,,,,,,,,,47.3,8.5,46.6*3F
Trace #4 at position 0.750000
$GPZDA,121030.03,06,10,2011,00,00*61
$GPRMC,1210$GPGGA,121031.00,4611.975801,N,01258.196260,E,1,04,8.5,192.83,M,46.25,M,,*65
$GPGLL,4611.975801,N,01258.196260,E,121031.00,A,A*6D
$GPVTG,94.0,T,94.2,M,000.9,N,001.6,K,A*2F
$GPGSV,3,1,10,05,14,041,,16,28,309,39,31,31,223,39,18,15,150,*72
$GPGSV,3,2,10,29,45,072,41,30,56,155,,21,71,172,32,25,18,137,*79
$GPGSV,3,3,10,03,09,276,34,06,25,275,36,,,,,,,,*72
$GPGSA,M,3,16,31,29,06,,,,,,,,,47.5,8.5,46.7*38
Trace #5 at position 1.000000
$GPZDA,121031.03,06,10,2011,00,00*60
$GPRMC,121031.00,A,4611.975801,N,01258.196260,E,000.9,94.0,061011,$GPGGA,121032.00,4611.975806,N,01258.196309,E,1,04,8.5,192.41,M,46.25,M,,*61
$GPGLL,4611.975806,N,01258.196309,E,121032.00,A,A*67
$GPVTG,292.1,T,292.2,M,000.2,N,000.3,K,A*21
$GPGSV,3,1,10,05,14,041,,16,28,309,39,31,31,223,39,18,15,150,*72
$GPGSV,3,2,10,29,45,072,41,30,56,155,,21,71,172,31,25,18,137,*7A
$GPGSV,3,3,10,03,09,276,35,06,25,275,35,,,,,,,,*70
$GPGSA,M,3,16,31,29,06,,,,,,,,,47.5,8.5,46.7*38
Trace #6 at position 1.250000
$GPZDA,121032.03,06,10,2011,00,00*63
$GPRMC,121032.00,A,4611.975806,N,01258.196309,E,000.2,292.1,0610$GPGGA,121033.00,4611.975819,N,01258.196136,E,1,04,8.5,193.70,M,46.25,M,,*63
$GPGLL,4611.975819,N,01258.196136,E,121033.00,A,A*66
$GPVTG,269.1,T,269.2,M,000.3,N,000.5,K,A*26
$GPGSV,3,1,10,05,14,041,,16,28,309,39,31,31,223,40,18,15,150,*7C
$GPGSV,3,2,10,29,45,072,41,30,56,155,,21,71,172,31,25,18,137,*7A
$GPGSV,3,3,10,03,09,276,34,06,25,275,36,,,,,,,,*72
$GPGSA,M,3,16,31,29,06,,,,,,,,,47.6,8.5,46.8*34
Trace #7 at position 1.500000
$GPZDA,121033.03,06,10,2011,00,00*62
$GPRMC,121033.00,A,4611.975819,N,01258.196136,E,000.3,269.1,0610$GPGGA,121034.00,4611.975821,N,01258.195911,E,1,04,8.5,195.41,M,46.25,M,,*65
$GPGLL,4611.975821,N,01258.195911,E,121034.00,A,A*64
$GPVTG,269.4,T,269.6,M,000.6,N,001.1,K,A*27
$GPGSV,3,1,10,05,14,041,,16,28,309,41,31,31,223,40,18,15,150,*73
$GPGSV,3,2,10,29,45,072,42,30,56,155,,21,71,172,32,25,18,137,*7A
$GPGSV,3,3,10,03,09,276,35,06,25,275,37,,,,,,,,*72
$GPGSA,M,3,16,31,29,06,,,,,,,,,47.6,8.5,46.8*34
Trace #8 at position 1.750000
$GPZDA,121034.03,06,10,2011,00,00*65
$GPRMC,121034.00,A,4611.975821,N,01258.195911,E,000.6,269.4,0610$GPGGA,121035.00,4611.975718,N,01258.196826,E,1,06,1.7,189.15,M,46.25,M,,*62
$GPGLL,4611.975718,N,01258.196826,E,121035.00,A,A*66
$GPVTG,142.1,T,142.2,M,000.4,N,000.7,K,A*23
$GPGSV,3,1,10,05,14,041,,16,28,309,41,31,31,223,40,18,15,150,*73
$GPGSV,3,2,10,29,45,072,41,30,56,155,,21,71,172,33,25,18,137,*78
$GPGSV,3,3,10,03,09,276,35,06,25,275,36,,,,,,,,*73
$GPGSA,M,3,16,31,29,21,03,06,,,,,,,3.4,1.7,3.0*34
Trace #9 at position 2.000000
$GPZDA,121034.03,06,10,2011,00,00*65
$GPRMC,121034.00,A,4611.975821,N,01258.195911,E,000.6,269.4,0610$GPGGA,121035.00,4611.975718,N,01258.196826,E,1,06,1.7,189.15,M,46.25,M,,*62
$GPGLL,4611.975718,N,01258.196826,E,121035.00,A,A*66
$GPVTG,142.1,T,142.2,M,000.4,N,000.7,K,A*23
$GPGSV,3,1,10,05,14,041,,16,28,309,41,31,31,223,40,18,15,150,*73
$GPGSV,3,2,10,29,45,072,41,30,56,155,,21,71,172,33,25,18,137,*78
$GPGSV,3,3,10,03,09,276,35,06,25,275,36,,,,,,,,*73
$GPGSA,M,3,16,31,29,21,03,06,,,,,,,3.4,1.7,3.0*34
Trace #10 at position 2.250000
$GPZDA,121035.04,06,10,2011,00,00*63
$GPRMC,121035.00,A,4611.975718,N,01258.196826,E,000.4,142.1,06$GPGGA,121036.00,4611.975554,N,01258.197665,E,1,06,1.7,183.89,M,46.25,M,,*6C
$GPGLL,4611.975554,N,01258.197665,E,121036.00,A,A*67
$GPVTG,143.9,T,144.1,M,000.7,N,001.3,K,A*29
$GPGSV,3,1,10,05,14,041,,16,28,309,40,31,31,223,39,18,15,150,*7C
$GPGSV,3,2,10,29,45,072,41,30,56,155,,21,71,172,34,25,18,137,*7F
$GPGSV,3,3,10,03,09,276,36,06,25,275,36,,,,,,,,*70
$GPGSA,M,3,16,31,29,21,03,06,,,,,,,3.4,1.7,3.0*34
Trace #11 at position 2.500000
$GPZDA,121036.03,06,10,2011,00,00*67
$GPRMC,121036.00,A,4611.975554,N,01258.197665,E,000.7,143.9,06,4611.975361,N,01258.198428,E,1,06,1.7,179.13,M,46.25,M,,*6F
$GPGLL,4611.975361,N,01258.198428,E,121037.00,A,A*62
$GPVTG,154.8,T,155.0,M,000.6,N,001.1,K,A*2C
$GPGSV,3,1,10,05,14,041,,16,28,309,38,31,31,223,40,18,15,150,*7D
$GPGSV,3,2,10,29,45,072,41,30,56,155,,21,72,172,33,25,18,137,*7B
$GPGSV,3,3,10,03,09,276,37,06,25,275,37,,,,,,,,*70
$GPGSA,M,3,16,31,29,21,03,06,,,,,,,3.4,1.7,3.0*34
Trace #12 at position 2.750000
$GPZDA,121036.03,06,10,2011,00,00*67
$GPRMC,121036.00,A,4611.975554,N,01258.197665,E,000.7,143.9,06,4611.975361,N,01258.198428,E,1,06,1.7,179.13,M,46.25,M,,*6F
$GPGLL,4611.975361,N,01258.198428,E,121037.00,A,A*62
$GPVTG,154.8,T,155.0,M,000.6,N,001.1,K,A*2C
$GPGSV,3,1,10,05,14,041,,16,28,309,38,31,31,223,40,18,15,150,*7D
$GPGSV,3,2,10,29,45,072,41,30,56,155,,21,72,172,33,25,18,137,*7B
$GPGSV,3,3,10,03,09,276,37,06,25,275,37,,,,,,,,*70
$GPGSA,M,3,16,31,29,21,03,06,,,,,,,3.4,1.7,3.0*34
Trace #13 at position 3.000000
$GPZDA,121037.03,06,10,2011,00,00*66
$GPRMC,121037.00,A,4611.975361,N,01258.198428,E,000.6,154.8,061011,0.2,E,A*35PGLL,4611.975161,N,01258.199082,E,121038.00,A,A*6A
$GPVTG,163.1,T,163.2,M,000.7,N,001.3,K,A*25
$GPGSV,3,1,10,05,14,041,,16,28,309,38,31,31,223,41,18,15,150,*7C
$GPGSV,3,2,10,29,45,072,41,30,56,155,,21,72,172,31,25,18,137,*79
$GPGSV,3,3,10,03,09,276,36,06,25,275,36,,,,,,,,*70
$GPGSA,M,3,16,31,29,21,03,06,,,,,,,3.4,1.7,3.0*34
Trace #14 at position 3.250000
$GPZDA,121038.04,06,10,2011,00,00*6E
$GPRMC,121038.00,A,4611.975161,N,01258.199082,E,000.7,163.1,061011,0.2,E,A*31
$GPGGA,121039.00,4611.975011,N,01258.199553,E,1,05,1.8,171.77,M4,T,134.6,M,000.2,N,000.4,K,A*27
$GPGSV,3,1,10,05,14,041,,16,28,309,38,31,31,223,41,18,15,150,*7C
$GPGSV,3,2,10,29,45,072,39,30,56,155,,21,72,172,29,25,18,137,*7F
$GPGSV,3,3,10,03,09,276,36,06,25,275,35,,,,,,,,*73
$GPGSA,M,3,16,31,29,03,06,,,,,,,,5.2,1.8,4.8*37
Trace #15 at position 3.500000
$GPZDA,121039.03,06,10,2011,00,00*68
$GPRMC,121039.00,A,4611.975011,N,01258.199553,E,000.2,134.4,061011,0.2,E,A*3D
$GPGGA,121040.00,4611.974851,N,01258.199967,E,1,05,1.8,169.04,M,46.25,M,,*6A
$GPGLL,4611.974851,N,01258.199967,E,121040.00,A,A*,,,,*71
$GPGSA,M,3,16,31,29,03,06,,,,,,,,5.2,1.8,4.8*37
Trace #16 at position 3.750000
$GPZDA,121039.03,06,10,2011,00,00*68
$GPRMC,121039.00,A,4611.975011,N,01258.199553,E,000.2,134.4,061011,0.2,E,A*3D
$GPGGA,121040.00,4611.974851,N,01258.199967,E,1,05,1.8,169.04,M,46.25,M,,*6A
$GPGLL,4611.974851,N,01258.199967,E,121040.00,A,A*,,,,*71
$GPGSA,M,3,16,31,29,03,06,,,,,,,,5.2,1.8,4.8*37
Trace #17 at position 4.000000
$GPZDA,121039.03,06,10,2011,00,00*68
$GPRMC,121039.00,A,4611.975011,N,01258.199553,E,000.2,134.4,061011,0.2,E,A*3D
$GPGGA,121040.00,4611.974851,N,01258.199967,E,1,05,1.8,169.04,M,46.25,M,,*6A
$GPGLL,4611.974851,N,01258.199967,E,121040.00,A,A*,,,,*71
$GPGSA,M,3,16,31,29,03,06,,,,,,,,5.2,1.8,4.8*37
Trace #18 at position 4.250000
$GPZDA,121040.03,06,10,2011,00,00*66
$GPRMC,121040.00,A,4611.974851,N,01258.199967,E,000.8,170.9,061011,0.2,E,A*32
$GPGGA,121041.00,4611.974640,N,01258.200401,E,1,06,1.7,165.86,M,46.25,M,,*61
$GPGLL,4611.974640,N,01258.200401,E,121041.00,A,A*6D
$GPVTG,192.3,T,192.4,M,000.6,N,001.1,K,A*22
$GPGSV,3,1,10,05,14,041,,16,28,309,39,31,31,223,39,18,15,150,*72
$GPGSV,3,2,10,29,45,072,40,30,56,155,,21,72,172,34,25,18,137,*7D
$GPGSV,3,3,10,03,10,276,35,00,A,4611.974640,N,01258.200401,E,000.6,192.3,061011,0.2,E,A*3B
$GPGGA,121042.00,4611.974473,N,01258.200788,E,1,06,1.7,163.18,M,46.25,M,,*63
$GPGLL,4611.974473,N,01258.200788,E,121042.00,A,A*6E
$GPVTG,175.8,T,176.0,M,000.4,N,000.7,K,A*2B
$GPGSV,3,1,10,05,14,041,,16,28,309,38,31,31,223,39,18,15,150,*73
$GPGSV,3,2,10,29,45,072,40,30,56,155,,21,72,172,30,25,18,137,*79
$GPGSV,3,3,10,03,10,276,36,06,25,275,36,,,,,,,,*78
$GPGSA,M,3,16,31,29,21,03,06,,,,,,,3.4,1.7,2.9*3C
Trace #19 at position 4.500000
$GPZDA,121042.03,06,10,2011,00,00*64$GPGGA,121043.00,4611.974285,N,01258.201263,E,1,06,1.7,160.65,M,46.25,M,,*65
$GPGLL,4611.974285,N,01258.201263,E,121043.00,A,A*61
$GPVTG,145.0,T,145.1,M,000.9,N,001.6,K,A*2C
$GPGSV,3,1,10,05,14,041,,16,28,309,39,31,31,223,39,18,15,150,*72
$GPGSV,3,2,10,29,45,072,40,30,56,155,,21,72,172,33,25,18,137,*7A
$GPGSV,3,3,10,03,10,276,35,06,25,275,36,,,,,,,,*7B
$GPGSA,M,3,16,31,29,21,03,06,,,,,,,3.4,1.7,2.9*3C
Trace #20 at position 4.750000
$GPZDA,121042.03,06,10,2011,00,00*64$GPGGA,121043.00,4611.974285,N,01258.201263,E,1,06,1.7,160.65,M,46.25,M,,*65
$GPGLL,4611.974285,N,01258.201263,E,121043.00,A,A*61
$GPVTG,145.0,T,145.1,M,000.9,N,001.6,K,A*2C
$GPGSV,3,1,10,05,14,041,,16,28,309,39,31,31,223,39,18,15,150,*72
$GPGSV,3,2,10,29,45,072,40,30,56,155,,21,72,172,33,25,18,137,*7A
$GPGSV,3,3,10,03,10,276,35,06,25,275,36,,,,,,,,*7B
$GPGSA,M,3,16,31,29,21,03,06,,,,,,,3.4,1.7,2.9*3C
Trace #21 at position 5.000000
$GPZDA,121043.04,06,10,2011,00,00*62
$GPRMC,121043.00,A,4611.974285,N,01258.201263,E,000.9,145.0,06$GPGGA,121044.00,4611.974107,N,01258.201774,E,1,06,1.7,158.37,M,46.25,M,,*64
$GPGLL,4611.974107,N,01258.201774,E,121044.00,A,A*6C
$GPVTG,125.3,T,125.5,M,000.6,N,001.1,K,A*23
$GPGSV,3,1,10,05,14,041,,16,28,309,39,31,31,223,38,18,15,150,*73
$GPGSV,3,2,10,29,45,072,40,30,56,155,,21,72,172,34,25,18,137,*7D
$GPGSV,3,3,10,03,10,276,35,06,25,275,35,,,,,,,,*78
$GPGSA,M,3,16,31,29,21,03,06,,,,,,,3.4,1.7,2.9*3C
Trace #22 at position 5.250000
$GPZDA,121043.04,06,10,2011,00,00*62
$GPRMC,121043.00,A,4611.974285,N,01258.201263,E,000.9,145.0,06$GPGGA,121044.00,4611.974107,N,01258.201774,E,1,06,1.7,158.37,M,46.25,M,,*64
$GPGLL,4611.974107,N,01258.201774,E,121044.00,A,A*6C
$GPVTG,125.3,T,125.5,M,000.6,N,001.1,K,A*23
$GPGSV,3,1,10,05,14,041,,16,28,309,39,31,31,223,38,18,15,150,*73
$GPGSV,3,2,10,29,45,072,40,30,56,155,,21,72,172,34,25,18,137,*7D
$GPGSV,3,3,10,03,10,276,35,06,25,275,35,,,,,,,,*78
$GPGSA,M,3,16,31,29,21,03,06,,,,,,,3.4,1.7,2.9*3C
Trace #23 at position 5.500000
$GPZDA,121044.03,06,10,2011,00,00*62
$GPRMC,121044.00,A,4611.974107,N,01258.201774,E,000.6,125.3,06$GPGGA,121045.00,4611.973897,N,01258.202200,E,1,06,1.7,156.29,M,46.25,M,,*66
$GPGLL,4611.973897,N,01258.202200,E,121045.00,A,A*6F
$GPVTG,164.3,T,164.5,M,001.0,N,001.8,K,A*2D
$GPGSV,3,1,10,05,14,041,,16,28,309,37,31,31,223,39,18,15,150,*7C
$GPGSV,3,2,10,29,45,072,40,30,56,155,,21,72,172,33,25,18,137,*7A
$GPGSV,3,3,10,03,10,276,35,06,25,275,37,,,,,,,,*7A
$GPGSA,M,3,16,31,29,21,03,06,,,,,,,3.4,1.7,2.9*3C
Trace #24 at position 5.750000
$GPZDA,121045.03,06,10,2011,00,00*63
$GPRMC,121045.00,A,4611.973897,N,01258.202200,E,001.0,164.3,06$GPGGA,121046.00,4611.973681,N,01258.202547,E,1,06,1.7,154.40,M,46.25,M,,*65
$GPGLL,4611.973681,N,01258.202547,E,121046.00,A,A*61
$GPVTG,146.2,T,146.4,M,000.5,N,000.9,K,A*29
$GPGSV,3,1,10,05,14,041,,16,28,309,38,31,31,223,40,18,15,150,*7D
$GPGSV,3,2,10,29,45,072,39,30,56,155,,21,72,172,32,25,18,137,*75
$GPGSV,3,3,10,03,10,276,37,06,25,275,36,,,,,,,,*79
$GPGSA,M,3,16,31,29,21,03,06,,,,,,,3.4,1.7,2.9*3C
Trace #25 at position 6.000000
$GPZDA,121045.03,06,10,2011,00,00*63
$GPRMC,121045.00,A,4611.973897,N,01258.202200,E,001.0,164.3,06$GPGGA,121046.00,4611.973681,N,01258.202547,E,1,06,1.7,154.40,M,46.25,M,,*65
$GPGLL,4611.973681,N,01258.202547,E,121046.00,A,A*61
$GPVTG,146.2,T,146.4,M,000.5,N,000.9,K,A*29
$GPGSV,3,1,10,05,14,041,,16,28,309,38,31,31,223,40,18,15,150,*7D
$GPGSV,3,2,10,29,45,072,39,30,56,155,,21,72,172,32,25,18,137,*75
$GPGSV,3,3,10,03,10,276,37,06,25,275,36,,,,,,,,*79
$GPGSA,M,3,16,31,29,21,03,06,,,,,,,3.4,1.7,2.9*3C
Trace #26 at position 6.250000
$GPZDA,121046.03,06,10,2011,00,00*60
$GPRMC,121046.00,A,4611.973681,N,01258.202547,E,000.5,146.2,06$GPGGA,121047.00,4611.973443,N,01258.202928,E,1,06,1.7,152.60,M,46.25,M,,*69
$GPGLL,4611.973443,N,01258.202928,E,121047.00,A,A*69
$GPVTG,152.9,T,153.1,M,001.3,N,002.3,K,A*29
$GPGSV,3,1,10,05,14,041,,16,28,309,38,31,31,223,40,18,15,150,*7D
$GPGSV,3,2,10,29,45,072,40,30,56,155,,21,72,172,32,25,18,137,*7B
$GPGSV,3,3,10,03,10,276,37,06,25,275,35,,,,,,,,*7A
$GPGSA,M,3,16,31,29,21,03,06,,,,,,,3.4,1.7,2.9*3C
Trace #27 at position 6.500000
$GPZDA,121046.03,06,10,2011,00,00*60
$GPRMC,121046.00,A,4611.973681,N,01258.202547,E,000.5,146.2,06$GPGGA,121047.00,4611.973443,N,01258.202928,E,1,06,1.7,152.60,M,46.25,M,,*69
$GPGLL,4611.973443,N,01258.202928,E,121047.00,A,A*69
$GPVTG,152.9,T,153.1,M,001.3,N,002.3,K,A*29
$GPGSV,3,1,10,05,14,041,,16,28,309,38,31,31,223,40,18,15,150,*7D
$GPGSV,3,2,10,29,45,072,40,30,56,155,,21,72,172,32,25,18,137,*7B
$GPGSV,3,3,10,03,10,276,37,06,25,275,35,,,,,,,,*7A
$GPGSA,M,3,16,31,29,21,03,06,,,,,,,3.4,1.7,2.9*3C
Trace #28 at position 6.750000
$GPZDA,121046.03,06,10,2011,00,00*60
$GPRMC,121046.00,A,4611.973681,N,01258.202547,E,000.5,146.2,06$GPGGA,121047.00,4611.973443,N,01258.202928,E,1,06,1.7,152.60,M,46.25,M,,*69
$GPGLL,4611.973443,N,01258.202928,E,121047.00,A,A*69
$GPVTG,152.9,T,153.1,M,001.3,N,002.3,K,A*29
$GPGSV,3,1,10,05,14,041,,16,28,309,38,31,31,223,40,18,15,150,*7D
$GPGSV,3,2,10,29,45,072,40,30,56,155,,21,72,172,32,25,18,137,*7B
$GPGSV,3,3,10,03,10,276,37,06,25,275,35,,,,,,,,*7A
$GPGSA,M,3,16,31,29,21,03,06,,,,,,,3.4,1.7,2.9*3C
Trace #29 at position 7.000000
$GPZDA,121047.03,06,10,2011,00,00*61
$GPRMC,121047.00,A,4611.973443,N,01258.202928,E,001.3,152.9,06$GPGGA,121048.00,4611.973220,N,01258.203168,E,1,06,1.7,151.06,M,46.25,M,,*6B
$GPGLL,4611.973220,N,01258.203168,E,121048.00,A,A*68
$GPVTG,229.9,T,230.1,M,000.5,N,000.9,K,A*2F
$GPGSV,3,1,10,05,14,041,,16,28,309,38,31,31,223,40,18,15,150,*7D
$GPGSV,3,2,10,29,45,072,40,30,56,155,,21,72,172,33,25,18,137,*7A
$GPGSV,3,3,10,03,10,276,36,06,25,275,37,,,,,,,,*79
$GPGSA,M,3,16,31,29,21,03,06,,,,,,,3.4,1.7,2.9*3C
Trace #30 at position 7.250000
$GPZDA,121048.04,06,10,2011,00,00*69
$GPRMC,121048.00,A,4611.973220,N,01258.203168,E,000.5,229.9,0605,1.7,149.65,M,46.25,M,,*6F
$GPGLL,4611.973029,N,01258.203358,E,121049.00,A,A*63
$GPVTG,158.5,T,158.7,M,000.8,N,001.5,K,A*2D
$GPGSV,3,1,10,05,14,041,,16,28,309,37,31,31,223,40,18,15,150,*72
$GPGSV,3,2,10,29,45,072,40,30,56,155,,21,72,172,32,25,18,137,*7B
$GPGSV,3,3,10,03,10,276,33,06,25,275,35,,,,,,,,*7E
$GPGSA,M,3,16,31,29,21,06,,,,,,,,4.1,1.7,3.7*32
Trace #31 at position 7.500000
$GPZDA,121048.04,06,10,2011,00,00*69
$GPRMC,121048.00,A,4611.973220,N,01258.203168,E,000.5,229.9,0605,1.7,149.65,M,46.25,M,,*6F
$GPGLL,4611.973029,N,01258.203358,E,121049.00,A,A*63
$GPVTG,158.5,T,158.7,M,000.8,N,001.5,K,A*2D
$GPGSV,3,1,10,05,14,041,,16,28,309,37,31,31,223,40,18,15,150,*72
$GPGSV,3,2,10,29,45,072,40,30,56,155,,21,72,172,32,25,18,137,*7B
$GPGSV,3,3,10,03,10,276,33,06,25,275,35,,,,,,,,*7E
$GPGSA,M,3,16,31,29,21,06,,,,,,,,4.1,1.7,3.7*32
Trace #32 at position 7.750000
$GPZDA,121049.03,06,10,2011,00,00*6F
$GPRMC,121049.00,A,4611.973029,N,01258.203358,E,000.8,158.5,061011,0.2,E,A*3B
$GPGGA,121050.00,4611.972762,N,01$GPGSV,3,1,10,05,14,041,,16,28,309,37,31,31,223,40,18,15,150,*72
$GPGSV,3,2,10,29,45,072,40,30,56,155,,21,72,172,33,25,18,137,*7A
$GPGSV,3,3,10,03,10,276,33,06,25,275,36,,,,,,,,*7D
$GPGSA,M,3,16,31,29,21,03,06,,,,,,,3.4,1.7,2.9*3C
Trace #33 at position 8.000000
$GPZDA,121049.03,06,10,2011,00,00*6F
$GPRMC,121049.00,A,4611.973029,N,01258.203358,E,000.8,158.5,061011,0.2,E,A*3B
$GPGGA,121050.00,4611.972762,N,01$GPGSV,3,1,10,05,14,041,,16,28,309,37,31,31,223,40,18,15,150,*72
$GPGSV,3,2,10,29,45,072,40,30,56,155,,21,72,172,33,25,18,137,*7A
$GPGSV,3,3,10,03,10,276,33,06,25,275,36,,,,,,,,*7D
$GPGSA,M,3,16,31,29,21,03,06,,,,,,,3.4,1.7,2.9*3C
Trace #34 at position 8.250000
$GPZDA,121049.03,06,10,2011,00,00*6F
$GPRMC,121049.00,A,4611.973029,N,01258.203358,E,000.8,158.5,061011,0.2,E,A*3B
$GPGGA,121050.00,4611.972762,N,01$GPGSV,3,1,10,05,14,041,,16,28,309,37,31,31,223,40,18,15,150,*72
$GPGSV,3,2,10,29,45,072,40,30,56,155,,21,72,172,33,25,18,137,*7A
$GPGSV,3,3,10,03,10,276,33,06,25,275,36,,,,,,,,*7D
$GPGSA,M,3,16,31,29,21,03,06,,,,,,,3.4,1.7,2.9*3C
Trace #35 at position 8.500000
$GPZDA,121049.03,06,10,2011,00,00*6F
$GPRMC,121049.00,A,4611.973029,N,01258.203358,E,000.8,158.5,061011,0.2,E,A*3B
$GPGGA,121050.00,4611.972762,N,01$GPGSV,3,1,10,05,14,041,,16,28,309,37,31,31,223,40,18,15,150,*72
$GPGSV,3,2,10,29,45,072,40,30,56,155,,21,72,172,33,25,18,137,*7A
$GPGSV,3,3,10,03,10,276,33,06,25,275,36,,,,,,,,*7D
$GPGSA,M,3,16,31,29,21,03,06,,,,,,,3.4,1.7,2.9*3C
Trace #36 at position 8.750000
$GPZDA,121050.04,06,10,2011,00,00*60
$GPRMC,121050.00,A,4611.972762,N,01258.203661,E,001.1,158.6,061011,0.2,E,A*3E
$GPGGA,121051.00,4611.972483,N,01258.203803,E,1,05,1.7,147.16,M,46.25,M,,*6C
$GPGLL,4611.972483,N,01258.203803,E,121051.00,A,A*6A
$GPVTG,201.3,T,201.4,M,001.0M,3,16,31,29,21,03,,,,,,,,3.5,1.7,3.0*33
$GPZDA,121051.04,06,10,2011,00,00*61
$GPRMC,121051.00,A,4611.972483,N,01258.203803,E,001.0,201.3,061011,0.2,E,A*32
$GPGGA,121052.00,4611.972234,N,01258.203878,E,1,06,1.7,146.13,M,46.25,M,,*6E
$GPGLL,4611.972234,N,01258.203878,E,121052.00,A,A*6F
$GPVTG,182.2,T,182.4,M,000.8,N,001.5,K,A*29
$GPGSV,3,1,10,05,14,041,,16,28,309,39,31,31,223,39,18,15,150,*72
$GPGSV,3,2,10,29,45,072,40,30,56,155,,21,72,172,33,25,18,137,*7A
$GPGSV,3,3,10,03,10,276,34,06,25,275,34,,,,,N,01258.203878,E,000.8,182.2,061011,0.2,E,A*37
$GPGGA,121053.00,4611.972055,N,01258.204005,E,1,06,1.7,145.25,M,46.25,M,,*69
$GPGLL,4611.972055,N,01258.204005,E,121053.00,A,A*6E
$GPVTG,190.7,T,190.9,M,000.4,N,000.8,K,A*21
$GPGSV,3,1,10,05,14,041,,16,28,309,39,31,31,223,39,18,15,150,*72
$GPGSV,3,2,10,29,45,072,41,30,56,155,,21,72,172,34,25,18,137,*7C
$GPGSV,3,3,10,03,10,276,32,06,25,275,34,,,,,,,,*7E
$GPGSA,M,3,16,31,29,21,03,06,,,,,,,3.4,1.7,2.9*3C
Trace #37 at position 9.000000
$GPZDA,121050.04,06,10,2011,00,00*60
$GPRMC,121050.00,A,4611.972762,N,01258.203661,E,001.1,158.6,061011,0.2,E,A*3E
$GPGGA,121051.00,4611.972483,N,01258.203803,E,1,05,1.7,147.16,M,46.25,M,,*6C
$GPGLL,4611.972483,N,01258.203803,E,121051.00,A,A*6A
$GPVTG,201.3,T,201.4,M,001.0M,3,16,31,29,21,03,,,,,,,,3.5,1.7,3.0*33
$GPZDA,121051.04,06,10,2011,00,00*61
$GPRMC,121051.00,A,4611.972483,N,01258.203803,E,001.0,201.3,061011,0.2,E,A*32
$GPGGA,121052.00,4611.972234,N,01258.203878,E,1,06,1.7,146.13,M,46.25,M,,*6E
$GPGLL,4611.972234,N,01258.203878,E,121052.00,A,A*6F
$GPVTG,182.2,T,182.4,M,000.8,N,001.5,K,A*29
$GPGSV,3,1,10,05,14,041,,16,28,309,39,31,31,223,39,18,15,150,*72
$GPGSV,3,2,10,29,45,072,40,30,56,155,,21,72,172,33,25,18,137,*7A
$GPGSV,3,3,10,03,10,276,34,06,25,275,34,,,,,N,01258.203878,E,000.8,182.2,061011,0.2,E,A*37
$GPGGA,121053.00,4611.972055,N,01258.204005,E,1,06,1.7,145.25,M,46.25,M,,*69
$GPGLL,4611.972055,N,01258.204005,E,121053.00,A,A*6E
$GPVTG,190.7,T,190.9,M,000.4,N,000.8,K,A*21
$GPGSV,3,1,10,05,14,041,,16,28,309,39,31,31,223,39,18,15,150,*72
$GPGSV,3,2,10,29,45,072,41,30,56,155,,21,72,172,34,25,18,137,*7C
$GPGSV,3,3,10,03,10,276,32,06,25,275,34,,,,,,,,*7E
$GPGSA,M,3,16,31,29,21,03,06,,,,,,,3.4,1.7,2.9*3C
Trace #38 at position 9.250000
$GPZDA,121053.04,06,10,2011,00,00*63
$GPRMC,121053.$GPGGA,121054.00,4611.971889,N,01258.204271,E,1,06,1.7,144.10,M,46.25,M,,*62
$GPGLL,4611.971889,N,01258.204271,E,121054.00,A,A*62
$GPVTG,135.6,T,135.8,M,000.8,N,001.5,K,A*21
$GPGSV,3,1,10,05,14,041,,16,28,309,38,31,31,223,39,18,15,150,*73
$GPGSV,3,2,10,29,45,072,40,30,56,155,,21,72,172,31,25,18,137,*78
$GPGSV,3,3,10,03,10,276,33,06,25,275,35,,,,,,,,*7E
$GPGSA,M,3,16,31,29,21,03,06,,,,,,,3.4,1.7,2.9*3C
Trace #39 at position 9.500000
$GPZDA,121053.04,06,10,2011,00,00*63
$GPRMC,121053.$GPGGA,121054.00,4611.971889,N,01258.204271,E,1,06,1.7,144.10,M,46.25,M,,*62
$GPGLL,4611.971889,N,01258.204271,E,121054.00,A,A*62
$GPVTG,135.6,T,135.8,M,000.8,N,001.5,K,A*21
$GPGSV,3,1,10,05,14,041,,16,28,309,38,31,31,223,39,18,15,150,*73
$GPGSV,3,2,10,29,45,072,40,30,56,155,,21,72,172,31,25,18,137,*78
$GPGSV,3,3,10,03,10,276,33,06,25,275,35,,,,,,,,*7E
$GPGSA,M,3,16,31,29,21,03,06,,,,,,,3.4,1.7,2.9*3C
Trace #40 at position 9.750000
$GPZDA,121054.04,06,10,2011,00,00*64
$GPRMC,121054.00,A,4611.971889,N,01258.204271,E,000.8,135.6,06$GPGGA,121055.00,4611.971677,N,01258.204609,E,1,06,1.7,142.53,M,46.25,M,,*66
$GPGLL,4611.971677,N,01258.204609,E,121055.00,A,A*67
$GPVTG,152.6,T,152.8,M,000.8,N,001.5,K,A*21
$GPGSV,3,1,10,05,14,041,,16,28,309,39,31,31,223,39,18,15,150,*72
$GPGSV,3,2,10,29,45,072,40,30,56,155,,21,72,172,31,25,18,137,*78
$GPGSV,3,3,10,03,10,276,34,06,25,275,35,,,,,,,,*79
$GPGSA,M,3,16,31,29,21,03,06,,,,,,,3.4,1.7,2.9*3C
Trace #41 at position 10.000000
$GPZDA,121054.04,06,10,2011,00,00*64
$GPRMC,121054.00,A,4611.971889,N,01258.204271,E,000.8,135.6,06$GPGGA,121055.00,4611.971677,N,01258.204609,E,1,06,1.7,142.53,M,46.25,M,,*66
$GPGLL,4611.971677,N,01258.204609,E,121055.00,A,A*67
$GPVTG,152.6,T,152.8,M,000.8,N,001.5,K,A*21
$GPGSV,3,1,10,05,14,041,,16,28,309,39,31,31,223,39,18,15,150,*72
$GPGSV,3,2,10,29,45,072,40,30,56,155,,21,72,172,31,25,18,137,*78
$GPGSV,3,3,10,03,10,276,34,06,25,275,35,,,,,,,,*79
$GPGSA,M,3,16,31,29,21,03,06,,,,,,,3.4,1.7,2.9*3C
Trace #42 at position 10.250000
$GPZDA,121055.04,06,10,2011,00,00*65
$GPRMC,121055.00,A,4611.971677,N,01258.204609,E,000.8,152.6,06$GPGGA,121056.00,4611.971450,N,01258.204948,E,1,06,1.7,140.72,M,46.25,M,,*69
$GPGLL,4611.971450,N,01258.204948,E,121056.00,A,A*69
$GPVTG,142.6,T,142.8,M,001.0,N,001.8,K,A*25
$GPGSV,3,1,10,05,14,041,,16,28,309,38,31,31,223,39,18,15,150,*73
$GPGSV,3,2,10,29,45,072,40,30,56,155,,21,72,172,,25,18,137,*7A
$GPGSV,3,3,10,03,10,276,33,06,25,275,36,,,,,,,,*7D
$GPGSA,M,3,16,31,29,21,03,06,,,,,,,3.4,1.7,2.9*3C
Trace #43 at position 10.500000
$GPZDA,121055.04,06,10,2011,00,00*65
$GPRMC,121055.00,A,4611.971677,N,01258.204609,E,000.8,152.6,06$GPGGA,121056.00,4611.971450,N,01258.204948,E,1,06,1.7,140.72,M,46.25,M,,*69
$GPGLL,4611.971450,N,01258.204948,E,121056.00,A,A*69
$GPVTG,142.6,T,142.8,M,001.0,N,001.8,K,A*25
$GPGSV,3,1,10,05,14,041,,16,28,309,38,31,31,223,39,18,15,150,*73
$GPGSV,3,2,10,29,45,072,40,30,56,155,,21,72,172,,25,18,137,*7A
$GPGSV,3,3,10,03,10,276,33,06,25,275,36,,,,,,,,*7D
$GPGSA,M,3,16,31,29,21,03,06,,,,,,,3.4,1.7,2.9*3C
Trace #44 at position 10.750000
$GPZDA,121055.04,06,10,2011,00,00*65
$GPRMC,121055.00,A,4611.971677,N,01258.204609,E,000.8,152.6,06$GPGGA,121056.00,4611.971450,N,01258.204948,E,1,06,1.7,140.72,M,46.25,M,,*69
$GPGLL,4611.971450,N,01258.204948,E,121056.00,A,A*69
$GPVTG,142.6,T,142.8,M,001.0,N,001.8,K,A*25
$GPGSV,3,1,10,05,14,041,,16,28,309,38,31,31,223,39,18,15,150,*73
$GPGSV,3,2,10,29,45,072,40,30,56,155,,21,72,172,,25,18,137,*7A
$GPGSV,3,3,10,03,10,276,33,06,25,275,36,,,,,,,,*7D
$GPGSA,M,3,16,31,29,21,03,06,,,,,,,3.4,1.7,2.9*3C
Trace #45 at position 11.000000
$GPZDA,121056.03,06,10,2011,00,00*61
$GPRMC,121056.00,A,4611.971450,N,01258.204948,E,001.0,142.6,0610$GPGGA,121057.00,4611.971152,N,01258.205091,E,1,05,1.8,140.91,M,46.25,M,,*62
$GPGLL,4611.971152,N,01258.205091,E,121057.00,A,A*63
$GPVTG,156.6,T,156.8,M,001.2,N,002.3,K,A*2F
$GPGSV,3,1,10,05,14,041,,16,29,309,38,31,31,223,39,18,15,150,*72
$GPGSV,3,2,10,29,45,072,39,30,56,155,,21,72,172,28,25,17,137,*71
$GPGSV,3,3,10,03,10,276,33,06,25,275,34,,,,,,,,*7F
$GPGSA,M,3,16,31,29,03,06,,,,,,,,5.2,1.8,4.8*37
Trace #46 at position 11.250000
$GPZDA,121057.04,06,10,2011,00,00*67
$GPRMC,121057.00,A,4611.971152,N,01258.205091,E,001.2,156.6,0610$GPGGA,121058.00,4611.970832,N,01258.205232,E,1,05,1.8,141.45,M,46.25,M,,*60
$GPGLL,4611.970832,N,01258.205232,E,121058.00,A,A*69
$GPVTG,151.1,T,151.3,M,001.2,N,002.1,K,A*21
$GPGSV,3,1,10,05,14,041,,16,29,309,37,31,31,223,39,18,15,150,*7D
$GPGSV,3,2,10,29,45,072,40,30,56,155,,21,72,172,29,25,17,137,*7E
$GPGSV,3,3,10,03,10,276,33,06,25,275,36,,,,,,,,*7D
$GPGSA,M,3,16,31,29,03,06,,,,,,,,5.2,1.8,4.8*37
Trace #47 at position 11.500000
$GPZDA,121057.04,06,10,2011,00,00*67
$GPRMC,121057.00,A,4611.971152,N,01258.205091,E,001.2,156.6,0610$GPGGA,121058.00,4611.970832,N,01258.205232,E,1,05,1.8,141.45,M,46.25,M,,*60
$GPGLL,4611.970832,N,01258.205232,E,121058.00,A,A*69
$GPVTG,151.1,T,151.3,M,001.2,N,002.1,K,A*21
$GPGSV,3,1,10,05,14,041,,16,29,309,37,31,31,223,39,18,15,150,*7D
$GPGSV,3,2,10,29,45,072,40,30,56,155,,21,72,172,29,25,17,137,*7E
$GPGSV,3,3,10,03,10,276,33,06,25,275,36,,,,,,,,*7D
$GPGSA,M,3,16,31,29,03,06,,,,,,,,5.2,1.8,4.8*37
Trace #48 at position 11.750000
$GPZDA,121058.04,06,10,2011,00,00*68
$GPRMC,121058.00,A,4611.970832,N,01258.205232,E,001.2,151.1,0610,4611.970560,N,01258.205313,E,1,05,1.8,141.85,M,46.25,M,,*65
$GPGLL,4611.970560,N,01258.205313,E,121059.00,A,A*60
$GPVTG,167.8,T,168.0,M,000.8,N,001.6,K,A*2B
$GPGSV,3,1,10,05,14,041,,16,29,309,37,31,31,223,39,18,15,150,*7D
$GPGSV,3,2,10,29,45,072,42,30,56,155,,21,72,172,31,25,17,137,*75
$GPGSV,3,3,10,03,10,276,34,06,25,275,37,,,,,,,,*7B
$GPGSA,M,3,16,31,29,03,06,,,,,,,,5.2,1.8,4.8*37
Trace #49 at position 12.000000
$GPZDA,121058.04,06,10,2011,00,00*68
$GPRMC,121058.00,A,4611.970832,N,01258.205232,E,001.2,151.1,0610,4611.970560,N,01258.205313,E,1,05,1.8,141.85,M,46.25,M,,*65
$GPGLL,4611.970560,N,01258.205313,E,121059.00,A,A*60
$GPVTG,167.8,T,168.0,M,000.8,N,001.6,K,A*2B
$GPGSV,3,1,10,05,14,041,,16,29,309,37,31,31,223,39,18,15,150,*7D
$GPGSV,3,2,10,29,45,072,42,30,56,155,,21,72,172,31,25,17,137,*75
$GPGSV,3,3,10,03,10,276,34,06,25,275,37,,,,,,,,*7B
$GPGSA,M,3,16,31,29,03,06,,,,,,,,5.2,1.8,4.8*37
Trace #50 at position 12.250000
$GPZDA,121059.03,06,10,2011,00,00*6E
$GPRMC,121059.00,A,4611.970560,N,01258.205313,E,000.8,167.8,061011,0.2,E,A*39
$GLL,4611.970321,N,01258.205312,E,121100.00,A,A*6F
$GPVTG,178.8,T,179.0,M,000.7,N,001.4,K,A*28
$GPGSV,3,1,10,05,14,041,,16,29,309,38,31,31,223,39,18,15,150,*72
$GPGSV,3,2,10,29,45,072,41,30,56,155,,21,72,172,32,25,17,137,*75
$GPGSV,3,3,10,03,10,276,34,06,25,275,37,,,,,,,,*7B
$GPGSA,M,3,16,31,29,03,06,,,,,,,,5.2,1.8,4.8*37
Trace #51 at position 12.500000
$GPZDA,121059.03,06,10,2011,00,00*6E
$GPRMC,121059.00,A,4611.970560,N,01258.205313,E,000.8,167.8,061011,0.2,E,A*39
$GLL,4611.970321,N,01258.205312,E,121100.00,A,A*6F
$GPVTG,178.8,T,179.0,M,000.7,N,001.4,K,A*28
$GPGSV,3,1,10,05,14,041,,16,29,309,38,31,31,223,39,18,15,150,*72
$GPGSV,3,2,10,29,45,072,41,30,56,155,,21,72,172,32,25,17,137,*75
$GPGSV,3,3,10,03,10,276,34,06,25,275,37,,,,,,,,*7B
$GPGSA,M,3,16,31,29,03,06,,,,,,,,5.2,1.8,4.8*37
Trace #52 at position 12.750000
$GPZDA,121100.03,06,10,2011,00,00*63
$GPRMC,121100.00,A,4611.970321,N,01258.205312,E,000.7,178.8,061011,0.2,E,A*37
$GPGGA,121101.00,4611.970079,N,01258.205341,E,1,05,1.8,142.45,M,46,163.4,M,000.9,N,001.6,K,A*2B
$GPGSV,3,1,10,05,14,041,,16,29,309,39,31,31,223,39,18,15,150,*73
$GPGSV,3,2,10,29,45,072,41,30,56,155,,21,72,172,31,25,17,137,*76
$GPGSV,3,3,10,03,10,276,33,06,25,275,36,,,,,,,,*7D
$GPGSA,M,3,16,31,29,03,06,,,,,,,,5.2,1.8,4.8*37
Trace #53 at position 13.000000
$GPZDA,121101.03,06,10,2011,00,00*62
$GPRMC,121101.00,A,4611.970079,N,01258.205341,E,000.9,163.2,061011,0.2,E,A*30
$GPGGA,121102.00,4611.969868,N,01258.205408,E,1,05,1.8,142.65,M,46.25,M,,*67
$GPGLL,4611.969868,N,01258.205408,E,121102.00,A,A*6F31,25,17,137,*76
$GPGSV,3,3,10,03,10,276,33,06,25,275,37,,,,,,,,*7C
$GPGSA,M,3,16,31,29,03,06,,,,,,,,5.2,1.8,4.8*37
Trace #54 at position 13.250000
$GPZDA,121101.03,06,10,2011,00,00*62
$GPRMC,121101.00,A,4611.970079,N,01258.205341,E,000.9,163.2,061011,0.2,E,A*30
$GPGGA,121102.00,4611.969868,N,01258.205408,E,1,05,1.8,142.65,M,46.25,M,,*67
$GPGLL,4611.969868,N,01258.205408,E,121102.00,A,A*6F31,25,17,137,*76
$GPGSV,3,3,10,03,10,276,33,06,25,275,37,,,,,,,,*7C
$GPGSA,M,3,16,31,29,03,06,,,,,,,,5.2,1.8,4.8*37
Trace #55 at position 13.500000
$GPZDA,121101.03,06,10,2011,00,00*62
$GPRMC,121101.00,A,4611.970079,N,01258.205341,E,000.9,163.2,061011,0.2,E,A*30
$GPGGA,121102.00,4611.969868,N,01258.205408,E,1,05,1.8,142.65,M,46.25,M,,*67
$GPGLL,4611.969868,N,01258.205408,E,121102.00,A,A*6F31,25,17,137,*76
$GPGSV,3,3,10,03,10,276,33,06,25,275,37,,,,,,,,*7C
$GPGSA,M,3,16,31,29,03,06,,,,,,,,5.2,1.8,4.8*37
Trace #56 at position 13.750000
$GPZDA,121101.03,06,10,2011,00,00*62
$GPRMC,121101.00,A,4611.970079,N,01258.205341,E,000.9,163.2,061011,0.2,E,A*30
$GPGGA,121102.00,4611.969868,N,01258.205408,E,1,05,1.8,142.65,M,46.25,M,,*67
$GPGLL,4611.969868,N,01258.205408,E,121102.00,A,A*6F31,25,17,137,*76
$GPGSV,3,3,10,03,10,276,33,06,25,275,37,,,,,,,,*7C
$GPGSA,M,3,16,31,29,03,06,,,,,,,,5.2,1.8,4.8*37
Trace #57 at position 14.000000
$GPZDA,121102.03,06,10,2011,00,00*61
$GPRMC,121102.00,A,4611.969868,N,01258.205408,E,000.5,162.1,061011,0.2,E,A*37
$GPGGA,121103.00,4611.969646,N,01258.205634,E,1,06,1.7,141.94,M,46.25,M,,*68
$GPGLL,4611.969646,N,01258.205634,E,121103.00,A,A*61
$GPVTG,167.4,T,167.6,M,001.0,N,001.9,K,A*28
$GPGSV,3,1,10,05,14,041,,16,29,309,39,31,31,223,38,18,15,150,*72
$GPGSV,3,2,10,29,45,072,40,30,56,21103.04,06,10,2011,00,00*67
$GPRMC,121103.00,A,4611.969646,N,01258.205634,E,001.0,167.4,061011,0.2,E,A*3D
$GPGGA,121104.00,4611.969393,N,01258.205899,E,1,06,1.7,141.36,M,46.25,M,,*63
$GPGLL,4611.969393,N,01258.205899,E,121104.00,A,A*62
$GPVTG,151.0,T,151.2,M,000.9,N,001.6,K,A*2F
$GPGSV,3,1,10,05,14,041,,16,29,309,38,31,31,223,39,18,15,150,*72
$GPGSV,3,2,10,29,45,072,40,30,56,155,,21,72,171,31,25,17,137,*74
$GPGSV,3,3,10,03,10,276,35,06,25,275,36,,,,,,,,*7B
$GPGSA,M,3,16,31,29,21,03,06,,,,,,,3.4,1.701258.205899,E,000.9,151.0,061011,0.2,E,A*37
Trace #58 at position 14.250000
$GPZDA,121102.03,06,10,2011,00,00*61
$GPRMC,121102.00,A,4611.969868,N,01258.205408,E,000.5,162.1,061011,0.2,E,A*37
$GPGGA,121103.00,4611.969646,N,01258.205634,E,1,06,1.7,141.94,M,46.25,M,,*68
$GPGLL,4611.969646,N,01258.205634,E,121103.00,A,A*61
$GPVTG,167.4,T,167.6,M,001.0,N,001.9,K,A*28
$GPGSV,3,1,10,05,14,041,,16,29,309,39,31,31,223,38,18,15,150,*72
$GPGSV,3,2,10,29,45,072,40,30,56,21103.04,06,10,2011,00,00*67
$GPRMC,121103.00,A,4611.969646,N,01258.205634,E,001.0,167.4,061011,0.2,E,A*3D
$GPGGA,121104.00,4611.969393,N,01258.205899,E,1,06,1.7,141.36,M,46.25,M,,*63
$GPGLL,4611.969393,N,01258.205899,E,121104.00,A,A*62
$GPVTG,151.0,T,151.2,M,000.9,N,001.6,K,A*2F
$GPGSV,3,1,10,05,14,041,,16,29,309,38,31,31,223,39,18,15,150,*72
$GPGSV,3,2,10,29,45,072,40,30,56,155,,21,72,171,31,25,17,137,*74
$GPGSV,3,3,10,03,10,276,35,06,25,275,36,,,,,,,,*7B
$GPGSA,M,3,16,31,29,21,03,06,,,,,,,3.4,1.701258.205899,E,000.9,151.0,061011,0.2,E,A*37
Trace #59 at position 14.500000
$GPGGA,121105.00,4611.969210,N,01258.205106,E,1,04,8.7,148.41,M,46.25,M,,*65
$GPGLL,4611.969210,N,01258.205106,E,121105.00,A,A*66
$GPVTG,168.4,T,168.6,M,000.8,N,001.4,K,A*2C
$GPGSV,3,1,10,05,14,041,,16,29,309,37,31,31,223,39,18,15,150,*7D
$GPGSV,3,2,10,29,45,072,41,30,56,155,,21,72,171,29,25,17,137,*7C
$GPGSV,3,3,10,03,10,276,34,06,25,275,36,,,,,,,,*7A
$GPGSA,M,3,16,31,29,06,,,,,,,,,50.0,8.7,49.3*32
Trace #60 at position 14.750000
$GPGGA,121105.00,4611.969210,N,01258.205106,E,1,04,8.7,148.41,M,46.25,M,,*65
$GPGLL,4611.969210,N,01258.205106,E,121105.00,A,A*66
$GPVTG,168.4,T,168.6,M,000.8,N,001.4,K,A*2C
$GPGSV,3,1,10,05,14,041,,16,29,309,37,31,31,223,39,18,15,150,*7D
$GPGSV,3,2,10,29,45,072,41,30,56,155,,21,72,171,29,25,17,137,*7C
$GPGSV,3,3,10,03,10,276,34,06,25,275,36,,,,,,,,*7A
$GPGSA,M,3,16,31,29,06,,,,,,,,,50.0,8.7,49.3*32
Trace #61 at position 15.000000
$GPZDA,121105.03,06,10,2011,00,00*66
$GPRMC,121105.00,A$GPGGA,121106.00,4611.968946,N,01258.205161,E,1,05,1.8,148.31,M,46.25,M,,*6E
$GPGLL,4611.968946,N,01258.205161,E,121106.00,A,A*6D
$GPVTG,201.1,T,201.3,M,001.0,N,001.8,K,A*29
$GPGSV,3,1,10,05,14,041,,16,29,309,38,31,31,223,39,18,15,150,*72
$GPGSV,3,2,10,29,45,072,41,30,56,155,,21,72,171,32,25,17,137,*76
$GPGSV,3,3,10,03,10,276,33,06,25,275,36,,,,,,,,*7D
$GPGSA,M,3,16,31,29,03,06,,,,,,,,5.2,1.8,4.8*37
Trace #62 at position 15.250000
$GPZDA,121105.03,06,10,2011,00,00*66
$GPRMC,121105.00,A$GPGGA,121106.00,4611.968946,N,01258.205161,E,1,05,1.8,148.31,M,46.25,M,,*6E
$GPGLL,4611.968946,N,01258.205161,E,121106.00,A,A*6D
$GPVTG,201.1,T,201.3,M,001.0,N,001.8,K,A*29
$GPGSV,3,1,10,05,14,041,,16,29,309,38,31,31,223,39,18,15,150,*72
$GPGSV,3,2,10,29,45,072,41,30,56,155,,21,72,171,32,25,17,137,*76
$GPGSV,3,3,10,03,10,276,33,06,25,275,36,,,,,,,,*7D
$GPGSA,M,3,16,31,29,03,06,,,,,,,,5.2,1.8,4.8*37
Trace #63 at position 15.500000
$GPZDA,121106.04,06,10,2011,00,00*62
$GPRMC,121106.00,A,4611.968946,N,01258.205161,E,001.0,201.1,0610$GPGGA,121107.00,4611.968687,N,01258.205189,E,1,05,1.8,148.43,M,46.25,M,,*6E
$GPGLL,4611.968687,N,01258.205189,E,121107.00,A,A*68
$GPVTG,184.7,T,184.8,M,000.7,N,001.4,K,A*2E
$GPGSV,3,1,10,05,14,041,,16,29,309,39,31,31,223,39,18,15,150,*73
$GPGSV,3,2,10,29,45,072,40,30,56,155,,21,72,171,,25,17,137,*76
$GPGSV,3,3,10,03,10,276,33,06,25,275,35,,,,,,,,*7E
$GPGSA,M,3,16,31,29,03,06,,,,,,,,5.2,1.8,4.8*37
Trace #64 at position 15.750000
$GPZDA,121107.03,06,10,2011,00,00*64
$GPRMC,121107.00,A,4611.968687,N,01258.205189,E,000.7,184.7,061011$GPGGA,121108.00,4611.968390,N,01258.205419,E,1,04,8.7,147.74,M,46.25,M,,*62
$GPGLL,4611.968390,N,01258.205419,E,121108.00,A,A*68
$GPVTG,106.2,T,106.4,M,005.9,N,010.8,K,A*20
$GPGSV,3,1,10,05,14,041,,16,29,309,37,31,31,223,39,18,15,150,*7D
$GPGSV,3,2,10,29,45,072,40,30,56,155,,21,72,171,31,25,17,137,*74
$GPGSV,3,3,10,03,10,276,32,06,25,275,34,,,,,,,,*7E
$GPGSA,M,3,16,31,29,06,,,,,,,,,50.2,8.7,49.4*37
Trace #65 at position 16.000000
$GPZDA,121107.03,06,10,2011,00,00*64
$GPRMC,121107.00,A,4611.968687,N,01258.205189,E,000.7,184.7,061011$GPGGA,121108.00,4611.968390,N,01258.205419,E,1,04,8.7,147.74,M,46.25,M,,*62
$GPGLL,4611.968390,N,01258.205419,E,121108.00,A,A*68
$GPVTG,106.2,T,106.4,M,005.9,N,010.8,K,A*20
$GPGSV,3,1,10,05,14,041,,16,29,309,37,31,31,223,39,18,15,150,*7D
$GPGSV,3,2,10,29,45,072,40,30,56,155,,21,72,171,31,25,17,137,*74
$GPGSV,3,3,10,03,10,276,32,06,25,275,34,,,,,,,,*7E
$GPGSA,M,3,16,31,29,06,,,,,,,,,50.2,8.7,49.4*37
Trace #66 at position 16.250000
$GPZDA,121108.04,06,10,2011,00,00*6C
$GPRMC,121108.00,A,4611.968390,N,01258.205419,E,005.9,106.2,0610$GPGGA,121109.00,4611.968020,N,01258.206571,E,1,05,1.8,140.61,M,46.25,M,,*63
$GPGLL,4611.968020,N,01258.206571,E,121109.00,A,A*6D
$GPVTG,161.6,T,161.8,M,001.0,N,001.9,K,A*24
$GPGSV,3,1,10,05,14,041,,16,29,309,39,31,31,223,39,18,15,150,*73
$GPGSV,3,2,10,29,45,072,41,30,56,155,,21,72,171,31,25,17,137,*75
$GPGSV,3,3,10,03,10,276,33,06,25,275,34,,,,,,,,*7F
$GPGSA,M,3,16,31,29,03,06,,,,,,,,5.2,1.8,4.8*37
Trace #67 at position 16.500000
$GPZDA,121108.04,06,10,2011,00,00*6C
$GPRMC,121108.00,A,4611.968390,N,01258.205419,E,005.9,106.2,0610$GPGGA,121109.00,4611.968020,N,01258.206571,E,1,05,1.8,140.61,M,46.25,M,,*63
$GPGLL,4611.968020,N,01258.206571,E,121109.00,A,A*6D
$GPVTG,161.6,T,161.8,M,001.0,N,001.9,K,A*24
$GPGSV,3,1,10,05,14,041,,16,29,309,39,31,31,223,39,18,15,150,*73
$GPGSV,3,2,10,29,45,072,41,30,56,155,,21,72,171,31,25,17,137,*75
$GPGSV,3,3,10,03,10,276,33,06,25,275,34,,,,,,,,*7F
$GPGSA,M,3,16,31,29,03,06,,,,,,,,5.2,1.8,4.8*37
Trace #68 at position 16.750000
$GPZDA,121109.04,06,10,2011,00,00*6D
$GPRMC,121109.00,A,4611.968020,N,01258.206571,E,001.0,161.6,0610$GPGGA,121110.00,4611.967720,N,01258.206641,E,1,05,1.8,141.01,M,46.25,M,,*64
$GPGLL,4611.967720,N,01258.206641,E,121110.00,A,A*6D
$GPVTG,170.9,T,171.1,M,001.2,N,002.3,K,A*28
$GPGSV,3,1,10,05,14,041,,16,29,309,39,31,31,223,39,18,15,150,*73
$GPGSV,3,2,10,29,45,072,41,30,56,155,,21,72,171,32,25,17,137,*76
$GPGSV,3,3,10,03,10,276,34,06,25,275,35,,,,,,,,*79
$GPGSA,M,3,16,31,29,03,06,,,,,,,,5.2,1.8,4.8*37
Trace #69 at position 17.000000
$GPZDA,121109.04,06,10,2011,00,00*6D
$GPRMC,121109.00,A,4611.968020,N,01258.206571,E,001.0,161.6,0610$GPGGA,121110.00,4611.967720,N,01258.206641,E,1,05,1.8,141.01,M,46.25,M,,*64
$GPGLL,4611.967720,N,01258.206641,E,121110.00,A,A*6D
$GPVTG,170.9,T,171.1,M,001.2,N,002.3,K,A*28
$GPGSV,3,1,10,05,14,041,,16,29,309,39,31,31,223,39,18,15,150,*73
$GPGSV,3,2,10,29,45,072,41,30,56,155,,21,72,171,32,25,17,137,*76
$GPGSV,3,3,10,03,10,276,34,06,25,275,35,,,,,,,,*79
$GPGSA,M,3,16,31,29,03,06,,,,,,,,5.2,1.8,4.8*37
Trace #70 at position 17.250000
$GPZDA,121110.03,06,10,2011,00,00*62
$GPRMC,121110.00,A,4611.967720,N,01258.206641,E,001.2,170.9,061005,1.8,141.09,M,46.25,M,,*6F
$GPGLL,4611.967395,N,01258.206759,E,121111.00,A,A*6E
$GPVTG,155.1,T,155.3,M,001.3,N,002.5,K,A*24
$GPGSV,3,1,10,05,14,041,,16,29,309,37,31,31,223,39,18,15,150,*7D
$GPGSV,3,2,10,29,45,072,41,30,55,155,,21,72,171,30,25,17,137,*77
$GPGSV,3,3,10,03,10,276,35,06,25,275,34,,,,,,,,*79
$GPGSA,M,3,16,31,29,03,06,,,,,,,,5.2,1.8,4.8*37
Trace #71 at position 17.500000
$GPZDA,121110.03,06,10,2011,00,00*62
$GPRMC,121110.00,A,4611.967720,N,01258.206641,E,001.2,170.9,061005,1.8,141.09,M,46.25,M,,*6F
$GPGLL,4611.967395,N,01258.206759,E,121111.00,A,A*6E
$GPVTG,155.1,T,155.3,M,001.3,N,002.5,K,A*24
$GPGSV,3,1,10,05,14,041,,16,29,309,37,31,31,223,39,18,15,150,*7D
$GPGSV,3,2,10,29,45,072,41,30,55,155,,21,72,171,30,25,17,137,*77
$GPGSV,3,3,10,03,10,276,35,06,25,275,34,,,,,,,,*79
$GPGSA,M,3,16,31,29,03,06,,,,,,,,5.2,1.8,4.8*37
Trace #72 at position 17.750000
$GPZDA,121111.03,06,10,2011,00,00*63
$GPRMC,121111.00,A,4611.967395,N,01258.206759,E,001.3,155.1,061011,0.2,E,A*35
$GPGGA,121112.00,4611.967138,N,01N,001.5,K,A*24
$GPGSV,3,1,10,05,14,041,,16,29,309,39,31,31,223,39,18,15,150,*73
$GPGSV,3,2,10,29,45,072,41,30,55,155,,21,72,171,32,25,17,137,*75
$GPGSV,3,3,10,03,10,276,34,06,25,275,35,,,,,,,,*79
$GPGSA,M,3,16,31,29,03,06,,,,,,,,5.2,1.8,4.8*37
Trace #73 at position 18.000000
$GPZDA,121111.03,06,10,2011,00,00*63
$GPRMC,121111.00,A,4611.967395,N,01258.206759,E,001.3,155.1,061011,0.2,E,A*35
$GPGGA,121112.00,4611.967138,N,01N,001.5,K,A*24
$GPGSV,3,1,10,05,14,041,,16,29,309,39,31,31,223,39,18,15,150,*73
$GPGSV,3,2,10,29,45,072,41,30,55,155,,21,72,171,32,25,17,137,*75
$GPGSV,3,3,10,03,10,276,34,06,25,275,35,,,,,,,,*79
$GPGSA,M,3,16,31,29,03,06,,,,,,,,5.2,1.8,4.8*37
Trace #74 at position 18.250000
$GPZDA,121112.03,06,10,2011,00,00*60
$GPRMC,121112.00,A,4611.967138,N,01258.206916,E,000.8,151.8,061011,0.2,E,A*31
$GPGGA,121113.00,4611.966983,N,01258.207115,E,1,05,1.8,140.89,M,46.25,M,,*67
$GPGLL,4611.966983,N,01258.207115,E,121113.00,A,A*6F
$GPVTG,116.9,T8,18,15,150,*72
$GPGSV,3,2,10,29,45,072,41,30,55,155,,21,72,171,31,25,17,137,*76
$GPGSV,3,3,10,03,10,276,34,06,25,275,35,,,,,,,,*79
$GPGSA,M,3,16,31,29,03,06,,,,,,,,5.2,1.8,4.8*37
Trace #75 at position 18.500000
$GPZDA,121113.03,06,10,2011,00,00*61
$GPRMC,121113.00,A,4611.966983,N,01258.207115,E,000.9,116.9,061011,0.2,E,A*30
$GPGGA,121114.00,4611.966795,N,01258.207319,E,1,05,1.8,140.18,M,46.25,M,,*6F
$GPGLL,4611.966795,N,01258.207319,E,121114.00,A,A*6F
$GPVTG,151.6,T,151.8,M,001.1,N,002.0,K,A*2F
$GPGSV,3,1,10,05,14,041,,16,29,30925,275,35,,,,,,,,*78
$GPGSA,M,3,16,31,29,03,06,,,,,,,,5.2,1.8,4.8*37
Trace #76 at position 18.750000
$GPZDA,121113.03,06,10,2011,00,00*61
$GPRMC,121113.00,A,4611.966983,N,01258.207115,E,000.9,116.9,061011,0.2,E,A*30
$GPGGA,121114.00,4611.966795,N,01258.207319,E,1,05,1.8,140.18,M,46.25,M,,*6F
$GPGLL,4611.966795,N,01258.207319,E,121114.00,A,A*6F
$GPVTG,151.6,T,151.8,M,001.1,N,002.0,K,A*2F
$GPGSV,3,1,10,05,14,041,,16,29,30925,275,35,,,,,,,,*78
$GPGSA,M,3,16,31,29,03,06,,,,,,,,5.2,1.8,4.8*37
Trace #77 at position 19.000000
$GPZDA,121113.03,06,10,2011,00,00*61
$GPRMC,121113.00,A,4611.966983,N,01258.207115,E,000.9,116.9,061011,0.2,E,A*30
$GPGGA,121114.00,4611.966795,N,01258.207319,E,1,05,1.8,140.18,M,46.25,M,,*6F
$GPGLL,4611.966795,N,01258.207319,E,121114.00,A,A*6F
$GPVTG,151.6,T,151.8,M,001.1,N,002.0,K,A*2F
$GPGSV,3,1,10,05,14,041,,16,29,30925,275,35,,,,,,,,*78
$GPGSA,M,3,16,31,29,03,06,,,,,,,,5.2,1.8,4.8*37
Trace #78 at position 19.250000
$GPZDA,121114.03,06,10,2011,00,00*66
$GPRMC,121114.00,A,4611.966795,N,01258.207319,E,001.1,151.6,061011,0.2,E,A*35
$GPGGA,121115.00,4611.966525,N,01258.207372,E,1,05,1.8,140.05,M,46.25,M,,*66
$GPGLL,4611.966525,N,01258.207372,E,121115.00,A,A*6A
$GPVTG,177.9,T,178.1,M,001.0,N,001.9,K,A*2D
$GPGSV,3,1,10,05,14,041,,16,29,309,40,31,31,223,38,18,15,150,*7C
$GPGSV,3,2,10,29,45,072,41,30,55,155,,21,72,171,30,25,17,137,*77
$GPGSV,3,3,10,08*37
$GPZDA,121115.03,06,10,2011,00,00*67
$GPRMC,121115.00,A,4611.966525,N,01258.207372,E,001.0,177.9,061011,0.2,E,A*3A
$GPGGA,121116.00,4611.966250,N,01258.207468,E,1,05,1.8,139.75,M,46.25,M,,*65
$GPGLL,4611.966250,N,01258.207468,E,121116.00,A,A*60
$GPVTG,146.5,T,146.6,M,001.2,N,002.2,K,A*23
$GPGSV,3,1,10,05,14,041,,16,29,309,40,31,31,223,37,18,15,150,*73
$GPGSV,3,2,10,29,45,072,41,30,55,155,,21,72,171,31,25,17,137,*76
$GPGSV,3,3,10,03,10,276,33,06,25,275,37,,,,,,,,*7C
$GPGSA,M,3,16,31,29,03,06,,,C,121116.00,A,4611.966250,N,01258.207468,E,001.2,146.5,061011,0.2,E,A*3C
Trace #79 at position 19.500000
$GPZDA,121114.03,06,10,2011,00,00*66
$GPRMC,121114.00,A,4611.966795,N,01258.207319,E,001.1,151.6,061011,0.2,E,A*35
$GPGGA,121115.00,4611.966525,N,01258.207372,E,1,05,1.8,140.05,M,46.25,M,,*66
$GPGLL,4611.966525,N,01258.207372,E,121115.00,A,A*6A
$GPVTG,177.9,T,178.1,M,001.0,N,001.9,K,A*2D
$GPGSV,3,1,10,05,14,041,,16,29,309,40,31,31,223,38,18,15,150,*7C
$GPGSV,3,2,10,29,45,072,41,30,55,155,,21,72,171,30,25,17,137,*77
$GPGSV,3,3,10,08*37
$GPZDA,121115.03,06,10,2011,00,00*67
$GPRMC,121115.00,A,4611.966525,N,01258.207372,E,001.0,177.9,061011,0.2,E,A*3A
$GPGGA,121116.00,4611.966250,N,01258.207468,E,1,05,1.8,139.75,M,46.25,M,,*65
$GPGLL,4611.966250,N,01258.207468,E,121116.00,A,A*60
$GPVTG,146.5,T,146.6,M,001.2,N,002.2,K,A*23
$GPGSV,3,1,10,05,14,041,,16,29,309,40,31,31,223,37,18,15,150,*73
$GPGSV,3,2,10,29,45,072,41,30,55,155,,21,72,171,31,25,17,137,*76
$GPGSV,3,3,10,03,10,276,33,06,25,275,37,,,,,,,,*7C
$GPGSA,M,3,16,31,29,03,06,,,C,121116.00,A,4611.966250,N,01258.207468,E,001.2,146.5,061011,0.2,E,A*3C
Trace #80 at position 19.750000
$GPGGA,121117.00,4611.966034,N,01258.207522,E,1,05,1.8,139.70,M,46.25,M,,*6E
$GPGLL,4611.966034,N,01258.207522,E,121117.00,A,A*6E
$GPVTG,204.2,T,204.4,M,000.6,N,001.2,K,A*20
$GPGSV,3,1,10,05,14,041,,16,29,309,40,31,31,223,37,18,15,150,*73
$GPGSV,3,2,10,29,45,072,41,30,55,155,,21,72,171,30,25,17,137,*77
$GPGSV,3,3,10,03,10,276,34,06,25,275,36,,,,,,,,*7A
$GPGSA,M,3,16,31,29,03,06,,,,,,,,5.2,1.8,4.8*37
Trace #81 at position 20.000000
$GPZDA,121117.03,06,10,2011,$GPGGA,121118.00,4611.965738,N,01258.207535,E,1,05,1.8,139.89,M,46.25,M,,*69
$GPGLL,4611.965738,N,01258.207535,E,121118.00,A,A*6F
$GPVTG,166.2,T,166.4,M,001.7,N,003.1,K,A*21
$GPGSV,3,1,10,05,14,041,,16,29,309,39,31,31,223,38,18,15,150,*72
$GPGSV,3,2,10,29,45,072,41,30,55,155,,21,72,171,31,25,17,137,*76
$GPGSV,3,3,10,03,10,276,35,06,25,275,35,,,,,,,,*78
$GPGSA,M,3,16,31,29,03,06,,,,,,,,5.2,1.8,4.8*37
Trace #82 at position 20.250000
$GPZDA,121117.03,06,10,2011,$GPGGA,121118.00,4611.965738,N,01258.207535,E,1,05,1.8,139.89,M,46.25,M,,*69
$GPGLL,4611.965738,N,01258.207535,E,121118.00,A,A*6F
$GPVTG,166.2,T,166.4,M,001.7,N,003.1,K,A*21
$GPGSV,3,1,10,05,14,041,,16,29,309,39,31,31,223,38,18,15,150,*72
$GPGSV,3,2,10,29,45,072,41,30,55,155,,21,72,171,31,25,17,137,*76
$GPGSV,3,3,10,03,10,276,35,06,25,275,35,,,,,,,,*78
$GPGSA,M,3,16,31,29,03,06,,,,,,,,5.2,1.8,4.8*37
Trace #83 at position 20.500000
$GPZDA,121118.04,06,10,2011,00,00*6D
$GPRMC,121118.00,A,4611.965738,N,01258.207535,E,001.7,166.2,0610$GPGGA,121119.00,4611.965414,N,01258.207639,E,1,05,1.8,139.92,M,46.25,M,,*60
$GPGLL,4611.965414,N,01258.207639,E,121119.00,A,A*6C
$GPVTG,167.3,T,167.5,M,000.9,N,001.6,K,A*2B
$GPGSV,3,1,10,05,14,041,,16,29,309,40,31,30,223,37,18,15,150,*72
$GPGSV,3,2,10,29,45,072,41,30,55,155,,21,72,171,32,25,17,137,*75
$GPGSV,3,3,10,03,10,276,35,06,25,275,34,,,,,,,,*79
$GPGSA,M,3,16,31,29,03,06,,,,,,,,5.2,1.8,4.8*37
Trace #84 at position 20.750000
$GPZDA,121118.04,06,10,2011,00,00*6D
$GPRMC,121118.00,A,4611.965738,N,01258.207535,E,001.7,166.2,0610$GPGGA,121119.00,4611.965414,N,01258.207639,E,1,05,1.8,139.92,M,46.25,M,,*60
$GPGLL,4611.965414,N,01258.207639,E,121119.00,A,A*6C
$GPVTG,167.3,T,167.5,M,000.9,N,001.6,K,A*2B
$GPGSV,3,1,10,05,14,041,,16,29,309,40,31,30,223,37,18,15,150,*72
$GPGSV,3,2,10,29,45,072,41,30,55,155,,21,72,171,32,25,17,137,*75
$GPGSV,3,3,10,03,10,276,35,06,25,275,34,,,,,,,,*79
$GPGSA,M,3,16,31,29,03,06,,,,,,,,5.2,1.8,4.8*37
Trace #85 at position 21.000000
$GPZDA,121119.03,06,10,2011,00,00*6B
$GPRMC,121119.00,A,4611.965414,N,01258.207639,E,000.9,167.3,0610$GPGGA,121120.00,4611.965176,N,01258.207811,E,1,05,1.8,140.08,M,46.25,M,,*62
$GPGLL,4611.965176,N,01258.207811,E,121120.00,A,A*63
$GPVTG,143.5,T,143.6,M,001.2,N,002.3,K,A*22
$GPGSV,3,1,10,05,14,041,,16,29,309,40,31,30,223,38,18,15,150,*7D
$GPGSV,3,2,10,29,45,072,40,30,55,155,,21,72,171,31,25,17,137,*77
$GPGSV,3,3,10,03,10,276,35,06,25,275,34,,,,,,,,*79
$GPGSA,M,3,16,31,29,03,06,,,,,,,,5.2,1.8,4.8*37
Trace #86 at position 21.250000
$GPZDA,121119.03,06,10,2011,00,00*6B
$GPRMC,121119.00,A,4611.965414,N,01258.207639,E,000.9,167.3,0610$GPGGA,121120.00,4611.965176,N,01258.207811,E,1,05,1.8,140.08,M,46.25,M,,*62
$GPGLL,4611.965176,N,01258.207811,E,121120.00,A,A*63
$GPVTG,143.5,T,143.6,M,001.2,N,002.3,K,A*22
$GPGSV,3,1,10,05,14,041,,16,29,309,40,31,30,223,38,18,15,150,*7D
$GPGSV,3,2,10,29,45,072,40,30,55,155,,21,72,171,31,25,17,137,*77
$GPGSV,3,3,10,03,10,276,35,06,25,275,34,,,,,,,,*79
$GPGSA,M,3,16,31,29,03,06,,,,,,,,5.2,1.8,4.8*37
Trace #87 at position 21.500000
$GPZDA,121120.03,06,10,2011,00,00*61
$GPRMC,121120.00,A,4611.965176,N,01258.207811,E,001.2,143.5,0610$GPGGA,121121.00,4611.964984,N,01258.207951,E,1,05,1.8,140.10,M,46.25,M,,*6B
$GPGLL,4611.964984,N,01258.207951,E,121121.00,A,A*63
$GPVTG,172.3,T,172.5,M,000.5,N,000.9,K,A*29
$GPGSV,3,1,10,05,14,041,,16,29,309,39,31,30,223,39,18,15,150,*72
$GPGSV,3,2,10,29,45,072,41,30,55,155,,21,72,171,32,25,17,137,*75
$GPGSV,3,3,10,03,10,276,35,06,25,275,36,,,,,,,,*7B
$GPGSA,M,3,16,31,29,03,06,,,,,,,,5.2,1.8,4.8*37
Trace #88 at position 21.750000
$GPZDA,121120.03,06,10,2011,00,00*61
$GPRMC,121120.00,A,4611.965176,N,01258.207811,E,001.2,143.5,0610$GPGGA,121121.00,4611.964984,N,01258.207951,E,1,05,1.8,140.10,M,46.25,M,,*6B
$GPGLL,4611.964984,N,01258.207951,E,121121.00,A,A*63
$GPVTG,172.3,T,172.5,M,000.5,N,000.9,K,A*29
$GPGSV,3,1,10,05,14,041,,16,29,309,39,31,30,223,39,18,15,150,*72
$GPGSV,3,2,10,29,45,072,41,30,55,155,,21,72,171,32,25,17,137,*75
$GPGSV,3,3,10,03,10,276,35,06,25,275,36,,,,,,,,*7B
$GPGSA,M,3,16,31,29,03,06,,,,,,,,5.2,1.8,4.8*37
Trace #89 at position 22.000000
$GPZDA,121121.03,06,10,2011,00,00*60
$GPRMC,121121.00,A,4611.964984,N,01258.207951,E,000.5,172.3,0610$GPGGA,121122.00,4611.964852,N,01258.207974,E,1,05,1.8,140.19,M,46.25,M,,*6C
$GPGLL,4611.964852,N,01258.207974,E,121122.00,A,A*6D
$GPVTG,166.9,T,167.0,M,000.5,N,000.9,K,A*27
$GPGSV,3,1,10,05,14,041,,16,29,309,38,31,30,223,39,18,15,150,*73
$GPGSV,3,2,10,29,45,072,40,30,55,155,,21,72,171,31,25,17,137,*77
$GPGSV,3,3,10,03,10,276,36,06,25,275,36,,,,,,,,*78
$GPGSA,M,3,16,31,29,03,06,,,,,,,,5.2,1.8,4.8*37
Trace #90 at position 22.250000
$GPZDA,121121.03,06,10,2011,00,00*60
$GPRMC,121121.00,A,4611.964984,N,01258.207951,E,000.5,172.3,0610$GPGGA,121122.00,4611.964852,N,01258.207974,E,1,05,1.8,140.19,M,46.25,M,,*6C
$GPGLL,4611.964852,N,01258.207974,E,121122.00,A,A*6D
$GPVTG,166.9,T,167.0,M,000.5,N,000.9,K,A*27
$GPGSV,3,1,10,05,14,041,,16,29,309,38,31,30,223,39,18,15,150,*73
$GPGSV,3,2,10,29,45,072,40,30,55,155,,21,72,171,31,25,17,137,*77
$GPGSV,3,3,10,03,10,276,36,06,25,275,36,,,,,,,,*78
$GPGSA,M,3,16,31,29,03,06,,,,,,,,5.2,1.8,4.8*37
Trace #91 at position 22.500000
$GPZDA,121122.03,06,10,2011,00,00*63
$GPRMC,121122.00,A,4611.964852,N,01258.207974,E,000.5,166.9,0610$GPGGA,121123.00,4611.964720,N,01258.208075,E,1,05,1.8,140.35,M,46.25,M,,*6E
$GPGLL,4611.964720,N,01258.208075,E,121123.00,A,A*61
$GPVTG,131.4,T,131.5,M,000.6,N,001.2,K,A*27
$GPGSV,3,1,10,05,14,041,,16,29,309,38,31,30,223,38,18,15,150,*72
$GPGSV,3,2,10,29,45,072,40,30,55,155,,21,72,171,31,25,17,137,*77
$GPGSV,3,3,10,03,10,276,36,06,25,275,34,,,,,,,,*7A
$GPGSA,M,3,16,31,29,03,06,,,,,,,,5.2,1.8,4.8*37
Trace #92 at position 22.750000
$GPZDA,121122.03,06,10,2011,00,00*63
$GPRMC,121122.00,A,4611.964852,N,01258.207974,E,000.5,166.9,0610$GPGGA,121123.00,4611.964720,N,01258.208075,E,1,05,1.8,140.35,M,46.25,M,,*6E
$GPGLL,4611.964720,N,01258.208075,E,121123.00,A,A*61
$GPVTG,131.4,T,131.5,M,000.6,N,001.2,K,A*27
$GPGSV,3,1,10,05,14,041,,16,29,309,38,31,30,223,38,18,15,150,*72
$GPGSV,3,2,10,29,45,072,40,30,55,155,,21,72,171,31,25,17,137,*77
$GPGSV,3,3,10,03,10,276,36,06,25,275,34,,,,,,,,*7A
$GPGSA,M,3,16,31,29,03,06,,,,,,,,5.2,1.8,4.8*37
Trace #93 at position 23.000000
$GPZDA,121123.04,06,10,2011,00,00*65
$GPRMC,121123.00,A,4611.964720,N,01258.208075,E,000.6,131.4,0610$GPGGA,121124.00,4611.964561,N,01258.208224,E,1,05,1.8,140.49,M,46.25,M,,*63
$GPGLL,4611.964561,N,01258.208224,E,121124.00,A,A*67
$GPVTG,147.7,T,147.8,M,000.8,N,001.5,K,A*20
$GPGSV,3,1,10,05,14,041,,16,29,309,38,31,30,223,39,18,15,150,*73
$GPGSV,3,2,10,29,45,072,40,30,55,155,,21,72,171,32,25,17,137,*74
$GPGSV,3,3,10,03,10,276,36,06,25,275,35,,,,,,,,*7B
$GPGSA,M,3,16,31,29,03,06,,,,,,,,5.2,1.8,4.8*37
Trace #94 at position 23.250000
$GPZDA,121124.03,06,10,2011,00,00*65
$GPRMC,121124.00,A,4611.964561,N,01258.208224,E,000.8,147.7,061046.25,M,,*62
$GPGLL,4611.964315,N,01258.208348,E,121125.00,A,A*68
$GPVTG,160.2,T,160.4,M,001.1,N,002.0,K,A*27
$GPGSV,3,1,10,05,14,041,,16,29,309,39,31,30,223,38,18,15,150,*73
$GPGSV,3,2,10,29,45,072,40,30,55,155,,21,72,171,32,25,17,137,*74
$GPGSV,3,3,10,03,10,276,37,06,25,275,36,,,,,,,,*79
$GPGSA,M,3,16,31,29,03,06,,,,,,,,5.2,1.8,4.8*37
Trace #95 at position 23.500000
$GPZDA,121125.04,06,10,2011,00,00*63
$GPRMC,121125.00,A,4611.964315,N,01258.208348,E,001.1,160.2,061011,0.2,E,A*34
$GPGGA,121126.00,4611.964073,N,01258.208475,E,1,0$GPGSV,3,1,10,05,14,041,,16,29,309,40,31,30,223,39,18,15,150,*7C
$GPGSV,3,2,10,29,45,072,40,30,55,155,,21,72,171,31,25,17,137,*77
$GPGSV,3,3,10,03,10,276,37,06,25,275,36,,,,,,,,*79
$GPGSA,M,3,16,31,29,03,06,,,,,,,,5.2,1.8,4.8*37
Trace #96 at position 23.750000
$GPZDA,121126.03,06,10,2011,00,00*67
$GPRMC,121126.00,A,4611.964073,N,01258.208475,E,000.8,143.0,061011,0.2,E,A*36
$GPGGA,121127.00,4611.963875,N,01258.208624,E,1,05,1.8,140.74,M,46.25,M,,*65
$GPGLL,4611.963875,N,01258.208624,E,121127.00,A,A*6F
$GPVTG,145.0,T,145.2,M,000.8,N,25,275,35,,,,,,,,*78
$GPGSA,M,3,16,31,29,03,06,,,,,,,,5.2,1.8,4.8*37
Trace #97 at position 24.000000
$GPZDA,121126.03,06,10,2011,00,00*67
$GPRMC,121126.00,A,4611.964073,N,01258.208475,E,000.8,143.0,061011,0.2,E,A*36
$GPGGA,121127.00,4611.963875,N,01258.208624,E,1,05,1.8,140.74,M,46.25,M,,*65
$GPGLL,4611.963875,N,01258.208624,E,121127.00,A,A*6F
$GPVTG,145.0,T,145.2,M,000.8,N,25,275,35,,,,,,,,*78
$GPGSA,M,3,16,31,29,03,06,,,,,,,,5.2,1.8,4.8*37
Trace #98 at position 24.250000
$GPZDA,121132.04,06,10,2011,00,00*65
$GPRMC,121132.00,A,4611.962743,N,01258.207414,E,000.9,146.4,0610$GPGGA,121133.00,4611.962609,N,01258.206553,E,1,04,8.9,161.30,M,46.25,M,,*63
$GPGLL,4611.962609,N,01258.206553,E,121133.00,A,A*63
$GPVTG,160.0,T,160.2,M,000.5,N,000.9,K,A*2D
$GPGSV,3,1,10,05,14,041,,16,29,309,40,31,30,223,39,18,15,150,*7C
$GPGSV,3,2,10,29,45,072,39,30,55,155,,21,72,171,31,25,17,137,*79
$GPGSV,3,3,10,03,10,276,28,06,25,275,30,,,,,,,,*71
$GPGSA,M,3,16,31,29,06,,,,,,,,,52.2,8.9,51.4*32
Trace #99 at position 24.500000
$GPZDA,121133.04,06,10,2011,00,00*64
$GPRMC,121133.00,A,4611.962609,N,01258.206553,E,000.5,160.0,0610$GPGGA,121134.00,4611.962531,N,01258.205740,E,1,04,8.9,167.15,M,46.25,M,,*6E
$GPGLL,4611.962531,N,01258.205740,E,121134.00,A,A*6F
$GPVTG,156.7,T,156.8,M,000.4,N,000.7,K,A*2F
$GPGSV,3,1,10,05,14,041,,16,29,309,39,31,30,223,41,18,15,150,*7D
$GPGSV,3,2,10,29,45,072,40,30,55,155,,21,72,171,30,25,17,137,*76
$GPGSV,3,3,10,03,10,276,30,06,25,275,33,,,,,,,,*7B
$GPGSA,M,3,16,31,29,06,,,,,,,,,52.2,8.9,51.4*32
Trace #100 at position 24.750000
$GPZDA,121133.04,06,10,2011,00,00*64
$GPRMC,121133.00,A,4611.962609,N,01258.206553,E,000.5,160.0,0610$GPGGA,121134.00,4611.962531,N,01258.205740,E,1,04,8.9,167.15,M,46.25,M,,*6E
$GPGLL,4611.962531,N,01258.205740,E,121134.00,A,A*6F
$GPVTG,156.7,T,156.8,M,000.4,N,000.7,K,A*2F
$GPGSV,3,1,10,05,14,041,,16,29,309,39,31,30,223,41,18,15,150,*7D
$GPGSV,3,2,10,29,45,072,40,30,55,155,,21,72,171,30,25,17,137,*76
$GPGSV,3,3,10,03,10,276,30,06,25,275,33,,,,,,,,*7B
$GPGSA,M,3,16,31,29,06,,,,,,,,,52.2,8.9,51.4*32
Trace #101 at position 25.000000
$GPZDA,121134.03,06,10,2011,00,00*64
$GPRMC,121134.00,A,4611.962531,N,01258.205740,E,000.4,156.7,0610$GPGGA,121135.00,4611.962499,N,01258.204970,E,1,04,8.9,172.91,M,46.25,M,,*68
$GPGLL,4611.962499,N,01258.204970,E,121135.00,A,A*61
$GPVTG,232.2,T,232.4,M,000.2,N,000.4,K,A*23
$GPGSV,3,1,10,05,14,041,,16,29,309,40,31,30,223,40,18,15,150,*72
$GPGSV,3,2,10,29,45,072,38,30,55,155,,21,72,171,,25,17,137,*7A
$GPGSV,3,3,10,03,10,276,28,06,25,275,33,,,,,,,,*72
$GPGSA,M,3,16,31,29,06,,,,,,,,,52.2,8.9,51.4*32
Trace #102 at position 25.250000
$GPZDA,121134.03,06,10,2011,00,00*64
$GPRMC,121134.00,A,4611.962531,N,01258.205740,E,000.4,156.7,0610$GPGGA,121135.00,4611.962499,N,01258.204970,E,1,04,8.9,172.91,M,46.25,M,,*68
$GPGLL,4611.962499,N,01258.204970,E,121135.00,A,A*61
$GPVTG,232.2,T,232.4,M,000.2,N,000.4,K,A*23
$GPGSV,3,1,10,05,14,041,,16,29,309,40,31,30,223,40,18,15,150,*72
$GPGSV,3,2,10,29,45,072,38,30,55,155,,21,72,171,,25,17,137,*7A
$GPGSV,3,3,10,03,10,276,28,06,25,275,33,,,,,,,,*72
$GPGSA,M,3,16,31,29,06,,,,,,,,,52.2,8.9,51.4*32
Trace #103 at position 25.500000
$GPZDA,121136.03,06,10,2011,00,00*66
$GPRMC,121136.00,A,4611.962489,N,01258.204426,E,000.8,101.9,061011,0.2,E,A*35
$GP
Trace #104 at position 25.750000
$GPVTG,241.6,T,241.8,M,000.2,N,000.4,K,A*2B
$GPGSV,3,1,10,05,14,041,,16,29,309,38,31,30,223,38,18,15,150,*72
$GPGSV,3,2,10,29,45,072,40,30,55,155,,21,72,171,,25,17,137,*75
$GPGSV,3,3,10,03,10,276,30,06,25,275,33,,,,,,,,*7B
$GPGSA,M,3,16,31,29,06,,,,,,,,,52.7,9.0,51.9*32
Trace #105 at position 26.000000
$GPZDA,121137.03,06,10,2011,00,00*67
$GPRMC,121137.00,A,4611.962481,N,01258.203938,E,000.2,241.6,061011,0.2,E,A*3B
$GPGGA,121138.00,4611.962495,N,01258.203470,E,1,04,9.0,184.27,M,46.25,M,,*6F
$GPGLL,4611.962495,N,01258.203470,E,12115,150,*7D
$GPGSV,3,2,10,29,45,072,41,30,55,155,,21,72,171,,25,17,137,*74
$GPGSV,3,3,10,03,10,276,30,06,25,275,34,,,,,,,,*7C
$GPGSA,M,3,16,31,29,06,,,,,,,,,52.7,9.0,51.9*32
Trace #106 at position 26.250000
$GPZDA,121137.03,06,10,2011,00,00*67
$GPRMC,121137.00,A,4611.962481,N,01258.203938,E,000.2,241.6,061011,0.2,E,A*3B
$GPGGA,121138.00,4611.962495,N,01258.203470,E,1,04,9.0,184.27,M,46.25,M,,*6F
$GPGLL,4611.962495,N,01258.203470,E,12115,150,*7D
$GPGSV,3,2,10,29,45,072,41,30,55,155,,21,72,171,,25,17,137,*74
$GPGSV,3,3,10,03,10,276,30,06,25,275,34,,,,,,,,*7C
$GPGSA,M,3,16,31,29,06,,,,,,,,,52.7,9.0,51.9*32
Trace #107 at position 26.500000
$GPZDA,121138.04,06,10,2011,00,00*6F
$GPRMC,121138.00,A,4611.962495,N,01258.203470,E,000.6,88.2,061011,0.2,E,A*07
$GPGGA,121139.00,4611.962438,N,01258.202919,E,1,04,9.0,188.75,M,46.25,M,,*61
$GPGLL,4611.962438,N,01258.202919,E,121139.00,A,A*6F
$GPVTG,230.8,T,230.9,M,001.0,N,001.8,K,A*2A
$GPGSV,3,1,10,05,14,041,,16,29,309,38,31,307,*74
$GPGSV,3,3,10,03,10,276,30,06,25,275,33,,,,,,,,*7B
$GPGSA,M,3,16,31,29,06,,,,,,,,,52.8,9.0,52.1*36
Trace #108 at position 26.750000
$GPZDA,121138.04,06,10,2011,00,00*6F
$GPRMC,121138.00,A,4611.962495,N,01258.203470,E,000.6,88.2,061011,0.2,E,A*07
$GPGGA,121139.00,4611.962438,N,01258.202919,E,1,04,9.0,188.75,M,46.25,M,,*61
$GPGLL,4611.962438,N,01258.202919,E,121139.00,A,A*6F
$GPVTG,230.8,T,230.9,M,001.0,N,001.8,K,A*2A
$GPGSV,3,1,10,05,14,041,,16,29,309,38,31,307,*74
$GPGSV,3,3,10,03,10,276,30,06,25,275,33,,,,,,,,*7B
$GPGSA,M,3,16,31,29,06,,,,,,,,,52.8,9.0,52.1*36
Trace #109 at position 27.000000
$GPZDA,121138.04,06,10,2011,00,00*6F
$GPRMC,121138.00,A,4611.962495,N,01258.203470,E,000.6,88.2,061011,0.2,E,A*07
$GPGGA,121139.00,4611.962438,N,01258.202919,E,1,04,9.0,188.75,M,46.25,M,,*61
$GPGLL,4611.962438,N,01258.202919,E,121139.00,A,A*6F
$GPVTG,230.8,T,230.9,M,001.0,N,001.8,K,A*2A
$GPGSV,3,1,10,05,14,041,,16,29,309,38,31,307,*74
$GPGSV,3,3,10,03,10,276,30,06,25,275,33,,,,,,,,*7B
$GPGSA,M,3,16,31,29,06,,,,,,,,,52.8,9.0,52.1*36
Trace #110 at position 27.250000
$GPZDA,121138.04,06,10,2011,00,00*6F
$GPRMC,121138.00,A,4611.962495,N,01258.203470,E,000.6,88.2,061011,0.2,E,A*07
$GPGGA,121139.00,4611.962438,N,01258.202919,E,1,04,9.0,188.75,M,46.25,M,,*61
$GPGLL,4611.962438,N,01258.202919,E,121139.00,A,A*6F
$GPVTG,230.8,T,230.9,M,001.0,N,001.8,K,A*2A
$GPGSV,3,1,10,05,14,041,,16,29,309,38,31,307,*74
$GPGSV,3,3,10,03,10,276,30,06,25,275,33,,,,,,,,*7B
$GPGSA,M,3,16,31,29,06,,,,,,,,,52.8,9.0,52.1*36
Trace #111 at position 27.500000
$GPZDA,121138.04,06,10,2011,00,00*6F
$GPRMC,121138.00,A,4611.962495,N,01258.203470,E,000.6,88.2,061011,0.2,E,A*07
$GPGGA,121139.00,4611.962438,N,01258.202919,E,1,04,9.0,188.75,M,46.25,M,,*61
$GPGLL,4611.962438,N,01258.202919,E,121139.00,A,A*6F
$GPVTG,230.8,T,230.9,M,001.0,N,001.8,K,A*2A
$GPGSV,3,1,10,05,14,041,,16,29,309,38,31,307,*74
