Trace #1 at position 0.000000
$GPZDA,082503.03,09,10,2011,00,00*63
$GPRMC,082503.00,A,4611.953343,N,01258.226398,E,000.0,30.2,091011,0.2,E,A*01
$GPGGA,082504.00,4611.953296,N,01258.226424,E,1,04,4.0,141.35,M,46.25,M,,*6A
$GPGLL,4611.953296,N,01258.226424,E,082504.00,A,A*68
$GPVTG,130.6,T,130.7,M,000.1,N,000.2,K,A*21
$GPGSV,2,1,08,02,36,095,46,04,20,048,35,09,32,147,43,12,67,056,43*7C
$GPGSV,2,2,08,14,35,268,35,25,67,303,,29,38,216,38,30,22,283,34*7D
$GPGSA,M,3,02,09,12,29,,,,,,,,,9.1,4.0,8.2*3B
Trace #2 at position 0.250000
$GPZDA,082505.04,09,10,2011,00,00*62
$GPRMC,082505.00,A,4611.953343,N,01258.226407,E,000.1,62.0,091011,0.2,E,A*02
$GPGGA,082506.00,4611.953387,N,01258.226379,E,1,05,1.6,140.89,M,46.25,M,,*62
$GPGLL,4611.953387,N,01258.226379,E,082506.00,A,A*64
$GPVTG,181.9,T,182.1,M,000.0,N,000.1,K,A*29
$GPGSV,2,1,08,02,36,095,45,04,20,048,43,09,32,147,46,12,67,056,46*7E
$GPGSV,2,2,08,14,35,267,38,25,67,303,,29,38,216,44,30,22,283,33*73
$GPGSA,M,3,02,04,09,12,29,,,,,,,,3.0,1.6,2.5*3A
Trace #3 at position 0.500000
$GPZDA,082506.03,09,10,2011,00,00*66
$GPRMC,082506.00,A,4611.953387,N,01258.226379,E,000.0,181.9,091011,0.2,E,A*33
$GPGGA,082507.00,4611.953400,N,01258.226357,E,1,05,1.6,140.72,M,46.25,M,,*63
$GPGLL,4611.953400,N,01258.226357,E,082507.00,A,A*61
$GPVTG,156.3,T,156.4,M,000.2,N,000.3,K,A*25
$GPGSV,2,1,08,02,36,095,44,04,20,048,44,09,32,147,44,12,67,056,46*7A
$GPGSV,2,2,08,14,35,267,37,25,67,303,,29,38,216,45,30,22,283,28*77
$GPGSA,M,3,02,04,09,12,29,,,,,,,,3.0,1.6,2.5*3A
Trace #4 at position 0.750000
$GPZDA,082507.03,09,10,2011,00,00*67
$GPRMC,082507.00,A,4611.953400,N,01258.226357,E,000.2,156.3,091011,0.2,E,A*34
$GPGGA,082508.00,4611.953416,N,01258.226340,E,1,05,1.6,140.59,M,46.25,M,,*64
$GPGLL,4611.953416,N,01258.226340,E,082508.00,A,A*6F
$GPVTG,133.8,T,134.0,M,000.0,N,000.1,K,A*2D
$GPGSV,2,1,08,02,36,095,44,04,20,048,41,09,32,147,45,12,67,056,42*7A
$GPGSV,2,2,08,14,35,267,37,25,67,303,38,29,38,216,45,30,22,283,25*71
$GPGSA,M,3,02,04,09,12,29,,,,,,,,3.0,1.6,2.5*3A
Trace #5 at position 1.000000
$GPZDA,082507.03,09,10,2011,00,00*67
$GPRMC,082507.00,A,4611.953400,N,01258.226357,E,000.2,156.3,091011,0.2,E,A*34
$GPGGA,082508.00,4611.953416,N,01258.226340,E,1,05,1.6,140.59,M,46.25,M,,*64
$GPGLL,4611.953416,N,01258.226340,E,082508.00,A,A*6F
$GPVTG,133.8,T,134.0,M,000.0,N,000.1,K,A*2D
$GPGSV,2,1,08,02,36,095,44,04,20,048,41,09,32,147,45,12,67,056,42*7A
$GPGSV,2,2,08,14,35,267,37,25,67,303,38,29,38,216,45,30,22,283,25*71
$GPGSA,M,3,02,04,09,12,29,,,,,,,,3.0,1.6,2.5*3A
Trace #6 at position 1.250000
$GPZDA,082508.04,09,10,2011,00,00*6F
$GPRMC,082508.00,A,4611.953416,N,01258.226340,E,000.0,133.8,091011,0.2,E,A*30
$GPGGA,082509.00,4611.953452,N,01258.226310,E,1,05,1.6,140.50,M,46.25,M,,*69
$GPGLL,4611.953452,N,01258.226310,E,082509.00,A,A*6B
$GPVTG,264.3,T,264.4,M,000.0,N,000.0,K,A*24
$GPGSV,2,1,08,02,36,095,44,04,20,048,41,09,32,147,45,12,67,056,42*7A
$GPGSV,2,2,08,14,35,267,38,25,67,303,39,29,38,216,46,30,22,283,25*7C
$GPGSA,M,3,02,04,09,12,29,,,,,,,,3.0,1.6,2.5*3A
Trace #7 at position 1.500000
$GPZDA,082508.04,09,10,2011,00,00*6F
$GPRMC,082508.00,A,4611.953416,N,01258.226340,E,000.0,133.8,091011,0.2,E,A*30
$GPGGA,082509.00,4611.953452,N,01258.226310,E,1,05,1.6,140.50,M,46.25,M,,*69
$GPGLL,4611.953452,N,01258.226310,E,082509.00,A,A*6B
$GPVTG,264.3,T,264.4,M,000.0,N,000.0,K,A*24
$GPGSV,2,1,08,02,36,095,44,04,20,048,41,09,32,147,45,12,67,056,42*7A
$GPGSV,2,2,08,14,35,267,38,25,67,303,39,29,38,216,46,30,22,283,25*7C
$GPGSA,M,3,02,04,09,12,29,,,,,,,,3.0,1.6,2.5*3A
Trace #8 at position 1.750000
$GPZDA,082508.04,09,10,2011,00,00*6F
$GPRMC,082508.00,A,4611.953416,N,01258.226340,E,000.0,133.8,091011,0.2,E,A*30
$GPGGA,082509.00,4611.953452,N,01258.226310,E,1,05,1.6,140.50,M,46.25,M,,*69
$GPGLL,4611.953452,N,01258.226310,E,082509.00,A,A*6B
$GPVTG,264.3,T,264.4,M,000.0,N,000.0,K,A*24
$GPGSV,2,1,08,02,36,095,44,04,20,048,41,09,32,147,45,12,67,056,42*7A
$GPGSV,2,2,08,14,35,267,38,25,67,303,39,29,38,216,46,30,22,283,25*7C
$GPGSA,M,3,02,04,09,12,29,,,,,,,,3.0,1.6,2.5*3A
Trace #9 at position 2.000000
$GPZDA,082509.03,09,10,2011,00,00*69
$GPRMC,082509.00,A,4611.953452,N,01258.226310,E,000.0,264.3,091011,0.2,E,A*3E
$GPGGA,082510.00,4611.953486,N,01258.226274,E,1,05,1.6,140.43,M,46.25,M,,*69
$GPGLL,4611.953486,N,01258.226274,E,082510.00,A,A*69
$GPVTG,255.2,T,255.3,M,000.0,N,000.0,K,A*22
$GPGSV,2,1,08,02,36,095,44,04,20,048,40,09,32,147,45,12,67,056,42*7B
$GPGSV,2,2,08,14,35,267,38,25,67,303,39,29,38,216,45,30,22,283,26*7C
$GPGSA,M,3,02,04,09,12,29,,,,,,,,3.0,1.6,2.5*3A
Trace #10 at position 2.250000
$GPZDA,082509.03,09,10,2011,00,00*69
$GPRMC,082509.00,A,4611.953452,N,01258.226310,E,000.0,264.3,091011,0.2,E,A*3E
$GPGGA,082510.00,4611.953486,N,01258.226274,E,1,05,1.6,140.43,M,46.25,M,,*69
$GPGLL,4611.953486,N,01258.226274,E,082510.00,A,A*69
$GPVTG,255.2,T,255.3,M,000.0,N,000.0,K,A*22
$GPGSV,2,1,08,02,36,095,44,04,20,048,40,09,32,147,45,12,67,056,42*7B
$GPGSV,2,2,08,14,35,267,38,25,67,303,39,29,38,216,45,30,22,283,26*7C
$GPGSA,M,3,02,04,09,12,29,,,,,,,,3.0,1.6,2.5*3A
Trace #11 at position 2.500000
$GPZDA,082509.03,09,10,2011,00,00*69
$GPRMC,082509.00,A,4611.953452,N,01258.226310,E,000.0,264.3,091011,0.2,E,A*3E
$GPGGA,082510.00,4611.953486,N,01258.226274,E,1,05,1.6,140.43,M,46.25,M,,*69
$GPGLL,4611.953486,N,01258.226274,E,082510.00,A,A*69
$GPVTG,255.2,T,255.3,M,000.0,N,000.0,K,A*22
$GPGSV,2,1,08,02,36,095,44,04,20,048,40,09,32,147,45,12,67,056,42*7B
$GPGSV,2,2,08,14,35,267,38,25,67,303,39,29,38,216,45,30,22,283,26*7C
$GPGSA,M,3,02,04,09,12,29,,,,,,,,3.0,1.6,2.5*3A
Trace #12 at position 2.750000
$GPZDA,082510.03,09,10,2011,00,00*61
$GPRMC,082510.00,A,4611.953486,N,01258.226274,E,000.0,255.2,091011,0.2,E,A*3F
$GPGGA,082511.00,4611.953511,N,01258.226254,E,1,05,1.6,140.37,M,46.25,M,,*66
$GPGLL,4611.953511,N,01258.226254,E,082511.00,A,A*65
$GPVTG,131.8,T,131.9,M,000.1,N,000.1,K,A*22
$GPGSV,2,1,08,02,36,095,43,04,20,048,39,09,32,147,45,12,67,056,42*72
$GPGSV,2,2,08,14,35,267,38,25,67,303,39,29,38,216,46,30,22,283,26*7F
$GPGSA,M,3,02,04,09,12,29,,,,,,,,3.0,1.6,2.5*3A
Trace #13 at position 3.000000
$GPZDA,082510.03,09,10,2011,00,00*61
$GPRMC,082510.00,A,4611.953486,N,01258.226274,E,000.0,255.2,091011,0.2,E,A*3F
$GPGGA,082511.00,4611.953511,N,01258.226254,E,1,05,1.6,140.37,M,46.25,M,,*66
$GPGLL,4611.953511,N,01258.226254,E,082511.00,A,A*65
$GPVTG,131.8,T,131.9,M,000.1,N,000.1,K,A*22
$GPGSV,2,1,08,02,36,095,43,04,20,048,39,09,32,147,45,12,67,056,42*72
$GPGSV,2,2,08,14,35,267,38,25,67,303,39,29,38,216,46,30,22,283,26*7F
$GPGSA,M,3,02,04,09,12,29,,,,,,,,3.0,1.6,2.5*3A
Trace #14 at position 3.250000
$GPZDA,082511.03,09,10,2011,00,00*60
$GPRMC,082511.00,A,4611.953511,N,01258.226254,E,000.1,131.8,091011,0.2,E,A*39
$GPGGA,082512.00,4611.953568,N,01258.226253,E,1,06,1.4,140.31,M,46.25,M,,*6B
$GPGLL,4611.953568,N,01258.226253,E,082512.00,A,A*6F
$GPVTG,342.0,T,342.2,M,000.4,N,000.8,K,A*2D
$GPGSV,2,1,08,02,36,095,44,04,20,04A
$GPGSV,2,2,08,14,35,267,38,25,67,303,40,29,38,216,44,30,22,283,30*74
$GPGSA,M,3,02,04,09,12,25,29,,,,,,,2.8,1.4,2.4*37
Trace #15 at position 3.500000
$GPZDA,082511.03,09,10,2011,00,00*60
$GPRMC,082511.00,A,4611.953511,N,01258.226254,E,000.1,131.8,091011,0.2,E,A*39
$GPGGA,082512.00,4611.953568,N,01258.226253,E,1,06,1.4,140.31,M,46.25,M,,*6B
$GPGLL,4611.953568,N,01258.226253,E,082512.00,A,A*6F
$GPVTG,342.0,T,342.2,M,000.4,N,000.8,K,A*2D
$GPGSV,2,1,08,02,36,095,44,04,20,04A
$GPGSV,2,2,08,14,35,267,38,25,67,303,40,29,38,216,44,30,22,283,30*74
$GPGSA,M,3,02,04,09,12,25,29,,,,,,,2.8,1.4,2.4*37
Trace #16 at position 3.750000
$GPZDA,082511.03,09,10,2011,00,00*60
$GPRMC,082511.00,A,4611.953511,N,01258.226254,E,000.1,131.8,091011,0.2,E,A*39
$GPGGA,082512.00,4611.953568,N,01258.226253,E,1,06,1.4,140.31,M,46.25,M,,*6B
$GPGLL,4611.953568,N,01258.226253,E,082512.00,A,A*6F
$GPVTG,342.0,T,342.2,M,000.4,N,000.8,K,A*2D
$GPGSV,2,1,08,02,36,095,44,04,20,04A
$GPGSV,2,2,08,14,35,267,38,25,67,303,40,29,38,216,44,30,22,283,30*74
$GPGSA,M,3,02,04,09,12,25,29,,,,,,,2.8,1.4,2.4*37
Trace #17 at position 4.000000
$GPZDA,082511.03,09,10,2011,00,00*60
$GPRMC,082511.00,A,4611.953511,N,01258.226254,E,000.1,131.8,091011,0.2,E,A*39
$GPGGA,082512.00,4611.953568,N,01258.226253,E,1,06,1.4,140.31,M,46.25,M,,*6B
$GPGLL,4611.953568,N,01258.226253,E,082512.00,A,A*6F
$GPVTG,342.0,T,342.2,M,000.4,N,000.8,K,A*2D
$GPGSV,2,1,08,02,36,095,44,04,20,04A
$GPGSV,2,2,08,14,35,267,38,25,67,303,40,29,38,216,44,30,22,283,30*74
$GPGSA,M,3,02,04,09,12,25,29,,,,,,,2.8,1.4,2.4*37
Trace #18 at position 4.250000
$GPZDA,082511.03,09,10,2011,00,00*60
$GPRMC,082511.00,A,4611.953511,N,01258.226254,E,000.1,131.8,091011,0.2,E,A*39
$GPGGA,082512.00,4611.953568,N,01258.226253,E,1,06,1.4,140.31,M,46.25,M,,*6B
$GPGLL,4611.953568,N,01258.226253,E,082512.00,A,A*6F
$GPVTG,342.0,T,342.2,M,000.4,N,000.8,K,A*2D
$GPGSV,2,1,08,02,36,095,44,04,20,04A
$GPGSV,2,2,08,14,35,267,38,25,67,303,40,29,38,216,44,30,22,283,30*74
$GPGSA,M,3,02,04,09,12,25,29,,,,,,,2.8,1.4,2.4*37
Trace #19 at position 4.500000
$GPZDA,082512.04,09,10,2011,00,00*64
$GPRMC,082512.00,A,4611.953568,N,01258.226253,E,000.4,342.0,091011,0.2,E,A*38
$GPGGA,082513.00,4611.953730,N,01258.226202,E,1,06,1.4,140.23,M,46.25,M,,*62
$GPGLL,4611.953730,N,01258.226202,E,082513.00,A,A*65
$GPVTG,345.6,T,345.7,M,000.7,N,001.4,K,A*20
$GPGSV,2,1,08,02,36,095,46,04,20,048,42,09,32,147,45,12,67,056,45*7C
$GPGSV,2,2,08,14,35,267,,2.8,1.4,2.4*37
$GPZDA,082513.04,09,10,2011,00,00*65
$GPRMC,082513.00,A,4611.953730,N,01258.226202,E,000.7,345.6,091011,0.2,E,A*30
$GPGGA,082514.00,4611.953909,N,01258.226087,E,1,06,1.4,140.19,M,46.25,M,,*67
$GPGLL,4611.953909,N,01258.226087,E,082514.00,A,A*69
$GPVTG,316.1,T,316.2,M,000.8,N,001.4,K,A*2D
$GPGSV,2,1,08,02,36,095,45,04,19,048,40,09,32,147,44,12,67,056,44*77
$GPGSV,2,2,08,14,35,267,36,25,67,303,44,29,38,216,45,30,22,283,31*7E
$GPGSA,M,3,02,04,09,12,25,29,,,,,,,2.8,1.4,2.4*37
Trace #20 at position 4.750000
$GPZDA,082512.04,09,10,2011,00,00*64
$GPRMC,082512.00,A,4611.953568,N,01258.226253,E,000.4,342.0,091011,0.2,E,A*38
$GPGGA,082513.00,4611.953730,N,01258.226202,E,1,06,1.4,140.23,M,46.25,M,,*62
$GPGLL,4611.953730,N,01258.226202,E,082513.00,A,A*65
$GPVTG,345.6,T,345.7,M,000.7,N,001.4,K,A*20
$GPGSV,2,1,08,02,36,095,46,04,20,048,42,09,32,147,45,12,67,056,45*7C
$GPGSV,2,2,08,14,35,267,,2.8,1.4,2.4*37
$GPZDA,082513.04,09,10,2011,00,00*65
$GPRMC,082513.00,A,4611.953730,N,01258.226202,E,000.7,345.6,091011,0.2,E,A*30
$GPGGA,082514.00,4611.953909,N,01258.226087,E,1,06,1.4,140.19,M,46.25,M,,*67
$GPGLL,4611.953909,N,01258.226087,E,082514.00,A,A*69
$GPVTG,316.1,T,316.2,M,000.8,N,001.4,K,A*2D
$GPGSV,2,1,08,02,36,095,45,04,19,048,40,09,32,147,44,12,67,056,44*77
$GPGSV,2,2,08,14,35,267,36,25,67,303,44,29,38,216,45,30,22,283,31*7E
$GPGSA,M,3,02,04,09,12,25,29,,,,,,,2.8,1.4,2.4*37
Trace #21 at position 5.000000
$GPZDA,082512.04,09,10,2011,00,00*64
$GPRMC,082512.00,A,4611.953568,N,01258.226253,E,000.4,342.0,091011,0.2,E,A*38
$GPGGA,082513.00,4611.953730,N,01258.226202,E,1,06,1.4,140.23,M,46.25,M,,*62
$GPGLL,4611.953730,N,01258.226202,E,082513.00,A,A*65
$GPVTG,345.6,T,345.7,M,000.7,N,001.4,K,A*20
$GPGSV,2,1,08,02,36,095,46,04,20,048,42,09,32,147,45,12,67,056,45*7C
$GPGSV,2,2,08,14,35,267,,2.8,1.4,2.4*37
$GPZDA,082513.04,09,10,2011,00,00*65
$GPRMC,082513.00,A,4611.953730,N,01258.226202,E,000.7,345.6,091011,0.2,E,A*30
$GPGGA,082514.00,4611.953909,N,01258.226087,E,1,06,1.4,140.19,M,46.25,M,,*67
$GPGLL,4611.953909,N,01258.226087,E,082514.00,A,A*69
$GPVTG,316.1,T,316.2,M,000.8,N,001.4,K,A*2D
$GPGSV,2,1,08,02,36,095,45,04,19,048,40,09,32,147,44,12,67,056,44*77
$GPGSV,2,2,08,14,35,267,36,25,67,303,44,29,38,216,45,30,22,283,31*7E
$GPGSA,M,3,02,04,09,12,25,29,,,,,,,2.8,1.4,2.4*37
Trace #22 at position 5.250000
$GPZDA,082611.953909,N,01258.226087,E,000.8,316.1,091011,0.2,E,A*32
$GPGGA,082515.00,4611.954174,N,01258.225946,E,1,06,1.4,140.14,M,46.25,M,,*69
$GPGLL,4611.954174,N,01258.225946,E,082515.00,A,A*6A
$GPVTG,345.4,T,345.5,M,001.4,N,002.5,K,A*20
$GPGSV,2,1,08,02,36,095,44,04,19,048,38,09,32,147,42,12,67,056,45*7E
$GPGSV,2,2,08,14,35,267,37,25,67,303,45,29,38,216,45,30,22,283,27*79
$GPGSA,M,3,02,04,09,12,25,29,,,,,,,2.8,1.4,2.4*37
Trace #23 at position 5.500000
$GPZDA,082611.953909,N,01258.226087,E,000.8,316.1,091011,0.2,E,A*32
$GPGGA,082515.00,4611.954174,N,01258.225946,E,1,06,1.4,140.14,M,46.25,M,,*69
$GPGLL,4611.954174,N,01258.225946,E,082515.00,A,A*6A
$GPVTG,345.4,T,345.5,M,001.4,N,002.5,K,A*20
$GPGSV,2,1,08,02,36,095,44,04,19,048,38,09,32,147,42,12,67,056,45*7E
$GPGSV,2,2,08,14,35,267,37,25,67,303,45,29,38,216,45,30,22,283,27*79
$GPGSA,M,3,02,04,09,12,25,29,,,,,,,2.8,1.4,2.4*37
Trace #24 at position 5.750000
$GPZDA,082611.953909,N,01258.226087,E,000.8,316.1,091011,0.2,E,A*32
$GPGGA,082515.00,4611.954174,N,01258.225946,E,1,06,1.4,140.14,M,46.25,M,,*69
$GPGLL,4611.954174,N,01258.225946,E,082515.00,A,A*6A
$GPVTG,345.4,T,345.5,M,001.4,N,002.5,K,A*20
$GPGSV,2,1,08,02,36,095,44,04,19,048,38,09,32,147,42,12,67,056,45*7E
$GPGSV,2,2,08,14,35,267,37,25,67,303,45,29,38,216,45,30,22,283,27*79
$GPGSA,M,3,02,04,09,12,25,29,,,,,,,2.8,1.4,2.4*37
Trace #25 at position 6.000000
$GPZDA,082515.03,09,10,2011,00,00*64
$GPRMC,082515.00,A,4611.954174,N,01258.225946,E$GPGGA,082516.00,4611.954549,N,01258.225867,E,1,06,1.4,140.04,M,46.25,M,,*63
$GPGLL,4611.954549,N,01258.225867,E,082516.00,A,A*61
$GPVTG,353.6,T,353.7,M,001.3,N,002.5,K,A*27
$GPGSV,2,1,08,02,36,095,42,04,19,048,38,09,32,147,44,12,67,056,41*7A
$GPGSV,2,2,08,14,35,267,37,25,67,303,43,29,38,216,46,30,22,283,32*78
$GPGSA,M,3,02,04,09,12,25,29,,,,,,,2.8,1.4,2.4*37
Trace #26 at position 6.250000
$GPZDA,082515.03,09,10,2011,00,00*64
$GPRMC,082515.00,A,4611.954174,N,01258.225946,E$GPGGA,082516.00,4611.954549,N,01258.225867,E,1,06,1.4,140.04,M,46.25,M,,*63
$GPGLL,4611.954549,N,01258.225867,E,082516.00,A,A*61
$GPVTG,353.6,T,353.7,M,001.3,N,002.5,K,A*27
$GPGSV,2,1,08,02,36,095,42,04,19,048,38,09,32,147,44,12,67,056,41*7A
$GPGSV,2,2,08,14,35,267,37,25,67,303,43,29,38,216,46,30,22,283,32*78
$GPGSA,M,3,02,04,09,12,25,29,,,,,,,2.8,1.4,2.4*37
Trace #27 at position 6.500000
$GPZDA,082515.03,09,10,2011,00,00*64
$GPRMC,082515.00,A,4611.954174,N,01258.225946,E$GPGGA,082516.00,4611.954549,N,01258.225867,E,1,06,1.4,140.04,M,46.25,M,,*63
$GPGLL,4611.954549,N,01258.225867,E,082516.00,A,A*61
$GPVTG,353.6,T,353.7,M,001.3,N,002.5,K,A*27
$GPGSV,2,1,08,02,36,095,42,04,19,048,38,09,32,147,44,12,67,056,41*7A
$GPGSV,2,2,08,14,35,267,37,25,67,303,43,29,38,216,46,30,22,283,32*78
$GPGSA,M,3,02,04,09,12,25,29,,,,,,,2.8,1.4,2.4*37
Trace #28 at position 6.750000
$GPZDA,082516.03,09,10,2011,00,00*67
$GPRMC,082516.00,A,4611.954549,N,01258.225867,E,001.3,353.6,091011,0.2,E,A*36
$GPGGA,082517.00,4611.954852,N,01258.225666,E,1,06,1.4,140.15,M,46.25,M,,*6A
$GPGLL,4611.954852,N,01258.225666,E,082517.00,A,A*68
$GPVTG,310.1,T,310.3,M,001.3,N,002.4,K,A*25
$GPGSV,2,1,08,02,36,095,43,04,19,048,37,09,32,147,44,12,67,056,41*74
$GPGSV,2,2,08,14,35,267,38,25,67,303,42,29,38,216,47,30,22,283,30*75
$GPGSA,M,3,02,04,09,12,25,29,,,,,,,2.8,1.4,2.4*37
Trace #29 at position 7.000000
$GPZDA,082516.03,09,10,2011,00,00*67
$GPRMC,082516.00,A,4611.954549,N,01258.225867,E,001.3,353.6,091011,0.2,E,A*36
$GPGGA,082517.00,4611.954852,N,01258.225666,E,1,06,1.4,140.15,M,46.25,M,,*6A
$GPGLL,4611.954852,N,01258.225666,E,082517.00,A,A*68
$GPVTG,310.1,T,310.3,M,001.3,N,002.4,K,A*25
$GPGSV,2,1,08,02,36,095,43,04,19,048,37,09,32,147,44,12,67,056,41*74
$GPGSV,2,2,08,14,35,267,38,25,67,303,42,29,38,216,47,30,22,283,30*75
$GPGSA,M,3,02,04,09,12,25,29,,,,,,,2.8,1.4,2.4*37
Trace #30 at position 7.250000
$GPZDA,082516.03,09,10,2011,00,00*67
$GPRMC,082516.00,A,4611.954549,N,01258.225867,E,001.3,353.6,091011,0.2,E,A*36
$GPGGA,082517.00,4611.954852,N,01258.225666,E,1,06,1.4,140.15,M,46.25,M,,*6A
$GPGLL,4611.954852,N,01258.225666,E,082517.00,A,A*68
$GPVTG,310.1,T,310.3,M,001.3,N,002.4,K,A*25
$GPGSV,2,1,08,02,36,095,43,04,19,048,37,09,32,147,44,12,67,056,41*74
$GPGSV,2,2,08,14,35,267,38,25,67,303,42,29,38,216,47,30,22,283,30*75
$GPGSA,M,3,02,04,09,12,25,29,,,,,,,2.8,1.4,2.4*37
Trace #31 at position 7.500000
$GPZDA,082517.03,09,10,2011,00,00*66
$GPRMC,082517.00,A,4611.954852,N,01258.225666,E,001.3,310.1,091011,0.2,E,A*3F
$GPGGA,082518.00,4611.955149,N,01258.225335,E,1,06,1.4,140.28,M,46.25,M,,*6A
$GPGLL,4611.955149,N,01258.225335,E,082518.00,A,A*66
$GPVTG,324.1,T,324.3,M,001.5,N,002.8,K,A*2F
$GPGSV,2,1,08,02,36,095,43,04,19,048,39,09,32,147,45,12,67,057,41*7A
$GPGSV,2,2,08,14,35,267,38,25,67,303,41,29,38,216,46,30,22,283,29*7F
$GPGSA,M,3,02,04,09,12,25,29,,,,,,,2.8,1.4,2.4*37
Trace #32 at position 7.750000
$GPZDA,082517.03,09,10,2011,00,00*66
$GPRMC,082517.00,A,4611.954852,N,01258.225666,E,001.3,310.1,091011,0.2,E,A*3F
$GPGGA,082518.00,4611.955149,N,01258.225335,E,1,06,1.4,140.28,M,46.25,M,,*6A
$GPGLL,4611.955149,N,01258.225335,E,082518.00,A,A*66
$GPVTG,324.1,T,324.3,M,001.5,N,002.8,K,A*2F
$GPGSV,2,1,08,02,36,095,43,04,19,048,39,09,32,147,45,12,67,057,41*7A
$GPGSV,2,2,08,14,35,267,38,25,67,303,41,29,38,216,46,30,22,283,29*7F
$GPGSA,M,3,02,04,09,12,25,29,,,,,,,2.8,1.4,2.4*37
Trace #33 at position 8.000000
$GPZDA,082517.03,09,10,2011,00,00*66
$GPRMC,082517.00,A,4611.954852,N,01258.225666,E,001.3,310.1,091011,0.2,E,A*3F
$GPGGA,082518.00,4611.955149,N,01258.225335,E,1,06,1.4,140.28,M,46.25,M,,*6A
$GPGLL,4611.955149,N,01258.225335,E,082518.00,A,A*66
$GPVTG,324.1,T,324.3,M,001.5,N,002.8,K,A*2F
$GPGSV,2,1,08,02,36,095,43,04,19,048,39,09,32,147,45,12,67,057,41*7A
$GPGSV,2,2,08,14,35,267,38,25,67,303,41,29,38,216,46,30,22,283,29*7F
$GPGSA,M,3,02,04,09,12,25,29,,,,,,,2.8,1.4,2.4*37
Trace #34 at position 8.250000
$GPZDA,082517.03,09,10,2011,00,00*66
$GPRMC,082517.00,A,4611.954852,N,01258.225666,E,001.3,310.1,091011,0.2,E,A*3F
$GPGGA,082518.00,4611.955149,N,01258.225335,E,1,06,1.4,140.28,M,46.25,M,,*6A
$GPGLL,4611.955149,N,01258.225335,E,082518.00,A,A*66
$GPVTG,324.1,T,324.3,M,001.5,N,002.8,K,A*2F
$GPGSV,2,1,08,02,36,095,43,04,19,048,39,09,32,147,45,12,67,057,41*7A
$GPGSV,2,2,08,14,35,267,38,25,67,303,41,29,38,216,46,30,22,283,29*7F
$GPGSA,M,3,02,04,09,12,25,29,,,,,,,2.8,1.4,2.4*37
Trace #35 at position 8.500000
$GPZDA,082518.04,09,10,2011,00,00*6E
$GPRMC,082518.00,A,4611.955149,N,01258.225335,E,001.5,324.1,091011,0.2,E,A*30
$GPGGA,082519.00,4611.955519,N,01258.225148,E,1,06,1.4,140.12,M,46.25,M,,*6B
$GPGLL,4611.955519,N,01258.225148,E,082519.00,A,A*6E
$GPVTG,347.6,T,347.8,M,001.4,N,002.6,K,A*2C
$GPGSV,2,1,08,02,36,095,43,04,19,048,39,09,32,147,44,12,67,057,40*7A
$GPGSV,2,2,08,14,35,267,35,25,67,303,40,29,38,216,46,30,22,283,30*7B
$GPGSA,M,3,02,04,09,12,25,29,,,,,,,2.8,1.4,2.4*37
Trace #36 at position 8.750000
$GPZDA,082518.04,09,10,2011,00,00*6E
$GPRMC,082518.00,A,4611.955149,N,01258.225335,E,001.5,324.1,091011,0.2,E,A*30
$GPGGA,082519.00,4611.955519,N,01258.225148,E,1,06,1.4,140.12,M,46.25,M,,*6B
$GPGLL,4611.955519,N,01258.225148,E,082519.00,A,A*6E
$GPVTG,347.6,T,347.8,M,001.4,N,002.6,K,A*2C
$GPGSV,2,1,08,02,36,095,43,04,19,048,39,09,32,147,44,12,67,057,40*7A
$GPGSV,2,2,08,14,35,267,35,25,67,303,40,29,38,216,46,30,22,283,30*7B
$GPGSA,M,3,02,04,09,12,25,29,,,,,,,2.8,1.4,2.4*37
Trace #37 at position 9.000000
$GPZDA,082518.04,09,10,2011,00,00*6E
$GPRMC,082518.00,A,4611.955149,N,01258.225335,E,001.5,324.1,091011,0.2,E,A*30
$GPGGA,082519.00,4611.955519,N,01258.225148,E,1,06,1.4,140.12,M,46.25,M,,*6B
$GPGLL,4611.955519,N,01258.225148,E,082519.00,A,A*6E
$GPVTG,347.6,T,347.8,M,001.4,N,002.6,K,A*2C
$GPGSV,2,1,08,02,36,095,43,04,19,048,39,09,32,147,44,12,67,057,40*7A
$GPGSV,2,2,08,14,35,267,35,25,67,303,40,29,38,216,46,30,22,283,30*7B
$GPGSA,M,3,02,04,09,12,25,29,,,,,,,2.8,1.4,2.4*37
Trace #38 at position 9.250000
$GPZDA,082518.04,09,10,2011,00,00*6E
$GPRMC,082518.00,A,4611.955149,N,01258.225335,E,001.5,324.1,091011,0.2,E,A*30
$GPGGA,082519.00,4611.955519,N,01258.225148,E,1,06,1.4,140.12,M,46.25,M,,*6B
$GPGLL,4611.955519,N,01258.225148,E,082519.00,A,A*6E
$GPVTG,347.6,T,347.8,M,001.4,N,002.6,K,A*2C
$GPGSV,2,1,08,02,36,095,43,04,19,048,39,09,32,147,44,12,67,057,40*7A
$GPGSV,2,2,08,14,35,267,35,25,67,303,40,29,38,216,46,30,22,283,30*7B
$GPGSA,M,3,02,04,09,12,25,29,,,,,,,2.8,1.4,2.4*37
Trace #39 at position 9.500000
$GPZDA,082519.03,09,10,2011,00,00*68
$GPRMC,082519.00,A,4611.955519,N,01258.225148,E,001.4,347.6,091011,0.2,E,A*3B
$GPGGA,082520.00,4611.955898,N,01258.225073,E,1,06,1.4,140.07,M,46.25,M,,*68
$GPGLL,4611.955898,N,01258.225073,E,082520.00,A,A*69
$GPVTG,348.4,T,348.5,M,001.3,N,002.4,K,A*26
$GPGSV,2,1,08,02,36,095,43,04,19,048,39,09,32,147,44,12,67,057,41*7B
$GPGSV,2,2,08,14,35,267,36,25,67,303,42,29,38,216,47,30,22,283,29*73
$GPGSA,M,3,02,04,09,12,25,29,,,,,,,2.8,1.4,2.4*37
Trace #40 at position 9.750000
$GPZDA,082519.03,09,10,2011,00,00*68
$GPRMC,082519.00,A,4611.955519,N,01258.225148,E,001.4,347.6,091011,0.2,E,A*3B
$GPGGA,082520.00,4611.955898,N,01258.225073,E,1,06,1.4,140.07,M,46.25,M,,*68
$GPGLL,4611.955898,N,01258.225073,E,082520.00,A,A*69
$GPVTG,348.4,T,348.5,M,001.3,N,002.4,K,A*26
$GPGSV,2,1,08,02,36,095,43,04,19,048,39,09,32,147,44,12,67,057,41*7B
$GPGSV,2,2,08,14,35,267,36,25,67,303,42,29,38,216,47,30,22,283,29*73
$GPGSA,M,3,02,04,09,12,25,29,,,,,,,2.8,1.4,2.4*37
Trace #41 at position 10.000000
$GPZDA,082531.03,09,10,2011,00,00*62
$GPRMC,082531.00,A,4611.958174,N,01258.224329,E,000.1,151.6,091011,0.2,E,A*36
$GPGGA,082532.00,4611.958060,N,01258.224406,E,1,05,3.5,142.72,M,46.25,M,,*6E
$GPGLL,4611.958060,N,01258.224406,E,082532.00,A,A*6F
$GPVTG,148.1,T,148.2,M,000.1,N,000.2,K,A*23
$GPGSV,2,1,08,02,36,095,45,04,19,048,38,09,32,147,43,12,67,057,41*7B
$GPGSV,2,2,08,14,35,267,38,25,67,303,43,29,38,216,46,30,22,283,38*7D
$GPGSA,M,3,02,09,12,25,29,,,,,,,,8.7,3.5,8.0*3B
Trace #42 at position 10.250000
$GPZDA,082532.03,09,10,2011,00,00*61
$GPRMC,082532.00,A,4611.958060,N,01258.224406,E,000.1,148.1,091011,0.2,E,A*34
$GPGGA,082533.00,4611.958125,N,01258.224380,E,1,06,1.4,142.45,M,46.25,M,,*62
$GPGLL,4611.958125,N,01258.224380,E,082533.00,A,A*67
$GPVTG,77.7,T,77.8,M,000.0,N,000.0,K,A*2C
$GPGSV,2,1,08,02,36,095,45,04,19,048,38,09,32,147,43,12,67,057,41*7B
$GPGSV,2,2,08,14,35,267,38,25,67,303,43,29,38,216,47,30,22,283,39*7D
$GPGSA,M,3,02,09,12,25,29,30,,,,,,,2.7,1.4,2.3*38
Trace #43 at position 10.500000
$GPZDA,082532.03,09,10,2011,00,00*61
$GPRMC,082532.00,A,4611.958060,N,01258.224406,E,000.1,148.1,091011,0.2,E,A*34
$GPGGA,082533.00,4611.958125,N,01258.224380,E,1,06,1.4,142.45,M,46.25,M,,*62
$GPGLL,4611.958125,N,01258.224380,E,082533.00,A,A*67
$GPVTG,77.7,T,77.8,M,000.0,N,000.0,K,A*2C
$GPGSV,2,1,08,02,36,095,45,04,19,048,38,09,32,147,43,12,67,057,41*7B
$GPGSV,2,2,08,14,35,267,38,25,67,303,43,29,38,216,47,30,22,283,39*7D
$GPGSA,M,3,02,09,12,25,29,30,,,,,,,2.7,1.4,2.3*38
Trace #44 at position 10.750000
$GPZDA,082532.03,09,10,2011,00,00*61
$GPRMC,082532.00,A,4611.958060,N,01258.224406,E,000.1,148.1,091011,0.2,E,A*34
$GPGGA,082533.00,4611.958125,N,01258.224380,E,1,06,1.4,142.45,M,46.25,M,,*62
$GPGLL,4611.958125,N,01258.224380,E,082533.00,A,A*67
$GPVTG,77.7,T,77.8,M,000.0,N,000.0,K,A*2C
$GPGSV,2,1,08,02,36,095,45,04,19,048,38,09,32,147,43,12,67,057,41*7B
$GPGSV,2,2,08,14,35,267,38,25,67,303,43,29,38,216,47,30,22,283,39*7D
$GPGSA,M,3,02,09,12,25,29,30,,,,,,,2.7,1.4,2.3*38
Trace #45 at position 11.000000
$GPZDA,082533.04,09,10,2011,00,00*67
$GPRMC,082533.00,A,4611.958125,N,01258.224380,E,000.0,77.7,091011,0.2,E,A*06
$GPGGA,082534.00,4611.958189,N,01258.224348,E,1,06,1.4,142.18,M,46.25,M,,*6F
$GPGLL,4611.958189,N,01258.224348,E,082534.00,A,A*62
$GPVTG,207.7,T,207.9,M,000.0,N,000.0,K,A*2D
$GPGSV,2,1,08,02,36,095,45,04,19,048,38,09,32,147,43,12,67,057,41*7B
$GPGSV,2,2,08,14,35,267,38,25,67,303,43,29,38,216,47,30,22,283,39*7D
$GPGSA,M,3,02,09,12,25,29,30,,,,,,,2.7,1.4,2.3*38
Trace #46 at position 11.250000
$GPZDA,082533.04,09,10,2011,00,00*67
$GPRMC,082533.00,A,4611.958125,N,01258.224380,E,000.0,77.7,091011,0.2,E,A*06
$GPGGA,082534.00,4611.958189,N,01258.224348,E,1,06,1.4,142.18,M,46.25,M,,*6F
$GPGLL,4611.958189,N,01258.224348,E,082534.00,A,A*62
$GPVTG,207.7,T,207.9,M,000.0,N,000.0,K,A*2D
$GPGSV,2,1,08,02,36,095,45,04,19,048,38,09,32,147,43,12,67,057,41*7B
$GPGSV,2,2,08,14,35,267,38,25,67,303,43,29,38,216,47,30,22,283,39*7D
$GPGSA,M,3,02,09,12,25,29,30,,,,,,,2.7,1.4,2.3*38
Trace #47 at position 11.500000
$GPZDA,082533.04,09,10,2011,00,00*67
$GPRMC,082533.00,A,4611.958125,N,01258.224380,E,000.0,77.7,091011,0.2,E,A*06
$GPGGA,082534.00,4611.958189,N,01258.224348,E,1,06,1.4,142.18,M,46.25,M,,*6F
$GPGLL,4611.958189,N,01258.224348,E,082534.00,A,A*62
$GPVTG,207.7,T,207.9,M,000.0,N,000.0,K,A*2D
$GPGSV,2,1,08,02,36,095,45,04,19,048,38,09,32,147,43,12,67,057,41*7B
$GPGSV,2,2,08,14,35,267,38,25,67,303,43,29,38,216,47,30,22,283,39*7D
$GPGSA,M,3,02,09,12,25,29,30,,,,,,,2.7,1.4,2.3*38
Trace #48 at position 11.750000
$GPZDA,082533.04,09,10,2011,00,00*67
$GPRMC,082533.00,A,4611.958125,N,01258.224380,E,000.0,77.7,091011,0.2,E,A*06
$GPGGA,082534.00,4611.958189,N,01258.224348,E,1,06,1.4,142.18,M,46.25,M,,*6F
$GPGLL,4611.958189,N,01258.224348,E,082534.00,A,A*62
$GPVTG,207.7,T,207.9,M,000.0,N,000.0,K,A*2D
$GPGSV,2,1,08,02,36,095,45,04,19,048,38,09,32,147,43,12,67,057,41*7B
$GPGSV,2,2,08,14,35,267,38,25,67,303,43,29,38,216,47,30,22,283,39*7D
$GPGSA,M,3,02,09,12,25,29,30,,,,,,,2.7,1.4,2.3*38
Trace #49 at position 12.000000
$GPZDA,082534.03,09,10,2011,00,00*67
$GPRMC,082534.00,A,4611.958189,N,01258.224348,E,000.0,207.7,091011,0.2,E,A*36
$GPGGA,082535.00,4611.958249,N,01258.224315,E,1,06,1.4,141.91,M,46.25,M,,*6B
$GPGLL,4611.958249,N,01258.224315,E,082535.00,A,A*64
$GPVTG,320.5,T,320.7,M,000.0,N,000.1,K,A*20
$GPGSV,2,1,08,02,36,095,45,04,19,048,38,09,32,147,44,12,67,057,42*7F
$GPGSV,2,2,08,14,35,267,39,25,67,303,43,29,38,216,47,30,22,283,39*7C
$GPGSA,M,3,02,09,12,25,29,30,,,,,,,2.7,1.4,2.3*38
Trace #50 at position 12.250000
$GPZDA,082534.03,09,10,2011,00,00*67
$GPRMC,082534.00,A,4611.958189,N,01258.224348,E,000.0,207.7,091011,0.2,E,A*36
$GPGGA,082535.00,4611.958249,N,01258.224315,E,1,06,1.4,141.91,M,46.25,M,,*6B
$GPGLL,4611.958249,N,01258.224315,E,082535.00,A,A*64
$GPVTG,320.5,T,320.7,M,000.0,N,000.1,K,A*20
$GPGSV,2,1,08,02,36,095,45,04,19,048,38,09,32,147,44,12,67,057,42*7F
$GPGSV,2,2,08,14,35,267,39,25,67,303,43,29,38,216,47,30,22,283,39*7C
$GPGSA,M,3,02,09,12,25,29,30,,,,,,,2.7,1.4,2.3*38
Trace #51 at position 12.500000
$GPZDA,082534.03,09,10,2011,00,00*67
$GPRMC,082534.00,A,4611.958189,N,01258.224348,E,000.0,207.7,091011,0.2,E,A*36
$GPGGA,082535.00,4611.958249,N,01258.224315,E,1,06,1.4,141.91,M,46.25,M,,*6B
$GPGLL,4611.958249,N,01258.224315,E,082535.00,A,A*64
$GPVTG,320.5,T,320.7,M,000.0,N,000.1,K,A*20
$GPGSV,2,1,08,02,36,095,45,04,19,048,38,09,32,147,44,12,67,057,42*7F
$GPGSV,2,2,08,14,35,267,39,25,67,303,43,29,38,216,47,30,22,283,39*7C
$GPGSA,M,3,02,09,12,25,29,30,,,,,,,2.7,1.4,2.3*38
Trace #52 at position 12.750000
$GPZDA,082535.03,09,10,2011,00,00*66
$GPRMC,082535.00,A,4611.958249,N,01258.224315,E,000.0,320.5,091011,0.2,E,A*36
$GPGGA,082536.00,4611.958310,N,01258.224294,E,1,06,1.4,141.67,M,46.25,M,,*64
$GPGLL,4611.958310,N,01258.224294,E,082536.00,A,A*62
$GPVTG,25.2,T,25.4,M,000.1,N,000.1,K,A*25
$GPGSV,2,1,08,02,36,095,44,04,19,048,38,09,32,147,43,12,67,057,42*79
$GPGSV,2,2,08,14,35,267,39,25,67,303,44,29,38,216,47,30,22,283,38*7A
$GPGSA,M,3,02,09,12,25,29,30,,,,,,,2.7,1.4,2.3*38
Trace #53 at position 13.000000
$GPZDA,082535.03,09,10,2011,00,00*66
$GPRMC,082535.00,A,4611.958249,N,01258.224315,E,000.0,320.5,091011,0.2,E,A*36
$GPGGA,082536.00,4611.958310,N,01258.224294,E,1,06,1.4,141.67,M,46.25,M,,*64
$GPGLL,4611.958310,N,01258.224294,E,082536.00,A,A*62
$GPVTG,25.2,T,25.4,M,000.1,N,000.1,K,A*25
$GPGSV,2,1,08,02,36,095,44,04,19,048,38,09,32,147,43,12,67,057,42*79
$GPGSV,2,2,08,14,35,267,39,25,67,303,44,29,38,216,47,30,22,283,38*7A
$GPGSA,M,3,02,09,12,25,29,30,,,,,,,2.7,1.4,2.3*38
Trace #54 at position 13.250000
$GPZDA,082535.03,09,10,2011,00,00*66
$GPRMC,082535.00,A,4611.958249,N,01258.224315,E,000.0,320.5,091011,0.2,E,A*36
$GPGGA,082536.00,4611.958310,N,01258.224294,E,1,06,1.4,141.67,M,46.25,M,,*64
$GPGLL,4611.958310,N,01258.224294,E,082536.00,A,A*62
$GPVTG,25.2,T,25.4,M,000.1,N,000.1,K,A*25
$GPGSV,2,1,08,02,36,095,44,04,19,048,38,09,32,147,43,12,67,057,42*79
$GPGSV,2,2,08,14,35,267,39,25,67,303,44,29,38,216,47,30,22,283,38*7A
$GPGSA,M,3,02,09,12,25,29,30,,,,,,,2.7,1.4,2.3*38
Trace #55 at position 13.500000
$GPZDA,082536.03,09,10,2011,00,00*65
$GPRMC,082536.00,A,4611.958310,N,01258.224294,E,000.1,25.2,091011,0.2,E,A*00
$GPGGA,082537.00,4611.958339,N,01258.224279,E,1,04,2.3,141.38,M,46.25,M,,*61
$GPGLL,4611.958339,N,01258.224279,E,082537.00,A,A*6B
$GPVTG,185.8,T,185.9,M,000.2,N,000.4,K,A*24
$GPGSV,2,1,08,02,36,095,33,04,19,048,38,09,32,147,41,12,67,057,35*7B
$GPGSV,2,2,08,14,35,267,35,25,67,303,42,29,38,236*7E
$GPGSA,M,3,09,25,29,30,,,,,,,,,3.6,2.3,2.9*37
Trace #56 at position 13.750000
$GPZDA,082536.03,09,10,2011,00,00*65
$GPRMC,082536.00,A,4611.958310,N,01258.224294,E,000.1,25.2,091011,0.2,E,A*00
$GPGGA,082537.00,4611.958339,N,01258.224279,E,1,04,2.3,141.38,M,46.25,M,,*61
$GPGLL,4611.958339,N,01258.224279,E,082537.00,A,A*6B
$GPVTG,185.8,T,185.9,M,000.2,N,000.4,K,A*24
$GPGSV,2,1,08,02,36,095,33,04,19,048,38,09,32,147,41,12,67,057,35*7B
$GPGSV,2,2,08,14,35,267,35,25,67,303,42,29,38,236*7E
$GPGSA,M,3,09,25,29,30,,,,,,,,,3.6,2.3,2.9*37
Trace #57 at position 14.000000
$GPZDA,082536.03,09,10,2011,00,00*65
$GPRMC,082536.00,A,4611.958310,N,01258.224294,E,000.1,25.2,091011,0.2,E,A*00
$GPGGA,082537.00,4611.958339,N,01258.224279,E,1,04,2.3,141.38,M,46.25,M,,*61
$GPGLL,4611.958339,N,01258.224279,E,082537.00,A,A*6B
$GPVTG,185.8,T,185.9,M,000.2,N,000.4,K,A*24
$GPGSV,2,1,08,02,36,095,33,04,19,048,38,09,32,147,41,12,67,057,35*7B
$GPGSV,2,2,08,14,35,267,35,25,67,303,42,29,38,236*7E
$GPGSA,M,3,09,25,29,30,,,,,,,,,3.6,2.3,2.9*37
Trace #58 at position 14.250000
$GPZDA,082536.03,09,10,2011,00,00*65
$GPRMC,082536.00,A,4611.958310,N,01258.224294,E,000.1,25.2,091011,0.2,E,A*00
$GPGGA,082537.00,4611.958339,N,01258.224279,E,1,04,2.3,141.38,M,46.25,M,,*61
$GPGLL,4611.958339,N,01258.224279,E,082537.00,A,A*6B
$GPVTG,185.8,T,185.9,M,000.2,N,000.4,K,A*24
$GPGSV,2,1,08,02,36,095,33,04,19,048,38,09,32,147,41,12,67,057,35*7B
$GPGSV,2,2,08,14,35,267,35,25,67,303,42,29,38,236*7E
$GPGSA,M,3,09,25,29,30,,,,,,,,,3.6,2.3,2.9*37
Trace #59 at position 14.500000
$GPZDA,082537.03,09,10,2011,00,00*64
$GPRMC,082537.00,A,4611.958339,N,01258.224279,E,000.2,185.8,091011,0.2,E,A*3B
$GPGGA,082538.00,4611.958378,N,01258.224255,E,1,06,1.4,141.26,M,46.25,M,,*6C
$GPGLL,4611.958378,N,01258.224255,E,082538.00,A,A*6F
$GPVTG,355.5,T,355.6,M,000.2,N,000.3,K,A*21
$GPGSV,2,1,08,02,36,095,45,04,19,048,39,09,32,147,45,12,67,057,43*7E
$GPGSV,2,2,08,14,35,267,37,25,67,303,44,29,38,216,47,30,22,283,36*7A
$GPGSA,M,3,02,09,12,25,2N,01258.224255,E,000.2,355.5,091011,0.2,E,A*3D
Trace #60 at position 14.750000
$GPZDA,082537.03,09,10,2011,00,00*64
$GPRMC,082537.00,A,4611.958339,N,01258.224279,E,000.2,185.8,091011,0.2,E,A*3B
$GPGGA,082538.00,4611.958378,N,01258.224255,E,1,06,1.4,141.26,M,46.25,M,,*6C
$GPGLL,4611.958378,N,01258.224255,E,082538.00,A,A*6F
$GPVTG,355.5,T,355.6,M,000.2,N,000.3,K,A*21
$GPGSV,2,1,08,02,36,095,45,04,19,048,39,09,32,147,45,12,67,057,43*7E
$GPGSV,2,2,08,14,35,267,37,25,67,303,44,29,38,216,47,30,22,283,36*7A
$GPGSA,M,3,02,09,12,25,2N,01258.224255,E,000.2,355.5,091011,0.2,E,A*3D
Trace #61 at position 15.000000
$GPZDA,082537.03,09,10,2011,00,00*64
$GPRMC,082537.00,A,4611.958339,N,01258.224279,E,000.2,185.8,091011,0.2,E,A*3B
$GPGGA,082538.00,4611.958378,N,01258.224255,E,1,06,1.4,141.26,M,46.25,M,,*6C
$GPGLL,4611.958378,N,01258.224255,E,082538.00,A,A*6F
$GPVTG,355.5,T,355.6,M,000.2,N,000.3,K,A*21
$GPGSV,2,1,08,02,36,095,45,04,19,048,39,09,32,147,45,12,67,057,43*7E
$GPGSV,2,2,08,14,35,267,37,25,67,303,44,29,38,216,47,30,22,283,36*7A
$GPGSA,M,3,02,09,12,25,2N,01258.224255,E,000.2,355.5,091011,0.2,E,A*3D
Trace #62 at position 15.250000
$GPGGA,082539.00,4611.958609,N,01258.224088,E,1,06,1.4,141.09,M,46.25,M,,*61
$GPGLL,4611.958609,N,01258.224088,E,082539.00,A,A*6F
$GPVTG,327.0,T,327.2,M,001.4,N,002.7,K,A*21
$GPGSV,2,1,08,02,36,095,44,04,19,048,38,09,32,147,44,12,67,057,41*7D
$GPGSV,2,2,08,14,35,267,37,25,67,303,44,29,38,216,46,30,22,283,38*75
$GPGSA,M,3,02,09,12,25,29,30,,,,,,,2.7,1.4,2.3*38
Trace #63 at position 15.500000
$GPGGA,082539.00,4611.958609,N,01258.224088,E,1,06,1.4,141.09,M,46.25,M,,*61
$GPGLL,4611.958609,N,01258.224088,E,082539.00,A,A*6F
$GPVTG,327.0,T,327.2,M,001.4,N,002.7,K,A*21
$GPGSV,2,1,08,02,36,095,44,04,19,048,38,09,32,147,44,12,67,057,41*7D
$GPGSV,2,2,08,14,35,267,37,25,67,303,44,29,38,216,46,30,22,283,38*75
$GPGSA,M,3,02,09,12,25,29,30,,,,,,,2.7,1.4,2.3*38
Trace #64 at position 15.750000
$GPGGA,082539.00,4611.958609,N,01258.224088,E,1,06,1.4,141.09,M,46.25,M,,*61
$GPGLL,4611.958609,N,01258.224088,E,082539.00,A,A*6F
$GPVTG,327.0,T,327.2,M,001.4,N,002.7,K,A*21
$GPGSV,2,1,08,02,36,095,44,04,19,048,38,09,32,147,44,12,67,057,41*7D
$GPGSV,2,2,08,14,35,267,37,25,67,303,44,29,38,216,46,30,22,283,38*75
$GPGSA,M,3,02,09,12,25,29,30,,,,,,,2.7,1.4,2.3*38
Trace #65 at position 16.000000
$GPZDA,082539.03,09,10,2011,00,00*6A
$GPRMC,082539.00,A,4611.958609,N,01258.224088,E,001.4,327.$GPGGA,082540.00,4611.959030,N,01258.223827,E,1,07,1.1,140.93,M,46.25,M,,*6E
$GPGLL,4611.959030,N,01258.223827,E,082540.00,A,A*66
$GPVTG,338.5,T,338.6,M,001.6,N,002.9,K,A*2C
$GPGSV,2,1,08,02,36,095,45,04,19,048,40,09,32,147,45,12,67,057,41*72
$GPGSV,2,2,08,14,35,267,37,25,67,303,43,29,38,216,47,30,22,283,37*7C
$GPGSA,M,3,02,04,09,12,25,29,30,,,,,,2.0,1.1,1.8*36
Trace #66 at position 16.250000
$GPZDA,082539.03,09,10,2011,00,00*6A
$GPRMC,082539.00,A,4611.958609,N,01258.224088,E,001.4,327.$GPGGA,082540.00,4611.959030,N,01258.223827,E,1,07,1.1,140.93,M,46.25,M,,*6E
$GPGLL,4611.959030,N,01258.223827,E,082540.00,A,A*66
$GPVTG,338.5,T,338.6,M,001.6,N,002.9,K,A*2C
$GPGSV,2,1,08,02,36,095,45,04,19,048,40,09,32,147,45,12,67,057,41*72
$GPGSV,2,2,08,14,35,267,37,25,67,303,43,29,38,216,47,30,22,283,37*7C
$GPGSA,M,3,02,04,09,12,25,29,30,,,,,,2.0,1.1,1.8*36
Trace #67 at position 16.500000
$GPZDA,082539.03,09,10,2011,00,00*6A
$GPRMC,082539.00,A,4611.958609,N,01258.224088,E,001.4,327.$GPGGA,082540.00,4611.959030,N,01258.223827,E,1,07,1.1,140.93,M,46.25,M,,*6E
$GPGLL,4611.959030,N,01258.223827,E,082540.00,A,A*66
$GPVTG,338.5,T,338.6,M,001.6,N,002.9,K,A*2C
$GPGSV,2,1,08,02,36,095,45,04,19,048,40,09,32,147,45,12,67,057,41*72
$GPGSV,2,2,08,14,35,267,37,25,67,303,43,29,38,216,47,30,22,283,37*7C
$GPGSA,M,3,02,04,09,12,25,29,30,,,,,,2.0,1.1,1.8*36
Trace #68 at position 16.750000
$GPZDA,082540.04,09,10,2011,00,00*63
$GPRMC,082540.00,A,4611.959030,N,01258.223827,E,001.6,338.5,091011,0.2,E,A*3A
$GPGGA,082541.00,4611.959510,N,01258.223493,E,1,06,1.4,140.78,M,46.25,M,,*6A
$GPGLL,4611.959510,N,01258.223493,E,082541.00,A,A*63
$GPVTG,322.6,T,322.7,M,002.2,N,004.1,K,A*27
$GPGSV,2,1,08,02,36,095,45,04,19,048,39,09,32,147,43,12,67,057,40*7B
$GPGSV,2,2,08,14,35,267,37,25,67,303,42,29,38,216,47,30,22,283,35*7F
$GPGSA,M,3,02,04,09,12,25,29,,,,,,,2.8,1.4,2.4*37
Trace #69 at position 17.000000
$GPZDA,082540.04,09,10,2011,00,00*63
$GPRMC,082540.00,A,4611.959030,N,01258.223827,E,001.6,338.5,091011,0.2,E,A*3A
$GPGGA,082541.00,4611.959510,N,01258.223493,E,1,06,1.4,140.78,M,46.25,M,,*6A
$GPGLL,4611.959510,N,01258.223493,E,082541.00,A,A*63
$GPVTG,322.6,T,322.7,M,002.2,N,004.1,K,A*27
$GPGSV,2,1,08,02,36,095,45,04,19,048,39,09,32,147,43,12,67,057,40*7B
$GPGSV,2,2,08,14,35,267,37,25,67,303,42,29,38,216,47,30,22,283,35*7F
$GPGSA,M,3,02,04,09,12,25,29,,,,,,,2.8,1.4,2.4*37
Trace #70 at position 17.250000
$GPZDA,082540.04,09,10,2011,00,00*63
$GPRMC,082540.00,A,4611.959030,N,01258.223827,E,001.6,338.5,091011,0.2,E,A*3A
$GPGGA,082541.00,4611.959510,N,01258.223493,E,1,06,1.4,140.78,M,46.25,M,,*6A
$GPGLL,4611.959510,N,01258.223493,E,082541.00,A,A*63
$GPVTG,322.6,T,322.7,M,002.2,N,004.1,K,A*27
$GPGSV,2,1,08,02,36,095,45,04,19,048,39,09,32,147,43,12,67,057,40*7B
$GPGSV,2,2,08,14,35,267,37,25,67,303,42,29,38,216,47,30,22,283,35*7F
$GPGSA,M,3,02,04,09,12,25,29,,,,,,,2.8,1.4,2.4*37
Trace #71 at position 17.500000
$GPZDA,082540.04,09,10,2011,00,00*63
$GPRMC,082540.00,A,4611.959030,N,01258.223827,E,001.6,338.5,091011,0.2,E,A*3A
$GPGGA,082541.00,4611.959510,N,01258.223493,E,1,06,1.4,140.78,M,46.25,M,,*6A
$GPGLL,4611.959510,N,01258.223493,E,082541.00,A,A*63
$GPVTG,322.6,T,322.7,M,002.2,N,004.1,K,A*27
$GPGSV,2,1,08,02,36,095,45,04,19,048,39,09,32,147,43,12,67,057,40*7B
$GPGSV,2,2,08,14,35,267,37,25,67,303,42,29,38,216,47,30,22,283,35*7F
$GPGSA,M,3,02,04,09,12,25,29,,,,,,,2.8,1.4,2.4*37
Trace #72 at position 17.750000
$GPZDA,082541.04,09,10,2011,00,00*62
$GPRMC,082541.00,A,4611.959510,N,01258.223493,E,002.2,322.6,091011,0.2,E,A*30
$GPGGA,082542.00,4611.960027,N,01258.223202,E,1,06,1.4,140.65,M,46.25,M,,*60
$GPGLL,4611.960027,N,01258.223202,E,082542.00,A,A*65
$GPVTG,346.9,T,347.1,M,001.9,N,003.5,K,A*24
$GPGSV,2,1,08,02,36,095,46,04,19,048,39,09,32,147,42,12,67,057,41*78
$GPGSV,2,2,08,14,35,267,33,25,67,303,45,29,38,216,47,30,22,283,38*71
$GPGSA,M,3,02,04,09,12,25,29,,,,,,,2.8,1.4,2.4*37
Trace #73 at position 18.000000
$GPZDA,082541.04,09,10,2011,00,00*62
$GPRMC,082541.00,A,4611.959510,N,01258.223493,E,002.2,322.6,091011,0.2,E,A*30
$GPGGA,082542.00,4611.960027,N,01258.223202,E,1,06,1.4,140.65,M,46.25,M,,*60
$GPGLL,4611.960027,N,01258.223202,E,082542.00,A,A*65
$GPVTG,346.9,T,347.1,M,001.9,N,003.5,K,A*24
$GPGSV,2,1,08,02,36,095,46,04,19,048,39,09,32,147,42,12,67,057,41*78
$GPGSV,2,2,08,14,35,267,33,25,67,303,45,29,38,216,47,30,22,283,38*71
$GPGSA,M,3,02,04,09,12,25,29,,,,,,,2.8,1.4,2.4*37
Trace #74 at position 18.250000
$GPZDA,082541.04,09,10,2011,00,00*62
$GPRMC,082541.00,A,4611.959510,N,01258.223493,E,002.2,322.6,091011,0.2,E,A*30
$GPGGA,082542.00,4611.960027,N,01258.223202,E,1,06,1.4,140.65,M,46.25,M,,*60
$GPGLL,4611.960027,N,01258.223202,E,082542.00,A,A*65
$GPVTG,346.9,T,347.1,M,001.9,N,003.5,K,A*24
$GPGSV,2,1,08,02,36,095,46,04,19,048,39,09,32,147,42,12,67,057,41*78
$GPGSV,2,2,08,14,35,267,33,25,67,303,45,29,38,216,47,30,22,283,38*71
$GPGSA,M,3,02,04,09,12,25,29,,,,,,,2.8,1.4,2.4*37
Trace #75 at position 18.500000
$GPZDA,082542.03,09,10,2011,00,00*66
$GPRMC,082542.00,A,4611.960027,N,01258.223202,E,001.9,346.9,091011,0.2,E,A*33
$GPGGA,082543.00,4611.960465,N,01258.223125,E,1,06,1.4,140.65,M,46.25,M,,*65
$GPGLL,4611.960465,N,01258.223125,E,082543.00,A,A*60
$GPVTG,350.2,T,350.4,M,001.2,N,002.2,K,A*26
$GPGSV,2,1,08,02,36,095,43,04,19,048,40,09,32,147,43,12,67,057,42*71
$GPGSV,2,2,08,14,35,267,38,25,67,303,43,29,38,216,47,30,22,283,37*73
$GPGSA,M,3,02,04,09,12,25,29,,,,,,,2.8,1.4,2.4*37
Trace #76 at position 18.750000
$GPZDA,082542.03,09,10,2011,00,00*66
$GPRMC,082542.00,A,4611.960027,N,01258.223202,E,001.9,346.9,091011,0.2,E,A*33
$GPGGA,082543.00,4611.960465,N,01258.223125,E,1,06,1.4,140.65,M,46.25,M,,*65
$GPGLL,4611.960465,N,01258.223125,E,082543.00,A,A*60
$GPVTG,350.2,T,350.4,M,001.2,N,002.2,K,A*26
$GPGSV,2,1,08,02,36,095,43,04,19,048,40,09,32,147,43,12,67,057,42*71
$GPGSV,2,2,08,14,35,267,38,25,67,303,43,29,38,216,47,30,22,283,37*73
$GPGSA,M,3,02,04,09,12,25,29,,,,,,,2.8,1.4,2.4*37
Trace #77 at position 19.000000
$GPZDA,082543.04,09,10,2011,00,00*60
$GPRMC,082543.00,A,4611.960465,N,01258.223125,E,001.2,350.2,091011,0.2,E,A*31
$GPGGA,082544.00,4611.960908,N,01258.223030,E,1,06,1.4,140.61,M,46.25,M,,*65
$GPGLL,4611.960908,N,01258.223030,E,082544.00,A,A*64
$GPVTG,347.2,T,347.3,M,001.9,N,003.6,K,A*2F
$GPGSV,2,1,08,02,36,095,44,04,19,048,41,09,32,147,43,12,67,057,43*76
$GPGSV,2,2,08,14,35,267,38,25,67,303,43,29,38,216,46,30,22,283,36*73
$GPGSA,M,3,02,04,09,12,25,29,,,,,,,2.8,1.4,2.4*37
Trace #78 at position 19.250000
$GPZDA,082543.04,09,10,2011,00,00*60
$GPRMC,082543.00,A,4611.960465,N,01258.223125,E,001.2,350.2,091011,0.2,E,A*31
$GPGGA,082544.00,4611.960908,N,01258.223030,E,1,06,1.4,140.61,M,46.25,M,,*65
$GPGLL,4611.960908,N,01258.223030,E,082544.00,A,A*64
$GPVTG,347.2,T,347.3,M,001.9,N,003.6,K,A*2F
$GPGSV,2,1,08,02,36,095,44,04,19,048,41,09,32,147,43,12,67,057,43*76
$GPGSV,2,2,08,14,35,267,38,25,67,303,43,29,38,216,46,30,22,283,36*73
$GPGSA,M,3,02,04,09,12,25,29,,,,,,,2.8,1.4,2.4*37
Trace #79 at position 19.500000
$GPZDA,082543.04,09,10,2011,00,00*60
$GPRMC,082543.00,A,4611.960465,N,01258.223125,E,001.2,350.2,091011,0.2,E,A*31
$GPGGA,082544.00,4611.960908,N,01258.223030,E,1,06,1.4,140.61,M,46.25,M,,*65
$GPGLL,4611.960908,N,01258.223030,E,082544.00,A,A*64
$GPVTG,347.2,T,347.3,M,001.9,N,003.6,K,A*2F
$GPGSV,2,1,08,02,36,095,44,04,19,048,41,09,32,147,43,12,67,057,43*76
$GPGSV,2,2,08,14,35,267,38,25,67,303,43,29,38,216,46,30,22,283,36*73
$GPGSA,M,3,02,04,09,12,25,29,,,,,,,2.8,1.4,2.4*37
Trace #80 at position 19.750000
$GPZDA,082544.04,09,10,2011,00,00*67
$GPRMC,082544.00,A,4611.960908,N,01258.223030,E,001.9,347.2,091011,0.2,E,A*38
$GPGGA,082545.00,4611.961354,N,01258.222881,E,1,06,1.4,140.48,M,46.25,M,,*6E
$GPGLL,4611.961354,N,01258.222881,E,082545.00,A,A*64
$GPVTG,338.8,T,339.0,M,001.3,N,002.4,K,A*2E
$GPGSV,2,1,08,02,36,095,45,04,19,048,40,09,32,147,44,12,67,057,41*73
$GPGSV,2,2,08,14,35,267,35,25,67,303,43,29,38,216,47,30,22,283,35*7C
$GPGSA,M,3,02,04,09,12,25,29,,,,,,,2.8,1.4,2.4*37
Trace #81 at position 20.000000
$GPZDA,082544.04,09,10,2011,00,00*67
$GPRMC,082544.00,A,4611.960908,N,01258.223030,E,001.9,347.2,091011,0.2,E,A*38
$GPGGA,082545.00,4611.961354,N,01258.222881,E,1,06,1.4,140.48,M,46.25,M,,*6E
$GPGLL,4611.961354,N,01258.222881,E,082545.00,A,A*64
$GPVTG,338.8,T,339.0,M,001.3,N,002.4,K,A*2E
$GPGSV,2,1,08,02,36,095,45,04,19,048,40,09,32,147,44,12,67,057,41*73
$GPGSV,2,2,08,14,35,267,35,25,67,303,43,29,38,216,47,30,22,283,35*7C
$GPGSA,M,3,02,04,09,12,25,29,,,,,,,2.8,1.4,2.4*37
Trace #82 at position 20.250000
$GPZDA,082544.04,09,10,2011,00,00*67
$GPRMC,082544.00,A,4611.960908,N,01258.223030,E,001.9,347.2,091011,0.2,E,A*38
$GPGGA,082545.00,4611.961354,N,01258.222881,E,1,06,1.4,140.48,M,46.25,M,,*6E
$GPGLL,4611.961354,N,01258.222881,E,082545.00,A,A*64
$GPVTG,338.8,T,339.0,M,001.3,N,002.4,K,A*2E
$GPGSV,2,1,08,02,36,095,45,04,19,048,40,09,32,147,44,12,67,057,41*73
$GPGSV,2,2,08,14,35,267,35,25,67,303,43,29,38,216,47,30,22,283,35*7C
$GPGSA,M,3,02,04,09,12,25,29,,,,,,,2.8,1.4,2.4*37
Trace #83 at position 20.500000
$GPZDA,082545.03,09,10,2011,00,00*61
$GPRMC,082545.00,A,4611.961354,N,01258.222881,E,001.3,338.8,091011,0.2,E,A*30
$GPGGA,082546.00,4611.961732,N,01258.222743,E,1,06,1.4,140.40,M,46.25,M,,*60
$GPGLL,4611.961732,N,01258.222743,E,082546.00,A,A*62
$GPVTG,345.2,T,345.3,M,001.5,N,002.7,K,A*23
$GPGSV,2,1,08,02,36,095,44,04,19,048,41,09,32,147,44,12,67,057,41*73
$GPGSV,2,2,08,14,35,267,34,25,67,303,45,29,38,216,47,30,22,283,*7D
$GPGSA,M,3,02,04,09,12,25,29,,,,,,,2.8,1.4,2.4*37
Trace #84 at position 20.750000
$GPZDA,082545.03,09,10,2011,00,00*61
$GPRMC,082545.00,A,4611.961354,N,01258.222881,E,001.3,338.8,091011,0.2,E,A*30
$GPGGA,082546.00,4611.961732,N,01258.222743,E,1,06,1.4,140.40,M,46.25,M,,*60
$GPGLL,4611.961732,N,01258.222743,E,082546.00,A,A*62
$GPVTG,345.2,T,345.3,M,001.5,N,002.7,K,A*23
$GPGSV,2,1,08,02,36,095,44,04,19,048,41,09,32,147,44,12,67,057,41*73
$GPGSV,2,2,08,14,35,267,34,25,67,303,45,29,38,216,47,30,22,283,*7D
$GPGSA,M,3,02,04,09,12,25,29,,,,,,,2.8,1.4,2.4*37
Trace #85 at position 21.000000
$GPZDA,082546.03,09,10,2011,00,00*62
$GPRMC,082546.00,A,4611.961732,N,01258.222743,E,001.5,345.2,091011,0.2,E,A*30
$GPGGA,082547.00,4611.962251,N,01258.222652,E,1,06,1.4,140.29,M,46.25,M,,*6C
$GPGLL,4611.962251,N,01258.222652,E,082547.00,A,A*61
$GPVTG,355.4,T,355.6,M,002.3,N,004.2,K,A*26
$GPGSV,2,1,057,41*73
$GPGSV,2,2,08,14,35,267,35,25,67,303,45,29,38,216,47,30,22,283,*7C
$GPGSA,M,3,02,04,09,12,25,29,,,,,,,2.8,1.4,2.4*37
Trace #86 at position 21.250000
$GPZDA,082546.03,09,10,2011,00,00*62
$GPRMC,082546.00,A,4611.961732,N,01258.222743,E,001.5,345.2,091011,0.2,E,A*30
$GPGGA,082547.00,4611.962251,N,01258.222652,E,1,06,1.4,140.29,M,46.25,M,,*6C
$GPGLL,4611.962251,N,01258.222652,E,082547.00,A,A*61
$GPVTG,355.4,T,355.6,M,002.3,N,004.2,K,A*26
$GPGSV,2,1,057,41*73
$GPGSV,2,2,08,14,35,267,35,25,67,303,45,29,38,216,47,30,22,283,*7C
$GPGSA,M,3,02,04,09,12,25,29,,,,,,,2.8,1.4,2.4*37
Trace #87 at position 21.500000
$GPZDA,082546.03,09,10,2011,00,00*62
$GPRMC,082546.00,A,4611.961732,N,01258.222743,E,001.5,345.2,091011,0.2,E,A*30
$GPGGA,082547.00,4611.962251,N,01258.222652,E,1,06,1.4,140.29,M,46.25,M,,*6C
$GPGLL,4611.962251,N,01258.222652,E,082547.00,A,A*61
$GPVTG,355.4,T,355.6,M,002.3,N,004.2,K,A*26
$GPGSV,2,1,057,41*73
$GPGSV,2,2,08,14,35,267,35,25,67,303,45,29,38,216,47,30,22,283,*7C
$GPGSA,M,3,02,04,09,12,25,29,,,,,,,2.8,1.4,2.4*37
Trace #88 at position 21.750000
$GPZDA,082546.03,09,10,2011,00,00*62
$GPRMC,082546.00,A,4611.961732,N,01258.222743,E,001.5,345.2,091011,0.2,E,A*30
$GPGGA,082547.00,4611.962251,N,01258.222652,E,1,06,1.4,140.29,M,46.25,M,,*6C
$GPGLL,4611.962251,N,01258.222652,E,082547.00,A,A*61
$GPVTG,355.4,T,355.6,M,002.3,N,004.2,K,A*26
$GPGSV,2,1,057,41*73
$GPGSV,2,2,08,14,35,267,35,25,67,303,45,29,38,216,47,30,22,283,*7C
$GPGSA,M,3,02,04,09,12,25,29,,,,,,,2.8,1.4,2.4*37
Trace #89 at position 22.000000
$GPZDA,082547.03,09,10,2011,00,00*63
$GPRMC,082547.00,A,4611.962251,N,01258.222652,E,002.3,355.4,091011,0.2,E,A*31
$GPGGA,082548.00,4611.962716,N,01258.222614,E,1,06,1.4,140.29,M,46.25,M,,*67
$GPGLL,4611.962716,N,01258.222614,E,082548.00,A,A*6A
$GPVTG,0.5,T,0.7,M,001.0,N,001.9,K,A*28
$GPGSV,2,1,08,02,36,095,44,04,19,048,41,09,32,147,43,12,67,057,41*74
$GPGSV,2,2,08,14,35,26704,09,10,2011,00,00*6B
$GPRMC,082548.00,A,4611.962716,N,01258.222614,E,001.0,0.5,091011,0.2,E,A*38
$GPGGA,082549.00,4611.963061,N,01258.222514,E,1,06,1.4,140.33,M,46.25,M,,*68
$GPGLL,4611.963061,N,01258.222514,E,082549.00,A,A*6E
$GPVTG,342.1,T,342.2,M,001.4,N,002.6,K,A*21
$GPGSV,2,1,08,02,36,095,45,04,19,048,41,09,32,147,43,12,67,057,40*74
$GPGSV,2,2,08,14,35,267,36,25,67,303,45,29,38,216,48,30,22,283,32*71
$GPGSA,M,3,02,04,09,12,25,29,,,,,,,2.8,1.4,2.4*37
Trace #90 at position 22.250000
$GPZDA,082547.03,09,10,2011,00,00*63
$GPRMC,082547.00,A,4611.962251,N,01258.222652,E,002.3,355.4,091011,0.2,E,A*31
$GPGGA,082548.00,4611.962716,N,01258.222614,E,1,06,1.4,140.29,M,46.25,M,,*67
$GPGLL,4611.962716,N,01258.222614,E,082548.00,A,A*6A
$GPVTG,0.5,T,0.7,M,001.0,N,001.9,K,A*28
$GPGSV,2,1,08,02,36,095,44,04,19,048,41,09,32,147,43,12,67,057,41*74
$GPGSV,2,2,08,14,35,26704,09,10,2011,00,00*6B
$GPRMC,082548.00,A,4611.962716,N,01258.222614,E,001.0,0.5,091011,0.2,E,A*38
$GPGGA,082549.00,4611.963061,N,01258.222514,E,1,06,1.4,140.33,M,46.25,M,,*68
$GPGLL,4611.963061,N,01258.222514,E,082549.00,A,A*6E
$GPVTG,342.1,T,342.2,M,001.4,N,002.6,K,A*21
$GPGSV,2,1,08,02,36,095,45,04,19,048,41,09,32,147,43,12,67,057,40*74
$GPGSV,2,2,08,14,35,267,36,25,67,303,45,29,38,216,48,30,22,283,32*71
$GPGSA,M,3,02,04,09,12,25,29,,,,,,,2.8,1.4,2.4*37
Trace #91 at position 22.500000
$GPZDA,082547.03,09,10,2011,00,00*63
$GPRMC,082547.00,A,4611.962251,N,01258.222652,E,002.3,355.4,091011,0.2,E,A*31
$GPGGA,082548.00,4611.962716,N,01258.222614,E,1,06,1.4,140.29,M,46.25,M,,*67
$GPGLL,4611.962716,N,01258.222614,E,082548.00,A,A*6A
$GPVTG,0.5,T,0.7,M,001.0,N,001.9,K,A*28
$GPGSV,2,1,08,02,36,095,44,04,19,048,41,09,32,147,43,12,67,057,41*74
$GPGSV,2,2,08,14,35,26704,09,10,2011,00,00*6B
$GPRMC,082548.00,A,4611.962716,N,01258.222614,E,001.0,0.5,091011,0.2,E,A*38
$GPGGA,082549.00,4611.963061,N,01258.222514,E,1,06,1.4,140.33,M,46.25,M,,*68
$GPGLL,4611.963061,N,01258.222514,E,082549.00,A,A*6E
$GPVTG,342.1,T,342.2,M,001.4,N,002.6,K,A*21
$GPGSV,2,1,08,02,36,095,45,04,19,048,41,09,32,147,43,12,67,057,40*74
$GPGSV,2,2,08,14,35,267,36,25,67,303,45,29,38,216,48,30,22,283,32*71
$GPGSA,M,3,02,04,09,12,25,29,,,,,,,2.8,1.4,2.4*37
Trace #92 at position 22.750000
$GPZDA,082549.03,09,10,2011,00,00*6D
$GPRM8.222514,E,001.4,342.1,091011,0.2,E,A*39
$GPGGA,082550.00,4611.963447,N,01258.222332,E,1,06,1.4,140.20,M,46.25,M,,*60
$GPGLL,4611.963447,N,01258.222332,E,082550.00,A,A*64
$GPVTG,343.2,T,343.3,M,001.5,N,002.8,K,A*2C
$GPGSV,2,1,08,02,36,095,44,04,19,048,41,09,32,147,44,12,67,057,41*73
$GPGSV,2,2,08,14,35,267,35,25,67,303,45,29,38,216,47,30,22,283,35*7A
$GPGSA,M,3,02,04,09,12,25,29,,,,,,,2.8,1.4,2.4*37
Trace #93 at position 23.000000
$GPZDA,082549.03,09,10,2011,00,00*6D
$GPRM8.222514,E,001.4,342.1,091011,0.2,E,A*39
$GPGGA,082550.00,4611.963447,N,01258.222332,E,1,06,1.4,140.20,M,46.25,M,,*60
$GPGLL,4611.963447,N,01258.222332,E,082550.00,A,A*64
$GPVTG,343.2,T,343.3,M,001.5,N,002.8,K,A*2C
$GPGSV,2,1,08,02,36,095,44,04,19,048,41,09,32,147,44,12,67,057,41*73
$GPGSV,2,2,08,14,35,267,35,25,67,303,45,29,38,216,47,30,22,283,35*7A
$GPGSA,M,3,02,04,09,12,25,29,,,,,,,2.8,1.4,2.4*37
Trace #94 at position 23.250000
$GPZDA,082549.03,09,10,2011,00,00*6D
$GPRM8.222514,E,001.4,342.1,091011,0.2,E,A*39
$GPGGA,082550.00,4611.963447,N,01258.222332,E,1,06,1.4,140.20,M,46.25,M,,*60
$GPGLL,4611.963447,N,01258.222332,E,082550.00,A,A*64
$GPVTG,343.2,T,343.3,M,001.5,N,002.8,K,A*2C
$GPGSV,2,1,08,02,36,095,44,04,19,048,41,09,32,147,44,12,67,057,41*73
$GPGSV,2,2,08,14,35,267,35,25,67,303,45,29,38,216,47,30,22,283,35*7A
$GPGSA,M,3,02,04,09,12,25,29,,,,,,,2.8,1.4,2.4*37
Trace #95 at position 23.500000
$GPZDA,082549.03,09,10,2011,00,00*6D
$GPRM8.222514,E,001.4,342.1,091011,0.2,E,A*39
$GPGGA,082550.00,4611.963447,N,01258.222332,E,1,06,1.4,140.20,M,46.25,M,,*60
$GPGLL,4611.963447,N,01258.222332,E,082550.00,A,A*64
$GPVTG,343.2,T,343.3,M,001.5,N,002.8,K,A*2C
$GPGSV,2,1,08,02,36,095,44,04,19,048,41,09,32,147,44,12,67,057,41*73
$GPGSV,2,2,08,14,35,267,35,25,67,303,45,29,38,216,47,30,22,283,35*7A
$GPGSA,M,3,02,04,09,12,25,29,,,,,,,2.8,1.4,2.4*37
Trace #96 at position 23.750000
$GPZDA,082550.04,09,10,2011,00,00*62
$GPRMC,082550.00,A,4611.963447,N,01258.222332,E,001.5,343.2,0910$GPGGA,082551.00,4611.963685,N,01258.222221,E,1,06,1.4,140.26,M,46.25,M,,*68
$GPGLL,4611.963685,N,01258.222221,E,082551.00,A,A*6A
$GPVTG,344.8,T,345.0,M,000.2,N,000.4,K,A*2C
$GPGSV,2,1,08,02,36,095,44,04,19,048,41,09,32,147,43,12,67,057,41*74
$GPGSV,2,2,08,14,35,267,36,25,67,303,44,29,38,216,47,30,22,283,*7E
$GPGSA,M,3,02,04,09,12,25,29,,,,,,,2.8,1.4,2.4*37
Trace #97 at position 24.000000
$GPZDA,082550.04,09,10,2011,00,00*62
$GPRMC,082550.00,A,4611.963447,N,01258.222332,E,001.5,343.2,0910$GPGGA,082551.00,4611.963685,N,01258.222221,E,1,06,1.4,140.26,M,46.25,M,,*68
$GPGLL,4611.963685,N,01258.222221,E,082551.00,A,A*6A
$GPVTG,344.8,T,345.0,M,000.2,N,000.4,K,A*2C
$GPGSV,2,1,08,02,36,095,44,04,19,048,41,09,32,147,43,12,67,057,41*74
$GPGSV,2,2,08,14,35,267,36,25,67,303,44,29,38,216,47,30,22,283,*7E
$GPGSA,M,3,02,04,09,12,25,29,,,,,,,2.8,1.4,2.4*37
Trace #98 at position 24.250000
$GPZDA,082550.04,09,10,2011,00,00*62
$GPRMC,082550.00,A,4611.963447,N,01258.222332,E,001.5,343.2,0910$GPGGA,082551.00,4611.963685,N,01258.222221,E,1,06,1.4,140.26,M,46.25,M,,*68
$GPGLL,4611.963685,N,01258.222221,E,082551.00,A,A*6A
$GPVTG,344.8,T,345.0,M,000.2,N,000.4,K,A*2C
$GPGSV,2,1,08,02,36,095,44,04,19,048,41,09,32,147,43,12,67,057,41*74
$GPGSV,2,2,08,14,35,267,36,25,67,303,44,29,38,216,47,30,22,283,*7E
$GPGSA,M,3,02,04,09,12,25,29,,,,,,,2.8,1.4,2.4*37
Trace #99 at position 24.500000
$GPZDA,082550.04,09,10,2011,00,00*62
$GPRMC,082550.00,A,4611.963447,N,01258.222332,E,001.5,343.2,0910$GPGGA,082551.00,4611.963685,N,01258.222221,E,1,06,1.4,140.26,M,46.25,M,,*68
$GPGLL,4611.963685,N,01258.222221,E,082551.00,A,A*6A
$GPVTG,344.8,T,345.0,M,000.2,N,000.4,K,A*2C
$GPGSV,2,1,08,02,36,095,44,04,19,048,41,09,32,147,43,12,67,057,41*74
$GPGSV,2,2,08,14,35,267,36,25,67,303,44,29,38,216,47,30,22,283,*7E
$GPGSA,M,3,02,04,09,12,25,29,,,,,,,2.8,1.4,2.4*37
Trace #100 at position 24.750000
$GPZDA,082551.03,09,10,2011,00,00*64
$GPRMC,082551.00,A,4611.963685,N,01258.222221,E,000.2,344.8,091011,0.2,E,A*35
$GPGGA,082552.00,4611.963886,N,01258.222159,E,1,06,1.4,140.45,M,46.25,M,,*6F
$GPGLL,4611.963886,N,01258.222159,E,082552.00,A,A*68
$GPVTG,353.2,T,353.4,M,001.1,N,002.0,K,A*27
$GPGSV,2,1,08,02,36,095,45,04,19,048,41,09,32,147,43,12,67,057,40*74
$GPGSV,2,2,08,14,35,267,36,25,67,303,44,29,38,216,46,30,22,283,32*7E
$GPGSA,M,3,02,04,09,12,25,29,,,,,,,2.8,1.4,2.4*37
Trace #101 at position 25.000000
$GPZDA,082551.03,09,10,2011,00,00*64
$GPRMC,082551.00,A,4611.963685,N,01258.222221,E,000.2,344.8,091011,0.2,E,A*35
$GPGGA,082552.00,4611.963886,N,01258.222159,E,1,06,1.4,140.45,M,46.25,M,,*6F
$GPGLL,4611.963886,N,01258.222159,E,082552.00,A,A*68
$GPVTG,353.2,T,353.4,M,001.1,N,002.0,K,A*27
$GPGSV,2,1,08,02,36,095,45,04,19,048,41,09,32,147,43,12,67,057,40*74
$GPGSV,2,2,08,14,35,267,36,25,67,303,44,29,38,216,46,30,22,283,32*7E
$GPGSA,M,3,02,04,09,12,25,29,,,,,,,2.8,1.4,2.4*37
Trace #102 at position 25.250000
$GPZDA,082555.03,09,10,2011,00,00*60
$GPRMC,082555.00,A,4611.964927,N,01258.221641,E,001.9,345.9,091011,0.2,E,A*3A
$GPGGA,082556.00,4611.965475,N,01258.221492,E,1,06,1.4,140.57,M,46.25,M,,*6F
$GPGLL,4611.965475,N,01258.221492,E,082556.00,A,A*6B
$GPVTG,353.1,T,353.3,M,002.1,N,003.9,K,A*28
$GPGSV,2,1,08,02,36,095,45,04,19,048,39,09,32,147,44,12,67,057,40*7C
$GPGSV,2,2,08,14,35,267,37,25,67,303,45,29,38,216,46,30,22,283,31*7D
$GPGSA,M,3,02,04,09,12,25,29,,,,,,,2.8,1.4,2.4*37
Trace #103 at position 25.500000
$GPZDA,082556.03,09,10,2011,00,00*63
$GPRMC,082556.00,A,4611.965475,N,01258.221492,E,002.1,353.1,091011,0.2,E,A*3A
$GPGGA,082557.00,4611.966043,N,01258.221502,E,1,06,1.4,140.53,M,46.25,M,,*60
$GPGLL,4611.966043,N,01258.221502,E,082557.00,A,A*60
$GPVTG,13.9,T,14.0,M,002.0,N,003.7,K,A*2B
$GPGSV,2,1,08,02,36,095,45,04,19,048,41,09,32,147,44,12,67,057,41*72
$GPGSV,2,2,08,14,35,267,34,25,67,303,44,29,38,216,47,30,22,283,35*7A
$GPGSA,M,3,02,04,09,12,25,29,,,,,,,2.8,1.4,2.4*37
Trace #104 at position 25.750000
$GPZDA,082556.03,09,10,2011,00,00*63
$GPRMC,082556.00,A,4611.965475,N,01258.221492,E,002.1,353.1,091011,0.2,E,A*3A
$GPGGA,082557.00,4611.966043,N,01258.221502,E,1,06,1.4,140.53,M,46.25,M,,*60
$GPGLL,4611.966043,N,01258.221502,E,082557.00,A,A*60
$GPVTG,13.9,T,14.0,M,002.0,N,003.7,K,A*2B
$GPGSV,2,1,08,02,36,095,45,04,19,048,41,09,32,147,44,12,67,057,41*72
$GPGSV,2,2,08,14,35,267,34,25,67,303,44,29,38,216,47,30,22,283,35*7A
$GPGSA,M,3,02,04,09,12,25,29,,,,,,,2.8,1.4,2.4*37
Trace #105 at position 26.000000
$GPZDA,082556.03,09,10,2011,00,00*63
$GPRMC,082556.00,A,4611.965475,N,01258.221492,E,002.1,353.1,091011,0.2,E,A*3A
$GPGGA,082557.00,4611.966043,N,01258.221502,E,1,06,1.4,140.53,M,46.25,M,,*60
$GPGLL,4611.966043,N,01258.221502,E,082557.00,A,A*60
$GPVTG,13.9,T,14.0,M,002.0,N,003.7,K,A*2B
$GPGSV,2,1,08,02,36,095,45,04,19,048,41,09,32,147,44,12,67,057,41*72
$GPGSV,2,2,08,14,35,267,34,25,67,303,44,29,38,216,47,30,22,283,35*7A
$GPGSA,M,3,02,04,09,12,25,29,,,,,,,2.8,1.4,2.4*37
Trace #106 at position 26.250000
$GPZDA,082557.03,09,10,2011,00,00*62
$GPRMC,082557.00,A,4611.966043,N,01258.221502,E,002.0,13.9,091011,0.2,E,A*0F
$GPGGA,082558.00,4611.966520,N,01258.221465,E,1,06,1.4,140.51,M,46.25,M,,*6D
$GPGLL,4611.966520,N,01258.221465,E,082558.00,A,A*6F
$GPVTG,347.1,T,347.3,M,001.5,N,002.8,K,A*2F
$GPGSV,2,1,08,02,36,095,45,04,19,048,43,09,32,147,43,12,67,057,42*74
$GPGSV,2,2,08,14,35,267,36,25,67,304,44,29,38,216,47,30,22,283,36*7C
$GPGSA,M,3,02,04,09,12,25,29,,,,,,,2.8,1.4,2.4*37
Trace #107 at position 26.500000
$GPZDA,082557.03,09,10,2011,00,00*62
$GPRMC,082557.00,A,4611.966043,N,01258.221502,E,002.0,13.9,091011,0.2,E,A*0F
$GPGGA,082558.00,4611.966520,N,01258.221465,E,1,06,1.4,140.51,M,46.25,M,,*6D
$GPGLL,4611.966520,N,01258.221465,E,082558.00,A,A*6F
$GPVTG,347.1,T,347.3,M,001.5,N,002.8,K,A*2F
$GPGSV,2,1,08,02,36,095,45,04,19,048,43,09,32,147,43,12,67,057,42*74
$GPGSV,2,2,08,14,35,267,36,25,67,304,44,29,38,216,47,30,22,283,36*7C
$GPGSA,M,3,02,04,09,12,25,29,,,,,,,2.8,1.4,2.4*37
Trace #108 at position 26.750000
$GPZDA,082557.03,09,10,2011,00,00*62
$GPRMC,082557.00,A,4611.966043,N,01258.221502,E,002.0,13.9,091011,0.2,E,A*0F
$GPGGA,082558.00,4611.966520,N,01258.221465,E,1,06,1.4,140.51,M,46.25,M,,*6D
$GPGLL,4611.966520,N,01258.221465,E,082558.00,A,A*6F
$GPVTG,347.1,T,347.3,M,001.5,N,002.8,K,A*2F
$GPGSV,2,1,08,02,36,095,45,04,19,048,43,09,32,147,43,12,67,057,42*74
$GPGSV,2,2,08,14,35,267,36,25,67,304,44,29,38,216,47,30,22,283,36*7C
$GPGSA,M,3,02,04,09,12,25,29,,,,,,,2.8,1.4,2.4*37
Trace #109 at position 27.000000
$GPZDA,082558.04,09,10,2011,00,00*6A
$GPRMC,082558.00,A,4611.966520,N,01258.221465,E,001.5,347.1,091011,0.2,E,A*3C
$GPGGA,082559.00,4611.966675,N,01258.221401,E,1,06,1.4,140.51,M,46.25,M,,*6D
$GPGLL,4611.966675,N,01258.221401,E,082559.00,A,A*6F
$GPVTG,133.0,T,133.2,M,000.5,N,000.8,K,A*2C
$GPGSV,2,1,08,02,36,095,45,04,19,048,41,09,32,147,44,12,67,057,41*72
$GPGSV,2,2,08,14,35,267,38,25,67,304,44,29,38,216,47,30,22,283,37*73
$GPGSA,M,3,02,04,09,12,25,29,,,,,,,2.8,1.4,2.4*37
Trace #110 at position 27.250000
$GPZDA,082558.04,09,10,2011,00,00*6A
$GPRMC,082558.00,A,4611.966520,N,01258.221465,E,001.5,347.1,091011,0.2,E,A*3C
$GPGGA,082559.00,4611.966675,N,01258.221401,E,1,06,1.4,140.51,M,46.25,M,,*6D
$GPGLL,4611.966675,N,01258.221401,E,082559.00,A,A*6F
$GPVTG,133.0,T,133.2,M,000.5,N,000.8,K,A*2C
$GPGSV,2,1,08,02,36,095,45,04,19,048,41,09,32,147,44,12,67,057,41*72
$GPGSV,2,2,08,14,35,267,38,25,67,304,44,29,38,216,47,30,22,283,37*73
$GPGSA,M,3,02,04,09,12,25,29,,,,,,,2.8,1.4,2.4*37
Trace #111 at position 27.500000
$GPZDA,082558.04,09,10,2011,00,00*6A
$GPRMC,082558.00,A,4611.966520,N,01258.221465,E,001.5,347.1,091011,0.2,E,A*3C
$GPGGA,082559.00,4611.966675,N,01258.221401,E,1,06,1.4,140.51,M,46.25,M,,*6D
$GPGLL,4611.966675,N,01258.221401,E,082559.00,A,A*6F
$GPVTG,133.0,T,133.2,M,000.5,N,000.8,K,A*2C
$GPGSV,2,1,08,02,36,095,45,04,19,048,41,09,32,147,44,12,67,057,41*72
$GPGSV,2,2,08,14,35,267,38,25,67,304,44,29,38,216,47,30,22,283,37*73
$GPGSA,M,3,02,04,09,12,25,29,,,,,,,2.8,1.4,2.4*37
Trace #112 at position 27.750000
$GPZDA,082558.04,09,10,2011,00,00*6A
$GPRMC,082558.00,A,4611.966520,N,01258.221465,E,001.5,347.1,091011,0.2,E,A*3C
$GPGGA,082559.00,4611.966675,N,01258.221401,E,1,06,1.4,140.51,M,46.25,M,,*6D
$GPGLL,4611.966675,N,01258.221401,E,082559.00,A,A*6F
$GPVTG,133.0,T,133.2,M,000.5,N,000.8,K,A*2C
$GPGSV,2,1,08,02,36,095,45,04,19,048,41,09,32,147,44,12,67,057,41*72
$GPGSV,2,2,08,14,35,267,38,25,67,304,44,29,38,216,47,30,22,283,37*73
$GPGSA,M,3,02,04,09,12,25,29,,,,,,,2.8,1.4,2.4*37
Trace #113 at position 28.000000
$GPZDA,082558.04,09,10,2011,00,00*6A
