Trace #1 at position 0.000000
$GPZDA,132237.03,06,10,2011,00,00*66
$GPRMC,132237.00,A,4611.951408,N,01258.218063,E,000.1,60.7,061011,0.2,E,A*05
$GPGGA,132238.00,4611.951406,N,01258.218061,E,1,04,3.7,137.71,M,46.25,M,,*6C
$GPGLL,4611.951406,N,01258.218061,E,132238.00,A,A*6F
$GPVTG,257.2,T,257.4,M,000.1,N,000.2,K,A*26
$GPGSV,3,1,09,19,08,281,29,16,57,293,28,18,42,129,42,29,19,094,35*7E
$GPGSV,3,2,09,30,21,161,32,21,68,062,37,22,19,169,37,03,37,292,*77
$GPGSV,3,3,09,06,52,295,,,,,,,,,,,,,*4F
$GPGSA,M,3,18,29,21,22,,,,,,,,,5.3,3.7,3.7*39
Trace #2 at position 0.250000
$GPZDA,132241.04,06,10,2011,00,00*60
$GPRMC,132241.00,A,4611.951355,N,01258.217972,E,000.1,306.1,061011,0.2,E,A*38
$GPGGA,132242.00,4611.951332,N,01258.217864,E,1,05,3.7,137.42,M,46.25,M,,*62
$GPGLL,4611.951332,N,01258.217864,E,132242.00,A,A*60
$GPVTG,64.5,T,64.7,M,000.0,N,000.0,K,A*21
$GPGSV,3,1,09,19,08,281,32,16,57,293,31,18,42,129,42,29,19,094,34*7D
$GPGSV,3,2,09,30,21,161,33,21,68,062,40,22,19,169,38,03,37,292,*79
$GPGSV,3,3,09,06,52,295,,,,,,,,,,,,,*4F
$GPGSA,M,3,18,29,30,21,22,,,,,,,,5.2,3.7,3.7*3B
Trace #3 at position 0.500000
$GPZDA,132242.03,06,10,2011,00,00*64
$GPRMC,132242.00,A,4611.951332,N,01258.217864,E,000.0,64.5,061011,0.2,E,A*0E
$GPGGA,132243.00,4611.951318,N,01258.217800,E,1,05,3.7,137.28,M,46.25,M,,*65
$GPGLL,4611.951318,N,01258.217800,E,132243.00,A,A*6B
$GPVTG,37.2,T,37.3,M,000.1,N,000.2,K,A*21
$GPGSV,3,1,09,19,08,281,32,16,57,293,31,18,42,128,41,29,19,094,34*7F
$GPGSV,3,2,09,30,21,161,33,21,68,062,40,22,19,169,38,03,37,292,*79
$GPGSV,3,3,09,06,52,295,,,,,,,,,,,,,*4F
$GPGSA,M,3,18,29,30,21,22,,,,,,,,5.2,3.7,3.7*3B
Trace #4 at position 0.750000
$GPZDA,132243.03,06,10,2011,00,00*65
$GPRMC,132243.00,A,4611.951318,N,01258.217800,E,000.1,37.2,061011,0.2,E,A*05
$GPGGA,132244.00,4611.951287,N,01258.217776,E,1,05,3.7,137.27,M,46.25,M,,*64
$GPGLL,4611.951287,N,01258.217776,E,132244.00,A,A*65
$GPVTG,122.9,T,123.0,M,000.2,N,000.4,K,A*2D
$GPGSV,3,1,09,19,08,281,33,16,57,293,31,18,42,128,39,29,19,094,33*76
$GPGSV,3,2,09,30,21,161,33,21,68,062,37,22,19,169,37,03,37,292,*76
$GPGSV,3,3,09,06,52,295,,,,,,,,,,,,,*4F
$GPGSA,M,3,18,29,30,21,22,,,,,,,,5.2,3.7,3.7*3B
Trace #5 at position 1.000000
$GPZDA,132243.03,06,10,2011,00,00*65
$GPRMC,132243.00,A,4611.951318,N,01258.217800,E,000.1,37.2,061011,0.2,E,A*05
$GPGGA,132244.00,4611.951287,N,01258.217776,E,1,05,3.7,137.27,M,46.25,M,,*64
$GPGLL,4611.951287,N,01258.217776,E,132244.00,A,A*65
$GPVTG,122.9,T,123.0,M,000.2,N,000.4,K,A*2D
$GPGSV,3,1,09,19,08,281,33,16,57,293,31,18,42,128,39,29,19,094,33*76
$GPGSV,3,2,09,30,21,161,33,21,68,062,37,22,19,169,37,03,37,292,*76
$GPGSV,3,3,09,06,52,295,,,,,,,,,,,,,*4F
$GPGSA,M,3,18,29,30,21,22,,,,,,,,5.2,3.7,3.7*3B
Trace #6 at position 1.250000
$GPZDA,132244.03,06,10,2011,00,00*62
$GPRMC,132244.00,A,4611.951287,N,01258.217776,E,000.2,122.9,061011,0.2,E,A*36
$GPGGA,132245.00,4611.951351,N,01258.217727,E,1,05,3.7,137.28,M,46.25,M,,*64
$GPGLL,4611.951351,N,01258.217727,E,132245.00,A,A*6A
$GPVTG,354.4,T,354.5,M,000.8,N,001.4,K,A*2F
$GPGSV,3,1,09,19,08,281,31,16,57,293,27,18,42,128,40,29,19,094,35*7B
$GPGSV,3,2,09,30,21,161,34,21,68,062,38,22,19,169,38,03,37,292,*71
$GPGSV,3,3,09,06,52,295,,,,,,,,,,,,,*4F
$GPGSA,M,3,18,29,30,21,22,,,,,,,,5.2,3.7,3.7*3B
Trace #7 at position 1.500000
$GPZDA,132244.03,06,10,2011,00,00*62
$GPRMC,132244.00,A,4611.951287,N,01258.217776,E,000.2,122.9,061011,0.2,E,A*36
$GPGGA,132245.00,4611.951351,N,01258.217727,E,1,05,3.7,137.28,M,46.25,M,,*64
$GPGLL,4611.951351,N,01258.217727,E,132245.00,A,A*6A
$GPVTG,354.4,T,354.5,M,000.8,N,001.4,K,A*2F
$GPGSV,3,1,09,19,08,281,31,16,57,293,27,18,42,128,40,29,19,094,35*7B
$GPGSV,3,2,09,30,21,161,34,21,68,062,38,22,19,169,38,03,37,292,*71
$GPGSV,3,3,09,06,52,295,,,,,,,,,,,,,*4F
$GPGSA,M,3,18,29,30,21,22,,,,,,,,5.2,3.7,3.7*3B
Trace #8 at position 1.750000
$GPZDA,132245.03,06,10,2011,00,00*63
$GPRMC,132245.00,A,4611.951351,N,01258.217727,E,000.8,354.4,061011,0.2,E,A*3D
$GPGGA,132246.00,4611.951386,N,01258.217651,E,1,05,3.7,137.29,M,46.25,M,,*6C
$GPGLL,4611.951386,N,01258.217651,E,132246.00,A,A*63
$GPVTG,172.7,T,172.9,M,000.4,N,000.7,K,A*2E
$GPGSV,3,1,09,19,08,281,31,16,57,293,30,18,42,128,40,29,19,094,37*7F
$GPGSV,3,2,09,30,21,161,34,21,68,062,38,22,19,169,35,03,37,292,*7C
$GPGSV,3,3,09,06,52,295,,,,,,,,,,,,,*4F
$GPGSA,M,3,18,29,30,21,22,,,,,,,,5.2,3.7,3.7*3B
Trace #9 at position 2.000000
$GPZDA,132246.03,06,10,2011,00,00*60
$GPRMC,132246.00,A,4611.951386,N,01258.217651,E,000.4,172.7,061011,0.2,E,A*3D
$GPGGA,132247.00,4611.951479,N,01258.217669,E,1,04,3.7,137.46,M,46.25,M,,*69
$GPGLL,4611.951479,N,01258.217669,E,132247.00,A,A*6E
$GPVTG,345.1,T,345.2,M,000.9,N,001.7,K,A*2F
$GPGSV,3,1,09,19,08,281,29,16,57,293,29,18,42,128,39,29,19,094,36*71
$GPGSV,3,2,09,30,21,161,29,21,67,062,38,22,19,169,38,03,37,292,*72
$GPGSV,3,3,09,06,52,295,,,,,,,,,,,,,*4F
$GPGSA,M,3,18,29,21,22,,,,,,,,,5.3,3.7,3.7*39
Trace #10 at position 2.250000
$GPZDA,132247.03,06,10,2011,00,00*61
$GPRMC,132247.00,A,4611.951479,N,01258.217669,E,000.9,345.1,061011,0.2,E,A*3D
$GPGGA,132248.00,4611.951722,N,01258.217637,E,1,04,3.7,137.48,M,46.25,M,,*6E
$GPGLL,4611.951722,N,01258.217637,E,132248.00,A,A*67
$GPVTG,348.9,T,349.0,M,000.8,N,001.5,K,A*27
$GPGSV,3,1,09,19,08,281,27,16,57,293,29,18,42,128,38,29,19,094,34*7C
$GPGSV,3,2,09,30,21,161,32,21,67,062,37,22,19,169,38,03,37,292,*77
$GPGSV,3,3,09,06,52,295,,,,,,,,,,,,,*4F
$GPGSA,M,3,18,29,21,22,,,,,,,,,5.3,3.7,3.7*39
Trace #11 at position 2.500000
$GPZDA,132247.03,06,10,2011,00,00*61
$GPRMC,132247.00,A,4611.951479,N,01258.217669,E,000.9,345.1,061011,0.2,E,A*3D
$GPGGA,132248.00,4611.951722,N,01258.217637,E,1,04,3.7,137.48,M,46.25,M,,*6E
$GPGLL,4611.951722,N,01258.217637,E,132248.00,A,A*67
$GPVTG,348.9,T,349.0,M,000.8,N,001.5,K,A*27
$GPGSV,3,1,09,19,08,281,27,16,57,293,29,18,42,128,38,29,19,094,34*7C
$GPGSV,3,2,09,30,21,161,32,21,67,062,37,22,19,169,38,03,37,292,*77
$GPGSV,3,3,09,06,52,295,,,,,,,,,,,,,*4F
$GPGSA,M,3,18,29,21,22,,,,,,,,,5.3,3.7,3.7*39
Trace #12 at position 2.750000
$GPZDA,132248.03,06,10,2011,00,00*6E
$GPRMC,132248.00,A,4611.951722,N,01258.217637,E,000.8,348.9,061011,0.2,E,A*30
$GPGGA,132249.00,4611.951967,N,01258.217345,E,1,05,3.7,137.20,M,46.25,M,,*6F
$GPGLL,4611.951967,N,01258.217345,E,132249.00,A,A*69
$GPVTG,320.1,T,320.3,M,001.5,N,002.7,K,A*20
$GPGSV,3,1,09,19,08,281,29,16,57,293,27,18,42,128,40,29,19,094,34*73
$GPGSV,3,2,09,30,21,161,34,21,67,062,38,22,19,169,39,03,37,292,*7F
$GPGSV,3,3,09,06,52,295,,,,,,,,,,,,,*4F
$GPGSA,M,3,18,29,30,21,22,,,,,,,,5.2,3.7,3.7*3B
Trace #13 at position 3.000000
$GPZDA,132248.03,06,10,2011,00,00*6E
$GPRMC,132248.00,A,4611.951722,N,01258.217637,E,000.8,348.9,061011,0.2,E,A*30
$GPGGA,132249.00,4611.951967,N,01258.217345,E,1,05,3.7,137.20,M,46.25,M,,*6F
$GPGLL,4611.951967,N,01258.217345,E,132249.00,A,A*69
$GPVTG,320.1,T,320.3,M,001.5,N,002.7,K,A*20
$GPGSV,3,1,09,19,08,281,29,16,57,293,27,18,42,128,40,29,19,094,34*73
$GPGSV,3,2,09,30,21,161,34,21,67,062,38,22,19,169,39,03,37,292,*7F
$GPGSV,3,3,09,06,52,295,,,,,,,,,,,,,*4F
$GPGSA,M,3,18,29,30,21,22,,,,,,,,5.2,3.7,3.7*3B
Trace #14 at position 3.250000
$GPZDA,132249.03,06,10,2011,00,00*6F
$GPRMC,132249.00,A,4611.951967,N,01258.217345,E,001.5,320.1,061011,0.2,E,A*34
$GPGGA,132250.00,4611.952155,N,01258.217099,E,1,05,3.7,136.96,M,46.25,M,,*63
$GPGLL,4611.952155,N,01258.217099,E,132250.00,A,A*69
$GPVTG,350.4,T,350.5,M,000.5,N,000.9,K,A*2E
$GPGSV,3,1,09,19,08,281,31,16,57,293,30,18,42,128,40,29,19,094,34*7C
$GPGSV,3,2,09,30,21,161,32,21,67,062,38,22,19,169,38,03,37,292,*78
$GPGSV,3,3,09,06,52,295,,,,,,,,,,,,,*4F
$GPGSA,M,3,18,29,30,21,22,,,,,,,,5.2,3.7,3.7*3B
Trace #15 at position 3.500000
$GPZDA,132250.03,06,10,2011,00,00*67
$GPRMC,132250.00,A,4611.952155,N,01258.217099,E,000.5,350.4,061011,0.2,E,A*37
$GPGGA,132251.00,4611.952292,N,01258.217033,E,1,05,3.7,136.83,M,46.25,M,,*6E
$GPGLL,4611.952292,N,01258.217033,E,132251.00,A,A*60
$GPVTG,355.1,T,355.2,M,000.7,N,001.3,K,A*25
$GPGSV,3,1,09,19,08,281,30,16,57,293,,18,42,128,41,29,19,094,34*7F
$GPGSV,3,2,09,30,21,161,32,21,67,062,36,22,19,169,37,03,37,292,*79
$GPGSV,3,3,09,06,52,295,,,,,,,,,,,,,*4F
$GPGSA,M,3,18,29,30,21,22,,,,,,,,5.2,3.7,3.7*3B
Trace #16 at position 3.750000
$GPZDA,132250.03,06,10,2011,00,00*67
$GPRMC,132250.00,A,4611.952155,N,01258.217099,E,000.5,350.4,061011,0.2,E,A*37
$GPGGA,132251.00,4611.952292,N,01258.217033,E,1,05,3.7,136.83,M,46.25,M,,*6E
$GPGLL,4611.952292,N,01258.217033,E,132251.00,A,A*60
$GPVTG,355.1,T,355.2,M,000.7,N,001.3,K,A*25
$GPGSV,3,1,09,19,08,281,30,16,57,293,,18,42,128,41,29,19,094,34*7F
$GPGSV,3,2,09,30,21,161,32,21,67,062,36,22,19,169,37,03,37,292,*79
$GPGSV,3,3,09,06,52,295,,,,,,,,,,,,,*4F
$GPGSA,M,3,18,29,30,21,22,,,,,,,,5.2,3.7,3.7*3B
Trace #17 at position 4.000000
$GPZDA,132251.03,06,10,2011,00,00*66
$GPRMC,132251.00,A,4611.952292,N,01258.217033,E,000.7,355.1,061011,0.2,E,A*3C
$GPGGA,132252.00,4611.952528,N,01258.216965,E,1,05,3.7,136.80,M,46.25,M,,*63
$GPGLL,4611.952528,N,01258.216965,E,132252.00,A,A*6E
$GPVTG,357.1,T,357.2,M,001.2,N,002.3,K,A*22
$GPGSV,3,1,09,19,08,281,29,16,57,293,,18,42,128,40,29,19,094,36*74
$GPGSV,3,2,09,30,21,161,36,21,67,062,38,22,19,169,38,03,37,292,*7C
$GPGSV,3,3,09,06,52,295,,,,,,,,,,,,,*4F
$GPGSA,M,3,18,29,30,21,22,,,,,,,,5.2,3.7,3.7*3B
Trace #18 at position 4.250000
$GPZDA,132253.04,06,10,2011,00,00*63
$GPRMC,132253.00,A,4611.952702,N,01258.216943,E,000.3,39.5,061011,0.2,E,A*04
$GPGGA,132254.00,4611.952800,N,01258.216902,E,1,05,3.7,136.81,M,46.25,M,,*62
$GPGLL,4611.952800,N,01258.216902,E,132254.00,A,A*6E
$GPVTG,347.6,T,347.7,M,000.6,N,001.1,K,A*24
$GPGSV,3,1,09,19,08,281,30,16,57,293,,18,42,128,39,29,19,094,35*71
$GPGSV,3,2,09,30,21,161,37,21,67,062,36,22,20,169,38,03,37,292,*79
$GPGSV,3,3,09,06,52,295,,,,,,,,,,,,,*4F
$GPGSA,M,3,18,29,30,21,22,,,,,,,,5.2,3.7,3.7*3B
Trace #19 at position 4.500000
$GPZDA,132253.04,06,10,2011,00,00*63
$GPRMC,132253.00,A,4611.952702,N,01258.216943,E,000.3,39.5,061011,0.2,E,A*04
$GPGGA,132254.00,4611.952800,N,01258.216902,E,1,05,3.7,136.81,M,46.25,M,,*62
$GPGLL,4611.952800,N,01258.216902,E,132254.00,A,A*6E
$GPVTG,347.6,T,347.7,M,000.6,N,001.1,K,A*24
$GPGSV,3,1,09,19,08,281,30,16,57,293,,18,42,128,39,29,19,094,35*71
$GPGSV,3,2,09,30,21,161,37,21,67,062,36,22,20,169,38,03,37,292,*79
$GPGSV,3,3,09,06,52,295,,,,,,,,,,,,,*4F
$GPGSA,M,3,18,29,30,21,22,,,,,,,,5.2,3.7,3.7*3B
Trace #20 at position 4.750000
$GPZDA,132254.04,06,10,2011,00,00*64
$GPRMC,132254.00,A,4611.952800,N,01258.216902,E,000.6,347.6,061011,0.2,E,A*37
$GPGGA,132255.00,4611.953004,N,01258.216611,E,1,05,3.7,136.71,M,46.25,M,,*6C
$GPGLL,4611.953004,N,01258.216611,E,132255.00,A,A*6F
$GPVTG,308.2,T,308.4,M,001.5,N,002.8,K,A*2B
$GPGSV,3,1,09,19,08,281,28,16,57,293,,18,42,128,40,29,19,094,36*75
$GPGSV,3,2,09,30,21,161,37,21,67,062,36,22,20,169,39,03,37,292,*78
$GPGSV,3,3,09,06,52,295,,,,,,,,,,,,,*4F
$GPGSA,M,3,18,29,30,21,22,,,,,,,,5.2,3.7,3.7*3B
Trace #21 at position 5.000000
$GPZDA,132254.04,06,10,2011,00,00*64
$GPRMC,132254.00,A,4611.952800,N,01258.216902,E,000.6,347.6,061011,0.2,E,A*37
$GPGGA,132255.00,4611.953004,N,01258.216611,E,1,05,3.7,136.71,M,46.25,M,,*6C
$GPGLL,4611.953004,N,01258.216611,E,132255.00,A,A*6F
$GPVTG,308.2,T,308.4,M,001.5,N,002.8,K,A*2B
$GPGSV,3,1,09,19,08,281,28,16,57,293,,18,42,128,40,29,19,094,36*75
$GPGSV,3,2,09,30,21,161,37,21,67,062,36,22,20,169,39,03,37,292,*78
$GPGSV,3,3,09,06,52,295,,,,,,,,,,,,,*4F
$GPGSA,M,3,18,29,30,21,22,,,,,,,,5.2,3.7,3.7*3B
Trace #22 at position 5.250000
$GPZDA,132255.03,06,10,2011,00,00*62
$GPRMC,132255.00,A,4611.953004,N,01258.216611,E,001.5,308.2,061011,0.2,E,A*3B
$GPGGA,132256.00,4611.953232,N,01258.216287,E,1,05,3.7,136.70,M,46.25,M,,*62
$GPGLL,4611.953232,N,01258.216287,E,132256.00,A,A*60
$GPVTG,329.1,T,329.3,M,000.9,N,001.6,K,A*2F
$GPGSV,3,1,09,19,08,281,29,16,57,293,,18,42,128,40,29,19,094,36*74
$GPGSV,3,2,09,30,21,161,34,21,67,062,37,22,20,169,37,03,37,292,*74
$GPGSV,3,3,09,06,52,295,,,,,,,,,,,,,*4F
$GPGSA,M,3,18,29,30,21,22,,,,,,,,5.2,3.7,3.7*3B
Trace #23 at position 5.500000
$GPZDA,132255.03,06,10,2011,00,00*62
$GPRMC,132255.00,A,4611.953004,N,01258.216611,E,001.5,308.2,061011,0.2,E,A*3B
$GPGGA,132256.00,4611.953232,N,01258.216287,E,1,05,3.7,136.70,M,46.25,M,,*62
$GPGLL,4611.953232,N,01258.216287,E,132256.00,A,A*60
$GPVTG,329.1,T,329.3,M,000.9,N,001.6,K,A*2F
$GPGSV,3,1,09,19,08,281,29,16,57,293,,18,42,128,40,29,19,094,36*74
$GPGSV,3,2,09,30,21,161,34,21,67,062,37,22,20,169,37,03,37,292,*74
$GPGSV,3,3,09,06,52,295,,,,,,,,,,,,,*4F
$GPGSA,M,3,18,29,30,21,22,,,,,,,,5.2,3.7,3.7*3B
Trace #24 at position 5.750000
$GPZDA,132256.03,06,10,2011,00,00*61
$GPRMC,132256.00,A,4611.953232,N,01258.216287,E,000.9,329.1,061011,0.2,E,A*39
$GPGGA,132257.00,4611.953307,N,01258.216182,E,1,05,3.7,136.78,M,46.25,M,,*6A
$GPGLL,4611.953307,N,01258.216182,E,132257.00,A,A*60
$GPVTG,221.4,T,221.6,M,000.2,N,000.4,K,A*27
$GPGSV,3,1,09,19,08,281,,16,57,293,,18,42,128,40,29,19,094,31*78
$GPGSV,3,2,09,30,21,161,35,21,67,062,37,22,20,169,39,03,37,292,*7B
$GPGSV,3,3,09,06,52,295,,,,,,,,,,,,,*4F
$GPGSA,M,3,18,29,30,21,22,,,,,,,,5.2,3.7,3.7*3B
Trace #25 at position 6.000000
$GPZDA,132256.03,06,10,2011,00,00*61
$GPRMC,132256.00,A,4611.953232,N,01258.216287,E,000.9,329.1,061011,0.2,E,A*39
$GPGGA,132257.00,4611.953307,N,01258.216182,E,1,05,3.7,136.78,M,46.25,M,,*6A
$GPGLL,4611.953307,N,01258.216182,E,132257.00,A,A*60
$GPVTG,221.4,T,221.6,M,000.2,N,000.4,K,A*27
$GPGSV,3,1,09,19,08,281,,16,57,293,,18,42,128,40,29,19,094,31*78
$GPGSV,3,2,09,30,21,161,35,21,67,062,37,22,20,169,39,03,37,292,*7B
$GPGSV,3,3,09,06,52,295,,,,,,,,,,,,,*4F
$GPGSA,M,3,18,29,30,21,22,,,,,,,,5.2,3.7,3.7*3B
Trace #26 at position 6.250000
$GPZDA,132257.03,06,10,2011,00,00*60
$GPRMC,132257.00,A,4611.953307,N,01258.216182,E,000.2,221.4,061011,0.2,E,A*3E
$GPGGA,132258.00,4611.956690,N,01258.218726,E,1,04,30.8,124.25,M,46.25,M,,*58
$GPGLL,4611.956690,N,01258.218726,E,132258.00,A,A*67
$GPVTG,206.4,T,206.5,M,000.9,N,001.7,K,A*2D
$GPGSV,3,1,09,19,08,281,,16,57,293,,18,42,128,40,29,19,094,31*78
$GPGSV,3,2,09,30,21,161,34,21,67,062,37,22,20,169,39,03,37,292,*7A
$GPGSV,3,3,09,06,52,295,,,,,,,,,,,,,*4F
$GPGSA,M,3,18,30,21,22,,,,,,,,,62.3,30.8,54.1*0B
Trace #27 at position 6.500000
$GPZDA,132257.03,06,10,2011,00,00*60
$GPRMC,132257.00,A,4611.953307,N,01258.216182,E,000.2,221.4,061011,0.2,E,A*3E
$GPGGA,132258.00,4611.956690,N,01258.218726,E,1,04,30.8,124.25,M,46.25,M,,*58
$GPGLL,4611.956690,N,01258.218726,E,132258.00,A,A*67
$GPVTG,206.4,T,206.5,M,000.9,N,001.7,K,A*2D
$GPGSV,3,1,09,19,08,281,,16,57,293,,18,42,128,40,29,19,094,31*78
$GPGSV,3,2,09,30,21,161,34,21,67,062,37,22,20,169,39,03,37,292,*7A
$GPGSV,3,3,09,06,52,295,,,,,,,,,,,,,*4F
$GPGSA,M,3,18,30,21,22,,,,,,,,,62.3,30.8,54.1*0B
Trace #28 at position 6.750000
$GPZDA,132257.03,06,10,2011,00,00*60
$GPRMC,132257.00,A,4611.953307,N,01258.216182,E,000.2,221.4,061011,0.2,E,A*3E
$GPGGA,132258.00,4611.956690,N,01258.218726,E,1,04,30.8,124.25,M,46.25,M,,*58
$GPGLL,4611.956690,N,01258.218726,E,132258.00,A,A*67
$GPVTG,206.4,T,206.5,M,000.9,N,001.7,K,A*2D
$GPGSV,3,1,09,19,08,281,,16,57,293,,18,42,128,40,29,19,094,31*78
$GPGSV,3,2,09,30,21,161,34,21,67,062,37,22,20,169,39,03,37,292,*7A
$GPGSV,3,3,09,06,52,295,,,,,,,,,,,,,*4F
$GPGSA,M,3,18,30,21,22,,,,,,,,,62.3,30.8,54.1*0B
Trace #29 at position 7.000000
$GPZDA,132258.03,06,10,2011,00,00*6F
$GPRMC,132258.00,A,4611.956690,N,01258.218726,E,000.9,206.4,061011,0.2,E,A*37
$GPGGA,132259.00,4611.956360,N,01258.218248,E,1,05,3.7,126.06,M,46.25,M,,*63
$GPGLL,4611.956360,N,01258.218248,E,132259.00,A,A*61
$GPVTG,335.1,T,335.3,M,001.4,N,002.7,K,A*21
$GPGSV,3,1,09,19,08,281,,16,57,293,,18,42,128,41,29,19,094,31*79
$GPGSV,3,2,09,30,21,161,35,21,67,062,35,22,20,169,39,03,37,292,*79
$GPGSV,3,3,09,06,53,295,,,,,,,,,,,,,*4E
$GPGSA,M,3,18,29,30,21,22,,,,,,,,5.2,3.7,3.7*3B
Trace #30 at position 7.250000
$GPZDA,132258.03,06,10,2011,00,00*6F
$GPRMC,132258.00,A,4611.956690,N,01258.218726,E,000.9,206.4,061011,0.2,E,A*37
$GPGGA,132259.00,4611.956360,N,01258.218248,E,1,05,3.7,126.06,M,46.25,M,,*63
$GPGLL,4611.956360,N,01258.218248,E,132259.00,A,A*61
$GPVTG,335.1,T,335.3,M,001.4,N,002.7,K,A*21
$GPGSV,3,1,09,19,08,281,,16,57,293,,18,42,128,41,29,19,094,31*79
$GPGSV,3,2,09,30,21,161,35,21,67,062,35,22,20,169,39,03,37,292,*79
$GPGSV,3,3,09,06,53,295,,,,,,,,,,,,,*4E
$GPGSA,M,3,18,29,30,21,22,,,,,,,,5.2,3.7,3.7*3B
Trace #31 at position 7.500000
$GPZDA,132259.03,06,10,2011,00,00*6E
$GPRMC,132259.00,A,4611.956360,N,01258.218248,E,001.4,335.1,061011,0.2,E,A*39
$GPGGA,132300.00,4611.956327,N,01258.217846,E,1,05,3.7,127.28,M,46.25,M,,*6B
$GPGLL,4611.956327,N,01258.217846,E,132300.00,A,A*64
$GPVTG,348.6,T,348.8,M,001.0,N,001.8,K,A*25
$GPGSV,3,1,09,19,08,281,,16,57,293,,18,42,128,39,29,19,094,34*73
$GPGSV,3,2,09,30,21,161,37,21,67,062,37,22,20,169,41,03,37,292,*76
$GPGSV,3,3,09,06,53,295,,,,,,,,,,,,,*4E
$GPGSA,M,3,18,29,30,21,22,,,,,,,,5.2,3.7,3.7*3B
Trace #32 at position 7.750000
$GPZDA,132259.03,06,10,2011,00,00*6E
$GPRMC,132259.00,A,4611.956360,N,01258.218248,E,001.4,335.1,061011,0.2,E,A*39
$GPGGA,132300.00,4611.956327,N,01258.217846,E,1,05,3.7,127.28,M,46.25,M,,*6B
$GPGLL,4611.956327,N,01258.217846,E,132300.00,A,A*64
$GPVTG,348.6,T,348.8,M,001.0,N,001.8,K,A*25
$GPGSV,3,1,09,19,08,281,,16,57,293,,18,42,128,39,29,19,094,34*73
$GPGSV,3,2,09,30,21,161,37,21,67,062,37,22,20,169,41,03,37,292,*76
$GPGSV,3,3,09,06,53,295,,,,,,,,,,,,,*4E
$GPGSA,M,3,18,29,30,21,22,,,,,,,,5.2,3.7,3.7*3B
Trace #33 at position 8.000000
$GPZDA,132300.03,06,10,2011,00,00*63
$GPRMC,132300.00,A,4611.956327,N,01258.217846,E,001.0,348.6,061011,0.2,E,A*35
$GPGGA,132301.00,4611.956274,N,01258.217454,E,1,05,3.7,128.43,M,46.25,M,,*60
$GPGLL,4611.956274,N,01258.217454,E,132301.00,A,A*6D
$GPVTG,321.2,T,321.3,M,001.2,N,002.2,K,A*21
$GPGSV,3,1,09,19,08,281,,16,57,293,,18,42,128,39,29,19,094,34*73
$GPGSV,3,2,09,30,21,161,36,21,67,062,37,22,20,169,39,03,37,292,*78
$GPGSV,3,3,09,06,53,295,,,,,,,,,,,,,*4E
$GPGSA,M,3,18,29,30,21,22,,,,,,,,5.2,3.7,3.7*3B
Trace #34 at position 8.250000
$GPZDA,132300.03,06,10,2011,00,00*63
$GPRMC,132300.00,A,4611.956327,N,01258.217846,E,001.0,348.6,061011,0.2,E,A*35
$GPGGA,132301.00,4611.956274,N,01258.217454,E,1,05,3.7,128.43,M,46.25,M,,*60
$GPGLL,4611.956274,N,01258.217454,E,132301.00,A,A*6D
$GPVTG,321.2,T,321.3,M,001.2,N,002.2,K,A*21
$GPGSV,3,1,09,19,08,281,,16,57,293,,18,42,128,39,29,19,094,34*73
$GPGSV,3,2,09,30,21,161,36,21,67,062,37,22,20,169,39,03,37,292,*78
$GPGSV,3,3,09,06,53,295,,,,,,,,,,,,,*4E
$GPGSA,M,3,18,29,30,21,22,,,,,,,,5.2,3.7,3.7*3B
Trace #35 at position 8.500000
$GPZDA,132301.03,06,10,2011,00,00*62
$GPRMC,132301.00,A,4611.956274,N,01258.217454,E,001.2,321.2,061011,0.2,E,A*35
$GPGGA,132302.00,4611.956274,N,01258.217106,E,1,05,3.7,129.38,M,46.25,M,,*6C
$GPGLL,4611.956274,N,01258.217106,E,132302.00,A,A*6C
$GPVTG,352.1,T,352.3,M,001.1,N,002.1,K,A*22
$GPGSV,3,1,09,19,08,281,,16,57,293,,18,42,128,39,29,19,094,34*73
$GPGSV,3,2,09,30,21,161,37,21,67,062,37,22,20,169,39,03,37,292,*79
$GPGSV,3,3,09,06,53,295,,,,,,,,,,,,,*4E
$GPGSA,M,3,18,29,30,21,22,,,,,,,,5.2,3.7,3.7*3B
Trace #36 at position 8.750000
$GPZDA,132301.03,06,10,2011,00,00*62
$GPRMC,132301.00,A,4611.956274,N,01258.217454,E,001.2,321.2,061011,0.2,E,A*35
$GPGGA,132302.00,4611.956274,N,01258.217106,E,1,05,3.7,129.38,M,46.25,M,,*6C
$GPGLL,4611.956274,N,01258.217106,E,132302.00,A,A*6C
$GPVTG,352.1,T,352.3,M,001.1,N,002.1,K,A*22
$GPGSV,3,1,09,19,08,281,,16,57,293,,18,42,128,39,29,19,094,34*73
$GPGSV,3,2,09,30,21,161,37,21,67,062,37,22,20,169,39,03,37,292,*79
$GPGSV,3,3,09,06,53,295,,,,,,,,,,,,,*4E
$GPGSA,M,3,18,29,30,21,22,,,,,,,,5.2,3.7,3.7*3B
Trace #37 at position 9.000000
$GPZDA,132302.03,06,10,2011,00,00*61
$GPRMC,132302.00,A,4611.956274,N,01258.217106,E,001.1,352.1,061011,0.2,E,A*30
$GPGGA,132303.00,4611.956345,N,01258.216923,E,1,05,3.7,130.15,M,46.25,M,,*67
$GPGLL,4611.956345,N,01258.216923,E,132303.00,A,A*60
$GPVTG,0.0,T,0.2,M,001.2,N,002.3,K,A*23
$GPGSV,3,1,09,19,08,281,,16,57,293,,18,42,128,39,29,19,094,32*75
$GPGSV,3,2,09,30,21,161,35,21,67,062,36,22,20,169,39,03,37,293,*7B
$GPGSV,3,3,09,06,53,295,,,,,,,,,,,,,*4E
$GPGSA,M,3,18,29,30,21,22,,,,,,,,5.2,3.7,3.7*3B
Trace #38 at position 9.250000
$GPZDA,132302.03,06,10,2011,00,00*61
$GPRMC,132302.00,A,4611.956274,N,01258.217106,E,001.1,352.1,061011,0.2,E,A*30
$GPGGA,132303.00,4611.956345,N,01258.216923,E,1,05,3.7,130.15,M,46.25,M,,*67
$GPGLL,4611.956345,N,01258.216923,E,132303.00,A,A*60
$GPVTG,0.0,T,0.2,M,001.2,N,002.3,K,A*23
$GPGSV,3,1,09,19,08,281,,16,57,293,,18,42,128,39,29,19,094,32*75
$GPGSV,3,2,09,30,21,161,35,21,67,062,36,22,20,169,39,03,37,293,*7B
$GPGSV,3,3,09,06,53,295,,,,,,,,,,,,,*4E
$GPGSA,M,3,18,29,30,21,22,,,,,,,,5.2,3.7,3.7*3B
Trace #39 at position 9.500000
$GPZDA,132303.03,06,10,2011,00,00*60
$GPRMC,132303.00,A,4611.956345,N,01258.216923,E,001.2,0.0,061011,0.2,E,A*3A
$GPGGA,132304.00,4611.956465,N,01258.216739,E,1,05,3.7,130.80,M,46.25,M,,*6C
$GPGLL,4611.956465,N,01258.216739,E,132304.00,A,A*67
$GPVTG,351.8,T,352.0,M,001.3,N,002.5,K,A*2D
$GPGSV,3,1,09,19,08,281,,16,57,293,,18,42,128,40,29,19,094,34*7D
$GPGSV,3,2,09,30,21,161,34,21,67,062,36,22,20,169,39,03,37,293,*7A
$GPGSV,3,3,09,06,53,295,,,,,,,,,,,,,*4E
$GPGSA,M,3,18,29,30,21,22,,,,,,,,5.2,3.7,3.7*3B
Trace #40 at position 9.750000
$GPZDA,132303.03,06,10,2011,00,00*60
$GPRMC,132303.00,A,4611.956345,N,01258.216923,E,001.2,0.0,061011,0.2,E,A*3A
$GPGGA,132304.00,4611.956465,N,01258.216739,E,1,05,3.7,130.80,M,46.25,M,,*6C
$GPGLL,4611.956465,N,01258.216739,E,132304.00,A,A*67
$GPVTG,351.8,T,352.0,M,001.3,N,002.5,K,A*2D
$GPGSV,3,1,09,19,08,281,,16,57,293,,18,42,128,40,29,19,094,34*7D
$GPGSV,3,2,09,30,21,161,34,21,67,062,36,22,20,169,39,03,37,293,*7A
$GPGSV,3,3,09,06,53,295,,,,,,,,,,,,,*4E
$GPGSA,M,3,18,29,30,21,22,,,,,,,,5.2,3.7,3.7*3B
Trace #41 at position 10.000000
$GPZDA,132304.03,06,10,2011,00,00*67
$GPRMC,132304.00,A,4611.956465,N,01258.216739,E,001.3,351.8,061011,0.2,E,A*33
$GPGGA,132305.00,4611.956618,N,01258.216574,E,1,05,3.7,131.31,M,46.25,M,,*65
$GPGLL,4611.956618,N,01258.216574,E,132305.00,A,A*65
$GPVTG,2.8,T,3.0,M,001.4,N,002.5,K,A*28
$GPGSV,3,1,09,19,08,281,,16,57,293,,18,42,128,39,29,19,094,34*73
$GPGSV,3,2,09,30,21,161,36,21,67,062,37,22,20,169,37,03,37,293,*77
$GPGSV,3,3,09,06,53,295,,,,,,,,,,,,,*4E
$GPGSA,M,3,18,29,30,21,22,,,,,,,,5.2,3.7,3.7*3B
Trace #42 at position 10.250000
$GPZDA,132304.03,06,10,2011,00,00*67
$GPRMC,132304.00,A,4611.956465,N,01258.216739,E,001.3,351.8,061011,0.2,E,A*33
$GPGGA,132305.00,4611.956618,N,01258.216574,E,1,05,3.7,131.31,M,46.25,M,,*65
$GPGLL,4611.956618,N,01258.216574,E,132305.00,A,A*65
$GPVTG,2.8,T,3.0,M,001.4,N,002.5,K,A*28
$GPGSV,3,1,09,19,08,281,,16,57,293,,18,42,128,39,29,19,094,34*73
$GPGSV,3,2,09,30,21,161,36,21,67,062,37,22,20,169,37,03,37,293,*77
$GPGSV,3,3,09,06,53,295,,,,,,,,,,,,,*4E
$GPGSA,M,3,18,29,30,21,22,,,,,,,,5.2,3.7,3.7*3B
Trace #43 at position 10.500000
$GPZDA,132305.03,06,10,2011,00,00*66
$GPRMC,132305.00,A,4611.956618,N,01258.216574,E,001.4,2.8,061011,0.2,E,A*33
$GPGGA,132306.00,4611.956681,N,01258.216444,E,1,05,3.7,131.85,M,46.25,M,,*6B
$GPGLL,4611.956681,N,01258.216444,E,132306.00,A,A*64
$GPVTG,351.2,T,351.4,M,000.6,N,001.1,K,A*23
$GPGSV,3,1,09,19,08,281,,16,57,293,,18,42,128,40,29,19,094,34*7D
$GPGSV,3,2,09,30,21,161,36,21,67,062,36,22,20,169,37,03,37,293,*76
$GPGSV,3,3,09,06,53,295,,,,,,,,,,,,,*4E
$GPGSA,M,3,18,29,30,21,22,,,,,,,,5.2,3.7,3.7*3B
Trace #44 at position 10.750000
$GPZDA,132305.03,06,10,2011,00,00*66
$GPRMC,132305.00,A,4611.956618,N,01258.216574,E,001.4,2.8,061011,0.2,E,A*33
$GPGGA,132306.00,4611.956681,N,01258.216444,E,1,05,3.7,131.85,M,46.25,M,,*6B
$GPGLL,4611.956681,N,01258.216444,E,132306.00,A,A*64
$GPVTG,351.2,T,351.4,M,000.6,N,001.1,K,A*23
$GPGSV,3,1,09,19,08,281,,16,57,293,,18,42,128,40,29,19,094,34*7D
$GPGSV,3,2,09,30,21,161,36,21,67,062,36,22,20,169,37,03,37,293,*76
$GPGSV,3,3,09,06,53,295,,,,,,,,,,,,,*4E
$GPGSA,M,3,18,29,30,21,22,,,,,,,,5.2,3.7,3.7*3B
Trace #45 at position 11.000000
$GPZDA,132306.03,06,10,2011,00,00*65
$GPRMC,132306.00,A,4611.956681,N,01258.216444,E,000.6,351.2,061011,0.2,E,A*3E
$GPGGA,132307.00,4611.956776,N,01258.216453,E,1,05,3.7,132.32,M,46.25,M,,*6A
$GPGLL,4611.956776,N,01258.216453,E,132307.00,A,A*6A
$GPVTG,28.3,T,28.4,M,001.7,N,003.1,K,A*20
$GPGSV,3,1,09,19,08,281,,16,58,293,,18,42,128,40,29,19,094,33*75
$GPGSV,3,2,09,30,21,161,35,21,67,062,37,22,20,169,38,03,37,293,*7B
$GPGSV,3,3,09,06,53,295,,,,,,,,,,,,,*4E
$GPGSA,M,3,18,29,30,21,22,,,,,,,,5.2,3.7,3.7*3B
Trace #46 at position 11.250000
$GPZDA,132306.03,06,10,2011,00,00*65
$GPRMC,132306.00,A,4611.956681,N,01258.216444,E,000.6,351.2,061011,0.2,E,A*3E
$GPGGA,132307.00,4611.956776,N,01258.216453,E,1,05,3.7,132.32,M,46.25,M,,*6A
$GPGLL,4611.956776,N,01258.216453,E,132307.00,A,A*6A
$GPVTG,28.3,T,28.4,M,001.7,N,003.1,K,A*20
$GPGSV,3,1,09,19,08,281,,16,58,293,,18,42,128,40,29,19,094,33*75
$GPGSV,3,2,09,30,21,161,35,21,67,062,37,22,20,169,38,03,37,293,*7B
$GPGSV,3,3,09,06,53,295,,,,,,,,,,,,,*4E
$GPGSA,M,3,18,29,30,21,22,,,,,,,,5.2,3.7,3.7*3B
Trace #47 at position 11.500000
$GPZDA,132307.03,06,10,2011,00,00*64
$GPRMC,132307.00,A,4611.956776,N,01258.216453,E,001.7,28.3,061011,0.2,E,A*0C
$GPGGA,132308.00,4611.956880,N,01258.216414,E,1,05,3.7,132.84,M,46.25,M,,*6D
$GPGLL,4611.956880,N,01258.216414,E,132308.00,A,A*60
$GPVTG,332.1,T,332.3,M,000.6,N,001.1,K,A*27
$GPGSV,3,1,09,19,08,281,,16,58,293,,18,42,128,40,29,19,094,34*72
$GPGSV,3,2,09,30,21,161,35,21,67,062,36,22,20,169,38,03,37,293,*7A
$GPGSV,3,3,09,06,53,295,,,,,,,,,,,,,*4E
$GPGSA,M,3,18,29,30,21,22,,,,,,,,5.2,3.7,3.7*3B
Trace #48 at position 11.750000
$GPZDA,132307.03,06,10,2011,00,00*64
$GPRMC,132307.00,A,4611.956776,N,01258.216453,E,001.7,28.3,061011,0.2,E,A*0C
$GPGGA,132308.00,4611.956880,N,01258.216414,E,1,05,3.7,132.84,M,46.25,M,,*6D
$GPGLL,4611.956880,N,01258.216414,E,132308.00,A,A*60
$GPVTG,332.1,T,332.3,M,000.6,N,001.1,K,A*27
$GPGSV,3,1,09,19,08,281,,16,58,293,,18,42,128,40,29,19,094,34*72
$GPGSV,3,2,09,30,21,161,35,21,67,062,36,22,20,169,38,03,37,293,*7A
$GPGSV,3,3,09,06,53,295,,,,,,,,,,,,,*4E
$GPGSA,M,3,18,29,30,21,22,,,,,,,,5.2,3.7,3.7*3B
Trace #49 at position 12.000000
$GPZDA,132308.03,06,10,2011,00,00*6B
$GPRMC,132308.00,A,4611.956880,N,01258.216414,E,000.6,332.1,061011,0.2,E,A*3C
$GPGGA,132309.00,4611.956951,N,01258.216169,E,1,05,3.7,133.47,M,46.25,M,,*60
$GPGLL,4611.956951,N,01258.216169,E,132309.00,A,A*63
$GPVTG,344.8,T,344.9,M,001.1,N,002.0,K,A*20
$GPGSV,3,1,09,19,08,281,,16,58,293,,18,42,128,40,29,19,094,34*72
$GPGSV,3,2,09,30,21,161,32,21,67,062,37,22,20,169,36,03,37,293,*72
$GPGSV,3,3,09,06,53,295,,,,,,,,,,,,,*4E
$GPGSA,M,3,18,29,30,21,22,,,,,,,,5.2,3.7,3.7*3B
Trace #50 at position 12.250000
$GPZDA,132308.03,06,10,2011,00,00*6B
$GPRMC,132308.00,A,4611.956880,N,01258.216414,E,000.6,332.1,061011,0.2,E,A*3C
$GPGGA,132309.00,4611.956951,N,01258.216169,E,1,05,3.7,133.47,M,46.25,M,,*60
$GPGLL,4611.956951,N,01258.216169,E,132309.00,A,A*63
$GPVTG,344.8,T,344.9,M,001.1,N,002.0,K,A*20
$GPGSV,3,1,09,19,08,281,,16,58,293,,18,42,128,40,29,19,094,34*72
$GPGSV,3,2,09,30,21,161,32,21,67,062,37,22,20,169,36,03,37,293,*72
$GPGSV,3,3,09,06,53,295,,,,,,,,,,,,,*4E
$GPGSA,M,3,18,29,30,21,22,,,,,,,,5.2,3.7,3.7*3B
Trace #51 at position 12.500000
$GPZDA,132309.03,06,10,2011,00,00*6A
$GPRMC,132309.00,A,4611.956951,N,01258.216169,E,001.1,344.8,061011,0.2,E,A*31
$GPGGA,132310.00,4611.957049,N,01258.215989,E,1,05,3.7,133.98,M,46.25,M,,*6E
$GPGLL,4611.957049,N,01258.215989,E,132310.00,A,A*6F
$GPVTG,356.3,T,356.4,M,000.6,N,001.1,K,A*22
$GPGSV,3,1,09,19,08,281,,16,58,293,,18,42,128,40,29,19,094,35*73
$GPGSV,3,2,09,30,21,161,33,21,67,062,37,22,20,169,39,03,37,293,*7C
$GPGSV,3,3,09,06,53,295,,,,,,,,,,,,,*4E
$GPGSA,M,3,18,29,30,21,22,,,,,,,,5.2,3.7,3.7*3B
Trace #52 at position 12.750000
$GPZDA,132310.03,06,10,2011,00,00*62
$GPRMC,132310.00,A,4611.957049,N,01258.215989,E,000.6,356.3,061011,0.2,E,A*33
$GPGGA,132311.00,4611.957099,N,01258.215904,E,1,05,3.7,134.48,M,46.25,M,,*6D
$GPGLL,4611.957099,N,01258.215904,E,132311.00,A,A*66
$GPVTG,24.1,T,24.3,M,000.5,N,001.0,K,A*25
$GPGSV,3,1,09,19,08,281,,16,58,293,,18,42,128,39,29,19,094,35*7D
$GPGSV,3,2,09,30,21,161,34,21,67,062,37,22,20,169,38,03,37,293,*7A
$GPGSV,3,3,09,06,53,295,,,,,,,,,,,,,*4E
$GPGSA,M,3,18,29,30,21,22,,,,,,,,5.2,3.7,3.7*3B
Trace #53 at position 13.000000
$GPZDA,132310.03,06,10,2011,00,00*62
$GPRMC,132310.00,A,4611.957049,N,01258.215989,E,000.6,356.3,061011,0.2,E,A*33
$GPGGA,132311.00,4611.957099,N,01258.215904,E,1,05,3.7,134.48,M,46.25,M,,*6D
$GPGLL,4611.957099,N,01258.215904,E,132311.00,A,A*66
$GPVTG,24.1,T,24.3,M,000.5,N,001.0,K,A*25
$GPGSV,3,1,09,19,08,281,,16,58,293,,18,42,128,39,29,19,094,35*7D
$GPGSV,3,2,09,30,21,161,34,21,67,062,37,22,20,169,38,03,37,293,*7A
$GPGSV,3,3,09,06,53,295,,,,,,,,,,,,,*4E
$GPGSA,M,3,18,29,30,21,22,,,,,,,,5.2,3.7,3.7*3B
Trace #54 at position 13.250000
$GPZDA,132311.03,06,10,2011,00,00*63
$GPRMC,132311.00,A,4611.957099,N,01258.215904,E,000.5,24.1,061011,0.2,E,A*0D
$GPGGA,132312.00,4611.957175,N,01258.215759,E,1,05,3.7,134.87,M,46.25,M,,*68
$GPGLL,4611.957175,N,01258.215759,E,132312.00,A,A*60
$GPVTG,332.5,T,332.7,M,000.8,N,001.4,K,A*2C
$GPGSV,3,1,09,19,08,281,,16,58,293,,18,42,128,40,29,19,094,33*75
$GPGSV,3,2,09,30,21,161,35,21,67,062,35,22,20,169,38,03,37,293,*79
$GPGSV,3,3,09,06,53,295,,,,,,,,,,,,,*4E
$GPGSA,M,3,18,29,30,21,22,,,,,,,,5.2,3.7,3.7*3B
Trace #55 at position 13.500000
$GPZDA,132311.03,06,10,2011,00,00*63
$GPRMC,132311.00,A,4611.957099,N,01258.215904,E,000.5,24.1,061011,0.2,E,A*0D
$GPGGA,132312.00,4611.957175,N,01258.215759,E,1,05,3.7,134.87,M,46.25,M,,*68
$GPGLL,4611.957175,N,01258.215759,E,132312.00,A,A*60
$GPVTG,332.5,T,332.7,M,000.8,N,001.4,K,A*2C
$GPGSV,3,1,09,19,08,281,,16,58,293,,18,42,128,40,29,19,094,33*75
$GPGSV,3,2,09,30,21,161,35,21,67,062,35,22,20,169,38,03,37,293,*79
$GPGSV,3,3,09,06,53,295,,,,,,,,,,,,,*4E
$GPGSA,M,3,18,29,30,21,22,,,,,,,,5.2,3.7,3.7*3B
Trace #56 at position 13.750000
$GPZDA,132312.03,06,10,2011,00,00*60
$GPRMC,132312.00,A,4611.957175,N,01258.215759,E,000.8,332.5,061011,0.2,E,A*36
$GPGGA,132313.00,4611.957384,N,01258.215408,E,1,05,3.7,134.97,M,46.25,M,,*63
$GPGLL,4611.957384,N,01258.215408,E,132313.00,A,A*6A
$GPVTG,325.0,T,325.1,M,001.7,N,003.23,1,09,19,08,281,,16,58,293,,18,42,128,40,29,19,094,34*72
$GPGSV,3,2,09,30,21,161,35,21,67,062,37,22,20,169,38,03,37,293,*7B
$GPGSV,3,3,09,06,53,295,,,,,,,,,,,,,*4E
$GPGSA,M,3,18,29,30,21,22,,,,,,,,5.2,3.7,3.7*3B
Trace #57 at position 14.000000
$GPZDA,132312.03,06,10,2011,00,00*60
$GPRMC,132312.00,A,4611.957175,N,01258.215759,E,000.8,332.5,061011,0.2,E,A*36
$GPGGA,132313.00,4611.957384,N,01258.215408,E,1,05,3.7,134.97,M,46.25,M,,*63
$GPGLL,4611.957384,N,01258.215408,E,132313.00,A,A*6A
$GPVTG,325.0,T,325.1,M,001.7,N,003.23,1,09,19,08,281,,16,58,293,,18,42,128,40,29,19,094,34*72
$GPGSV,3,2,09,30,21,161,35,21,67,062,37,22,20,169,38,03,37,293,*7B
$GPGSV,3,3,09,06,53,295,,,,,,,,,,,,,*4E
$GPGSA,M,3,18,29,30,21,22,,,,,,,,5.2,3.7,3.7*3B
Trace #58 at position 14.250000
$GPZDA,132313.03,06,10,2011,00,00*61
$GPRMC,132313.00,A,4611.957384,N,01258.215408,E,001.7,325.0,061011,0.2,E,A*31
$GPGGA,132314.00,4611.957663,N,01258.215109,E,1,05,3.7,135.15,M,46.25,M,,*67
$GPGLL,4611.957663,N,01258.215109,E,132314.00,A,A*65
$GPVTG,344.6,T,344.7,M,001.3,N,002.4,K,A*26
$,,,,,,,*4E
$GPGSA,M,3,18,29,30,21,22,,,,,,,,5.2,3.7,3.7*3B
Trace #59 at position 14.500000
$GPZDA,132313.03,06,10,2011,00,00*61
$GPRMC,132313.00,A,4611.957384,N,01258.215408,E,001.7,325.0,061011,0.2,E,A*31
$GPGGA,132314.00,4611.957663,N,01258.215109,E,1,05,3.7,135.15,M,46.25,M,,*67
$GPGLL,4611.957663,N,01258.215109,E,132314.00,A,A*65
$GPVTG,344.6,T,344.7,M,001.3,N,002.4,K,A*26
$,,,,,,,*4E
$GPGSA,M,3,18,29,30,21,22,,,,,,,,5.2,3.7,3.7*3B
Trace #60 at position 14.750000
$GPZDA,132314.03,06,10,2011,00,00*66
$GPRMC,132314.00,A,4611.957663,N,01258.215109,E,001.3,344.6,061011,0.2,E,A*3B
$GPGGA,132315.00,4611.957868,N,01258.215167,E,1,05,3.7,135.76,M,46.25,M,,*6E
$GPGLL,4611.957868,N,01258.215167,E,132315.00,A,A*69
$GPVTG,42.3,T,42.4,M,001.1,N,002.1,K,A*27
$GPGSV,3,1,09,19,08,281,,16,58,293,,18,42,128,40,29,19,094,36*70
$GPGSV,3,2,09,30,21,161,,21,67,062,39,22,20,169,38,03,37,293,*73
$GPGSV,3,3,09,06,53,295,,,,06,10,2011,00,00*67
$GPRMC,132315.00,A,4611.957868,N,01258.215167,E,001.1,42.3,061011,0.2,E,A*05
$GPGGA,132316.00,4611.958047,N,01258.215293,E,1,04,3.7,136.36,M,46.25,M,,*69
$GPGLL,4611.958047,N,01258.215293,E,132316.00,A,A*68
$GPVTG,346.7,T,346.8,M,001.0,N,001.9,K,A*25
$GPGSV,3,1,09,19,08,281,,16,58,293,,18,42,128,39,29,19,094,36*7E
$GPGSV,3,2,09,30,21,161,,21,67,062,38,22,20,169,37,03,37,293,*7D
$GPGSV,3,3,09,06,53,295,,,,,,,,,,,,,*4E
$GPGSA,M,3,18,29,21,22,,,,,,,,,5.3,3.7,3.7*39
Trace #61 at position 15.000000
$GPZDA,132314.03,06,10,2011,00,00*66
$GPRMC,132314.00,A,4611.957663,N,01258.215109,E,001.3,344.6,061011,0.2,E,A*3B
$GPGGA,132315.00,4611.957868,N,01258.215167,E,1,05,3.7,135.76,M,46.25,M,,*6E
$GPGLL,4611.957868,N,01258.215167,E,132315.00,A,A*69
$GPVTG,42.3,T,42.4,M,001.1,N,002.1,K,A*27
$GPGSV,3,1,09,19,08,281,,16,58,293,,18,42,128,40,29,19,094,36*70
$GPGSV,3,2,09,30,21,161,,21,67,062,39,22,20,169,38,03,37,293,*73
$GPGSV,3,3,09,06,53,295,,,,06,10,2011,00,00*67
$GPRMC,132315.00,A,4611.957868,N,01258.215167,E,001.1,42.3,061011,0.2,E,A*05
$GPGGA,132316.00,4611.958047,N,01258.215293,E,1,04,3.7,136.36,M,46.25,M,,*69
$GPGLL,4611.958047,N,01258.215293,E,132316.00,A,A*68
$GPVTG,346.7,T,346.8,M,001.0,N,001.9,K,A*25
$GPGSV,3,1,09,19,08,281,,16,58,293,,18,42,128,39,29,19,094,36*7E
$GPGSV,3,2,09,30,21,161,,21,67,062,38,22,20,169,37,03,37,293,*7D
$GPGSV,3,3,09,06,53,295,,,,,,,,,,,,,*4E
$GPGSA,M,3,18,29,21,22,,,,,,,,,5.3,3.7,3.7*39
Trace #62 at position 15.250000
$GPZDA,132316.03$GPGGA,132317.00,4611.958231,N,01258.215349,E,1,04,3.7,136.64,M,46.25,M,,*6A
$GPGLL,4611.958231,N,01258.215349,E,132317.00,A,A*6C
$GPVTG,26.5,T,26.7,M,001.0,N,001.8,K,A*29
$GPGSV,3,1,09,19,08,281,,16,58,293,,18,42,128,40,29,19,094,38*7E
$GPGSV,3,2,09,30,21,161,35,21,67,062,38,22,20,169,38,03,37,293,*74
$GPGSV,3,3,09,06,53,295,,,,,,,,,,,,,*4E
$GPGSA,M,3,18,29,21,22,,,,,,,,,5.3,3.7,3.7*39
Trace #63 at position 15.500000
$GPZDA,132316.03$GPGGA,132317.00,4611.958231,N,01258.215349,E,1,04,3.7,136.64,M,46.25,M,,*6A
$GPGLL,4611.958231,N,01258.215349,E,132317.00,A,A*6C
$GPVTG,26.5,T,26.7,M,001.0,N,001.8,K,A*29
$GPGSV,3,1,09,19,08,281,,16,58,293,,18,42,128,40,29,19,094,38*7E
$GPGSV,3,2,09,30,21,161,35,21,67,062,38,22,20,169,38,03,37,293,*74
$GPGSV,3,3,09,06,53,295,,,,,,,,,,,,,*4E
$GPGSA,M,3,18,29,21,22,,,,,,,,,5.3,3.7,3.7*39
Trace #64 at position 15.750000
$GPZDA,132317.03,06,10,2011,00,00*65
$GPRMC,132317.00,A,4611.958231,N,01258.215349,E,001.0,26.5,061011,0.2,E,A*05$GPGGA,132318.00,4611.958357,N,01258.215376,E,1,04,3.7,136.96,M,46.25,M,,*65
$GPGLL,4611.958357,N,01258.215376,E,132318.00,A,A*6E
$GPVTG,331.3,T,331.5,M,000.6,N,001.1,K,A*23
$GPGSV,3,1,09,19,08,281,,16,58,293,,18,42,128,39,29,19,094,37*7F
$GPGSV,3,2,09,30,21,161,36,21,67,062,37,22,20,169,36,03,37,293,*76
$GPGSV,3,3,09,06,53,295,,,,,,,,,,,,,*4E
$GPGSA,M,3,18,29,21,22,,,,,,,,,5.3,3.7,3.7*39
Trace #65 at position 16.000000
$GPZDA,132317.03,06,10,2011,00,00*65
$GPRMC,132317.00,A,4611.958231,N,01258.215349,E,001.0,26.5,061011,0.2,E,A*05$GPGGA,132318.00,4611.958357,N,01258.215376,E,1,04,3.7,136.96,M,46.25,M,,*65
$GPGLL,4611.958357,N,01258.215376,E,132318.00,A,A*6E
$GPVTG,331.3,T,331.5,M,000.6,N,001.1,K,A*23
$GPGSV,3,1,09,19,08,281,,16,58,293,,18,42,128,39,29,19,094,37*7F
$GPGSV,3,2,09,30,21,161,36,21,67,062,37,22,20,169,36,03,37,293,*76
$GPGSV,3,3,09,06,53,295,,,,,,,,,,,,,*4E
$GPGSA,M,3,18,29,21,22,,,,,,,,,5.3,3.7,3.7*39
Trace #66 at position 16.250000
$GPZDA,132318.03,06,10,2011,00,00*6A
$GPRMC,132318.00,A,4611.958357,N,01258.215376,E,000.6,331.3,061011,0.2,E,A*$GPGGA,132319.00,4611.958541,N,01258.215118,E,1,05,3.7,137.15,M,46.25,M,,*64
$GPGLL,4611.958541,N,01258.215118,E,132319.00,A,A*64
$GPVTG,327.6,T,327.8,M,001.5,N,002.8,K,A*23
$GPGSV,3,1,09,19,08,281,,16,58,293,,18,42,128,39,29,19,094,38*70
$GPGSV,3,2,09,30,21,161,38,21,67,062,37,22,20,169,39,03,37,293,*77
$GPGSV,3,3,09,06,53,295,,,,,,,,,,,,,*4E
$GPGSA,M,3,18,29,30,21,22,,,,,,,,5.2,3.7,3.7*3B
Trace #67 at position 16.500000
$GPZDA,132319.03,06,10,2011,00,00*6B
$GPRMC,132319.00,A,4611.958541,N,01258.215118,E,001.5,327.6,061011,0.2,E,$GPGGA,132320.00,4611.958774,N,01258.214907,E,1,05,3.7,137.22,M,46.25,M,,*69
$GPGLL,4611.958774,N,01258.214907,E,132320.00,A,A*6D
$GPVTG,354.9,T,355.1,M,000.8,N,001.5,K,A*26
$GPGSV,3,1,09,19,08,281,,16,58,293,,18,42,128,40,29,19,094,37*71
$GPGSV,3,2,09,30,21,161,38,21,67,062,39,22,20,169,39,03,37,293,*79
$GPGSV,3,3,09,06,53,295,,,,,,,,,,,,,*4E
$GPGSA,M,3,18,29,30,21,22,,,,,,,,5.2,3.7,3.7*3B
Trace #68 at position 16.750000
$GPZDA,132319.03,06,10,2011,00,00*6B
$GPRMC,132319.00,A,4611.958541,N,01258.215118,E,001.5,327.6,061011,0.2,E,$GPGGA,132320.00,4611.958774,N,01258.214907,E,1,05,3.7,137.22,M,46.25,M,,*69
$GPGLL,4611.958774,N,01258.214907,E,132320.00,A,A*6D
$GPVTG,354.9,T,355.1,M,000.8,N,001.5,K,A*26
$GPGSV,3,1,09,19,08,281,,16,58,293,,18,42,128,40,29,19,094,37*71
$GPGSV,3,2,09,30,21,161,38,21,67,062,39,22,20,169,39,03,37,293,*79
$GPGSV,3,3,09,06,53,295,,,,,,,,,,,,,*4E
$GPGSA,M,3,18,29,30,21,22,,,,,,,,5.2,3.7,3.7*3B
Trace #69 at position 17.000000
$GPZDA,132320.03,06,10,2011,00,00*61
$GPRMC,132320.00,A,4611.958774,N,01258.214907,E,000.8,354.9,061011,0.2,E,$GPGGA,132321.00,4611.958880,N,01258.214784,E,1,05,3.7,137.31,M,46.25,M,,*6B
$GPGLL,4611.958880,N,01258.214784,E,132321.00,A,A*6D
$GPVTG,309.6,T,309.7,M,000.6,N,001.0,K,A*25
$GPGSV,3,1,09,19,08,281,,16,58,293,,18,42,128,39,29,19,094,37*7F
$GPGSV,3,2,09,30,21,161,37,21,67,062,37,22,20,169,37,03,37,293,*76
$GPGSV,3,3,09,06,53,295,,,,,,,,,,,,,*4E
$GPGSA,M,3,18,29,30,21,22,,,,,,,,5.3,3.7,3.7*3A
Trace #70 at position 17.250000
$GPZDA,132320.03,06,10,2011,00,00*61
$GPRMC,132320.00,A,4611.958774,N,01258.214907,E,000.8,354.9,061011,0.2,E,$GPGGA,132321.00,4611.958880,N,01258.214784,E,1,05,3.7,137.31,M,46.25,M,,*6B
$GPGLL,4611.958880,N,01258.214784,E,132321.00,A,A*6D
$GPVTG,309.6,T,309.7,M,000.6,N,001.0,K,A*25
$GPGSV,3,1,09,19,08,281,,16,58,293,,18,42,128,39,29,19,094,37*7F
$GPGSV,3,2,09,30,21,161,37,21,67,062,37,22,20,169,37,03,37,293,*76
$GPGSV,3,3,09,06,53,295,,,,,,,,,,,,,*4E
$GPGSA,M,3,18,29,30,21,22,,,,,,,,5.3,3.7,3.7*3A
Trace #71 at position 17.500000
$GPZDA,132320.03,06,10,2011,00,00*61
$GPRMC,132320.00,A,4611.958774,N,01258.214907,E,000.8,354.9,061011,0.2,E,$GPGGA,132321.00,4611.958880,N,01258.214784,E,1,05,3.7,137.31,M,46.25,M,,*6B
$GPGLL,4611.958880,N,01258.214784,E,132321.00,A,A*6D
$GPVTG,309.6,T,309.7,M,000.6,N,001.0,K,A*25
$GPGSV,3,1,09,19,08,281,,16,58,293,,18,42,128,39,29,19,094,37*7F
$GPGSV,3,2,09,30,21,161,37,21,67,062,37,22,20,169,37,03,37,293,*76
$GPGSV,3,3,09,06,53,295,,,,,,,,,,,,,*4E
$GPGSA,M,3,18,29,30,21,22,,,,,,,,5.3,3.7,3.7*3A
Trace #72 at position 17.750000
$GPZDA,132321.03,06,10,2011,00,00*60
$GPRMC,132321.00,A,4611.958880,N,01258.214784,E,000.6,309.6,061011,0.2,E,$GPGGA,132322.00,4611.958958,N,01258.214539,E,1,05,3.7,137.37,M,46.25,M,,*6E
$GPGLL,4611.958958,N,01258.214539,E,132322.00,A,A*6E
$GPVTG,303.3,T,303.4,M,000.9,N,001.7,K,A*2B
$GPGSV,3,1,09,19,08,281,,16,58,293,,18,42,128,40,29,19,094,37*71
$GPGSV,3,2,09,30,21,161,37,21,67,062,38,22,20,169,38,03,37,293,*76
$GPGSV,3,3,09,06,53,295,,,,,,,,,,,,,*4E
$GPGSA,M,3,18,29,30,21,22,,,,,,,,5.3,3.7,3.7*3A
Trace #73 at position 18.000000
$GPZDA,132322.03,06,10,2011,00,00*63
$GPRMC,132322.00,A,4611.958958,N,01258.214539,E,000.9,303.3,061011,0.2,E,05,3.7,137.40,M,46.25,M,,*6F
$GPGLL,4611.959121,N,01258.214383,E,132323.00,A,A*6F
$GPVTG,359.0,T,359.2,M,000.9,N,001.7,K,A*2E
$GPGSV,3,1,09,19,08,281,,16,58,293,,18,42,128,40,29,19,094,37*71
$GPGSV,3,2,09,30,21,161,36,21,67,062,34,22,20,169,38,03,37,293,*7B
$GPGSV,3,3,09,06,53,295,,,,,,,,,,,,,*4E
$GPGSA,M,3,18,29,30,21,22,,,,,,,,5.3,3.7,3.7*3A
Trace #74 at position 18.250000
$GPZDA,132322.03,06,10,2011,00,00*63
$GPRMC,132322.00,A,4611.958958,N,01258.214539,E,000.9,303.3,061011,0.2,E,05,3.7,137.40,M,46.25,M,,*6F
$GPGLL,4611.959121,N,01258.214383,E,132323.00,A,A*6F
$GPVTG,359.0,T,359.2,M,000.9,N,001.7,K,A*2E
$GPGSV,3,1,09,19,08,281,,16,58,293,,18,42,128,40,29,19,094,37*71
$GPGSV,3,2,09,30,21,161,36,21,67,062,34,22,20,169,38,03,37,293,*7B
$GPGSV,3,3,09,06,53,295,,,,,,,,,,,,,*4E
$GPGSA,M,3,18,29,30,21,22,,,,,,,,5.3,3.7,3.7*3A
Trace #75 at position 18.500000
$GPZDA,132323.03,06,10,2011,00,00*62
$GPRMC,132323.00,A,4611.959121,N,01258.214383,E,000.9,359.0,061011,0.2,E,A*30
$GPGGA,132324.00,4611.959371,N,01258.2142916,58,293,,18,42,128,38,29,19,094,37*7E
$GPGSV,3,2,09,30,21,161,34,21,67,062,34,22,20,169,37,03,37,293,*76
$GPGSV,3,3,09,06,53,295,,,,,,,,,,,,,*4E
$GPGSA,M,3,18,29,30,21,22,,,,,,,,5.3,3.7,3.7*3A
Trace #76 at position 18.750000
$GPZDA,132324.03,06,10,2011,00,00*65
$GPRMC,132324.00,A,4611.959371,N,01258.214290,E,001.2,338.4,061011,0.2,E,A*3A
$GPGGA,132325.00,4611.959589,N,01258.214213,E,1,04,3.7,137.62,M,46.25,M,,*66
$GPGLL,4611.959589,N,01258.214213,E,132325.00,A,A*67
$GPVTG,342.0,T,342.1,M,000.6,N,001.1,K,A*24
$GPGSV,3,1,09,19,08,38,03,37,293,*7B
$GPGSV,3,3,09,06,53,295,,,,,,,,,,,,,*4E
$GPGSA,M,3,18,29,21,22,,,,,,,,,5.3,3.7,3.7*39
Trace #77 at position 19.000000
$GPZDA,132324.03,06,10,2011,00,00*65
$GPRMC,132324.00,A,4611.959371,N,01258.214290,E,001.2,338.4,061011,0.2,E,A*3A
$GPGGA,132325.00,4611.959589,N,01258.214213,E,1,04,3.7,137.62,M,46.25,M,,*66
$GPGLL,4611.959589,N,01258.214213,E,132325.00,A,A*67
$GPVTG,342.0,T,342.1,M,000.6,N,001.1,K,A*24
$GPGSV,3,1,09,19,08,38,03,37,293,*7B
$GPGSV,3,3,09,06,53,295,,,,,,,,,,,,,*4E
$GPGSA,M,3,18,29,21,22,,,,,,,,,5.3,3.7,3.7*39
Trace #78 at position 19.250000
$GPZDA,132325.03,06,10,2011,00,00*64
$GPRMC,132325.00,A,4611.959589,N,01258.214213,E,000.6,342.0,061011,0.2,E,A*3D
$GPGGA,132326.00,4611.959818,N,01258.214068,E,1,04,3.7,137.67,M,46.25,M,,*6B
$GPGLL,4611.959818,N,01258.214068,E,132326.00,A,A*6F
$GPVTG,327.6,T,327.8,M,001.4,N,002.7,K,A*2D
$GPGSV,3,1,09,19,08,281,,16,58,293,,18,42,128,39,29,19,094,36*7E
$GPGSV,3,2,09,30,21,161,33,21,67,062,36,22,20$GPGSA,M,3,18,29,21,22,,,,,,,,,5.3,3.7,3.7*39
Trace #79 at position 19.500000
$GPZDA,132325.03,06,10,2011,00,00*64
$GPRMC,132325.00,A,4611.959589,N,01258.214213,E,000.6,342.0,061011,0.2,E,A*3D
$GPGGA,132326.00,4611.959818,N,01258.214068,E,1,04,3.7,137.67,M,46.25,M,,*6B
$GPGLL,4611.959818,N,01258.214068,E,132326.00,A,A*6F
$GPVTG,327.6,T,327.8,M,001.4,N,002.7,K,A*2D
$GPGSV,3,1,09,19,08,281,,16,58,293,,18,42,128,39,29,19,094,36*7E
$GPGSV,3,2,09,30,21,161,33,21,67,062,36,22,20$GPGSA,M,3,18,29,21,22,,,,,,,,,5.3,3.7,3.7*39
Trace #80 at position 19.750000
$GPZDA,132325.03,06,10,2011,00,00*64
$GPRMC,132325.00,A,4611.959589,N,01258.214213,E,000.6,342.0,061011,0.2,E,A*3D
$GPGGA,132326.00,4611.959818,N,01258.214068,E,1,04,3.7,137.67,M,46.25,M,,*6B
$GPGLL,4611.959818,N,01258.214068,E,132326.00,A,A*6F
$GPVTG,327.6,T,327.8,M,001.4,N,002.7,K,A*2D
$GPGSV,3,1,09,19,08,281,,16,58,293,,18,42,128,39,29,19,094,36*7E
$GPGSV,3,2,09,30,21,161,33,21,67,062,36,22,20$GPGSA,M,3,18,29,21,22,,,,,,,,,5.3,3.7,3.7*39
Trace #81 at position 20.000000
$GPZDA,132325.03,06,10,2011,00,00*64
$GPRMC,132325.00,A,4611.959589,N,01258.214213,E,000.6,342.0,061011,0.2,E,A*3D
$GPGGA,132326.00,4611.959818,N,01258.214068,E,1,04,3.7,137.67,M,46.25,M,,*6B
$GPGLL,4611.959818,N,01258.214068,E,132326.00,A,A*6F
$GPVTG,327.6,T,327.8,M,001.4,N,002.7,K,A*2D
$GPGSV,3,1,09,19,08,281,,16,58,293,,18,42,128,39,29,19,094,36*7E
$GPGSV,3,2,09,30,21,161,33,21,67,062,36,22,20$GPGSA,M,3,18,29,21,22,,,,,,,,,5.3,3.7,3.7*39
Trace #82 at position 20.250000
$GPZDA,132326.03,06,10,2011,00,00*67
$GPRMC,132326.00,A,4611.959818,N,01258.214068,E,001.4,327.6,061011,0.2,E,A*33
$GPGGA,132327.00,4611.960054,N,01258.213789,E,1,05,3.7,137.70,M,46.25,M,,*68
$GPGLL,4611.960054,N,01258.213789,E,132327.00,A,A*6B
$GPVTG,324.3,T,324.4,M,000.9,N,001.7,K,A*2B
$GPGSV,3,1,09,19,09,281,,16,58,293,,18,42,128,40,29,19,094,38*7F
$GPGSV,3,2,09,30,21,161,35,21,67,062,35,22,20,169,38,03,37,293,*79
$GPGSV,3,3,09,06,53,295,,,,,,,,,,,,,*$GPGGA,132328.00,4611.960203,N,01258.213600,E,1,05,3.7,137.89,M,46.25,M,,*61
$GPGLL,4611.960203,N,01258.213600,E,132328.00,A,A*64
$GPVTG,329.7,T,329.9,M,000.6,N,001.2,K,A*28
$GPGSV,3,1,09,19,09,281,,16,58,293,,18,42,128,39,29,19,094,37*7E
$GPGSV,3,2,09,30,21,161,35,21,67,062,36,22,20,169,38,03,37,293,*7A
$GPGSV,3,3,09,06,53,295,,,,,,,,,,,,,*4E
$GPGSA,M,3,18,29,30,21,22,,,,,,,,5.3,3.7,3.7*3A
Trace #83 at position 20.500000
$GPZDA,132326.03,06,10,2011,00,00*67
$GPRMC,132326.00,A,4611.959818,N,01258.214068,E,001.4,327.6,061011,0.2,E,A*33
$GPGGA,132327.00,4611.960054,N,01258.213789,E,1,05,3.7,137.70,M,46.25,M,,*68
$GPGLL,4611.960054,N,01258.213789,E,132327.00,A,A*6B
$GPVTG,324.3,T,324.4,M,000.9,N,001.7,K,A*2B
$GPGSV,3,1,09,19,09,281,,16,58,293,,18,42,128,40,29,19,094,38*7F
$GPGSV,3,2,09,30,21,161,35,21,67,062,35,22,20,169,38,03,37,293,*79
$GPGSV,3,3,09,06,53,295,,,,,,,,,,,,,*$GPGGA,132328.00,4611.960203,N,01258.213600,E,1,05,3.7,137.89,M,46.25,M,,*61
$GPGLL,4611.960203,N,01258.213600,E,132328.00,A,A*64
$GPVTG,329.7,T,329.9,M,000.6,N,001.2,K,A*28
$GPGSV,3,1,09,19,09,281,,16,58,293,,18,42,128,39,29,19,094,37*7E
$GPGSV,3,2,09,30,21,161,35,21,67,062,36,22,20,169,38,03,37,293,*7A
$GPGSV,3,3,09,06,53,295,,,,,,,,,,,,,*4E
$GPGSA,M,3,18,29,30,21,22,,,,,,,,5.3,3.7,3.7*3A
Trace #84 at position 20.750000
$GPZDA,132328.03,06,10,2011,00,00*69
$GPRMC,132328.00,A,4611.960203,N,01258.213600,E,000.6,329.7,061011,0.2,E,$GPGGA,132329.00,4611.960350,N,01258.213544,E,1,05,3.7,138.04,M,46.25,M,,*6E
$GPGLL,4611.960350,N,01258.213544,E,132329.00,A,A*61
$GPVTG,15.6,T,15.8,M,000.7,N,001.3,K,A*28
$GPGSV,3,1,09,19,09,281,,16,58,293,,18,42,128,39,29,19,094,36*7F
$GPGSV,3,2,09,30,21,161,35,21,67,062,37,22,20,169,37,03,37,293,*74
$GPGSV,3,3,09,06,53,295,,,,,,,,,,,,,*4E
$GPGSA,M,3,18,29,30,21,22,,,,,,,,5.3,3.7,3.7*3A
Trace #85 at position 21.000000
$GPZDA,132328.03,06,10,2011,00,00*69
$GPRMC,132328.00,A,4611.960203,N,01258.213600,E,000.6,329.7,061011,0.2,E,$GPGGA,132329.00,4611.960350,N,01258.213544,E,1,05,3.7,138.04,M,46.25,M,,*6E
$GPGLL,4611.960350,N,01258.213544,E,132329.00,A,A*61
$GPVTG,15.6,T,15.8,M,000.7,N,001.3,K,A*28
$GPGSV,3,1,09,19,09,281,,16,58,293,,18,42,128,39,29,19,094,36*7F
$GPGSV,3,2,09,30,21,161,35,21,67,062,37,22,20,169,37,03,37,293,*74
$GPGSV,3,3,09,06,53,295,,,,,,,,,,,,,*4E
$GPGSA,M,3,18,29,30,21,22,,,,,,,,5.3,3.7,3.7*3A
Trace #86 at position 21.250000
$GPZDA,132329.03,06,10,2011,00,00*68
$GPRMC,132329.00,A,4611.960350,N,01258.213544,E,000.7,15.6,061011,0.2,E,A*0$GPGGA,132330.00,4611.960513,N,01258.213497,E,1,05,3.7,138.14,M,46.25,M,,*69
$GPGLL,4611.960513,N,01258.213497,E,132330.00,A,A*67
$GPVTG,337.6,T,337.8,M,000.6,N,001.1,K,A*2B
$GPGSV,3,1,09,19,09,281,,16,58,293,,18,42,128,40,29,19,094,36*71
$GPGSV,3,2,09,30,21,161,34,21,67,062,38,22,20,169,38,03,37,293,*75
$GPGSV,3,3,09,06,53,295,,,,,,,,,,,,,*4E
$GPGSA,M,3,18,29,30,21,22,,,,,,,,5.3,3.7,3.7*3A
Trace #87 at position 21.500000
$GPZDA,132330.03,06,10,2011,00,00*60
$GPRMC,132330.00,A,4611.960513,N,01258.213497,E,000.6,337.6,061011,0.2,E,$GPGGA,132331.00,4611.960707,N,01258.213369,E,1,05,3.7,138.21,M,46.25,M,,*6F
$GPGLL,4611.960707,N,01258.213369,E,132331.00,A,A*67
$GPVTG,343.4,T,343.6,M,000.9,N,001.6,K,A*2F
$GPGSV,3,1,09,19,09,281,,16,58,293,,18,42,128,40,29,19,095,37*71
$GPGSV,3,2,09,30,21,161,35,21,67,062,38,22,20,169,37,03,37,293,*7B
$GPGSV,3,3,09,06,53,295,,,,,,,,,,,,,*4E
$GPGSA,M,3,18,29,30,21,22,,,,,,,,5.3,3.7,3.7*3A
Trace #88 at position 21.750000
$GPZDA,132330.03,06,10,2011,00,00*60
$GPRMC,132330.00,A,4611.960513,N,01258.213497,E,000.6,337.6,061011,0.2,E,$GPGGA,132331.00,4611.960707,N,01258.213369,E,1,05,3.7,138.21,M,46.25,M,,*6F
$GPGLL,4611.960707,N,01258.213369,E,132331.00,A,A*67
$GPVTG,343.4,T,343.6,M,000.9,N,001.6,K,A*2F
$GPGSV,3,1,09,19,09,281,,16,58,293,,18,42,128,40,29,19,095,37*71
$GPGSV,3,2,09,30,21,161,35,21,67,062,38,22,20,169,37,03,37,293,*7B
$GPGSV,3,3,09,06,53,295,,,,,,,,,,,,,*4E
$GPGSA,M,3,18,29,30,21,22,,,,,,,,5.3,3.7,3.7*3A
Trace #89 at position 22.000000
$GPZDA,132331.03,06,10,2011,00,00*61
$GPRMC,132331.00,A,4611.960707,N,01258.213369,E,000.9,343.4,061011,0.2,E,$GPGGA,132332.00,4611.960904,N,01258.213240,E,1,05,3.7,138.34,M,46.25,M,,*6F
$GPGLL,4611.960904,N,01258.213240,E,132332.00,A,A*63
$GPVTG,336.6,T,336.8,M,000.6,N,001.1,K,A*2B
$GPGSV,3,1,09,19,09,281,,16,58,293,,18,42,128,41,29,19,095,38*7F
$GPGSV,3,2,09,30,21,161,35,21,67,062,38,22,20,169,36,03,37,293,*7A
$GPGSV,3,3,09,06,53,295,,,,,,,,,,,,,*4E
$GPGSA,M,3,18,29,30,21,22,,,,,,,,5.3,3.7,3.7*3A
Trace #90 at position 22.250000
$GPZDA,132331.03,06,10,2011,00,00*61
$GPRMC,132331.00,A,4611.960707,N,01258.213369,E,000.9,343.4,061011,0.2,E,$GPGGA,132332.00,4611.960904,N,01258.213240,E,1,05,3.7,138.34,M,46.25,M,,*6F
$GPGLL,4611.960904,N,01258.213240,E,132332.00,A,A*63
$GPVTG,336.6,T,336.8,M,000.6,N,001.1,K,A*2B
$GPGSV,3,1,09,19,09,281,,16,58,293,,18,42,128,41,29,19,095,38*7F
$GPGSV,3,2,09,30,21,161,35,21,67,062,38,22,20,169,36,03,37,293,*7A
$GPGSV,3,3,09,06,53,295,,,,,,,,,,,,,*4E
$GPGSA,M,3,18,29,30,21,22,,,,,,,,5.3,3.7,3.7*3A
Trace #91 at position 22.500000
$GPZDA,132332.03,06,10,2011,00,00*62
$GPRMC,132332.00,A,4611.960904,N,01258.213240,E,000.6,336.6,061011,0.2,E,$GPGGA,132333.00,4611.961160,N,01258.212896,E,1,05,3.7,138.12,M,46.25,M,,*61
$GPGLL,4611.961160,N,01258.212896,E,132333.00,A,A*69
$GPVTG,312.2,T,312.3,M,001.9,N,003.5,K,A*2C
$GPGSV,3,1,09,19,09,281,,16,58,293,,18,42,128,40,29,19,095,37*71
$GPGSV,3,2,09,30,21,161,33,21,67,062,37,22,20,169,33,03,37,293,*76
$GPGSV,3,3,09,06,53,295,,,,,,,,,,,,,*4E
$GPGSA,M,3,18,29,30,21,22,,,,,,,,5.3,3.7,3.7*3A
Trace #92 at position 22.750000
$GPZDA,132332.03,06,10,2011,00,00*62
$GPRMC,132332.00,A,4611.960904,N,01258.213240,E,000.6,336.6,061011,0.2,E,$GPGGA,132333.00,4611.961160,N,01258.212896,E,1,05,3.7,138.12,M,46.25,M,,*61
$GPGLL,4611.961160,N,01258.212896,E,132333.00,A,A*69
$GPVTG,312.2,T,312.3,M,001.9,N,003.5,K,A*2C
$GPGSV,3,1,09,19,09,281,,16,58,293,,18,42,128,40,29,19,095,37*71
$GPGSV,3,2,09,30,21,161,33,21,67,062,37,22,20,169,33,03,37,293,*76
$GPGSV,3,3,09,06,53,295,,,,,,,,,,,,,*4E
$GPGSA,M,3,18,29,30,21,22,,,,,,,,5.3,3.7,3.7*3A
Trace #93 at position 23.000000
$GPZDA,132333.03,06,10,2011,00,00*63
$GPRMC,132333.00,A,4611.961160,N,01258.212896,E,001.9,312.2,061011,0.2,E,1258.212544,E,1,05,3.7,137.97,M,46.25,M,,*66
$GPGLL,4611.961430,N,01258.212544,E,132334.00,A,A*6C
$GPVTG,317.1,T,317.3,M,001.0,N,001.9,K,A*28
$GPGSV,3,1,09,19,09,281,,16,58,293,,18,42,128,41,29,19,095,36*71
$GPGSV,3,2,09,30,21,161,33,21,67,062,37,22,20,169,33,03,37,293,*76
$GPGSV,3,3,09,06,53,295,,,,,,,,,,,,,*4E
$GPGSA,M,3,18,29,30,21,22,,,,,,,,5.3,3.7,3.7*3A
Trace #94 at position 23.250000
$GPZDA,132333.03,06,10,2011,00,00*63
$GPRMC,132333.00,A,4611.961160,N,01258.212896,E,001.9,312.2,061011,0.2,E,1258.212544,E,1,05,3.7,137.97,M,46.25,M,,*66
$GPGLL,4611.961430,N,01258.212544,E,132334.00,A,A*6C
$GPVTG,317.1,T,317.3,M,001.0,N,001.9,K,A*28
$GPGSV,3,1,09,19,09,281,,16,58,293,,18,42,128,41,29,19,095,36*71
$GPGSV,3,2,09,30,21,161,33,21,67,062,37,22,20,169,33,03,37,293,*76
$GPGSV,3,3,09,06,53,295,,,,,,,,,,,,,*4E
$GPGSA,M,3,18,29,30,21,22,,,,,,,,5.3,3.7,3.7*3A
Trace #95 at position 23.500000
$GPZDA,132334.03,06,10,2011,00,00*64
$GPRMC,132334.00,A,4611.961430,N,01258.212544,E,001.0,317.1,061011,0.2,E,A*30
$GPGGA,132335.00,4611.9616961601,N,01258.212398,E,132335.00,A,A*6A
$GPVTG,322.8,T,323.0,M,000.7,N,001.3,K,A*2F
$GPGSV,3,1,09,19,09,281,,16,58,293,,18,42,128,41,29,19,095,38*7F
$GPGSV,3,2,09,30,21,161,33,21,67,062,38,22,20,169,34,03,37,293,*7E
$GPGSV,3,3,09,06,53,295,,,,,,,,,,,,,*4E
$GPGSA,M,3,18,29,30,21,22,,,,,,,,5.3,3.7,3.7*3A
Trace #96 at position 23.750000
$GPZDA,132335.03,06,10,2011,00,00*65
$GPRMC,132335.00,A,4611.961601,N,01258.212398,E,000.7,322.8,061011,0.2,E,A*3F
$GPGGA,132336.00,4611.961741,N,01258.212442,E,1,05,3.7,138.24,M,46.25,M,,*61
$GPGLL.3,K,A*20
$GPGSV,3,1,09,19,09,281,,16,58,293,,18,42,128,41,29,19,095,37*70
$GPGSV,3,2,09,30,21,161,34,21,67,062,38,22,20,169,35,03,37,293,*78
$GPGSV,3,3,09,06,53,295,,,,,,,,,,,,,*4E
$GPGSA,M,3,18,29,30,21,22,,,,,,,,5.3,3.7,3.7*3A
Trace #97 at position 24.000000
$GPZDA,132336.03,06,10,2011,00,00*66
$GPRMC,132336.00,A,4611.961741,N,01258.212442,E,000.7,50.3,061011,0.2,E,A*04
$GPGGA,132337.00,4611.961947,N,01258.212453,E,1,05,3.7,138.36,M,46.25,M,,*6B
$GPGLL,4611.961947,N,01258.212453,E,132337.00,A,A*65
$GPVTG,336.6,T,336.7,M,001.1,GPGSA,M,3,18,29,30,21,22,,,,,,,,5.3,3.7,3.7*3A
Trace #98 at position 24.250000
$GPZDA,132336.03,06,10,2011,00,00*66
$GPRMC,132336.00,A,4611.961741,N,01258.212442,E,000.7,50.3,061011,0.2,E,A*04
$GPGGA,132337.00,4611.961947,N,01258.212453,E,1,05,3.7,138.36,M,46.25,M,,*6B
$GPGLL,4611.961947,N,01258.212453,E,132337.00,A,A*65
$GPVTG,336.6,T,336.7,M,001.1,GPGSA,M,3,18,29,30,21,22,,,,,,,,5.3,3.7,3.7*3A
Trace #99 at position 24.500000
$GPZDA,132336.03,06,10,2011,00,00*66
$GPRMC,132336.00,A,4611.961741,N,01258.212442,E,000.7,50.3,061011,0.2,E,A*04
$GPGGA,132337.00,4611.961947,N,01258.212453,E,1,05,3.7,138.36,M,46.25,M,,*6B
$GPGLL,4611.961947,N,01258.212453,E,132337.00,A,A*65
$GPVTG,336.6,T,336.7,M,001.1,GPGSA,M,3,18,29,30,21,22,,,,,,,,5.3,3.7,3.7*3A
Trace #100 at position 24.750000
$GPZDA,132336.03,06,10,2011,00,00*66
$GPRMC,132336.00,A,4611.961741,N,01258.212442,E,000.7,50.3,061011,0.2,E,A*04
$GPGGA,132337.00,4611.961947,N,01258.212453,E,1,05,3.7,138.36,M,46.25,M,,*6B
$GPGLL,4611.961947,N,01258.212453,E,132337.00,A,A*65
$GPVTG,336.6,T,336.7,M,001.1,GPGSA,M,3,18,29,30,21,22,,,,,,,,5.3,3.7,3.7*3A
Trace #101 at position 25.000000
$GPZDA,132337.03,06,10,2011,00,00*67
$GPRMC,132337.00,A,4611.961947,N,01258.212453,E,001.1,336.6,061011,0.2,E,A*3C
$GPGGA,132338.00,4611.962151,N,01258.212373,E,1,05,3.7,138.45,M,46.25,M,,*69
$GPGLL,4611.962151,N,01258.212373,E,132338.00,A,A*63
$GPVTG,18.5,T,18.6,M,000.5,N,000.9,K,A*2C
$GPGSV,3,1,09,19,09,281,,16,58,293,,18,42,128,41,29,19,095,37*70
$GPGSV,3,2,09,30,21,161,36,21,67,062,36,22,20,169,35,03,37,293,*74
$GPGSV,3,3,09,06,53,295,,,,,,,,,,,,,*43A
$GPZDA,132338.04,06,10,2011,00,00*6F
$GPRMC,132338.00,A,4611.962151,N,01258.212373,E,000.5,18.5,061011,0.2,E,A*03
$GPGGA,132339.00,4611.962315,N,01258.212395,E,1,05,3.7,138.51,M,46.25,M,,*67
$GPGLL,4611.962315,N,01258.212395,E,132339.00,A,A*68
$GPVTG,11.1,T,11.3,M,000.7,N,001.2,K,A*25
$GPGSV,3,1,09,19,09,281,,16,58,293,,18,42,128,41,29,19,095,36*71
$GPGSV,3,2,09,30,21,161,35,21,67,062,38,22,20,169,35,03,37,293,*79
$GPGSV,3,3,09,06,53,295,,,,,,,,,,,,,*4E
$GPGSA,M,3,18,29,30,21,22,,,,,,,,5.3,3.7,34611.962315,N,01258.212395,E,000.7,11.1,061011,0.2,E,A*07
Trace #102 at position 25.250000
$GPZDA,132337.03,06,10,2011,00,00*67
$GPRMC,132337.00,A,4611.961947,N,01258.212453,E,001.1,336.6,061011,0.2,E,A*3C
$GPGGA,132338.00,4611.962151,N,01258.212373,E,1,05,3.7,138.45,M,46.25,M,,*69
$GPGLL,4611.962151,N,01258.212373,E,132338.00,A,A*63
$GPVTG,18.5,T,18.6,M,000.5,N,000.9,K,A*2C
$GPGSV,3,1,09,19,09,281,,16,58,293,,18,42,128,41,29,19,095,37*70
$GPGSV,3,2,09,30,21,161,36,21,67,062,36,22,20,169,35,03,37,293,*74
$GPGSV,3,3,09,06,53,295,,,,,,,,,,,,,*43A
$GPZDA,132338.04,06,10,2011,00,00*6F
$GPRMC,132338.00,A,4611.962151,N,01258.212373,E,000.5,18.5,061011,0.2,E,A*03
$GPGGA,132339.00,4611.962315,N,01258.212395,E,1,05,3.7,138.51,M,46.25,M,,*67
$GPGLL,4611.962315,N,01258.212395,E,132339.00,A,A*68
$GPVTG,11.1,T,11.3,M,000.7,N,001.2,K,A*25
$GPGSV,3,1,09,19,09,281,,16,58,293,,18,42,128,41,29,19,095,36*71
$GPGSV,3,2,09,30,21,161,35,21,67,062,38,22,20,169,35,03,37,293,*79
$GPGSV,3,3,09,06,53,295,,,,,,,,,,,,,*4E
$GPGSA,M,3,18,29,30,21,22,,,,,,,,5.3,3.7,34611.962315,N,01258.212395,E,000.7,11.1,061011,0.2,E,A*07
Trace #103 at position 25.500000
$GPGGA,132340.00,4611.962527,N,01258.212242,E,1,05,3.7,138.49,M,46.25,M,,*6C
$GPGLL,4611.962527,N,01258.212242,E,132340.00,A,A*6A
$GPVTG,314.8,T,315.0,M,001.1,N,002.0,K,A*28
$GPGSV,3,1,09,19,09,281,,16,58,293,,18,42,128,42,29,19,095,37*73
$GPGSV,3,2,09,30,21,161,35,21,67,062,39,22,20,169,36,03,37,293,*7B
$GPGSV,3,3,09,06,53,295,,,,,,,,,,,,,*4E
$GPGSA,M,3,18,29,30,21,22,,,,,,,,5.3,3.7,3.7*3A
Trace #104 at position 25.750000
$GPGGA,132340.00,4611.962527,N,01258.212242,E,1,05,3.7,138.49,M,46.25,M,,*6C
$GPGLL,4611.962527,N,01258.212242,E,132340.00,A,A*6A
$GPVTG,314.8,T,315.0,M,001.1,N,002.0,K,A*28
$GPGSV,3,1,09,19,09,281,,16,58,293,,18,42,128,42,29,19,095,37*73
$GPGSV,3,2,09,30,21,161,35,21,67,062,39,22,20,169,36,03,37,293,*7B
$GPGSV,3,3,09,06,53,295,,,,,,,,,,,,,*4E
$GPGSA,M,3,18,29,30,21,22,,,,,,,,5.3,3.7,3.7*3A
Trace #105 at position 26.000000
$GPZDA,132340.03,06,10,2011,00,00*67
$GPRMC,132340.$GPGGA,132341.00,4611.962744,N,01258.212040,E,1,05,3.7,138.37,M,46.25,M,,*63
$GPGLL,4611.962744,N,01258.212040,E,132341.00,A,A*6C
$GPVTG,342.2,T,342.3,M,000.7,N,001.3,K,A*27
$GPGSV,3,1,09,19,09,281,,16,58,293,,18,42,128,40,29,19,095,36*70
$GPGSV,3,2,09,30,21,161,33,21,67,062,37,22,20,169,38,03,37,293,*7D
$GPGSV,3,3,09,06,53,295,,,,,,,,,,,,,*4E
$GPGSA,M,3,18,29,30,21,22,,,,,,,,5.3,3.7,3.7*3A
Trace #106 at position 26.250000
$GPZDA,132340.03,06,10,2011,00,00*67
$GPRMC,132340.$GPGGA,132341.00,4611.962744,N,01258.212040,E,1,05,3.7,138.37,M,46.25,M,,*63
$GPGLL,4611.962744,N,01258.212040,E,132341.00,A,A*6C
$GPVTG,342.2,T,342.3,M,000.7,N,001.3,K,A*27
$GPGSV,3,1,09,19,09,281,,16,58,293,,18,42,128,40,29,19,095,36*70
$GPGSV,3,2,09,30,21,161,33,21,67,062,37,22,20,169,38,03,37,293,*7D
$GPGSV,3,3,09,06,53,295,,,,,,,,,,,,,*4E
$GPGSA,M,3,18,29,30,21,22,,,,,,,,5.3,3.7,3.7*3A
Trace #107 at position 26.500000
$GPZDA,132341.03,06,10,2011,00,00*66
$GPRMC,132341.00,A,4611.962744,N,01258.212040,E,000.7,342.2,061011,0.2,E,$GPGGA,132342.00,4611.962963,N,01258.211869,E,1,05,3.7,138.26,M,46.25,M,,*6B
$GPGLL,4611.962963,N,01258.211869,E,132342.00,A,A*64
$GPVTG,322.3,T,322.4,M,001.0,N,001.9,K,A*2D
$GPGSV,3,1,09,19,09,281,,16,58,293,,18,42,128,41,29,19,095,37*70
$GPGSV,3,2,09,30,21,161,35,21,67,062,39,22,20,169,39,03,37,293,*74
$GPGSV,3,3,09,06,53,295,,,,,,,,,,,,,*4E
$GPGSA,M,3,18,29,30,21,22,,,,,,,,5.3,3.7,3.7*3A
Trace #108 at position 26.750000
$GPZDA,132341.03,06,10,2011,00,00*66
$GPRMC,132341.00,A,4611.962744,N,01258.212040,E,000.7,342.2,061011,0.2,E,$GPGGA,132342.00,4611.962963,N,01258.211869,E,1,05,3.7,138.26,M,46.25,M,,*6B
$GPGLL,4611.962963,N,01258.211869,E,132342.00,A,A*64
