Trace #1 at position 0.000000
$GPZDA,083340.04,09,10,2011,00,00*64
$GPRMC,083340.00,A,4611.953765,N,01258.227049,E,000.0,216.4,091011,$GPGGA,083341.00,4611.953703,N,01258.227086,E,1,06,1.8,141.65,M,46.25,M,,*62
$GPGLL,4611.953703,N,01258.227086,E,083341.00,A,A*6A
$GPVTG,179.2,T,179.3,M,000.1,N,000.1,K,A*22
$GPGSV,3,1,09,02,37,090,44,04,18,045,39,09,28,148,41,12,65,063,43*72
$GPGSV,3,2,09,14,33,263,38,25,70,310,39,29,42,218,45,30,25,285,32*7D
$GPGSV,3,3,09,31,17,314,,,,,,,,,,,,,*42
$GPGSA,M,3,02,09,12,14,25,29,,,,,,,4.0,1.8,3.5*34
Trace #2 at position 0.250000
$GPZDA,083341.04,09,10,2011,00,00*65
$GPRMC,083341.00,A,4611.953703,N,01258.227086,E,000.1,179.2,091011258.227106,E,1,06,1.8,141.61,M,46.25,M,,*6E
$GPGLL,4611.953666,N,01258.227106,E,083342.00,A,A*62
$GPVTG,312.3,T,312.5,M,000.1,N,000.3,K,A*27
$GPGSV,3,1,09,02,37,090,45,04,18,045,39,09,28,148,43,12,65,063,44*76
$GPGSV,3,2,09,14,33,263,38,25,70,310,37,29,42,218,43,30,25,285,30*77
$GPGSV,3,3,09,31,17,314,,,,,,,,,,,,,*42
$GPGSA,M,3,02,09,12,14,25,29,,,,,,,4.0,1.8,3.5*34
Trace #3 at position 0.500000
$GPZDA,083342.04,09,10,2011,00,00*66
$GPRMC,083342.00,A,4611.953666,N,01258.227106,E,000.1,312.3,091011,0.2,E,A*36
$GPGGA,083343.00,4,01258.227138,E,083343.00,A,A*69
$GPVTG,123.7,T,123.8,M,000.1,N,000.2,K,A*2F
$GPGSV,3,1,09,02,37,090,45,04,18,045,38,09,28,148,43,12,65,063,43*70
$GPGSV,3,2,09,14,33,263,39,25,70,310,37,29,42,218,43,30,25,285,30*76
$GPGSV,3,3,09,31,17,314,,,,,,,,,,,,,*42
$GPGSA,M,3,02,09,12,14,25,29,,,,,,,4.0,1.8,3.5*34
Trace #4 at position 0.750000
$GPZDA,083343.04,09,10,2011,00,00*67
$GPRMC,083343.00,A,4611.953634,N,01258.227138,E,000.1,123.7,091011,0.2,E,A*39
$GPGGA,083344.00,4611.953651,N,01258.227180,E,1,06,1.2,141.68,M,46.25,M,,*61
$GPGLL4,33,263,38,25,70,310,34,29,42,218,43,30,25,285,30*74
$GPGSV,3,3,09,31,17,314,,,,,,,,,,,,,*42
$GPGSA,M,3,02,04,09,12,14,29,,,,,,,2.6,1.2,2.3*3A
Trace #5 at position 1.000000
$GPZDA,083343.04,09,10,2011,00,00*67
$GPRMC,083343.00,A,4611.953634,N,01258.227138,E,000.1,123.7,091011,0.2,E,A*39
$GPGGA,083344.00,4611.953651,N,01258.227180,E,1,06,1.2,141.68,M,46.25,M,,*61
$GPGLL4,33,263,38,25,70,310,34,29,42,218,43,30,25,285,30*74
$GPGSV,3,3,09,31,17,314,,,,,,,,,,,,,*42
$GPGSA,M,3,02,04,09,12,14,29,,,,,,,2.6,1.2,2.3*3A
Trace #6 at position 1.250000
$GPZDA,083343.04,09,10,2011,00,00*67
$GPRMC,083343.00,A,4611.953634,N,01258.227138,E,000.1,123.7,091011,0.2,E,A*39
$GPGGA,083344.00,4611.953651,N,01258.227180,E,1,06,1.2,141.68,M,46.25,M,,*61
$GPGLL4,33,263,38,25,70,310,34,29,42,218,43,30,25,285,30*74
$GPGSV,3,3,09,31,17,314,,,,,,,,,,,,,*42
$GPGSA,M,3,02,04,09,12,14,29,,,,,,,2.6,1.2,2.3*3A
Trace #7 at position 1.500000
$GPZDA,083343.04,09,10,2011,00,00*67
$GPRMC,083343.00,A,4611.953634,N,01258.227138,E,000.1,123.7,091011,0.2,E,A*39
$GPGGA,083344.00,4611.953651,N,01258.227180,E,1,06,1.2,141.68,M,46.25,M,,*61
$GPGLL4,33,263,38,25,70,310,34,29,42,218,43,30,25,285,30*74
$GPGSV,3,3,09,31,17,314,,,,,,,,,,,,,*42
$GPGSA,M,3,02,04,09,12,14,29,,,,,,,2.6,1.2,2.3*3A
Trace #8 at position 1.750000
$GPZDA,083344.04,09,10,2011,00,00*60
$GPRMC,083344.00,A,4611.953651,N,01258.227180,E,000.0,69.8,091011,0.2,E,A*0F
$GPGGA,083345.00,4611.953648,N,01258.227222,E,1,07,1.1,141.56,M,46.25,M,,*6C
$GPGLL,4611.953648,N,01258.227222,E,083345.00,A,A*6C
$GPVTG,154.3,T,154.4,M,000.1,N,000.2,K,A*27
$GPGSV,3,1,09,02,37,090,45,04,18,045,40,09,28,148,42,12,65,063,42*7F
$G,00*61
$GPRMC,083345.00,A,4611.953648,N,01258.227222,E,000.1,154.3,091011,0.2,E,A*38
$GPGGA,083346.00,4611.953651,N,01258.227245,E,1,07,1.1,141.45,M,46.25,M,,*64
$GPGLL,4611.953651,N,01258.227245,E,083346.00,A,A*66
$GPVTG,315.2,T,315.4,M,000.1,N,000.1,K,A*25
$GPGSV,3,1,09,02,37,090,47,04,18,045,41,09,28,148,43,12,65,063,42*7D
$GPGSV,3,2,09,14,33,263,39,25,70,310,46,29,42,218,47,30,25,285,37*73
$GPGSV,3,3,09,31,17,314,,,,,,,,,,,,,*42
$GPGSA,M,3,02,04,09,12,14,25,29,,,,,,2.2,1.1,1.9*33
Trace #9 at position 2.000000
$GPZDA,083344.04,09,10,2011,00,00*60
$GPRMC,083344.00,A,4611.953651,N,01258.227180,E,000.0,69.8,091011,0.2,E,A*0F
$GPGGA,083345.00,4611.953648,N,01258.227222,E,1,07,1.1,141.56,M,46.25,M,,*6C
$GPGLL,4611.953648,N,01258.227222,E,083345.00,A,A*6C
$GPVTG,154.3,T,154.4,M,000.1,N,000.2,K,A*27
$GPGSV,3,1,09,02,37,090,45,04,18,045,40,09,28,148,42,12,65,063,42*7F
$G,00*61
$GPRMC,083345.00,A,4611.953648,N,01258.227222,E,000.1,154.3,091011,0.2,E,A*38
$GPGGA,083346.00,4611.953651,N,01258.227245,E,1,07,1.1,141.45,M,46.25,M,,*64
$GPGLL,4611.953651,N,01258.227245,E,083346.00,A,A*66
$GPVTG,315.2,T,315.4,M,000.1,N,000.1,K,A*25
$GPGSV,3,1,09,02,37,090,47,04,18,045,41,09,28,148,43,12,65,063,42*7D
$GPGSV,3,2,09,14,33,263,39,25,70,310,46,29,42,218,47,30,25,285,37*73
$GPGSV,3,3,09,31,17,314,,,,,,,,,,,,,*42
$GPGSA,M,3,02,04,09,12,14,25,29,,,,,,2.2,1.1,1.9*33
Trace #10 at position 2.250000
$GPZDA,083344.04,09,10,2011,00,00*60
$GPRMC,083344.00,A,4611.953651,N,01258.227180,E,000.0,69.8,091011,0.2,E,A*0F
$GPGGA,083345.00,4611.953648,N,01258.227222,E,1,07,1.1,141.56,M,46.25,M,,*6C
$GPGLL,4611.953648,N,01258.227222,E,083345.00,A,A*6C
$GPVTG,154.3,T,154.4,M,000.1,N,000.2,K,A*27
$GPGSV,3,1,09,02,37,090,45,04,18,045,40,09,28,148,42,12,65,063,42*7F
$G,00*61
$GPRMC,083345.00,A,4611.953648,N,01258.227222,E,000.1,154.3,091011,0.2,E,A*38
$GPGGA,083346.00,4611.953651,N,01258.227245,E,1,07,1.1,141.45,M,46.25,M,,*64
$GPGLL,4611.953651,N,01258.227245,E,083346.00,A,A*66
$GPVTG,315.2,T,315.4,M,000.1,N,000.1,K,A*25
$GPGSV,3,1,09,02,37,090,47,04,18,045,41,09,28,148,43,12,65,063,42*7D
$GPGSV,3,2,09,14,33,263,39,25,70,310,46,29,42,218,47,30,25,285,37*73
$GPGSV,3,3,09,31,17,314,,,,,,,,,,,,,*42
$GPGSA,M,3,02,04,09,12,14,25,29,,,,,,2.2,1.1,1.9*33
Trace #11 at position 2.500000
$GPZDA,083346.27245,E,000.1,315.2,091011,0.2,E,A*34
$GPGGA,083347.00,4611.953664,N,01258.227261,E,1,07,1.1,141.35,M,46.25,M,,*62
$GPGLL,4611.953664,N,01258.227261,E,083347.00,A,A*67
$GPVTG,136.3,T,136.4,M,000.0,N,000.0,K,A*24
$GPGSV,3,1,09,02,37,090,46,04,18,045,41,09,28,148,42,12,65,063,41*7E
$GPGSV,3,2,09,14,33,263,38,25,70,310,46,29,42,218,47,30,25,285,38*7D
$GPGSV,3,3,09,31,17,314,,,,,,,,,,,,,*42
$GPGSA,M,3,02,04,09,12,14,25,29,,,,,,2.2,1.1,1.9*33
Trace #12 at position 2.750000
$GPZDA,083346.27245,E,000.1,315.2,091011,0.2,E,A*34
$GPGGA,083347.00,4611.953664,N,01258.227261,E,1,07,1.1,141.35,M,46.25,M,,*62
$GPGLL,4611.953664,N,01258.227261,E,083347.00,A,A*67
$GPVTG,136.3,T,136.4,M,000.0,N,000.0,K,A*24
$GPGSV,3,1,09,02,37,090,46,04,18,045,41,09,28,148,42,12,65,063,41*7E
$GPGSV,3,2,09,14,33,263,38,25,70,310,46,29,42,218,47,30,25,285,38*7D
$GPGSV,3,3,09,31,17,314,,,,,,,,,,,,,*42
$GPGSA,M,3,02,04,09,12,14,25,29,,,,,,2.2,1.1,1.9*33
Trace #13 at position 3.000000
$GPZDA,083347.04,09,10,2011,00,00*63
$GPRMC,083347.00,A,4611.$GPGGA,083348.00,4611.953730,N,01258.227248,E,1,07,1.1,141.28,M,46.25,M,,*6A
$GPGLL,4611.953730,N,01258.227248,E,083348.00,A,A*63
$GPVTG,338.3,T,338.4,M,000.5,N,000.9,K,A*28
$GPGSV,3,1,09,02,37,090,46,04,18,045,41,09,28,148,43,12,65,063,41*7F
$GPGSV,3,2,09,14,33,263,38,25,70,310,46,29,42,218,46,30,25,285,37*73
$GPGSV,3,3,09,31,17,314,,,,,,,,,,,,,*42
$GPGSA,M,3,02,04,09,12,14,25,29,,,,,,2.2,1.1,1.9*33
Trace #14 at position 3.250000
$GPZDA,083347.04,09,10,2011,00,00*63
$GPRMC,083347.00,A,4611.$GPGGA,083348.00,4611.953730,N,01258.227248,E,1,07,1.1,141.28,M,46.25,M,,*6A
$GPGLL,4611.953730,N,01258.227248,E,083348.00,A,A*63
$GPVTG,338.3,T,338.4,M,000.5,N,000.9,K,A*28
$GPGSV,3,1,09,02,37,090,46,04,18,045,41,09,28,148,43,12,65,063,41*7F
$GPGSV,3,2,09,14,33,263,38,25,70,310,46,29,42,218,46,30,25,285,37*73
$GPGSV,3,3,09,31,17,314,,,,,,,,,,,,,*42
$GPGSA,M,3,02,04,09,12,14,25,29,,,,,,2.2,1.1,1.9*33
Trace #15 at position 3.500000
$GPZDA,083347.04,09,10,2011,00,00*63
$GPRMC,083347.00,A,4611.$GPGGA,083348.00,4611.953730,N,01258.227248,E,1,07,1.1,141.28,M,46.25,M,,*6A
$GPGLL,4611.953730,N,01258.227248,E,083348.00,A,A*63
$GPVTG,338.3,T,338.4,M,000.5,N,000.9,K,A*28
$GPGSV,3,1,09,02,37,090,46,04,18,045,41,09,28,148,43,12,65,063,41*7F
$GPGSV,3,2,09,14,33,263,38,25,70,310,46,29,42,218,46,30,25,285,37*73
$GPGSV,3,3,09,31,17,314,,,,,,,,,,,,,*42
$GPGSA,M,3,02,04,09,12,14,25,29,,,,,,2.2,1.1,1.9*33
Trace #16 at position 3.750000
$GPZDA,083348.04,09,10,2011,00,00*6C
$GPRMC,083348.00,A,4611.953730,N,01258.227248,E,000.5,338.3,091$GPGGA,083349.00,4611.953939,N,01258.227172,E,1,08,1.0,141.09,M,46.25,M,,*6B
$GPGLL,4611.953939,N,01258.227172,E,083349.00,A,A*6F
$GPVTG,349.4,T,349.6,M,001.0,N,001.8,K,A*29
$GPGSV,3,1,09,02,37,090,43,04,18,045,40,09,28,148,44,12,65,063,45*78
$GPGSV,3,2,09,14,33,263,38,25,70,310,47,29,42,218,47,30,25,285,39*7D
$GPGSV,3,3,09,31,17,314,,,,,,,,,,,,,*42
$GPGSA,M,3,02,04,09,12,14,25,29,30,,,,,2.0,1.0,1.7*3D
Trace #17 at position 4.000000
$GPZDA,083348.04,09,10,2011,00,00*6C
$GPRMC,083348.00,A,4611.953730,N,01258.227248,E,000.5,338.3,091$GPGGA,083349.00,4611.953939,N,01258.227172,E,1,08,1.0,141.09,M,46.25,M,,*6B
$GPGLL,4611.953939,N,01258.227172,E,083349.00,A,A*6F
$GPVTG,349.4,T,349.6,M,001.0,N,001.8,K,A*29
$GPGSV,3,1,09,02,37,090,43,04,18,045,40,09,28,148,44,12,65,063,45*78
$GPGSV,3,2,09,14,33,263,38,25,70,310,47,29,42,218,47,30,25,285,39*7D
$GPGSV,3,3,09,31,17,314,,,,,,,,,,,,,*42
$GPGSA,M,3,02,04,09,12,14,25,29,30,,,,,2.0,1.0,1.7*3D
Trace #18 at position 4.250000
$GPZDA,083348.04,09,10,2011,00,00*6C
$GPRMC,083348.00,A,4611.953730,N,01258.227248,E,000.5,338.3,091$GPGGA,083349.00,4611.953939,N,01258.227172,E,1,08,1.0,141.09,M,46.25,M,,*6B
$GPGLL,4611.953939,N,01258.227172,E,083349.00,A,A*6F
$GPVTG,349.4,T,349.6,M,001.0,N,001.8,K,A*29
$GPGSV,3,1,09,02,37,090,43,04,18,045,40,09,28,148,44,12,65,063,45*78
$GPGSV,3,2,09,14,33,263,38,25,70,310,47,29,42,218,47,30,25,285,39*7D
$GPGSV,3,3,09,31,17,314,,,,,,,,,,,,,*42
$GPGSA,M,3,02,04,09,12,14,25,29,30,,,,,2.0,1.0,1.7*3D
Trace #19 at position 4.500000
$GPZDA,083349.04,09,10,2011,00,00*6D
$GPRMC,083349.00,A,4611.953939,N,01258.227172,E,001.0,349.4,0$GPGGA,083350.00,4611.954167,N,01258.227068,E,1,08,1.0,140.90,M,46.25,M,,*6C
$GPGLL,4611.954167,N,01258.227068,E,083350.00,A,A*69
$GPVTG,331.4,T,331.5,M,000.7,N,001.4,K,A*20
$GPGSV,3,1,09,02,37,090,45,04,18,045,40,09,28,148,45,12,65,063,43*79
$GPGSV,3,2,09,14,33,263,37,25,70,310,47,29,42,218,47,30,25,285,39*72
$GPGSV,3,3,09,31,17,314,,,,,,,,,,,,,*42
$GPGSA,M,3,02,04,09,12,14,25,29,30,,,,,2.0,1.0,1.7*3D
Trace #20 at position 4.750000
$GPZDA,083349.04,09,10,2011,00,00*6D
$GPRMC,083349.00,A,4611.953939,N,01258.227172,E,001.0,349.4,0$GPGGA,083350.00,4611.954167,N,01258.227068,E,1,08,1.0,140.90,M,46.25,M,,*6C
$GPGLL,4611.954167,N,01258.227068,E,083350.00,A,A*69
$GPVTG,331.4,T,331.5,M,000.7,N,001.4,K,A*20
$GPGSV,3,1,09,02,37,090,45,04,18,045,40,09,28,148,45,12,65,063,43*79
$GPGSV,3,2,09,14,33,263,37,25,70,310,47,29,42,218,47,30,25,285,39*72
$GPGSV,3,3,09,31,17,314,,,,,,,,,,,,,*42
$GPGSA,M,3,02,04,09,12,14,25,29,30,,,,,2.0,1.0,1.7*3D
Trace #21 at position 5.000000
$GPZDA,083349.04,09,10,2011,00,00*6D
$GPRMC,083349.00,A,4611.953939,N,01258.227172,E,001.0,349.4,0$GPGGA,083350.00,4611.954167,N,01258.227068,E,1,08,1.0,140.90,M,46.25,M,,*6C
$GPGLL,4611.954167,N,01258.227068,E,083350.00,A,A*69
$GPVTG,331.4,T,331.5,M,000.7,N,001.4,K,A*20
$GPGSV,3,1,09,02,37,090,45,04,18,045,40,09,28,148,45,12,65,063,43*79
$GPGSV,3,2,09,14,33,263,37,25,70,310,47,29,42,218,47,30,25,285,39*72
$GPGSV,3,3,09,31,17,314,,,,,,,,,,,,,*42
$GPGSA,M,3,02,04,09,12,14,25,29,30,,,,,2.0,1.0,1.7*3D
Trace #22 at position 5.250000
$GPZDA,083349.04,09,10,2011,00,00*6D
$GPRMC,083349.00,A,4611.953939,N,01258.227172,E,001.0,349.4,0$GPGGA,083350.00,4611.954167,N,01258.227068,E,1,08,1.0,140.90,M,46.25,M,,*6C
$GPGLL,4611.954167,N,01258.227068,E,083350.00,A,A*69
$GPVTG,331.4,T,331.5,M,000.7,N,001.4,K,A*20
$GPGSV,3,1,09,02,37,090,45,04,18,045,40,09,28,148,45,12,65,063,43*79
$GPGSV,3,2,09,14,33,263,37,25,70,310,47,29,42,218,47,30,25,285,39*72
$GPGSV,3,3,09,31,17,314,,,,,,,,,,,,,*42
$GPGSA,M,3,02,04,09,12,14,25,29,30,,,,,2.0,1.0,1.7*3D
Trace #23 at position 5.500000
$GPZDA,083350.04,09,10,2011,00,00*65
$GPRMC,083350.00,A,4611.954167,N,01258.227068,E,000.7,331.4,0$GPGGA,083351.00,4611.954411,N,01258.226979,E,1,08,1.0,140.75,M,46.25,M,,*6A
$GPGLL,4611.954411,N,01258.226979,E,083351.00,A,A*64
$GPVTG,355.4,T,355.6,M,001.0,N,001.9,K,A*28
$GPGSV,3,1,09,02,37,090,46,04,18,045,40,09,28,148,45,12,65,063,44*7D
$GPGSV,3,2,09,14,33,263,39,25,70,310,45,29,42,218,47,30,25,285,40*70
$GPGSV,3,3,09,31,17,314,,,,,,,,,,,,,*42
$GPGSA,M,3,02,04,09,12,14,25,29,30,,,,,2.0,1.0,1.7*3D
Trace #24 at position 5.750000
$GPZDA,083350.04,09,10,2011,00,00*65
$GPRMC,083350.00,A,4611.954167,N,01258.227068,E,000.7,331.4,0$GPGGA,083351.00,4611.954411,N,01258.226979,E,1,08,1.0,140.75,M,46.25,M,,*6A
$GPGLL,4611.954411,N,01258.226979,E,083351.00,A,A*64
$GPVTG,355.4,T,355.6,M,001.0,N,001.9,K,A*28
$GPGSV,3,1,09,02,37,090,46,04,18,045,40,09,28,148,45,12,65,063,44*7D
$GPGSV,3,2,09,14,33,263,39,25,70,310,45,29,42,218,47,30,25,285,40*70
$GPGSV,3,3,09,31,17,314,,,,,,,,,,,,,*42
$GPGSA,M,3,02,04,09,12,14,25,29,30,,,,,2.0,1.0,1.7*3D
Trace #25 at position 6.000000
$GPZDA,083351.04,09,10,2011,00,00*64
$GPRMC,083351.00,A,4611.954411,N,01258.226979,E,001.0,355.4,0$GPGGA,083352.00,4611.954712,N,01258.226806,E,1,08,1.0,140.61,M,46.25,M,,*65
$GPGLL,4611.954712,N,01258.226806,E,083352.00,A,A*6E
$GPVTG,322.9,T,323.0,M,001.3,N,002.5,K,A*2E
$GPGSV,3,1,09,02,37,090,45,04,18,045,39,09,28,148,44,12,64,063,44*70
$GPGSV,3,2,09,14,33,263,40,25,70,310,42,29,42,218,47,30,25,285,38*76
$GPGSV,3,3,09,31,17,314,,,,,,,,,,,,,*42
$GPGSA,M,3,02,04,09,12,14,25,29,30,,,,,2.0,1.0,1.7*3D
Trace #26 at position 6.250000
$GPZDA,083351.04,09,10,2011,00,00*64
$GPRMC,083351.00,A,4611.954411,N,01258.226979,E,001.0,355.4,0$GPGGA,083352.00,4611.954712,N,01258.226806,E,1,08,1.0,140.61,M,46.25,M,,*65
$GPGLL,4611.954712,N,01258.226806,E,083352.00,A,A*6E
$GPVTG,322.9,T,323.0,M,001.3,N,002.5,K,A*2E
$GPGSV,3,1,09,02,37,090,45,04,18,045,39,09,28,148,44,12,64,063,44*70
$GPGSV,3,2,09,14,33,263,40,25,70,310,42,29,42,218,47,30,25,285,38*76
$GPGSV,3,3,09,31,17,314,,,,,,,,,,,,,*42
$GPGSA,M,3,02,04,09,12,14,25,29,30,,,,,2.0,1.0,1.7*3D
Trace #27 at position 6.500000
$GPZDA,083351.04,09,10,2011,00,00*64
$GPRMC,083351.00,A,4611.954411,N,01258.226979,E,001.0,355.4,0$GPGGA,083352.00,4611.954712,N,01258.226806,E,1,08,1.0,140.61,M,46.25,M,,*65
$GPGLL,4611.954712,N,01258.226806,E,083352.00,A,A*6E
$GPVTG,322.9,T,323.0,M,001.3,N,002.5,K,A*2E
$GPGSV,3,1,09,02,37,090,45,04,18,045,39,09,28,148,44,12,64,063,44*70
$GPGSV,3,2,09,14,33,263,40,25,70,310,42,29,42,218,47,30,25,285,38*76
$GPGSV,3,3,09,31,17,314,,,,,,,,,,,,,*42
$GPGSA,M,3,02,04,09,12,14,25,29,30,,,,,2.0,1.0,1.7*3D
Trace #28 at position 6.750000
$GPZDA,083351.04,09,10,2011,00,00*64
$GPRMC,083351.00,A,4611.954411,N,01258.226979,E,001.0,355.4,0$GPGGA,083352.00,4611.954712,N,01258.226806,E,1,08,1.0,140.61,M,46.25,M,,*65
$GPGLL,4611.954712,N,01258.226806,E,083352.00,A,A*6E
$GPVTG,322.9,T,323.0,M,001.3,N,002.5,K,A*2E
$GPGSV,3,1,09,02,37,090,45,04,18,045,39,09,28,148,44,12,64,063,44*70
$GPGSV,3,2,09,14,33,263,40,25,70,310,42,29,42,218,47,30,25,285,38*76
$GPGSV,3,3,09,31,17,314,,,,,,,,,,,,,*42
$GPGSA,M,3,02,04,09,12,14,25,29,30,,,,,2.0,1.0,1.7*3D
Trace #29 at position 7.000000
$GPZDA,083352.04,09,10,2011,00,00*67
$GPRMC,083352.00,A,4611.954712,N,01258.226806,E,001.3,322.9,0$GPGGA,083353.00,4611.955061,N,01258.226576,E,1,08,1.0,140.51,M,46.25,M,,*6F
$GPGLL,4611.955061,N,01258.226576,E,083353.00,A,A*67
$GPVTG,343.4,T,343.6,M,001.5,N,002.7,K,A*20
$GPGSV,3,1,09,02,37,090,46,04,18,045,40,09,28,148,43,12,64,063,43*7D
$GPGSV,3,2,09,14,33,263,41,25,70,310,41,29,42,218,47,30,25,285,38*74
$GPGSV,3,3,09,31,17,314,,,,,,,,,,,,,*42
$GPGSA,M,3,02,04,09,12,14,25,29,30,,,,,2.0,1.0,1.7*3D
Trace #30 at position 7.250000
$GPZDA,083352.04,09,10,2011,00,00*67
$GPRMC,083352.00,A,4611.954712,N,01258.226806,E,001.3,322.9,0$GPGGA,083353.00,4611.955061,N,01258.226576,E,1,08,1.0,140.51,M,46.25,M,,*6F
$GPGLL,4611.955061,N,01258.226576,E,083353.00,A,A*67
$GPVTG,343.4,T,343.6,M,001.5,N,002.7,K,A*20
$GPGSV,3,1,09,02,37,090,46,04,18,045,40,09,28,148,43,12,64,063,43*7D
$GPGSV,3,2,09,14,33,263,41,25,70,310,41,29,42,218,47,30,25,285,38*74
$GPGSV,3,3,09,31,17,314,,,,,,,,,,,,,*42
$GPGSA,M,3,02,04,09,12,14,25,29,30,,,,,2.0,1.0,1.7*3D
Trace #31 at position 7.500000
$GPZDA,083353.04,09,10,2011,00,00*66
$GPRMC,083353.00,A,4611.955061,N,01258.226576,E,001.5,343.4,0PGLL,4611.955472,N,01258.226432,E,083354.00,A,A*67
$GPVTG,347.3,T,347.4,M,001.6,N,003.0,K,A*20
$GPGSV,3,1,09,02,37,090,45,04,18,045,38,09,28,148,42,12,64,063,43*70
$GPGSV,3,2,09,14,33,263,40,25,70,310,41,29,42,218,47,30,25,285,38*75
$GPGSV,3,3,09,31,17,314,,,,,,,,,,,,,*42
$GPGSA,M,3,02,04,09,12,14,25,29,30,,,,,2.0,1.0,1.7*3D
Trace #32 at position 7.750000
$GPZDA,083353.04,09,10,2011,00,00*66
$GPRMC,083353.00,A,4611.955061,N,01258.226576,E,001.5,343.4,0PGLL,4611.955472,N,01258.226432,E,083354.00,A,A*67
$GPVTG,347.3,T,347.4,M,001.6,N,003.0,K,A*20
$GPGSV,3,1,09,02,37,090,45,04,18,045,38,09,28,148,42,12,64,063,43*70
$GPGSV,3,2,09,14,33,263,40,25,70,310,41,29,42,218,47,30,25,285,38*75
$GPGSV,3,3,09,31,17,314,,,,,,,,,,,,,*42
$GPGSA,M,3,02,04,09,12,14,25,29,30,,,,,2.0,1.0,1.7*3D
Trace #33 at position 8.000000
$GPZDA,083353.04,09,10,2011,00,00*66
$GPRMC,083353.00,A,4611.955061,N,01258.226576,E,001.5,343.4,0PGLL,4611.955472,N,01258.226432,E,083354.00,A,A*67
$GPVTG,347.3,T,347.4,M,001.6,N,003.0,K,A*20
$GPGSV,3,1,09,02,37,090,45,04,18,045,38,09,28,148,42,12,64,063,43*70
$GPGSV,3,2,09,14,33,263,40,25,70,310,41,29,42,218,47,30,25,285,38*75
$GPGSV,3,3,09,31,17,314,,,,,,,,,,,,,*42
$GPGSA,M,3,02,04,09,12,14,25,29,30,,,,,2.0,1.0,1.7*3D
Trace #34 at position 8.250000
$GPZDA,083354.04,09,10,2011,00,00*61
$GPRMC,083354.00,A,4611.955472,N,01258.226432,E,001.6,347.3,091011,0.2,E,A*35
$GPGGA,083355.00,4611.955807,N,01258.226185,E,1,08,1.0,140.29,A*61
$GPVTG,311.5,T,311.6,M,001.3,N,002.4,K,A*24
$GPGSV,3,1,09,02,37,090,45,04,18,045,39,09,28,148,43,12,64,063,41*72
$GPGSV,3,2,09,14,33,263,37,25,70,310,44,29,42,218,46,30,25,285,39*70
$GPGSV,3,3,09,31,17,314,,,,,,,,,,,,,*42
$GPGSA,M,3,02,04,09,12,14,25,29,30,,,,,2.0,1.0,1.7*3D
Trace #35 at position 8.500000
$GPZDA,083354.04,09,10,2011,00,00*61
$GPRMC,083354.00,A,4611.955472,N,01258.226432,E,001.6,347.3,091011,0.2,E,A*35
$GPGGA,083355.00,4611.955807,N,01258.226185,E,1,08,1.0,140.29,A*61
$GPVTG,311.5,T,311.6,M,001.3,N,002.4,K,A*24
$GPGSV,3,1,09,02,37,090,45,04,18,045,39,09,28,148,43,12,64,063,41*72
$GPGSV,3,2,09,14,33,263,37,25,70,310,44,29,42,218,46,30,25,285,39*70
$GPGSV,3,3,09,31,17,314,,,,,,,,,,,,,*42
$GPGSA,M,3,02,04,09,12,14,25,29,30,,,,,2.0,1.0,1.7*3D
Trace #36 at position 8.750000
$GPZDA,083355.04,09,10,2011,00,00*60
$GPRMC,083355.00,A,4611.955807,N,01258.226185,E,001.3,311.5,091011,0.2,E,A*33
$GPGGA,083356.00,4611.956216,N,01258.226060,E,1,08,1.0,140.19,M,46.25,M,,*65
$GPGLL,4611.956216,N,01258.226,314,,,,,,,,,,,,,*42
$GPGSA,M,3,02,04,09,12,14,25,29,30,,,,,2.0,1.0,1.7*3D
Trace #37 at position 9.000000
$GPZDA,083355.04,09,10,2011,00,00*60
$GPRMC,083355.00,A,4611.955807,N,01258.226185,E,001.3,311.5,091011,0.2,E,A*33
$GPGGA,083356.00,4611.956216,N,01258.226060,E,1,08,1.0,140.19,M,46.25,M,,*65
$GPGLL,4611.956216,N,01258.226,314,,,,,,,,,,,,,*42
$GPGSA,M,3,02,04,09,12,14,25,29,30,,,,,2.0,1.0,1.7*3D
Trace #38 at position 9.250000
$GPZDA,083355.04,09,10,2011,00,00*60
$GPRMC,083355.00,A,4611.955807,N,01258.226185,E,001.3,311.5,091011,0.2,E,A*33
$GPGGA,083356.00,4611.956216,N,01258.226060,E,1,08,1.0,140.19,M,46.25,M,,*65
$GPGLL,4611.956216,N,01258.226,314,,,,,,,,,,,,,*42
$GPGSA,M,3,02,04,09,12,14,25,29,30,,,,,2.0,1.0,1.7*3D
Trace #39 at position 9.500000
$GPZDA,083355.04,09,10,2011,00,00*60
$GPRMC,083355.00,A,4611.955807,N,01258.226185,E,001.3,311.5,091011,0.2,E,A*33
$GPGGA,083356.00,4611.956216,N,01258.226060,E,1,08,1.0,140.19,M,46.25,M,,*65
$GPGLL,4611.956216,N,01258.226,314,,,,,,,,,,,,,*42
$GPGSA,M,3,02,04,09,12,14,25,29,30,,,,,2.0,1.0,1.7*3D
Trace #40 at position 9.750000
$GPZDA,083355.04,09,10,2011,00,00*60
$GPRMC,083355.00,A,4611.955807,N,01258.226185,E,001.3,311.5,091011,0.2,E,A*33
$GPGGA,083356.00,4611.956216,N,01258.226060,E,1,08,1.0,140.19,M,46.25,M,,*65
$GPGLL,4611.956216,N,01258.226,314,,,,,,,,,,,,,*42
$GPGSA,M,3,02,04,09,12,14,25,29,30,,,,,2.0,1.0,1.7*3D
Trace #41 at position 10.000000
$GPZDA,083355.04,09,10,2011,00,00*60
$GPRMC,083355.00,A,4611.955807,N,01258.226185,E,001.3,311.5,091011,0.2,E,A*33
$GPGGA,083356.00,4611.956216,N,01258.226060,E,1,08,1.0,140.19,M,46.25,M,,*65
$GPGLL,4611.956216,N,01258.226,314,,,,,,,,,,,,,*42
$GPGSA,M,3,02,04,09,12,14,25,29,30,,,,,2.0,1.0,1.7*3D
Trace #42 at position 10.250000
$GPZDA,083356.04,09,10,2011,00,00*63
$GPRMC,083356.00,A,4611.956216,N,01258.226060,E,002.2,6.7,091011,0.2,E,A*36
$GPGGA,083357.00,4611.956640,N,01258.226027,E,1,08,1.0,140.18,M,46.25,M,,*61
$GPGLL,4611.956640,N,01258.226027,E,083357.00,A,A*64
$GPVTG,336.5,T,336.7,M,001.1,N,002.0,K,A*23
$GPGSV,3,1,09,02,37,090,45,04,18,045,41,09,28,148,42,12,64,063,43*7E
$GPGSV,3,2,09,14,33,263,42,25,70,310,42,29,42,218,47,30,25,285,40*7B
$GP,10,2011,00,00*62
$GPRMC,083357.00,A,4611.956640,N,01258.226027,E,001.1,336.5,091011,0.2,E,A*31
$GPGGA,083358.00,4611.956909,N,01258.225865,E,1,08,1.0,140.18,M,46.25,M,,*61
$GPGLL,4611.956909,N,01258.225865,E,083358.00,A,A*64
$GPVTG,338.0,T,338.2,M,001.1,N,002.0,K,A*23
$GPGSV,3,1,09,02,37,090,46,04,18,045,39,09,28,148,42,12,64,064,42*74
$GPGSV,3,2,09,14,33,263,41,25,70,310,43,29,42,218,46,30,25,285,39*76
$GPGSV,3,3,09,31,17,314,,,,,,,,,,,,,*42
$GPGSA,M,3,02,04,09,12,14,25,29,30,,,,,2.0,1.0,1.7*3D
Trace #43 at position 10.500000
$GPZDA,083356.04,09,10,2011,00,00*63
$GPRMC,083356.00,A,4611.956216,N,01258.226060,E,002.2,6.7,091011,0.2,E,A*36
$GPGGA,083357.00,4611.956640,N,01258.226027,E,1,08,1.0,140.18,M,46.25,M,,*61
$GPGLL,4611.956640,N,01258.226027,E,083357.00,A,A*64
$GPVTG,336.5,T,336.7,M,001.1,N,002.0,K,A*23
$GPGSV,3,1,09,02,37,090,45,04,18,045,41,09,28,148,42,12,64,063,43*7E
$GPGSV,3,2,09,14,33,263,42,25,70,310,42,29,42,218,47,30,25,285,40*7B
$GP,10,2011,00,00*62
$GPRMC,083357.00,A,4611.956640,N,01258.226027,E,001.1,336.5,091011,0.2,E,A*31
$GPGGA,083358.00,4611.956909,N,01258.225865,E,1,08,1.0,140.18,M,46.25,M,,*61
$GPGLL,4611.956909,N,01258.225865,E,083358.00,A,A*64
$GPVTG,338.0,T,338.2,M,001.1,N,002.0,K,A*23
$GPGSV,3,1,09,02,37,090,46,04,18,045,39,09,28,148,42,12,64,064,42*74
$GPGSV,3,2,09,14,33,263,41,25,70,310,43,29,42,218,46,30,25,285,39*76
$GPGSV,3,3,09,31,17,314,,,,,,,,,,,,,*42
$GPGSA,M,3,02,04,09,12,14,25,29,30,,,,,2.0,1.0,1.7*3D
Trace #44 at position 10.750000
$GPZDA,083356.04,09,10,2011,00,00*63
$GPRMC,083356.00,A,4611.956216,N,01258.226060,E,002.2,6.7,091011,0.2,E,A*36
$GPGGA,083357.00,4611.956640,N,01258.226027,E,1,08,1.0,140.18,M,46.25,M,,*61
$GPGLL,4611.956640,N,01258.226027,E,083357.00,A,A*64
$GPVTG,336.5,T,336.7,M,001.1,N,002.0,K,A*23
$GPGSV,3,1,09,02,37,090,45,04,18,045,41,09,28,148,42,12,64,063,43*7E
$GPGSV,3,2,09,14,33,263,42,25,70,310,42,29,42,218,47,30,25,285,40*7B
$GP,10,2011,00,00*62
$GPRMC,083357.00,A,4611.956640,N,01258.226027,E,001.1,336.5,091011,0.2,E,A*31
$GPGGA,083358.00,4611.956909,N,01258.225865,E,1,08,1.0,140.18,M,46.25,M,,*61
$GPGLL,4611.956909,N,01258.225865,E,083358.00,A,A*64
$GPVTG,338.0,T,338.2,M,001.1,N,002.0,K,A*23
$GPGSV,3,1,09,02,37,090,46,04,18,045,39,09,28,148,42,12,64,064,42*74
$GPGSV,3,2,09,14,33,263,41,25,70,310,43,29,42,218,46,30,25,285,39*76
$GPGSV,3,3,09,31,17,314,,,,,,,,,,,,,*42
$GPGSA,M,3,02,04,09,12,14,25,29,30,,,,,2.0,1.0,1.7*3D
Trace #45 at position 11.000000
$909,N,01258.225865,E,001.1,338.0,091011,0.2,E,A*3A
$GPGGA,083359.00,4611.957264,N,01258.225677,E,1,08,1.0,140.07,M,46.25,M,,*62
$GPGLL,4611.957264,N,01258.225677,E,083359.00,A,A*69
$GPVTG,340.3,T,340.4,M,001.7,N,003.2,K,A*23
$GPGSV,3,1,09,02,37,090,44,04,18,045,38,09,28,148,43,12,64,064,43*77
$GPGSV,3,2,09,14,33,263,40,25,70,310,42,29,42,218,46,30,25,285,38*77
$GPGSV,3,3,09,31,17,314,,,,,,,,,,,,,*42
$GPGSA,M,3,02,04,09,12,14,25,29,30,,,,,2.0,1.0,1.7*3D
Trace #46 at position 11.250000
$909,N,01258.225865,E,001.1,338.0,091011,0.2,E,A*3A
$GPGGA,083359.00,4611.957264,N,01258.225677,E,1,08,1.0,140.07,M,46.25,M,,*62
$GPGLL,4611.957264,N,01258.225677,E,083359.00,A,A*69
$GPVTG,340.3,T,340.4,M,001.7,N,003.2,K,A*23
$GPGSV,3,1,09,02,37,090,44,04,18,045,38,09,28,148,43,12,64,064,43*77
$GPGSV,3,2,09,14,33,263,40,25,70,310,42,29,42,218,46,30,25,285,38*77
$GPGSV,3,3,09,31,17,314,,,,,,,,,,,,,*42
$GPGSA,M,3,02,04,09,12,14,25,29,30,,,,,2.0,1.0,1.7*3D
Trace #47 at position 11.500000
$GPZDA,083359.04,09,10,2011,00,00*6C
$GPRMC,08$GPGGA,083400.00,4611.957709,N,01258.225459,E,1,08,1.0,139.94,M,46.25,M,,*6D
$GPGLL,4611.957709,N,01258.225459,E,083400.00,A,A*62
$GPVTG,340.9,T,341.0,M,001.8,N,003.3,K,A*22
$GPGSV,3,1,09,02,37,090,44,04,18,045,37,09,28,148,42,12,64,064,43*79
$GPGSV,3,2,09,14,33,263,41,25,70,310,42,29,42,218,46,30,25,285,37*79
$GPGSV,3,3,09,31,17,314,,,,,,,,,,,,,*42
$GPGSA,M,3,02,04,09,12,14,25,29,30,,,,,2.0,1.0,1.7*3D
Trace #48 at position 11.750000
$GPZDA,083359.04,09,10,2011,00,00*6C
$GPRMC,08$GPGGA,083400.00,4611.957709,N,01258.225459,E,1,08,1.0,139.94,M,46.25,M,,*6D
$GPGLL,4611.957709,N,01258.225459,E,083400.00,A,A*62
$GPVTG,340.9,T,341.0,M,001.8,N,003.3,K,A*22
$GPGSV,3,1,09,02,37,090,44,04,18,045,37,09,28,148,42,12,64,064,43*79
$GPGSV,3,2,09,14,33,263,41,25,70,310,42,29,42,218,46,30,25,285,37*79
$GPGSV,3,3,09,31,17,314,,,,,,,,,,,,,*42
$GPGSA,M,3,02,04,09,12,14,25,29,30,,,,,2.0,1.0,1.7*3D
Trace #49 at position 12.000000
$GPZDA,083359.04,09,10,2011,00,00*6C
$GPRMC,08$GPGGA,083400.00,4611.957709,N,01258.225459,E,1,08,1.0,139.94,M,46.25,M,,*6D
$GPGLL,4611.957709,N,01258.225459,E,083400.00,A,A*62
$GPVTG,340.9,T,341.0,M,001.8,N,003.3,K,A*22
$GPGSV,3,1,09,02,37,090,44,04,18,045,37,09,28,148,42,12,64,064,43*79
$GPGSV,3,2,09,14,33,263,41,25,70,310,42,29,42,218,46,30,25,285,37*79
$GPGSV,3,3,09,31,17,314,,,,,,,,,,,,,*42
$GPGSA,M,3,02,04,09,12,14,25,29,30,,,,,2.0,1.0,1.7*3D
Trace #50 at position 12.250000
$GPZDA,083359.04,09,10,2011,00,00*6C
$GPRMC,08$GPGGA,083400.00,4611.957709,N,01258.225459,E,1,08,1.0,139.94,M,46.25,M,,*6D
$GPGLL,4611.957709,N,01258.225459,E,083400.00,A,A*62
$GPVTG,340.9,T,341.0,M,001.8,N,003.3,K,A*22
$GPGSV,3,1,09,02,37,090,44,04,18,045,37,09,28,148,42,12,64,064,43*79
$GPGSV,3,2,09,14,33,263,41,25,70,310,42,29,42,218,46,30,25,285,37*79
$GPGSV,3,3,09,31,17,314,,,,,,,,,,,,,*42
$GPGSA,M,3,02,04,09,12,14,25,29,30,,,,,2.0,1.0,1.7*3D
Trace #51 at position 12.500000
$GPZDA,083400.04,09,10,2011,00,00*67
$GPRMC,083400.00,A,4611.957709,N,01258.225459,E,001.8,340.9,0$GPGGA,083401.00,4611.958100,N,01258.225288,E,1,08,1.0,139.83,M,46.25,M,,*60
$GPGLL,4611.958100,N,01258.225288,E,083401.00,A,A*69
$GPVTG,344.1,T,344.3,M,001.3,N,002.3,K,A*22
$GPGSV,3,1,09,02,37,090,44,04,18,045,38,09,28,148,43,12,64,064,43*77
$GPGSV,3,2,09,14,33,263,40,25,70,310,42,29,42,218,46,30,25,285,38*77
$GPGSV,3,3,09,31,17,314,,,,,,,,,,,,,*42
$GPGSA,M,3,02,04,09,12,14,25,29,30,,,,,2.0,1.0,1.7*3D
Trace #52 at position 12.750000
$GPZDA,083400.04,09,10,2011,00,00*67
$GPRMC,083400.00,A,4611.957709,N,01258.225459,E,001.8,340.9,0$GPGGA,083401.00,4611.958100,N,01258.225288,E,1,08,1.0,139.83,M,46.25,M,,*60
$GPGLL,4611.958100,N,01258.225288,E,083401.00,A,A*69
$GPVTG,344.1,T,344.3,M,001.3,N,002.3,K,A*22
$GPGSV,3,1,09,02,37,090,44,04,18,045,38,09,28,148,43,12,64,064,43*77
$GPGSV,3,2,09,14,33,263,40,25,70,310,42,29,42,218,46,30,25,285,38*77
$GPGSV,3,3,09,31,17,314,,,,,,,,,,,,,*42
$GPGSA,M,3,02,04,09,12,14,25,29,30,,,,,2.0,1.0,1.7*3D
Trace #53 at position 13.000000
$GPZDA,083400.04,09,10,2011,00,00*67
$GPRMC,083400.00,A,4611.957709,N,01258.225459,E,001.8,340.9,0$GPGGA,083401.00,4611.958100,N,01258.225288,E,1,08,1.0,139.83,M,46.25,M,,*60
$GPGLL,4611.958100,N,01258.225288,E,083401.00,A,A*69
$GPVTG,344.1,T,344.3,M,001.3,N,002.3,K,A*22
$GPGSV,3,1,09,02,37,090,44,04,18,045,38,09,28,148,43,12,64,064,43*77
$GPGSV,3,2,09,14,33,263,40,25,70,310,42,29,42,218,46,30,25,285,38*77
$GPGSV,3,3,09,31,17,314,,,,,,,,,,,,,*42
$GPGSA,M,3,02,04,09,12,14,25,29,30,,,,,2.0,1.0,1.7*3D
Trace #54 at position 13.250000
$GPZDA,083400.04,09,10,2011,00,00*67
$GPRMC,083400.00,A,4611.957709,N,01258.225459,E,001.8,340.9,0$GPGGA,083401.00,4611.958100,N,01258.225288,E,1,08,1.0,139.83,M,46.25,M,,*60
$GPGLL,4611.958100,N,01258.225288,E,083401.00,A,A*69
$GPVTG,344.1,T,344.3,M,001.3,N,002.3,K,A*22
$GPGSV,3,1,09,02,37,090,44,04,18,045,38,09,28,148,43,12,64,064,43*77
$GPGSV,3,2,09,14,33,263,40,25,70,310,42,29,42,218,46,30,25,285,38*77
$GPGSV,3,3,09,31,17,314,,,,,,,,,,,,,*42
$GPGSA,M,3,02,04,09,12,14,25,29,30,,,,,2.0,1.0,1.7*3D
Trace #55 at position 13.500000
$GPZDA,083401.04,09,10,2011,00,00*66
$GPRMC,083401.00,A,4611.958100,N,01258.225288,E,001.3,344.1,0$GPGGA,083402.00,4611.958463,N,01258.225167,E,1,08,1.0,139.87,M,46.25,M,,*65
$GPGLL,4611.958463,N,01258.225167,E,083402.00,A,A*68
$GPVTG,347.8,T,347.9,M,001.5,N,002.7,K,A*23
$GPGSV,3,1,09,02,37,090,45,04,18,045,38,09,28,148,43,12,64,064,44*71
$GPGSV,3,2,09,14,33,263,41,25,70,310,41,29,42,218,46,30,25,285,37*7A
$GPGSV,3,3,09,31,17,314,,,,,,,,,,,,,*42
$GPGSA,M,3,02,04,09,12,14,25,29,30,,,,,2.0,1.0,1.7*3D
Trace #56 at position 13.750000
$GPZDA,083401.04,09,10,2011,00,00*66
$GPRMC,083401.00,A,4611.958100,N,01258.225288,E,001.3,344.1,0$GPGGA,083402.00,4611.958463,N,01258.225167,E,1,08,1.0,139.87,M,46.25,M,,*65
$GPGLL,4611.958463,N,01258.225167,E,083402.00,A,A*68
$GPVTG,347.8,T,347.9,M,001.5,N,002.7,K,A*23
$GPGSV,3,1,09,02,37,090,45,04,18,045,38,09,28,148,43,12,64,064,44*71
$GPGSV,3,2,09,14,33,263,41,25,70,310,41,29,42,218,46,30,25,285,37*7A
$GPGSV,3,3,09,31,17,314,,,,,,,,,,,,,*42
$GPGSA,M,3,02,04,09,12,14,25,29,30,,,,,2.0,1.0,1.7*3D
Trace #57 at position 14.000000
$GPZDA,083401.04,09,10,2011,00,00*66
$GPRMC,083401.00,A,4611.958100,N,01258.225288,E,001.3,344.1,0$GPGGA,083402.00,4611.958463,N,01258.225167,E,1,08,1.0,139.87,M,46.25,M,,*65
$GPGLL,4611.958463,N,01258.225167,E,083402.00,A,A*68
$GPVTG,347.8,T,347.9,M,001.5,N,002.7,K,A*23
$GPGSV,3,1,09,02,37,090,45,04,18,045,38,09,28,148,43,12,64,064,44*71
$GPGSV,3,2,09,14,33,263,41,25,70,310,41,29,42,218,46,30,25,285,37*7A
$GPGSV,3,3,09,31,17,314,,,,,,,,,,,,,*42
$GPGSA,M,3,02,04,09,12,14,25,29,30,,,,,2.0,1.0,1.7*3D
Trace #58 at position 14.250000
$GPZDA,083401.04,09,10,2011,00,00*66
$GPRMC,083401.00,A,4611.958100,N,01258.225288,E,001.3,344.1,0$GPGGA,083402.00,4611.958463,N,01258.225167,E,1,08,1.0,139.87,M,46.25,M,,*65
$GPGLL,4611.958463,N,01258.225167,E,083402.00,A,A*68
$GPVTG,347.8,T,347.9,M,001.5,N,002.7,K,A*23
$GPGSV,3,1,09,02,37,090,45,04,18,045,38,09,28,148,43,12,64,064,44*71
$GPGSV,3,2,09,14,33,263,41,25,70,310,41,29,42,218,46,30,25,285,37*7A
$GPGSV,3,3,09,31,17,314,,,,,,,,,,,,,*42
$GPGSA,M,3,02,04,09,12,14,25,29,30,,,,,2.0,1.0,1.7*3D
Trace #59 at position 14.500000
$GPZDA,083402.04,09,10,2011,00,00*65
$GPRMC,083402.00,A,4611.958463,N,01258.225167,E,001.5,347.8,0$GPGGA,083403.00,4611.958904,N,01258.225049,E,1,08,1.0,139.86,M,46.25,M,,*64
$GPGLL,4611.958904,N,01258.225049,E,083403.00,A,A*68
$GPVTG,350.4,T,350.5,M,001.9,N,003.5,K,A*2C
$GPGSV,3,1,09,02,37,090,44,04,18,045,39,09,28,148,44,12,64,064,42*70
$GPGSV,3,2,09,14,33,263,40,25,70,310,43,29,42,218,46,30,25,285,37*79
$GPGSV,3,3,09,31,17,314,,,,,,,,,,,,,*42
$GPGSA,M,3,02,04,09,12,14,25,29,30,,,,,2.0,1.0,1.7*3D
Trace #60 at position 14.750000
$GPZDA,083402.04,09,10,2011,00,00*65
$GPRMC,083402.00,A,4611.958463,N,01258.225167,E,001.5,347.8,0$GPGGA,083403.00,4611.958904,N,01258.225049,E,1,08,1.0,139.86,M,46.25,M,,*64
$GPGLL,4611.958904,N,01258.225049,E,083403.00,A,A*68
$GPVTG,350.4,T,350.5,M,001.9,N,003.5,K,A*2C
$GPGSV,3,1,09,02,37,090,44,04,18,045,39,09,28,148,44,12,64,064,42*70
$GPGSV,3,2,09,14,33,263,40,25,70,310,43,29,42,218,46,30,25,285,37*79
$GPGSV,3,3,09,31,17,314,,,,,,,,,,,,,*42
$GPGSA,M,3,02,04,09,12,14,25,29,30,,,,,2.0,1.0,1.7*3D
Trace #61 at position 15.000000
$GPZDA,083402.04,09,10,2011,00,00*65
$GPRMC,083402.00,A,4611.958463,N,01258.225167,E,001.5,347.8,0$GPGGA,083403.00,4611.958904,N,01258.225049,E,1,08,1.0,139.86,M,46.25,M,,*64
$GPGLL,4611.958904,N,01258.225049,E,083403.00,A,A*68
$GPVTG,350.4,T,350.5,M,001.9,N,003.5,K,A*2C
$GPGSV,3,1,09,02,37,090,44,04,18,045,39,09,28,148,44,12,64,064,42*70
$GPGSV,3,2,09,14,33,263,40,25,70,310,43,29,42,218,46,30,25,285,37*79
$GPGSV,3,3,09,31,17,314,,,,,,,,,,,,,*42
$GPGSA,M,3,02,04,09,12,14,25,29,30,,,,,2.0,1.0,1.7*3D
Trace #62 at position 15.250000
$GPZDA,083403.04,09,10,2011,00,00*64
$GPRMC,083403.00,A,4611.958904,N,01258.225049,E,001.9,350.4,0$GPGGA,083404.00,4611.959358,N,01258.224940,E,1,08,1.0,139.89,M,46.25,M,,*6F
$GPGLL,4611.959358,N,01258.224940,E,083404.00,A,A*6C
$GPVTG,350.8,T,351.0,M,001.6,N,003.0,K,A*2E
$GPGSV,3,1,09,02,37,090,45,04,18,045,39,09,28,148,43,12,64,064,43*77
$GPGSV,3,2,09,14,33,263,40,25,70,310,42,29,42,218,46,30,25,285,36*79
$GPGSV,3,3,09,31,17,314,,,,,,,,,,,,,*42
$GPGSA,M,3,02,04,09,12,14,25,29,30,,,,,2.0,1.0,1.7*3D
Trace #63 at position 15.500000
$GPZDA,083403.04,09,10,2011,00,00*64
$GPRMC,083403.00,A,4611.958904,N,01258.225049,E,001.9,350.4,0$GPGGA,083404.00,4611.959358,N,01258.224940,E,1,08,1.0,139.89,M,46.25,M,,*6F
$GPGLL,4611.959358,N,01258.224940,E,083404.00,A,A*6C
$GPVTG,350.8,T,351.0,M,001.6,N,003.0,K,A*2E
$GPGSV,3,1,09,02,37,090,45,04,18,045,39,09,28,148,43,12,64,064,43*77
$GPGSV,3,2,09,14,33,263,40,25,70,310,42,29,42,218,46,30,25,285,36*79
$GPGSV,3,3,09,31,17,314,,,,,,,,,,,,,*42
$GPGSA,M,3,02,04,09,12,14,25,29,30,,,,,2.0,1.0,1.7*3D
Trace #64 at position 15.750000
$GPZDA,083403.04,09,10,2011,00,00*64
$GPRMC,083403.00,A,4611.958904,N,01258.225049,E,001.9,350.4,0$GPGGA,083404.00,4611.959358,N,01258.224940,E,1,08,1.0,139.89,M,46.25,M,,*6F
$GPGLL,4611.959358,N,01258.224940,E,083404.00,A,A*6C
$GPVTG,350.8,T,351.0,M,001.6,N,003.0,K,A*2E
$GPGSV,3,1,09,02,37,090,45,04,18,045,39,09,28,148,43,12,64,064,43*77
$GPGSV,3,2,09,14,33,263,40,25,70,310,42,29,42,218,46,30,25,285,36*79
$GPGSV,3,3,09,31,17,314,,,,,,,,,,,,,*42
$GPGSA,M,3,02,04,09,12,14,25,29,30,,,,,2.0,1.0,1.7*3D
Trace #65 at position 16.000000
$GPZDA,083403.04,09,10,2011,00,00*64
$GPRMC,083403.00,A,4611.958904,N,01258.225049,E,001.9,350.4,0$GPGGA,083404.00,4611.959358,N,01258.224940,E,1,08,1.0,139.89,M,46.25,M,,*6F
$GPGLL,4611.959358,N,01258.224940,E,083404.00,A,A*6C
$GPVTG,350.8,T,351.0,M,001.6,N,003.0,K,A*2E
$GPGSV,3,1,09,02,37,090,45,04,18,045,39,09,28,148,43,12,64,064,43*77
$GPGSV,3,2,09,14,33,263,40,25,70,310,42,29,42,218,46,30,25,285,36*79
$GPGSV,3,3,09,31,17,314,,,,,,,,,,,,,*42
$GPGSA,M,3,02,04,09,12,14,25,29,30,,,,,2.0,1.0,1.7*3D
Trace #66 at position 16.250000
$GPZDA,083404.04,09,10,2011,00,00*63
$GPRMC,083404.00,A,4611.959358,N,01258.224940,E,001.6,350.8,0$GPGGA,083405.00,4611.959684,N,01258.224901,E,1,07,1.1,140.05,M,46.25,M,,*6B
$GPGLL,4611.959684,N,01258.224901,E,083405.00,A,A*6C
$GPVTG,0.0,T,0.2,M,001.0,N,001.9,K,A*28
$GPGSV,3,1,09,02,37,090,43,04,18,045,37,09,28,148,43,12,64,064,42*7E
$GPGSV,3,2,09,14,33,263,41,25,70,310,42,29,42,218,45,30,25,285,33*7E
$GPGSV,3,3,09,31,17,314,,,,,,,,,,,,,*42
$GPGSA,M,3,02,04,09,12,14,25,29,,,,,,2.2,1.1,1.9*33
Trace #67 at position 16.500000
$GPZDA,083404.04,09,10,2011,00,00*63
$GPRMC,083404.00,A,4611.959358,N,01258.224940,E,001.6,350.8,0$GPGGA,083405.00,4611.959684,N,01258.224901,E,1,07,1.1,140.05,M,46.25,M,,*6B
$GPGLL,4611.959684,N,01258.224901,E,083405.00,A,A*6C
$GPVTG,0.0,T,0.2,M,001.0,N,001.9,K,A*28
$GPGSV,3,1,09,02,37,090,43,04,18,045,37,09,28,148,43,12,64,064,42*7E
$GPGSV,3,2,09,14,33,263,41,25,70,310,42,29,42,218,45,30,25,285,33*7E
$GPGSV,3,3,09,31,17,314,,,,,,,,,,,,,*42
$GPGSA,M,3,02,04,09,12,14,25,29,,,,,,2.2,1.1,1.9*33
Trace #68 at position 16.750000
$GPZDA,083404.04,09,10,2011,00,00*63
$GPRMC,083404.00,A,4611.959358,N,01258.224940,E,001.6,350.8,0$GPGGA,083405.00,4611.959684,N,01258.224901,E,1,07,1.1,140.05,M,46.25,M,,*6B
$GPGLL,4611.959684,N,01258.224901,E,083405.00,A,A*6C
$GPVTG,0.0,T,0.2,M,001.0,N,001.9,K,A*28
$GPGSV,3,1,09,02,37,090,43,04,18,045,37,09,28,148,43,12,64,064,42*7E
$GPGSV,3,2,09,14,33,263,41,25,70,310,42,29,42,218,45,30,25,285,33*7E
$GPGSV,3,3,09,31,17,314,,,,,,,,,,,,,*42
$GPGSA,M,3,02,04,09,12,14,25,29,,,,,,2.2,1.1,1.9*33
Trace #69 at position 17.000000
$GPZDA,083404.04,09,10,2011,00,00*63
$GPRMC,083404.00,A,4611.959358,N,01258.224940,E,001.6,350.8,0$GPGGA,083405.00,4611.959684,N,01258.224901,E,1,07,1.1,140.05,M,46.25,M,,*6B
$GPGLL,4611.959684,N,01258.224901,E,083405.00,A,A*6C
$GPVTG,0.0,T,0.2,M,001.0,N,001.9,K,A*28
$GPGSV,3,1,09,02,37,090,43,04,18,045,37,09,28,148,43,12,64,064,42*7E
$GPGSV,3,2,09,14,33,263,41,25,70,310,42,29,42,218,45,30,25,285,33*7E
$GPGSV,3,3,09,31,17,314,,,,,,,,,,,,,*42
$GPGSA,M,3,02,04,09,12,14,25,29,,,,,,2.2,1.1,1.9*33
Trace #70 at position 17.250000
$GPZDA,083405.04,09,10,2011,00,00*62
$GPRMC,083405.00,A,4611.959684,N,01258.224901,E,001.0,0.0,091011,0.1258.224820,E,1,07,1.1,140.13,M,46.25,M,,*62
$GPGLL,4611.959948,N,01258.224820,E,083406.00,A,A*62
$GPVTG,339.1,T,339.2,M,001.1,N,002.1,K,A*23
$GPGSV,3,1,09,02,37,090,45,04,18,045,37,09,28,148,43,12,64,064,44*7E
$GPGSV,3,2,09,14,33,263,40,25,70,310,43,29,42,218,46,30,25,285,34*7A
$GPGSV,3,3,09,31,17,314,,,,,,,,,,,,,*42
$GPGSA,M,3,02,04,09,12,14,25,29,,,,,,2.2,1.1,1.9*33
Trace #71 at position 17.500000
$GPZDA,083405.04,09,10,2011,00,00*62
$GPRMC,083405.00,A,4611.959684,N,01258.224901,E,001.0,0.0,091011,0.1258.224820,E,1,07,1.1,140.13,M,46.25,M,,*62
$GPGLL,4611.959948,N,01258.224820,E,083406.00,A,A*62
$GPVTG,339.1,T,339.2,M,001.1,N,002.1,K,A*23
$GPGSV,3,1,09,02,37,090,45,04,18,045,37,09,28,148,43,12,64,064,44*7E
$GPGSV,3,2,09,14,33,263,40,25,70,310,43,29,42,218,46,30,25,285,34*7A
$GPGSV,3,3,09,31,17,314,,,,,,,,,,,,,*42
$GPGSA,M,3,02,04,09,12,14,25,29,,,,,,2.2,1.1,1.9*33
Trace #72 at position 17.750000
$GPZDA,083405.04,09,10,2011,00,00*62
$GPRMC,083405.00,A,4611.959684,N,01258.224901,E,001.0,0.0,091011,0.1258.224820,E,1,07,1.1,140.13,M,46.25,M,,*62
$GPGLL,4611.959948,N,01258.224820,E,083406.00,A,A*62
$GPVTG,339.1,T,339.2,M,001.1,N,002.1,K,A*23
$GPGSV,3,1,09,02,37,090,45,04,18,045,37,09,28,148,43,12,64,064,44*7E
$GPGSV,3,2,09,14,33,263,40,25,70,310,43,29,42,218,46,30,25,285,34*7A
$GPGSV,3,3,09,31,17,314,,,,,,,,,,,,,*42
$GPGSA,M,3,02,04,09,12,14,25,29,,,,,,2.2,1.1,1.9*33
Trace #73 at position 18.000000
$GPZDA,083406.04,09,10,2011,00,00*61
$GPRMC,083406.00,A,4611.959948,N,01258.224820,E,001.1,339.1,091011,0.2,E,A*3C
$GPGGA,083407.00E,083407.00,A,A*68
$GPVTG,350.9,T,351.1,M,001.8,N,003.4,K,A*24
$GPGSV,3,1,09,02,37,090,44,04,18,045,40,09,28,148,44,12,64,064,43*7F
$GPGSV,3,2,09,14,33,263,41,25,70,310,42,29,42,218,46,30,25,285,36*78
$GPGSV,3,3,09,31,17,314,,,,,,,,,,,,,*42
$GPGSA,M,3,02,04,09,12,14,25,29,,,,,,2.2,1.1,1.9*33
Trace #74 at position 18.250000
$GPZDA,083406.04,09,10,2011,00,00*61
$GPRMC,083406.00,A,4611.959948,N,01258.224820,E,001.1,339.1,091011,0.2,E,A*3C
$GPGGA,083407.00E,083407.00,A,A*68
$GPVTG,350.9,T,351.1,M,001.8,N,003.4,K,A*24
$GPGSV,3,1,09,02,37,090,44,04,18,045,40,09,28,148,44,12,64,064,43*7F
$GPGSV,3,2,09,14,33,263,41,25,70,310,42,29,42,218,46,30,25,285,36*78
$GPGSV,3,3,09,31,17,314,,,,,,,,,,,,,*42
$GPGSA,M,3,02,04,09,12,14,25,29,,,,,,2.2,1.1,1.9*33
Trace #75 at position 18.500000
$GPZDA,083406.04,09,10,2011,00,00*61
$GPRMC,083406.00,A,4611.959948,N,01258.224820,E,001.1,339.1,091011,0.2,E,A*3C
$GPGGA,083407.00E,083407.00,A,A*68
$GPVTG,350.9,T,351.1,M,001.8,N,003.4,K,A*24
$GPGSV,3,1,09,02,37,090,44,04,18,045,40,09,28,148,44,12,64,064,43*7F
$GPGSV,3,2,09,14,33,263,41,25,70,310,42,29,42,218,46,30,25,285,36*78
$GPGSV,3,3,09,31,17,314,,,,,,,,,,,,,*42
$GPGSA,M,3,02,04,09,12,14,25,29,,,,,,2.2,1.1,1.9*33
Trace #76 at position 18.750000
$GPZDA,083407.04,09,10,2011,00,00*60
$GPRMC,083407.00,A,4611.960327,N,01258.224679,E,001.8,350.9,091011,0.2,E,A*38
$GPGGA,083408.00,4611.960716,N,01258.224495,E,1,07,1.1,140.32,M,46.25,M,,*62
$GPGLL,4611.9607162,37,090,43,04,18,045,42,09,28,148,44,12,64,064,44*7D
$GPGSV,3,2,09,14,33,263,40,25,70,310,42,29,42,218,46,30,25,285,34*7B
$GPGSV,3,3,09,31,17,314,,,,,,,,,,,,,*42
$GPGSA,M,3,02,04,09,12,14,25,29,,,,,,2.2,1.1,1.9*33
Trace #77 at position 19.000000
$GPZDA,083407.04,09,10,2011,00,00*60
$GPRMC,083407.00,A,4611.960327,N,01258.224679,E,001.8,350.9,091011,0.2,E,A*38
$GPGGA,083408.00,4611.960716,N,01258.224495,E,1,07,1.1,140.32,M,46.25,M,,*62
$GPGLL,4611.9607162,37,090,43,04,18,045,42,09,28,148,44,12,64,064,44*7D
$GPGSV,3,2,09,14,33,263,40,25,70,310,42,29,42,218,46,30,25,285,34*7B
$GPGSV,3,3,09,31,17,314,,,,,,,,,,,,,*42
$GPGSA,M,3,02,04,09,12,14,25,29,,,,,,2.2,1.1,1.9*33
Trace #78 at position 19.250000
$GPZDA,083407.04,09,10,2011,00,00*60
$GPRMC,083407.00,A,4611.960327,N,01258.224679,E,001.8,350.9,091011,0.2,E,A*38
$GPGGA,083408.00,4611.960716,N,01258.224495,E,1,07,1.1,140.32,M,46.25,M,,*62
$GPGLL,4611.9607162,37,090,43,04,18,045,42,09,28,148,44,12,64,064,44*7D
$GPGSV,3,2,09,14,33,263,40,25,70,310,42,29,42,218,46,30,25,285,34*7B
$GPGSV,3,3,09,31,17,314,,,,,,,,,,,,,*42
$GPGSA,M,3,02,04,09,12,14,25,29,,,,,,2.2,1.1,1.9*33
Trace #79 at position 19.500000
$GPZDA,083407.04,09,10,2011,00,00*60
$GPRMC,083407.00,A,4611.960327,N,01258.224679,E,001.8,350.9,091011,0.2,E,A*38
$GPGGA,083408.00,4611.960716,N,01258.224495,E,1,07,1.1,140.32,M,46.25,M,,*62
$GPGLL,4611.9607162,37,090,43,04,18,045,42,09,28,148,44,12,64,064,44*7D
$GPGSV,3,2,09,14,33,263,40,25,70,310,42,29,42,218,46,30,25,285,34*7B
$GPGSV,3,3,09,31,17,314,,,,,,,,,,,,,*42
$GPGSA,M,3,02,04,09,12,14,25,29,,,,,,2.2,1.1,1.9*33
Trace #80 at position 19.750000
$GPZDA,083407.04,09,10,2011,00,00*60
$GPRMC,083407.00,A,4611.960327,N,01258.224679,E,001.8,350.9,091011,0.2,E,A*38
$GPGGA,083408.00,4611.960716,N,01258.224495,E,1,07,1.1,140.32,M,46.25,M,,*62
$GPGLL,4611.9607162,37,090,43,04,18,045,42,09,28,148,44,12,64,064,44*7D
$GPGSV,3,2,09,14,33,263,40,25,70,310,42,29,42,218,46,30,25,285,34*7B
$GPGSV,3,3,09,31,17,314,,,,,,,,,,,,,*42
$GPGSA,M,3,02,04,09,12,14,25,29,,,,,,2.2,1.1,1.9*33
Trace #81 at position 20.000000
$GPZDA,083407.04,09,10,2011,00,00*60
$GPRMC,083407.00,A,4611.960327,N,01258.224679,E,001.8,350.9,091011,0.2,E,A*38
$GPGGA,083408.00,4611.960716,N,01258.224495,E,1,07,1.1,140.32,M,46.25,M,,*62
$GPGLL,4611.9607162,37,090,43,04,18,045,42,09,28,148,44,12,64,064,44*7D
$GPGSV,3,2,09,14,33,263,40,25,70,310,42,29,42,218,46,30,25,285,34*7B
$GPGSV,3,3,09,31,17,314,,,,,,,,,,,,,*42
$GPGSA,M,3,02,04,09,12,14,25,29,,,,,,2.2,1.1,1.9*33
Trace #82 at position 20.250000
$GPZDA,083408.04,09,10,2011,00,00*6F
$GPRMC,083408.00,A,4611.960716,N,01258.224495,E,001.2,329.5,091011,0.2,E,A*39
$GPGGA,083409.00,4611.961162,N,01258.224295,E,1,07,1.1,140.44,M,46.25,M,,*60
$GPGLL,4611.961162,N,01258.224295,E,083409.00,A,A*62
$GPVTG,350.8,T,350.9,M,002.3,N,004.2,K,A*25A,083409.04,09,10,2011,00,00*6E
$GPRMC,083409.00,A,4611.961162,N,01258.224295,E,002.3,350.8,091011,0.2,E,A*3B
$GPGGA,083410.00,4611.961614,N,01258.224101,E,1,07,1.1,140.51,M,46.25,M,,*64
$GPGLL,4611.961614,N,01258.224101,E,083410.00,A,A*62
$GPVTG,332.7,T,332.9,M,001.2,N,002.3,K,A*2F
$GPGSV,3,1,09,02,37,090,44,04,18,045,40,09,28,148,44,12,64,064,41*7D
$GPGSV,3,2,09,14,33,263,40,25,70,310,42,29,42,218,46,30,25,285,37*78
$GPGSV,3,3,09,31,17,314,,,,,,,,,,,,,*42
$GPGSA,M,3,02,04,09,12,14,25,29,,,,,,2.2,1,001.2,332.7,091011,0.2,E,A*32
Trace #83 at position 20.500000
$GPZDA,083408.04,09,10,2011,00,00*6F
$GPRMC,083408.00,A,4611.960716,N,01258.224495,E,001.2,329.5,091011,0.2,E,A*39
$GPGGA,083409.00,4611.961162,N,01258.224295,E,1,07,1.1,140.44,M,46.25,M,,*60
$GPGLL,4611.961162,N,01258.224295,E,083409.00,A,A*62
$GPVTG,350.8,T,350.9,M,002.3,N,004.2,K,A*25A,083409.04,09,10,2011,00,00*6E
$GPRMC,083409.00,A,4611.961162,N,01258.224295,E,002.3,350.8,091011,0.2,E,A*3B
$GPGGA,083410.00,4611.961614,N,01258.224101,E,1,07,1.1,140.51,M,46.25,M,,*64
$GPGLL,4611.961614,N,01258.224101,E,083410.00,A,A*62
$GPVTG,332.7,T,332.9,M,001.2,N,002.3,K,A*2F
$GPGSV,3,1,09,02,37,090,44,04,18,045,40,09,28,148,44,12,64,064,41*7D
$GPGSV,3,2,09,14,33,263,40,25,70,310,42,29,42,218,46,30,25,285,37*78
$GPGSV,3,3,09,31,17,314,,,,,,,,,,,,,*42
$GPGSA,M,3,02,04,09,12,14,25,29,,,,,,2.2,1,001.2,332.7,091011,0.2,E,A*32
Trace #84 at position 20.750000
$GPZDA,083408.04,09,10,2011,00,00*6F
$GPRMC,083408.00,A,4611.960716,N,01258.224495,E,001.2,329.5,091011,0.2,E,A*39
$GPGGA,083409.00,4611.961162,N,01258.224295,E,1,07,1.1,140.44,M,46.25,M,,*60
$GPGLL,4611.961162,N,01258.224295,E,083409.00,A,A*62
$GPVTG,350.8,T,350.9,M,002.3,N,004.2,K,A*25A,083409.04,09,10,2011,00,00*6E
$GPRMC,083409.00,A,4611.961162,N,01258.224295,E,002.3,350.8,091011,0.2,E,A*3B
$GPGGA,083410.00,4611.961614,N,01258.224101,E,1,07,1.1,140.51,M,46.25,M,,*64
$GPGLL,4611.961614,N,01258.224101,E,083410.00,A,A*62
$GPVTG,332.7,T,332.9,M,001.2,N,002.3,K,A*2F
$GPGSV,3,1,09,02,37,090,44,04,18,045,40,09,28,148,44,12,64,064,41*7D
$GPGSV,3,2,09,14,33,263,40,25,70,310,42,29,42,218,46,30,25,285,37*78
$GPGSV,3,3,09,31,17,314,,,,,,,,,,,,,*42
$GPGSA,M,3,02,04,09,12,14,25,29,,,,,,2.2,1,001.2,332.7,091011,0.2,E,A*32
Trace #85 at position 21.000000
$GPGGA,083411.00,4611.961995,N,01258.223886,E,1,07,1.1,140.58,M,46.25,M,,*6B
$GPGLL,4611.961995,N,01258.223886,E,083411.00,A,A*64
$GPVTG,344.3,T,344.5,M,001.8,N,003.3,K,A*2C
$GPGSV,3,1,09,02,37,090,45,04,18,045,38,09,28,148,44,12,64,064,43*71
$GPGSV,3,2,09,14,33,263,41,25,70,310,42,29,42,218,46,30,25,285,38*76
$GPGSV,3,3,09,31,17,314,,,,,,,,,,,,,*42
$GPGSA,M,3,02,04,09,12,14,25,29,,,,,,2.2,1.1,1.9*33
Trace #86 at position 21.250000
$GPGGA,083411.00,4611.961995,N,01258.223886,E,1,07,1.1,140.58,M,46.25,M,,*6B
$GPGLL,4611.961995,N,01258.223886,E,083411.00,A,A*64
$GPVTG,344.3,T,344.5,M,001.8,N,003.3,K,A*2C
$GPGSV,3,1,09,02,37,090,45,04,18,045,38,09,28,148,44,12,64,064,43*71
$GPGSV,3,2,09,14,33,263,41,25,70,310,42,29,42,218,46,30,25,285,38*76
$GPGSV,3,3,09,31,17,314,,,,,,,,,,,,,*42
$GPGSA,M,3,02,04,09,12,14,25,29,,,,,,2.2,1.1,1.9*33
Trace #87 at position 21.500000
$GPGGA,083411.00,4611.961995,N,01258.223886,E,1,07,1.1,140.58,M,46.25,M,,*6B
$GPGLL,4611.961995,N,01258.223886,E,083411.00,A,A*64
$GPVTG,344.3,T,344.5,M,001.8,N,003.3,K,A*2C
$GPGSV,3,1,09,02,37,090,45,04,18,045,38,09,28,148,44,12,64,064,43*71
$GPGSV,3,2,09,14,33,263,41,25,70,310,42,29,42,218,46,30,25,285,38*76
$GPGSV,3,3,09,31,17,314,,,,,,,,,,,,,*42
$GPGSA,M,3,02,04,09,12,14,25,29,,,,,,2.2,1.1,1.9*33
Trace #88 at position 21.750000
$GPZDA,083411.04,09,10,2011,00,00*67
$GPRMC,083411.00,A,4611.961995,$GPGGA,083412.00,4611.962464,N,01258.223718,E,1,07,1.1,140.58,M,46.25,M,,*60
$GPGLL,4611.962464,N,01258.223718,E,083412.00,A,A*6F
$GPVTG,348.7,T,348.9,M,001.7,N,003.2,K,A*2A
$GPGSV,3,1,09,02,37,090,45,04,18,045,38,09,28,148,44,12,64,064,43*71
$GPGSV,3,2,09,14,33,263,41,25,70,310,42,29,42,218,45,30,25,285,38*75
$GPGSV,3,3,09,31,17,314,,,,,,,,,,,,,*42
$GPGSA,M,3,02,04,09,12,14,25,29,,,,,,2.2,1.1,1.9*33
Trace #89 at position 22.000000
$GPZDA,083411.04,09,10,2011,00,00*67
$GPRMC,083411.00,A,4611.961995,$GPGGA,083412.00,4611.962464,N,01258.223718,E,1,07,1.1,140.58,M,46.25,M,,*60
$GPGLL,4611.962464,N,01258.223718,E,083412.00,A,A*6F
$GPVTG,348.7,T,348.9,M,001.7,N,003.2,K,A*2A
$GPGSV,3,1,09,02,37,090,45,04,18,045,38,09,28,148,44,12,64,064,43*71
$GPGSV,3,2,09,14,33,263,41,25,70,310,42,29,42,218,45,30,25,285,38*75
$GPGSV,3,3,09,31,17,314,,,,,,,,,,,,,*42
$GPGSA,M,3,02,04,09,12,14,25,29,,,,,,2.2,1.1,1.9*33
Trace #90 at position 22.250000
$GPZDA,083411.04,09,10,2011,00,00*67
$GPRMC,083411.00,A,4611.961995,$GPGGA,083412.00,4611.962464,N,01258.223718,E,1,07,1.1,140.58,M,46.25,M,,*60
$GPGLL,4611.962464,N,01258.223718,E,083412.00,A,A*6F
$GPVTG,348.7,T,348.9,M,001.7,N,003.2,K,A*2A
$GPGSV,3,1,09,02,37,090,45,04,18,045,38,09,28,148,44,12,64,064,43*71
$GPGSV,3,2,09,14,33,263,41,25,70,310,42,29,42,218,45,30,25,285,38*75
$GPGSV,3,3,09,31,17,314,,,,,,,,,,,,,*42
$GPGSA,M,3,02,04,09,12,14,25,29,,,,,,2.2,1.1,1.9*33
Trace #91 at position 22.500000
$GPZDA,083412.04,09,10,2011,00,00*64
$GPRMC,083412.00,A,4611.962464,N,01258.223718,E,001.7,348.7,091$GPGGA,083413.00,4611.962905,N,01258.223501,E,1,07,1.1,140.65,M,46.25,M,,*6F
$GPGLL,4611.962905,N,01258.223501,E,083413.00,A,A*6E
$GPVTG,334.9,T,335.0,M,001.6,N,003.0,K,A*2F
$GPGSV,3,1,09,02,37,090,44,04,18,045,38,09,28,148,42,12,64,064,43*76
$GPGSV,3,2,09,14,33,263,41,25,70,310,42,29,42,218,46,30,25,285,38*76
$GPGSV,3,3,09,31,17,314,,,,,,,,,,,,,*42
$GPGSA,M,3,02,04,09,12,14,25,29,,,,,,2.2,1.1,1.9*33
Trace #92 at position 22.750000
$GPZDA,083412.04,09,10,2011,00,00*64
$GPRMC,083412.00,A,4611.962464,N,01258.223718,E,001.7,348.7,091$GPGGA,083413.00,4611.962905,N,01258.223501,E,1,07,1.1,140.65,M,46.25,M,,*6F
$GPGLL,4611.962905,N,01258.223501,E,083413.00,A,A*6E
$GPVTG,334.9,T,335.0,M,001.6,N,003.0,K,A*2F
$GPGSV,3,1,09,02,37,090,44,04,18,045,38,09,28,148,42,12,64,064,43*76
$GPGSV,3,2,09,14,33,263,41,25,70,310,42,29,42,218,46,30,25,285,38*76
$GPGSV,3,3,09,31,17,314,,,,,,,,,,,,,*42
$GPGSA,M,3,02,04,09,12,14,25,29,,,,,,2.2,1.1,1.9*33
Trace #93 at position 23.000000
$GPZDA,083412.04,09,10,2011,00,00*64
$GPRMC,083412.00,A,4611.962464,N,01258.223718,E,001.7,348.7,091$GPGGA,083413.00,4611.962905,N,01258.223501,E,1,07,1.1,140.65,M,46.25,M,,*6F
$GPGLL,4611.962905,N,01258.223501,E,083413.00,A,A*6E
$GPVTG,334.9,T,335.0,M,001.6,N,003.0,K,A*2F
$GPGSV,3,1,09,02,37,090,44,04,18,045,38,09,28,148,42,12,64,064,43*76
$GPGSV,3,2,09,14,33,263,41,25,70,310,42,29,42,218,46,30,25,285,38*76
$GPGSV,3,3,09,31,17,314,,,,,,,,,,,,,*42
$GPGSA,M,3,02,04,09,12,14,25,29,,,,,,2.2,1.1,1.9*33
Trace #94 at position 23.250000
$GPZDA,083413.04,09,10,2011,00,00*65
$GPRMC,083413.00,A,4611.962905,N,01258.223501,E,001.6,334.9,091$GPGGA,083414.00,4611.963293,N,01258.223245,E,1,07,1.1,140.76,M,46.25,M,,*68
$GPGLL,4611.963293,N,01258.223245,E,083414.00,A,A*6B
$GPVTG,335.1,T,335.3,M,001.4,N,002.6,K,A*20
$GPGSV,3,1,09,02,37,090,45,04,18,045,39,09,28,148,44,12,64,064,43*70
$GPGSV,3,2,09,14,33,263,40,25,70,310,42,29,42,218,46,30,25,285,38*77
$GPGSV,3,3,09,31,17,314,,,,,,,,,,,,,*42
$GPGSA,M,3,02,04,09,12,14,25,29,,,,,,2.2,1.1,1.9*33
Trace #95 at position 23.500000
$GPZDA,083413.04,09,10,2011,00,00*65
$GPRMC,083413.00,A,4611.962905,N,01258.223501,E,001.6,334.9,091$GPGGA,083414.00,4611.963293,N,01258.223245,E,1,07,1.1,140.76,M,46.25,M,,*68
$GPGLL,4611.963293,N,01258.223245,E,083414.00,A,A*6B
$GPVTG,335.1,T,335.3,M,001.4,N,002.6,K,A*20
$GPGSV,3,1,09,02,37,090,45,04,18,045,39,09,28,148,44,12,64,064,43*70
$GPGSV,3,2,09,14,33,263,40,25,70,310,42,29,42,218,46,30,25,285,38*77
$GPGSV,3,3,09,31,17,314,,,,,,,,,,,,,*42
$GPGSA,M,3,02,04,09,12,14,25,29,,,,,,2.2,1.1,1.9*33
Trace #96 at position 23.750000
$GPZDA,083413.04,09,10,2011,00,00*65
$GPRMC,083413.00,A,4611.962905,N,01258.223501,E,001.6,334.9,091$GPGGA,083414.00,4611.963293,N,01258.223245,E,1,07,1.1,140.76,M,46.25,M,,*68
$GPGLL,4611.963293,N,01258.223245,E,083414.00,A,A*6B
$GPVTG,335.1,T,335.3,M,001.4,N,002.6,K,A*20
$GPGSV,3,1,09,02,37,090,45,04,18,045,39,09,28,148,44,12,64,064,43*70
$GPGSV,3,2,09,14,33,263,40,25,70,310,42,29,42,218,46,30,25,285,38*77
$GPGSV,3,3,09,31,17,314,,,,,,,,,,,,,*42
$GPGSA,M,3,02,04,09,12,14,25,29,,,,,,2.2,1.1,1.9*33
Trace #97 at position 24.000000
$GPZDA,083414.04,09,10,2011,00,00*62
$GPRMC,083414.00,A,4611.963293,N,01258.223245,E,001.4,335.1,091$GPGGA,083415.00,4611.963676,N,01258.223022,E,1,08,1.0,140.77,M,46.25,M,,*6A
$GPGLL,4611.963676,N,01258.223022,E,083415.00,A,A*66
$GPVTG,342.6,T,342.7,M,001.3,N,002.5,K,A*27
$GPGSV,3,1,09,02,37,090,44,04,18,045,39,09,28,148,42,12,64,064,42*76
$GPGSV,3,2,09,14,33,263,40,25,70,310,42,29,42,218,46,30,25,285,39*76
$GPGSV,3,3,09,31,17,314,,,,,,,,,,,,,*42
$GPGSA,M,3,02,04,09,12,14,25,29,30,,,,,2.0,1.0,1.7*3D
Trace #98 at position 24.250000
$GPZDA,083414.04,09,10,2011,00,00*62
$GPRMC,083414.00,A,4611.963293,N,01258.223245,E,001.4,335.1,091$GPGGA,083415.00,4611.963676,N,01258.223022,E,1,08,1.0,140.77,M,46.25,M,,*6A
$GPGLL,4611.963676,N,01258.223022,E,083415.00,A,A*66
$GPVTG,342.6,T,342.7,M,001.3,N,002.5,K,A*27
$GPGSV,3,1,09,02,37,090,44,04,18,045,39,09,28,148,42,12,64,064,42*76
$GPGSV,3,2,09,14,33,263,40,25,70,310,42,29,42,218,46,30,25,285,39*76
$GPGSV,3,3,09,31,17,314,,,,,,,,,,,,,*42
$GPGSA,M,3,02,04,09,12,14,25,29,30,,,,,2.0,1.0,1.7*3D
Trace #99 at position 24.500000
$GPZDA,083415.04,09,10,2011,00,00*63
$GPRMC,083415.00,A,4611.963676,N,01258.223022,E,001.3,342.6,0$GPGGA,083416.00,4611.964085,N,01258.222853,E,1,08,1.0,140.76,M,46.25,M,,*6A
$GPGLL,4611.964085,N,01258.222853,E,083416.00,A,A*67
$GPVTG,347.5,T,347.6,M,001.5,N,002.7,K,A*21
$GPGSV,3,1,09,02,37,090,44,04,18,045,39,09,28,148,43,12,64,064,43*76
$GPGSV,3,2,09,14,33,263,41,25,70,310,41,29,42,218,46,30,25,285,38*75
$GPGSV,3,3,09,31,17,314,,,,,,,,,,,,,*42
$GPGSA,M,3,02,04,09,12,14,25,29,30,,,,,2.0,1.0,1.7*3D
Trace #100 at position 24.750000
$GPZDA,083419.04,09,10,2011,00,00*6F
$GPRMC,083419.00,A,4611.965347,N,01258.222444,E,001.2,342.1,091011,0.2,E,A*3F
$GPGGA,083420.00,4611.965827,N,01258.222159,E,1,08,1.0,140.77,M,46GPGSV,3,1,09,02,37,090,44,04,18,045,38,09,28,148,43,12,64,064,44*70
$GPGSV,3,2,09,14,33,263,40,25,70,310,41,29,42,218,45,30,25,285,37*78
$GPGSV,3,3,09,31,17,314,,,,,,,,,,,,,*42
$GPGSA,M,3,02,04,09,12,14,25,29,30,,,,,2.0,1.0,1.7*3D
Trace #101 at position 25.000000
$GPZDA,083419.04,09,10,2011,00,00*6F
$GPRMC,083419.00,A,4611.965347,N,01258.222444,E,001.2,342.1,091011,0.2,E,A*3F
$GPGGA,083420.00,4611.965827,N,01258.222159,E,1,08,1.0,140.77,M,46GPGSV,3,1,09,02,37,090,44,04,18,045,38,09,28,148,43,12,64,064,44*70
$GPGSV,3,2,09,14,33,263,40,25,70,310,41,29,42,218,45,30,25,285,37*78
$GPGSV,3,3,09,31,17,314,,,,,,,,,,,,,*42
$GPGSA,M,3,02,04,09,12,14,25,29,30,,,,,2.0,1.0,1.7*3D
Trace #102 at position 25.250000
$GPZDA,083419.04,09,10,2011,00,00*6F
$GPRMC,083419.00,A,4611.965347,N,01258.222444,E,001.2,342.1,091011,0.2,E,A*3F
$GPGGA,083420.00,4611.965827,N,01258.222159,E,1,08,1.0,140.77,M,46GPGSV,3,1,09,02,37,090,44,04,18,045,38,09,28,148,43,12,64,064,44*70
$GPGSV,3,2,09,14,33,263,40,25,70,310,41,29,42,218,45,30,25,285,37*78
$GPGSV,3,3,09,31,17,314,,,,,,,,,,,,,*42
$GPGSA,M,3,02,04,09,12,14,25,29,30,,,,,2.0,1.0,1.7*3D
Trace #103 at position 25.500000
$GPZDA,083420.04,09,10,2011,00,00*65
$GPRMC,083420.00,A,4611.965827,N,01258.222159,E,002.3,337.1,091011,0.2,E,A*31
$GPGGA,083421.00,4611.966252,N,01258.221895,E,1,07,1.1,140.84,M,46.25,M,,*6E
$GPGLL,4611.966252,N,01258.221895,E,083421.00,A,A*60
$GPVTG,331.8,T,331.9,M,001.12,09,14,33,263,40,25,70,310,42,29,42,218,45,30,25,285,34*78
$GPGSV,3,3,09,31,17,314,,,,,,,,,,,,,*42
$GPGSA,M,3,02,04,09,12,14,25,29,,,,,,2.2,1.1,1.9*33
Trace #104 at position 25.750000
$GPZDA,083420.04,09,10,2011,00,00*65
$GPRMC,083420.00,A,4611.965827,N,01258.222159,E,002.3,337.1,091011,0.2,E,A*31
$GPGGA,083421.00,4611.966252,N,01258.221895,E,1,07,1.1,140.84,M,46.25,M,,*6E
$GPGLL,4611.966252,N,01258.221895,E,083421.00,A,A*60
$GPVTG,331.8,T,331.9,M,001.12,09,14,33,263,40,25,70,310,42,29,42,218,45,30,25,285,34*78
$GPGSV,3,3,09,31,17,314,,,,,,,,,,,,,*42
$GPGSA,M,3,02,04,09,12,14,25,29,,,,,,2.2,1.1,1.9*33
Trace #105 at position 26.000000
$GPZDA,083420.04,09,10,2011,00,00*65
$GPRMC,083420.00,A,4611.965827,N,01258.222159,E,002.3,337.1,091011,0.2,E,A*31
$GPGGA,083421.00,4611.966252,N,01258.221895,E,1,07,1.1,140.84,M,46.25,M,,*6E
$GPGLL,4611.966252,N,01258.221895,E,083421.00,A,A*60
$GPVTG,331.8,T,331.9,M,001.12,09,14,33,263,40,25,70,310,42,29,42,218,45,30,25,285,34*78
$GPGSV,3,3,09,31,17,314,,,,,,,,,,,,,*42
$GPGSA,M,3,02,04,09,12,14,25,29,,,,,,2.2,1.1,1.9*33
Trace #106 at position 26.250000
$GPZDA,083420.04,09,10,2011,00,00*65
$GPRMC,083420.00,A,4611.965827,N,01258.222159,E,002.3,337.1,091011,0.2,E,A*31
$GPGGA,083421.00,4611.966252,N,01258.221895,E,1,07,1.1,140.84,M,46.25,M,,*6E
$GPGLL,4611.966252,N,01258.221895,E,083421.00,A,A*60
$GPVTG,331.8,T,331.9,M,001.12,09,14,33,263,40,25,70,310,42,29,42,218,45,30,25,285,34*78
$GPGSV,3,3,09,31,17,314,,,,,,,,,,,,,*42
$GPGSA,M,3,02,04,09,12,14,25,29,,,,,,2.2,1.1,1.9*33
Trace #107 at position 26.500000
$GPZDA,083420.04,09,10,2011,00,00*65
$GPRMC,083420.00,A,4611.965827,N,01258.222159,E,002.3,337.1,091011,0.2,E,A*31
$GPGGA,083421.00,4611.966252,N,01258.221895,E,1,07,1.1,140.84,M,46.25,M,,*6E
$GPGLL,4611.966252,N,01258.221895,E,083421.00,A,A*60
$GPVTG,331.8,T,331.9,M,001.12,09,14,33,263,40,25,70,310,42,29,42,218,45,30,25,285,34*78
$GPGSV,3,3,09,31,17,314,,,,,,,,,,,,,*42
$GPGSA,M,3,02,04,09,12,14,25,29,,,,,,2.2,1.1,1.9*33
Trace #108 at position 26.750000
$GPZDA,083420.04,09,10,2011,00,00*65
$GPRMC,083420.00,A,4611.965827,N,01258.222159,E,002.3,337.1,091011,0.2,E,A*31
$GPGGA,083421.00,4611.966252,N,01258.221895,E,1,07,1.1,140.84,M,46.25,M,,*6E
$GPGLL,4611.966252,N,01258.221895,E,083421.00,A,A*60
$GPVTG,331.8,T,331.9,M,001.12,09,14,33,263,40,25,70,310,42,29,42,218,45,30,25,285,34*78
$GPGSV,3,3,09,31,17,314,,,,,,,,,,,,,*42
$GPGSA,M,3,02,04,09,12,14,25,29,,,,,,2.2,1.1,1.9*33
Trace #109 at position 27.000000
$GPZDA,083421.04,09,10,2011,00,00*64
$GPRMC,083421.00,A,4611.966252,N,01258.221895,E,001.1,331.8,091011,0.2,E,A*3F
$GPGGA,083422.00,4611.966477,N,01258.221831,E,1,07,1.1,140.84,M,46.25,M,,*62
$GPGLL,4611.966477,N,01258.221831,E,083422.00,A,A*6C
$GPVTG,11.4,T,11.6,M,000.7,N,001.3,K,A*24
$GPGSV,3,1,09,02,37,090,44,04,18,045,37,09,28,148,42,12,64,064,44083422.04,09,10,2011,00,00*67
$GPRMC,083422.00,A,4611.966477,N,01258.221831,E,000.7,11.4,091011,0.2,E,A*09
$GPGGA,083423.00,4611.966532,N,01258.221876,E,1,07,1.1,140.82,M,46.25,M,,*66
$GPGLL,4611.966532,N,01258.221876,E,083423.00,A,A*6E
$GPVTG,163.1,T,163.3,M,000.2,N,000.5,K,A*26
$GPGSV,3,1,09,02,37,090,42,04,18,045,37,09,28,148,42,12,64,064,44*78
$GPGSV,3,2,09,14,33,263,39,25,70,311,39,29,42,218,47,30,25,285,35*78
$GPGSV,3,3,09,31,17,314,,,,,,,,,,,,,*42
$GPGSA,M,3,02,04,09,12,14,25,29,,,,,,2.2,1.1,,4611.966532,N,01258.221876,E,000.2,163.1,091011,0.2,E,A*3F
Trace #110 at position 27.250000
$GPZDA,083421.04,09,10,2011,00,00*64
$GPRMC,083421.00,A,4611.966252,N,01258.221895,E,001.1,331.8,091011,0.2,E,A*3F
$GPGGA,083422.00,4611.966477,N,01258.221831,E,1,07,1.1,140.84,M,46.25,M,,*62
$GPGLL,4611.966477,N,01258.221831,E,083422.00,A,A*6C
$GPVTG,11.4,T,11.6,M,000.7,N,001.3,K,A*24
$GPGSV,3,1,09,02,37,090,44,04,18,045,37,09,28,148,42,12,64,064,44083422.04,09,10,2011,00,00*67
$GPRMC,083422.00,A,4611.966477,N,01258.221831,E,000.7,11.4,091011,0.2,E,A*09
$GPGGA,083423.00,4611.966532,N,01258.221876,E,1,07,1.1,140.82,M,46.25,M,,*66
$GPGLL,4611.966532,N,01258.221876,E,083423.00,A,A*6E
$GPVTG,163.1,T,163.3,M,000.2,N,000.5,K,A*26
$GPGSV,3,1,09,02,37,090,42,04,18,045,37,09,28,148,42,12,64,064,44*78
$GPGSV,3,2,09,14,33,263,39,25,70,311,39,29,42,218,47,30,25,285,35*78
