Trace #1 at position 0.000000
$GPZDA,083159.04,09,10,2011,00,00*6E
$GPRMC,083159.00,A,4611.978450,N,01258.215967,E,000.1,219.1,091011,0.2,E,A*36
$GPGGA,083200.00,4611.978442,N,01258.215991,E,1,06,1.5,141.26,M,46.25,M,,*6D
$GPGLL,4611.978442,N,01258.215991,E,083200.00,A,A*6F
$GPVTG,292.2,T,,12,65,062,39*77
$GPGSV,3,2,09,14,34,264,45,25,69,308,48,29,41,217,46,30,24,284,41*7B
$GPGSV,3,3,09,31,16,314,43,,,,,,,,,,,,*44
$GPGSA,M,3,04,14,25,29,30,31,,,,,,,2.7,1.5,2.2*33
Trace #2 at position 0.250000
$GPZDA,083200.04,09,10,2011,00,00*61
$GPRMC,083200.00,A,4611.978442,N,01258.215991,E,000.0,292.2,091011,0.2,E,A*32
$GPGGA,083201.00,4611.978448,N,01258.216009,E,1,06,2.1,141.25,M,46.25,M,,*69
$GPGLL,4611.978448,N,01258.216009,E,083201.00,A,A*6F
$GPVTG,307.9,T,308.1,M,000.1,N,000.2,K,A*27
$GPGSV,3,1,09,02,37,091,31,04,18,0411.978448,N,01258.216009,E,000.1,307.9,091011,0.2,E,A*35
$GPGGA,083202.00,4611.978455,N,01258.216059,E,1,06,2.1,141.19,M,46.25,M,,*6C
$GPGLL,4611.978455,N,01258.216059,E,083202.00,A,A*65
$GPVTG,84.8,T,85.0,M,000.2,N,000.4,K,A*2C
$GPGSV,3,1,09,02,37,091,34,04,18,046,37,09,29,148,,12,65,062,39*71
$GPGSV,3,2,09,14,34,264,45,25,69,308,48,29,41,217,45,30,24,284,40*79
$GPGSV,3,3,09,31,16,314,41,,,,,,,,,,,,*46
$GPGSA,M,3,12,14,25,29,30,31,,,,,,,3.9,2.1,3.2*3D
Trace #3 at position 0.500000
$GPZDA,083202.04,09,10,2011,00,00*63
$GPRMC,08$GPGGA,083203.00,4611.978452,N,01258.216117,E,1,06,2.1,141.09,M,46.25,M,,*60
$GPGLL,4611.978452,N,01258.216117,E,083203.00,A,A*68
$GPVTG,123.3,T,123.5,M,000.1,N,000.1,K,A*25
$GPGSV,3,1,09,02,37,091,30,04,18,046,33,09,29,148,,12,65,062,38*70
$GPGSV,3,2,09,14,34,264,45,25,69,308,47,29,41,217,44,30,24,284,41*76
$GPGSV,3,3,09,31,16,314,41,,,,,,,,,,,,*46
$GPGSA,M,3,12,14,25,29,30,31,,,,,,,3.9,2.1,3.2*3D
Trace #4 at position 0.750000
$GPZDA,083202.04,09,10,2011,00,00*63
$GPRMC,08$GPGGA,083203.00,4611.978452,N,01258.216117,E,1,06,2.1,141.09,M,46.25,M,,*60
$GPGLL,4611.978452,N,01258.216117,E,083203.00,A,A*68
$GPVTG,123.3,T,123.5,M,000.1,N,000.1,K,A*25
$GPGSV,3,1,09,02,37,091,30,04,18,046,33,09,29,148,,12,65,062,38*70
$GPGSV,3,2,09,14,34,264,45,25,69,308,47,29,41,217,44,30,24,284,41*76
$GPGSV,3,3,09,31,16,314,41,,,,,,,,,,,,*46
$GPGSA,M,3,12,14,25,29,30,31,,,,,,,3.9,2.1,3.2*3D
Trace #5 at position 1.000000
$GPZDA,083203.04,09,10,2011,00,00*62
$GPRMC,083203.00,A,4611.978452,N,01258.216117,E,000.1,123.3,09101$GPGGA,083204.00,4611.978456,N,01258.216126,E,1,06,2.1,141.05,M,46.25,M,,*6D
$GPGLL,4611.978456,N,01258.216126,E,083204.00,A,A*69
$GPVTG,354.3,T,354.4,M,000.1,N,000.1,K,A*24
$GPGSV,3,1,09,02,37,091,32,04,18,046,38,09,29,148,,12,65,062,41*77
$GPGSV,3,2,09,14,34,264,44,25,69,308,46,29,41,217,44,30,24,284,41*76
$GPGSV,3,3,09,31,16,314,40,,,,,,,,,,,,*47
$GPGSA,M,3,12,14,25,29,30,31,,,,,,,3.9,2.1,3.2*3D
Trace #6 at position 1.250000
$GPZDA,083203.04,09,10,2011,00,00*62
$GPRMC,083203.00,A,4611.978452,N,01258.216117,E,000.1,123.3,09101$GPGGA,083204.00,4611.978456,N,01258.216126,E,1,06,2.1,141.05,M,46.25,M,,*6D
$GPGLL,4611.978456,N,01258.216126,E,083204.00,A,A*69
$GPVTG,354.3,T,354.4,M,000.1,N,000.1,K,A*24
$GPGSV,3,1,09,02,37,091,32,04,18,046,38,09,29,148,,12,65,062,41*77
$GPGSV,3,2,09,14,34,264,44,25,69,308,46,29,41,217,44,30,24,284,41*76
$GPGSV,3,3,09,31,16,314,40,,,,,,,,,,,,*47
$GPGSA,M,3,12,14,25,29,30,31,,,,,,,3.9,2.1,3.2*3D
Trace #7 at position 1.500000
$GPZDA,083203.04,09,10,2011,00,00*62
$GPRMC,083203.00,A,4611.978452,N,01258.216117,E,000.1,123.3,09101$GPGGA,083204.00,4611.978456,N,01258.216126,E,1,06,2.1,141.05,M,46.25,M,,*6D
$GPGLL,4611.978456,N,01258.216126,E,083204.00,A,A*69
$GPVTG,354.3,T,354.4,M,000.1,N,000.1,K,A*24
$GPGSV,3,1,09,02,37,091,32,04,18,046,38,09,29,148,,12,65,062,41*77
$GPGSV,3,2,09,14,34,264,44,25,69,308,46,29,41,217,44,30,24,284,41*76
$GPGSV,3,3,09,31,16,314,40,,,,,,,,,,,,*47
$GPGSA,M,3,12,14,25,29,30,31,,,,,,,3.9,2.1,3.2*3D
Trace #8 at position 1.750000
$GPZDA,083204.04,09,10,2011,00,00*65
$GPRMC,083204.00,A,4611.978456,N,01258.216126,E,000.1,354.3,09101$GPGGA,083205.00,4611.978460,N,01258.216152,E,1,07,1.4,141.00,M,46.25,M,,*68
$GPGLL,4611.978460,N,01258.216152,E,083205.00,A,A*6E
$GPVTG,106.2,T,106.3,M,000.0,N,000.1,K,A*23
$GPGSV,3,1,09,02,37,091,34,04,18,046,40,09,29,148,,12,65,062,41*7E
$GPGSV,3,2,09,14,34,264,42,25,69,308,46,29,41,217,46,30,24,284,42*71
$GPGSV,3,3,09,31,16,314,41,,,,,,,,,,,,*46
$GPGSA,M,3,04,12,14,25,29,30,31,,,,,,2.4,1.4,1.9*3A
Trace #9 at position 2.000000
$GPZDA,083204.04,09,10,2011,00,00*65
$GPRMC,083204.00,A,4611.978456,N,01258.216126,E,000.1,354.3,09101$GPGGA,083205.00,4611.978460,N,01258.216152,E,1,07,1.4,141.00,M,46.25,M,,*68
$GPGLL,4611.978460,N,01258.216152,E,083205.00,A,A*6E
$GPVTG,106.2,T,106.3,M,000.0,N,000.1,K,A*23
$GPGSV,3,1,09,02,37,091,34,04,18,046,40,09,29,148,,12,65,062,41*7E
$GPGSV,3,2,09,14,34,264,42,25,69,308,46,29,41,217,46,30,24,284,42*71
$GPGSV,3,3,09,31,16,314,41,,,,,,,,,,,,*46
$GPGSA,M,3,04,12,14,25,29,30,31,,,,,,2.4,1.4,1.9*3A
Trace #10 at position 2.250000
$GPZDA,083204.04,09,10,2011,00,00*65
$GPRMC,083204.00,A,4611.978456,N,01258.216126,E,000.1,354.3,09101$GPGGA,083205.00,4611.978460,N,01258.216152,E,1,07,1.4,141.00,M,46.25,M,,*68
$GPGLL,4611.978460,N,01258.216152,E,083205.00,A,A*6E
$GPVTG,106.2,T,106.3,M,000.0,N,000.1,K,A*23
$GPGSV,3,1,09,02,37,091,34,04,18,046,40,09,29,148,,12,65,062,41*7E
$GPGSV,3,2,09,14,34,264,42,25,69,308,46,29,41,217,46,30,24,284,42*71
$GPGSV,3,3,09,31,16,314,41,,,,,,,,,,,,*46
$GPGSA,M,3,04,12,14,25,29,30,31,,,,,,2.4,1.4,1.9*3A
Trace #11 at position 2.500000
$GPZDA,083205.04,09,10,2011,00,00*64
$GPRMC,083205.00,A,4611.978460,N,01258.216152,E,000.0,106.2,091$GPGGA,083206.00,4611.978458,N,01258.216169,E,1,07,1.4,140.96,M,46.25,M,,*66
$GPGLL,4611.978458,N,01258.216169,E,083206.00,A,A*6E
$GPVTG,308.4,T,308.6,M,000.0,N,000.1,K,A*20
$GPGSV,3,1,09,02,37,091,36,04,18,046,40,09,29,148,,12,65,062,42*7F
$GPGSV,3,2,09,14,34,264,42,25,69,309,46,29,41,217,47,30,24,284,42*71
$GPGSV,3,3,09,31,16,314,40,,,,,,,,,,,,*47
$GPGSA,M,3,04,12,14,25,29,30,31,,,,,,2.4,1.4,1.9*3A
Trace #12 at position 2.750000
$GPZDA,083205.04,09,10,2011,00,00*64
$GPRMC,083205.00,A,4611.978460,N,01258.216152,E,000.0,106.2,091$GPGGA,083206.00,4611.978458,N,01258.216169,E,1,07,1.4,140.96,M,46.25,M,,*66
$GPGLL,4611.978458,N,01258.216169,E,083206.00,A,A*6E
$GPVTG,308.4,T,308.6,M,000.0,N,000.1,K,A*20
$GPGSV,3,1,09,02,37,091,36,04,18,046,40,09,29,148,,12,65,062,42*7F
$GPGSV,3,2,09,14,34,264,42,25,69,309,46,29,41,217,47,30,24,284,42*71
$GPGSV,3,3,09,31,16,314,40,,,,,,,,,,,,*47
$GPGSA,M,3,04,12,14,25,29,30,31,,,,,,2.4,1.4,1.9*3A
Trace #13 at position 3.000000
$GPZDA,083205.04,09,10,2011,00,00*64
$GPRMC,083205.00,A,4611.978460,N,01258.216152,E,000.0,106.2,091$GPGGA,083206.00,4611.978458,N,01258.216169,E,1,07,1.4,140.96,M,46.25,M,,*66
$GPGLL,4611.978458,N,01258.216169,E,083206.00,A,A*6E
$GPVTG,308.4,T,308.6,M,000.0,N,000.1,K,A*20
$GPGSV,3,1,09,02,37,091,36,04,18,046,40,09,29,148,,12,65,062,42*7F
$GPGSV,3,2,09,14,34,264,42,25,69,309,46,29,41,217,47,30,24,284,42*71
$GPGSV,3,3,09,31,16,314,40,,,,,,,,,,,,*47
$GPGSA,M,3,04,12,14,25,29,30,31,,,,,,2.4,1.4,1.9*3A
Trace #14 at position 3.250000
$GPZDA,083205.04,09,10,2011,00,00*64
$GPRMC,083205.00,A,4611.978460,N,01258.216152,E,000.0,106.2,091$GPGGA,083206.00,4611.978458,N,01258.216169,E,1,07,1.4,140.96,M,46.25,M,,*66
$GPGLL,4611.978458,N,01258.216169,E,083206.00,A,A*6E
$GPVTG,308.4,T,308.6,M,000.0,N,000.1,K,A*20
$GPGSV,3,1,09,02,37,091,36,04,18,046,40,09,29,148,,12,65,062,42*7F
$GPGSV,3,2,09,14,34,264,42,25,69,309,46,29,41,217,47,30,24,284,42*71
$GPGSV,3,3,09,31,16,314,40,,,,,,,,,,,,*47
$GPGSA,M,3,04,12,14,25,29,30,31,,,,,,2.4,1.4,1.9*3A
Trace #15 at position 3.500000
$GPZDA,083206.04,09,10,2011,00,00*67
$GPRMC,083206.00,A,4611.978458,N,01258.216169,E,000.0,308.4,091$GPGGA,083207.00,4611.978463,N,01258.216169,E,1,07,1.4,140.93,M,46.25,M,,*6A
$GPGLL,4611.978463,N,01258.216169,E,083207.00,A,A*67
$GPVTG,319.3,T,319.5,M,000.1,N,000.1,K,A*25
$GPGSV,3,1,09,02,37,091,37,04,18,046,40,09,29,148,,12,65,062,43*7F
$GPGSV,3,2,09,14,34,264,44,25,69,309,45,29,41,217,46,30,24,284,42*75
$GPGSV,3,3,09,31,16,314,40,,,,,,,,,,,,*47
$GPGSA,M,3,04,12,14,25,29,30,31,,,,,,2.4,1.4,1.9*3A
Trace #16 at position 3.750000
$GPZDA,083206.04,09,10,2011,00,00*67
$GPRMC,083206.00,A,4611.978458,N,01258.216169,E,000.0,308.4,091$GPGGA,083207.00,4611.978463,N,01258.216169,E,1,07,1.4,140.93,M,46.25,M,,*6A
$GPGLL,4611.978463,N,01258.216169,E,083207.00,A,A*67
$GPVTG,319.3,T,319.5,M,000.1,N,000.1,K,A*25
$GPGSV,3,1,09,02,37,091,37,04,18,046,40,09,29,148,,12,65,062,43*7F
$GPGSV,3,2,09,14,34,264,44,25,69,309,45,29,41,217,46,30,24,284,42*75
$GPGSV,3,3,09,31,16,314,40,,,,,,,,,,,,*47
$GPGSA,M,3,04,12,14,25,29,30,31,,,,,,2.4,1.4,1.9*3A
Trace #17 at position 4.000000
$GPZDA,083206.04,09,10,2011,00,00*67
$GPRMC,083206.00,A,4611.978458,N,01258.216169,E,000.0,308.4,091$GPGGA,083207.00,4611.978463,N,01258.216169,E,1,07,1.4,140.93,M,46.25,M,,*6A
$GPGLL,4611.978463,N,01258.216169,E,083207.00,A,A*67
$GPVTG,319.3,T,319.5,M,000.1,N,000.1,K,A*25
$GPGSV,3,1,09,02,37,091,37,04,18,046,40,09,29,148,,12,65,062,43*7F
$GPGSV,3,2,09,14,34,264,44,25,69,309,45,29,41,217,46,30,24,284,42*75
$GPGSV,3,3,09,31,16,314,40,,,,,,,,,,,,*47
$GPGSA,M,3,04,12,14,25,29,30,31,,,,,,2.4,1.4,1.9*3A
Trace #18 at position 4.250000
$GPZDA,083207.04,09,10,2011,00,00*66
$GPRMC,083207.00,A,4611.978463,N,01258.216169,E,000.1,319.3,091$GPGGA,083208.00,4611.978444,N,01258.216185,E,1,07,1.4,140.96,M,46.25,M,,*67
$GPGLL,4611.978444,N,01258.216185,E,083208.00,A,A*6F
$GPVTG,157.9,T,158.0,M,000.2,N,000.3,K,A*24
$GPGSV,3,1,09,02,37,091,38,04,18,046,42,09,29,148,,12,65,062,43*72
$GPGSV,3,2,09,14,34,264,44,25,69,309,46,29,41,217,44,30,24,284,41*77
$GPGSV,3,3,09,31,16,314,40,,,,,,,,,,,,*47
$GPGSA,M,3,04,12,14,25,29,30,31,,,,,,2.4,1.4,1.9*3A
Trace #19 at position 4.500000
$GPZDA,083207.04,09,10,2011,00,00*66
$GPRMC,083207.00,A,4611.978463,N,01258.216169,E,000.1,319.3,091$GPGGA,083208.00,4611.978444,N,01258.216185,E,1,07,1.4,140.96,M,46.25,M,,*67
$GPGLL,4611.978444,N,01258.216185,E,083208.00,A,A*6F
$GPVTG,157.9,T,158.0,M,000.2,N,000.3,K,A*24
$GPGSV,3,1,09,02,37,091,38,04,18,046,42,09,29,148,,12,65,062,43*72
$GPGSV,3,2,09,14,34,264,44,25,69,309,46,29,41,217,44,30,24,284,41*77
$GPGSV,3,3,09,31,16,314,40,,,,,,,,,,,,*47
$GPGSA,M,3,04,12,14,25,29,30,31,,,,,,2.4,1.4,1.9*3A
Trace #20 at position 4.750000
$GPZDA,083208.04,09,10,2011,00,00*69
$GPRMC,083208.00,A,4611.978444,N,01258.216185,E,000.2,157.9,091$GPGGA,083209.00,4611.978229,N,01258.216201,E,1,07,1.4,140.98,M,46.25,M,,*6A
$GPGLL,4611.978229,N,01258.216201,E,083209.00,A,A*6C
$GPVTG,182.7,T,182.9,M,001.3,N,002.5,K,A*28
$GPGSV,3,1,09,02,37,091,38,04,18,046,41,09,29,148,,12,65,062,43*71
$GPGSV,3,2,09,14,34,264,44,25,69,309,47,29,41,217,44,30,24,284,42*75
$GPGSV,3,3,09,31,16,314,42,,,,,,,,,,,,*45
$GPGSA,M,3,04,12,14,25,29,30,31,,,,,,2.4,1.4,1.9*3A
Trace #21 at position 5.000000
$GPZDA,083208.04,09,10,2011,00,00*69
$GPRMC,083208.00,A,4611.978444,N,01258.216185,E,000.2,157.9,091$GPGGA,083209.00,4611.978229,N,01258.216201,E,1,07,1.4,140.98,M,46.25,M,,*6A
$GPGLL,4611.978229,N,01258.216201,E,083209.00,A,A*6C
$GPVTG,182.7,T,182.9,M,001.3,N,002.5,K,A*28
$GPGSV,3,1,09,02,37,091,38,04,18,046,41,09,29,148,,12,65,062,43*71
$GPGSV,3,2,09,14,34,264,44,25,69,309,47,29,41,217,44,30,24,284,42*75
$GPGSV,3,3,09,31,16,314,42,,,,,,,,,,,,*45
$GPGSA,M,3,04,12,14,25,29,30,31,,,,,,2.4,1.4,1.9*3A
Trace #22 at position 5.250000
$GPZDA,083208.04,09,10,2011,00,00*69
$GPRMC,083208.00,A,4611.978444,N,01258.216185,E,000.2,157.9,091$GPGGA,083209.00,4611.978229,N,01258.216201,E,1,07,1.4,140.98,M,46.25,M,,*6A
$GPGLL,4611.978229,N,01258.216201,E,083209.00,A,A*6C
$GPVTG,182.7,T,182.9,M,001.3,N,002.5,K,A*28
$GPGSV,3,1,09,02,37,091,38,04,18,046,41,09,29,148,,12,65,062,43*71
$GPGSV,3,2,09,14,34,264,44,25,69,309,47,29,41,217,44,30,24,284,42*75
$GPGSV,3,3,09,31,16,314,42,,,,,,,,,,,,*45
$GPGSA,M,3,04,12,14,25,29,30,31,,,,,,2.4,1.4,1.9*3A
Trace #23 at position 5.500000
$GPZDA,083209.04,09,10,2011,00,00*68
$GPRMC,083209.00,A,4611.978229,N,01258.216201,E,001.3,182.7,091PGLL,4611.977876,N,01258.216177,E,083210.00,A,A*69
$GPVTG,190.9,T,191.0,M,001.2,N,002.2,K,A*28
$GPGSV,3,1,09,02,37,091,38,04,18,046,41,09,29,148,,12,65,062,43*71
$GPGSV,3,2,09,14,34,264,43,25,69,309,47,29,41,217,44,30,24,285,41*70
$GPGSV,3,3,09,31,16,314,41,,,,,,,,,,,,*46
$GPGSA,M,3,04,12,14,25,29,30,31,,,,,,2.4,1.4,1.9*3A
Trace #24 at position 5.750000
$GPZDA,083209.04,09,10,2011,00,00*68
$GPRMC,083209.00,A,4611.978229,N,01258.216201,E,001.3,182.7,091PGLL,4611.977876,N,01258.216177,E,083210.00,A,A*69
$GPVTG,190.9,T,191.0,M,001.2,N,002.2,K,A*28
$GPGSV,3,1,09,02,37,091,38,04,18,046,41,09,29,148,,12,65,062,43*71
$GPGSV,3,2,09,14,34,264,43,25,69,309,47,29,41,217,44,30,24,285,41*70
$GPGSV,3,3,09,31,16,314,41,,,,,,,,,,,,*46
$GPGSA,M,3,04,12,14,25,29,30,31,,,,,,2.4,1.4,1.9*3A
Trace #25 at position 6.000000
$GPZDA,083209.04,09,10,2011,00,00*68
$GPRMC,083209.00,A,4611.978229,N,01258.216201,E,001.3,182.7,091PGLL,4611.977876,N,01258.216177,E,083210.00,A,A*69
$GPVTG,190.9,T,191.0,M,001.2,N,002.2,K,A*28
$GPGSV,3,1,09,02,37,091,38,04,18,046,41,09,29,148,,12,65,062,43*71
$GPGSV,3,2,09,14,34,264,43,25,69,309,47,29,41,217,44,30,24,285,41*70
$GPGSV,3,3,09,31,16,314,41,,,,,,,,,,,,*46
$GPGSA,M,3,04,12,14,25,29,30,31,,,,,,2.4,1.4,1.9*3A
Trace #26 at position 6.250000
$GPZDA,083210.04,09,10,2011,00,00*60
$GPRMC,083210.00,A,4611.977876,N,01258.216177,E,001.2,190.9,091011,0.2,E,A*3D
$GPGGA,083211.00,4611.977517,N,01258.216209,E,1,07,1.4,140.79,M,
$GPGSV,3,1,09,02,37,091,37,04,18,046,42,09,29,148,,12,65,062,43*7D
$GPGSV,3,2,09,14,34,264,44,25,69,309,47,29,41,217,43,30,24,285,41*70
$GPGSV,3,3,09,31,16,314,40,,,,,,,,,,,,*47
$GPGSA,M,3,04,12,14,25,29,30,31,,,,,,2.4,1.4,1.9*3A
Trace #27 at position 6.500000
$GPZDA,083210.04,09,10,2011,00,00*60
$GPRMC,083210.00,A,4611.977876,N,01258.216177,E,001.2,190.9,091011,0.2,E,A*3D
$GPGGA,083211.00,4611.977517,N,01258.216209,E,1,07,1.4,140.79,M,
$GPGSV,3,1,09,02,37,091,37,04,18,046,42,09,29,148,,12,65,062,43*7D
$GPGSV,3,2,09,14,34,264,44,25,69,309,47,29,41,217,43,30,24,285,41*70
$GPGSV,3,3,09,31,16,314,40,,,,,,,,,,,,*47
$GPGSA,M,3,04,12,14,25,29,30,31,,,,,,2.4,1.4,1.9*3A
Trace #28 at position 6.750000
$GPZDA,083210.04,09,10,2011,00,00*60
$GPRMC,083210.00,A,4611.977876,N,01258.216177,E,001.2,190.9,091011,0.2,E,A*3D
$GPGGA,083211.00,4611.977517,N,01258.216209,E,1,07,1.4,140.79,M,
$GPGSV,3,1,09,02,37,091,37,04,18,046,42,09,29,148,,12,65,062,43*7D
$GPGSV,3,2,09,14,34,264,44,25,69,309,47,29,41,217,43,30,24,285,41*70
$GPGSV,3,3,09,31,16,314,40,,,,,,,,,,,,*47
$GPGSA,M,3,04,12,14,25,29,30,31,,,,,,2.4,1.4,1.9*3A
Trace #29 at position 7.000000
$GPZDA,083210.04,09,10,2011,00,00*60
$GPRMC,083210.00,A,4611.977876,N,01258.216177,E,001.2,190.9,091011,0.2,E,A*3D
$GPGGA,083211.00,4611.977517,N,01258.216209,E,1,07,1.4,140.79,M,
$GPGSV,3,1,09,02,37,091,37,04,18,046,42,09,29,148,,12,65,062,43*7D
$GPGSV,3,2,09,14,34,264,44,25,69,309,47,29,41,217,43,30,24,285,41*70
$GPGSV,3,3,09,31,16,314,40,,,,,,,,,,,,*47
$GPGSA,M,3,04,12,14,25,29,30,31,,,,,,2.4,1.4,1.9*3A
Trace #30 at position 7.250000
$GPZDA,083210.04,09,10,2011,00,00*60
$GPRMC,083210.00,A,4611.977876,N,01258.216177,E,001.2,190.9,091011,0.2,E,A*3D
$GPGGA,083211.00,4611.977517,N,01258.216209,E,1,07,1.4,140.79,M,
$GPGSV,3,1,09,02,37,091,37,04,18,046,42,09,29,148,,12,65,062,43*7D
$GPGSV,3,2,09,14,34,264,44,25,69,309,47,29,41,217,43,30,24,285,41*70
$GPGSV,3,3,09,31,16,314,40,,,,,,,,,,,,*47
$GPGSA,M,3,04,12,14,25,29,30,31,,,,,,2.4,1.4,1.9*3A
Trace #31 at position 7.500000
$GPZDA,083210.04,09,10,2011,00,00*60
$GPRMC,083210.00,A,4611.977876,N,01258.216177,E,001.2,190.9,091011,0.2,E,A*3D
$GPGGA,083211.00,4611.977517,N,01258.216209,E,1,07,1.4,140.79,M,
$GPGSV,3,1,09,02,37,091,37,04,18,046,42,09,29,148,,12,65,062,43*7D
$GPGSV,3,2,09,14,34,264,44,25,69,309,47,29,41,217,43,30,24,285,41*70
$GPGSV,3,3,09,31,16,314,40,,,,,,,,,,,,*47
$GPGSA,M,3,04,12,14,25,29,30,31,,,,,,2.4,1.4,1.9*3A
Trace #32 at position 7.750000
$GPZDA,083211.04,09,10,2011,00,00*61
$GPRMC,083211.00,A,4611.977517,N,01258.216209,E,001.4,175.2,091011,0.2,E,A*3A
$GPGGA,083212.00,4611.977075,N,01258.216385,E,1,07,1.4,140.64,M,46.25,M,,*6A
$GPGLL,4611.977075,N,01258.216385,E,083212.00,A,A*6F
$GPVTG,165.4,T,165.6,M,001.9.4,1.9*3A
$GPZDA,083212.04,09,10,2011,00,00*62
$GPRMC,083212.00,A,4611.977075,N,01258.216385,E,001.9,165.4,091011,0.2,E,A*37
$GPGGA,083213.00,4611.976634,N,01258.216591,E,1,07,1.4,140.61,M,46.25,M,,*6F
$GPGLL,4611.976634,N,01258.216591,E,083213.00,A,A*6F
$GPVTG,168.6,T,168.8,M,001.5,N,002.7,K,A*2C
$GPGSV,3,1,09,02,37,091,37,04,18,046,42,09,29,148,,12,65,062,43*7D
$GPGSV,3,2,09,14,34,264,44,25,69,309,47,29,41,217,44,30,24,285,41*77
$GPGSV,3,3,09,31,16,314,41,,,,,,,,,,,,*46
$GPGSA,M,3,04,12,14,25,29,,001.5,168.6,091011,0.2,E,A*34
Trace #33 at position 8.000000
$GPZDA,083211.04,09,10,2011,00,00*61
$GPRMC,083211.00,A,4611.977517,N,01258.216209,E,001.4,175.2,091011,0.2,E,A*3A
$GPGGA,083212.00,4611.977075,N,01258.216385,E,1,07,1.4,140.64,M,46.25,M,,*6A
$GPGLL,4611.977075,N,01258.216385,E,083212.00,A,A*6F
$GPVTG,165.4,T,165.6,M,001.9.4,1.9*3A
$GPZDA,083212.04,09,10,2011,00,00*62
$GPRMC,083212.00,A,4611.977075,N,01258.216385,E,001.9,165.4,091011,0.2,E,A*37
$GPGGA,083213.00,4611.976634,N,01258.216591,E,1,07,1.4,140.61,M,46.25,M,,*6F
$GPGLL,4611.976634,N,01258.216591,E,083213.00,A,A*6F
$GPVTG,168.6,T,168.8,M,001.5,N,002.7,K,A*2C
$GPGSV,3,1,09,02,37,091,37,04,18,046,42,09,29,148,,12,65,062,43*7D
$GPGSV,3,2,09,14,34,264,44,25,69,309,47,29,41,217,44,30,24,285,41*77
$GPGSV,3,3,09,31,16,314,41,,,,,,,,,,,,*46
$GPGSA,M,3,04,12,14,25,29,,001.5,168.6,091011,0.2,E,A*34
Trace #34 at position 8.250000
$GPGGA,083214.00,4611.976294,N,01258.216798,E,1,07,1.4,140.67,M,46.25,M,,*6B
$GPGLL,4611.976294,N,01258.216798,E,083214.00,A,A*6D
$GPVTG,155.5,T,155.6,M,001.2,N,002.3,K,A*22
$GPGSV,3,1,09,02,37,091,39,04,18,045,41,09,29,148,,12,65,062,42*72
$GPGSV,3,2,09,14,34,264,43,25,69,309,47,29,41,217,44,30,24,285,41*70
$GPGSV,3,3,09,31,16,314,40,,,,,,,,,,,,*47
$GPGSA,M,3,04,12,14,25,29,30,31,,,,,,2.4,1.4,1.9*3A
Trace #35 at position 8.500000
$GPGGA,083214.00,4611.976294,N,01258.216798,E,1,07,1.4,140.67,M,46.25,M,,*6B
$GPGLL,4611.976294,N,01258.216798,E,083214.00,A,A*6D
$GPVTG,155.5,T,155.6,M,001.2,N,002.3,K,A*22
$GPGSV,3,1,09,02,37,091,39,04,18,045,41,09,29,148,,12,65,062,42*72
$GPGSV,3,2,09,14,34,264,43,25,69,309,47,29,41,217,44,30,24,285,41*70
$GPGSV,3,3,09,31,16,314,40,,,,,,,,,,,,*47
$GPGSA,M,3,04,12,14,25,29,30,31,,,,,,2.4,1.4,1.9*3A
Trace #36 at position 8.750000
$GPGGA,083214.00,4611.976294,N,01258.216798,E,1,07,1.4,140.67,M,46.25,M,,*6B
$GPGLL,4611.976294,N,01258.216798,E,083214.00,A,A*6D
$GPVTG,155.5,T,155.6,M,001.2,N,002.3,K,A*22
$GPGSV,3,1,09,02,37,091,39,04,18,045,41,09,29,148,,12,65,062,42*72
$GPGSV,3,2,09,14,34,264,43,25,69,309,47,29,41,217,44,30,24,285,41*70
$GPGSV,3,3,09,31,16,314,40,,,,,,,,,,,,*47
$GPGSA,M,3,04,12,14,25,29,30,31,,,,,,2.4,1.4,1.9*3A
Trace #37 at position 9.000000
$GPGGA,083214.00,4611.976294,N,01258.216798,E,1,07,1.4,140.67,M,46.25,M,,*6B
$GPGLL,4611.976294,N,01258.216798,E,083214.00,A,A*6D
$GPVTG,155.5,T,155.6,M,001.2,N,002.3,K,A*22
$GPGSV,3,1,09,02,37,091,39,04,18,045,41,09,29,148,,12,65,062,42*72
$GPGSV,3,2,09,14,34,264,43,25,69,309,47,29,41,217,44,30,24,285,41*70
$GPGSV,3,3,09,31,16,314,40,,,,,,,,,,,,*47
$GPGSA,M,3,04,12,14,25,29,30,31,,,,,,2.4,1.4,1.9*3A
Trace #38 at position 9.250000
$GPZDA,083214.04,09,10,2011,00,00*64
$GPRMC,083214.00,A,4611.976294,$GPGGA,083215.00,4611.975919,N,01258.217041,E,1,07,1.4,140.65,M,46.25,M,,*67
$GPGLL,4611.975919,N,01258.217041,E,083215.00,A,A*63
$GPVTG,163.2,T,163.4,M,001.8,N,003.3,K,A*2C
$GPGSV,3,1,09,02,37,091,37,04,18,045,42,09,29,148,,12,65,062,43*7E
$GPGSV,3,2,09,14,34,264,43,25,69,309,46,29,41,217,43,30,24,285,40*77
$GPGSV,3,3,09,31,16,314,40,,,,,,,,,,,,*47
$GPGSA,M,3,04,12,14,25,29,30,31,,,,,,2.4,1.4,1.9*3A
Trace #39 at position 9.500000
$GPZDA,083214.04,09,10,2011,00,00*64
$GPRMC,083214.00,A,4611.976294,$GPGGA,083215.00,4611.975919,N,01258.217041,E,1,07,1.4,140.65,M,46.25,M,,*67
$GPGLL,4611.975919,N,01258.217041,E,083215.00,A,A*63
$GPVTG,163.2,T,163.4,M,001.8,N,003.3,K,A*2C
$GPGSV,3,1,09,02,37,091,37,04,18,045,42,09,29,148,,12,65,062,43*7E
$GPGSV,3,2,09,14,34,264,43,25,69,309,46,29,41,217,43,30,24,285,40*77
$GPGSV,3,3,09,31,16,314,40,,,,,,,,,,,,*47
$GPGSA,M,3,04,12,14,25,29,30,31,,,,,,2.4,1.4,1.9*3A
Trace #40 at position 9.750000
$GPZDA,083214.04,09,10,2011,00,00*64
$GPRMC,083214.00,A,4611.976294,$GPGGA,083215.00,4611.975919,N,01258.217041,E,1,07,1.4,140.65,M,46.25,M,,*67
$GPGLL,4611.975919,N,01258.217041,E,083215.00,A,A*63
$GPVTG,163.2,T,163.4,M,001.8,N,003.3,K,A*2C
$GPGSV,3,1,09,02,37,091,37,04,18,045,42,09,29,148,,12,65,062,43*7E
$GPGSV,3,2,09,14,34,264,43,25,69,309,46,29,41,217,43,30,24,285,40*77
$GPGSV,3,3,09,31,16,314,40,,,,,,,,,,,,*47
$GPGSA,M,3,04,12,14,25,29,30,31,,,,,,2.4,1.4,1.9*3A
Trace #41 at position 10.000000
$GPZDA,083214.04,09,10,2011,00,00*64
$GPRMC,083214.00,A,4611.976294,$GPGGA,083215.00,4611.975919,N,01258.217041,E,1,07,1.4,140.65,M,46.25,M,,*67
$GPGLL,4611.975919,N,01258.217041,E,083215.00,A,A*63
$GPVTG,163.2,T,163.4,M,001.8,N,003.3,K,A*2C
$GPGSV,3,1,09,02,37,091,37,04,18,045,42,09,29,148,,12,65,062,43*7E
$GPGSV,3,2,09,14,34,264,43,25,69,309,46,29,41,217,43,30,24,285,40*77
$GPGSV,3,3,09,31,16,314,40,,,,,,,,,,,,*47
$GPGSA,M,3,04,12,14,25,29,30,31,,,,,,2.4,1.4,1.9*3A
Trace #42 at position 10.250000
$GPZDA,083215.04,09,10,2011,00,00*65
$GPRMC,083215.00,A,4611.975919,N,01258.217041,E,001.8,163.2,091$GPGGA,083216.00,4611.975550,N,01258.217323,E,1,07,1.4,140.61,M,46.25,M,,*66
$GPGLL,4611.975550,N,01258.217323,E,083216.00,A,A*66
$GPVTG,144.3,T,144.5,M,001.4,N,002.5,K,A*27
$GPGSV,3,1,09,02,37,091,38,04,18,045,41,09,29,148,,12,65,062,42*73
$GPGSV,3,2,09,14,34,264,43,25,69,309,47,29,41,217,44,30,24,285,41*70
$GPGSV,3,3,09,31,16,314,40,,,,,,,,,,,,*47
$GPGSA,M,3,04,12,14,25,29,30,31,,,,,,2.4,1.4,1.9*3A
Trace #43 at position 10.500000
$GPZDA,083215.04,09,10,2011,00,00*65
$GPRMC,083215.00,A,4611.975919,N,01258.217041,E,001.8,163.2,091$GPGGA,083216.00,4611.975550,N,01258.217323,E,1,07,1.4,140.61,M,46.25,M,,*66
$GPGLL,4611.975550,N,01258.217323,E,083216.00,A,A*66
$GPVTG,144.3,T,144.5,M,001.4,N,002.5,K,A*27
$GPGSV,3,1,09,02,37,091,38,04,18,045,41,09,29,148,,12,65,062,42*73
$GPGSV,3,2,09,14,34,264,43,25,69,309,47,29,41,217,44,30,24,285,41*70
$GPGSV,3,3,09,31,16,314,40,,,,,,,,,,,,*47
$GPGSA,M,3,04,12,14,25,29,30,31,,,,,,2.4,1.4,1.9*3A
Trace #44 at position 10.750000
$GPZDA,083215.04,09,10,2011,00,00*65
$GPRMC,083215.00,A,4611.975919,N,01258.217041,E,001.8,163.2,091$GPGGA,083216.00,4611.975550,N,01258.217323,E,1,07,1.4,140.61,M,46.25,M,,*66
$GPGLL,4611.975550,N,01258.217323,E,083216.00,A,A*66
$GPVTG,144.3,T,144.5,M,001.4,N,002.5,K,A*27
$GPGSV,3,1,09,02,37,091,38,04,18,045,41,09,29,148,,12,65,062,42*73
$GPGSV,3,2,09,14,34,264,43,25,69,309,47,29,41,217,44,30,24,285,41*70
$GPGSV,3,3,09,31,16,314,40,,,,,,,,,,,,*47
$GPGSA,M,3,04,12,14,25,29,30,31,,,,,,2.4,1.4,1.9*3A
Trace #45 at position 11.000000
$GPZDA,083215.04,09,10,2011,00,00*65
$GPRMC,083215.00,A,4611.975919,N,01258.217041,E,001.8,163.2,091$GPGGA,083216.00,4611.975550,N,01258.217323,E,1,07,1.4,140.61,M,46.25,M,,*66
$GPGLL,4611.975550,N,01258.217323,E,083216.00,A,A*66
$GPVTG,144.3,T,144.5,M,001.4,N,002.5,K,A*27
$GPGSV,3,1,09,02,37,091,38,04,18,045,41,09,29,148,,12,65,062,42*73
$GPGSV,3,2,09,14,34,264,43,25,69,309,47,29,41,217,44,30,24,285,41*70
$GPGSV,3,3,09,31,16,314,40,,,,,,,,,,,,*47
$GPGSA,M,3,04,12,14,25,29,30,31,,,,,,2.4,1.4,1.9*3A
Trace #46 at position 11.250000
$GPZDA,083216.04,09,10,2011,00,00*66
$GPRMC,083216.00,A,4611.975550,N,01258.217323,E,001.4,144.3,091$GPGGA,083217.00,4611.975215,N,01258.217633,E,1,07,1.4,140.61,M,46.25,M,,*65
$GPGLL,4611.975215,N,01258.217633,E,083217.00,A,A*65
$GPVTG,153.2,T,153.4,M,001.6,N,002.9,K,A*29
$GPGSV,3,1,09,02,37,091,37,04,18,045,42,09,29,148,36,12,65,062,42*7A
$GPGSV,3,2,09,14,34,264,43,25,69,309,48,29,41,217,43,30,24,285,40*79
$GPGSV,3,3,09,31,16,314,38,,,,,,,,,,,,*48
$GPGSA,M,3,04,12,14,25,29,30,31,,,,,,2.4,1.4,1.9*3A
Trace #47 at position 11.500000
$GPZDA,083216.04,09,10,2011,00,00*66
$GPRMC,083216.00,A,4611.975550,N,01258.217323,E,001.4,144.3,091$GPGGA,083217.00,4611.975215,N,01258.217633,E,1,07,1.4,140.61,M,46.25,M,,*65
$GPGLL,4611.975215,N,01258.217633,E,083217.00,A,A*65
$GPVTG,153.2,T,153.4,M,001.6,N,002.9,K,A*29
$GPGSV,3,1,09,02,37,091,37,04,18,045,42,09,29,148,36,12,65,062,42*7A
$GPGSV,3,2,09,14,34,264,43,25,69,309,48,29,41,217,43,30,24,285,40*79
$GPGSV,3,3,09,31,16,314,38,,,,,,,,,,,,*48
$GPGSA,M,3,04,12,14,25,29,30,31,,,,,,2.4,1.4,1.9*3A
Trace #48 at position 11.750000
$GPZDA,083216.04,09,10,2011,00,00*66
$GPRMC,083216.00,A,4611.975550,N,01258.217323,E,001.4,144.3,091$GPGGA,083217.00,4611.975215,N,01258.217633,E,1,07,1.4,140.61,M,46.25,M,,*65
$GPGLL,4611.975215,N,01258.217633,E,083217.00,A,A*65
$GPVTG,153.2,T,153.4,M,001.6,N,002.9,K,A*29
$GPGSV,3,1,09,02,37,091,37,04,18,045,42,09,29,148,36,12,65,062,42*7A
$GPGSV,3,2,09,14,34,264,43,25,69,309,48,29,41,217,43,30,24,285,40*79
$GPGSV,3,3,09,31,16,314,38,,,,,,,,,,,,*48
$GPGSA,M,3,04,12,14,25,29,30,31,,,,,,2.4,1.4,1.9*3A
Trace #49 at position 12.000000
$GPZDA,083217.04,09,10,2011,00,00*67
$GPRMC,083217.00,A,4611.975215,N,01258.217633,E,001.6,153.2,0$GPGGA,083218.00,4611.974790,N,01258.217897,E,1,07,1.4,140.57,M,46.25,M,,*66
$GPGLL,4611.974790,N,01258.217897,E,083218.00,A,A*63
$GPVTG,160.0,T,160.2,M,001.9,N,003.6,K,A*2C
$GPGSV,3,1,09,02,37,091,35,04,18,045,43,09,29,148,37,12,65,062,43*79
$GPGSV,3,2,09,14,34,264,42,25,69,309,47,29,41,217,44,30,24,285,40*70
$GPGSV,3,3,09,31,16,314,38,,,,,,,,,,,,*48
$GPGSA,M,3,04,12,14,25,29,30,31,,,,,,2.4,1.4,1.9*3A
Trace #50 at position 12.250000
$GPZDA,083217.04,09,10,2011,00,00*67
$GPRMC,083217.00,A,4611.975215,N,01258.217633,E,001.6,153.2,0$GPGGA,083218.00,4611.974790,N,01258.217897,E,1,07,1.4,140.57,M,46.25,M,,*66
$GPGLL,4611.974790,N,01258.217897,E,083218.00,A,A*63
$GPVTG,160.0,T,160.2,M,001.9,N,003.6,K,A*2C
$GPGSV,3,1,09,02,37,091,35,04,18,045,43,09,29,148,37,12,65,062,43*79
$GPGSV,3,2,09,14,34,264,42,25,69,309,47,29,41,217,44,30,24,285,40*70
$GPGSV,3,3,09,31,16,314,38,,,,,,,,,,,,*48
$GPGSA,M,3,04,12,14,25,29,30,31,,,,,,2.4,1.4,1.9*3A
Trace #51 at position 12.500000
$GPZDA,083217.04,09,10,2011,00,00*67
$GPRMC,083217.00,A,4611.975215,N,01258.217633,E,001.6,153.2,0$GPGGA,083218.00,4611.974790,N,01258.217897,E,1,07,1.4,140.57,M,46.25,M,,*66
$GPGLL,4611.974790,N,01258.217897,E,083218.00,A,A*63
$GPVTG,160.0,T,160.2,M,001.9,N,003.6,K,A*2C
$GPGSV,3,1,09,02,37,091,35,04,18,045,43,09,29,148,37,12,65,062,43*79
$GPGSV,3,2,09,14,34,264,42,25,69,309,47,29,41,217,44,30,24,285,40*70
$GPGSV,3,3,09,31,16,314,38,,,,,,,,,,,,*48
$GPGSA,M,3,04,12,14,25,29,30,31,,,,,,2.4,1.4,1.9*3A
Trace #52 at position 12.750000
$GPZDA,083217.04,09,10,2011,00,00*67
$GPRMC,083217.00,A,4611.975215,N,01258.217633,E,001.6,153.2,0$GPGGA,083218.00,4611.974790,N,01258.217897,E,1,07,1.4,140.57,M,46.25,M,,*66
$GPGLL,4611.974790,N,01258.217897,E,083218.00,A,A*63
$GPVTG,160.0,T,160.2,M,001.9,N,003.6,K,A*2C
$GPGSV,3,1,09,02,37,091,35,04,18,045,43,09,29,148,37,12,65,062,43*79
$GPGSV,3,2,09,14,34,264,42,25,69,309,47,29,41,217,44,30,24,285,40*70
$GPGSV,3,3,09,31,16,314,38,,,,,,,,,,,,*48
$GPGSA,M,3,04,12,14,25,29,30,31,,,,,,2.4,1.4,1.9*3A
Trace #53 at position 13.000000
$GPZDA,083218.04,09,10,2011,00,00*68
$GPRMC,083218.00,A,4611.974790,N,01258.217897,E,001.9,160.0,0$GPGGA,083219.00,4611.974398,N,01258.218192,E,1,07,1.4,140.65,M,46.25,M,,*69
$GPGLL,4611.974398,N,01258.218192,E,083219.00,A,A*6D
$GPVTG,139.9,T,140.0,M,001.4,N,002.6,K,A*25
$GPGSV,3,1,09,02,37,091,34,04,18,045,42,09,29,148,38,12,65,062,43*76
$GPGSV,3,2,09,14,34,264,42,25,69,309,47,29,41,217,44,30,24,285,41*71
$GPGSV,3,3,09,31,16,314,38,,,,,,,,,,,,*48
$GPGSA,M,3,04,12,14,25,29,30,31,,,,,,2.4,1.4,1.9*3A
Trace #54 at position 13.250000
$GPZDA,083218.04,09,10,2011,00,00*68
$GPRMC,083218.00,A,4611.974790,N,01258.217897,E,001.9,160.0,0$GPGGA,083219.00,4611.974398,N,01258.218192,E,1,07,1.4,140.65,M,46.25,M,,*69
$GPGLL,4611.974398,N,01258.218192,E,083219.00,A,A*6D
$GPVTG,139.9,T,140.0,M,001.4,N,002.6,K,A*25
$GPGSV,3,1,09,02,37,091,34,04,18,045,42,09,29,148,38,12,65,062,43*76
$GPGSV,3,2,09,14,34,264,42,25,69,309,47,29,41,217,44,30,24,285,41*71
$GPGSV,3,3,09,31,16,314,38,,,,,,,,,,,,*48
$GPGSA,M,3,04,12,14,25,29,30,31,,,,,,2.4,1.4,1.9*3A
Trace #55 at position 13.500000
$GPZDA,083218.04,09,10,2011,00,00*68
$GPRMC,083218.00,A,4611.974790,N,01258.217897,E,001.9,160.0,0$GPGGA,083219.00,4611.974398,N,01258.218192,E,1,07,1.4,140.65,M,46.25,M,,*69
$GPGLL,4611.974398,N,01258.218192,E,083219.00,A,A*6D
$GPVTG,139.9,T,140.0,M,001.4,N,002.6,K,A*25
$GPGSV,3,1,09,02,37,091,34,04,18,045,42,09,29,148,38,12,65,062,43*76
$GPGSV,3,2,09,14,34,264,42,25,69,309,47,29,41,217,44,30,24,285,41*71
$GPGSV,3,3,09,31,16,314,38,,,,,,,,,,,,*48
$GPGSA,M,3,04,12,14,25,29,30,31,,,,,,2.4,1.4,1.9*3A
Trace #56 at position 13.750000
$GPZDA,083219.04,09,10,2011,00,00*69
$GPRMC,083219.00,A,4611.974398,N,01258.218192,E,001.4,139.9,046.25,M,,*6F
$GPGLL,4611.973979,N,01258.218472,E,083220.00,A,A*6E
$GPVTG,162.0,T,162.2,M,002.0,N,003.7,K,A*27
$GPGSV,3,1,09,02,37,091,33,04,18,045,42,09,29,148,37,12,65,062,42*7F
$GPGSV,3,2,09,14,34,264,41,25,69,309,47,29,41,217,44,30,24,285,40*73
$GPGSV,3,3,09,31,16,314,38,,,,,,,,,,,,*48
$GPGSA,M,3,04,12,14,25,29,30,31,,,,,,2.4,1.4,1.9*3A
Trace #57 at position 14.000000
$GPZDA,083219.04,09,10,2011,00,00*69
$GPRMC,083219.00,A,4611.974398,N,01258.218192,E,001.4,139.9,046.25,M,,*6F
$GPGLL,4611.973979,N,01258.218472,E,083220.00,A,A*6E
$GPVTG,162.0,T,162.2,M,002.0,N,003.7,K,A*27
$GPGSV,3,1,09,02,37,091,33,04,18,045,42,09,29,148,37,12,65,062,42*7F
$GPGSV,3,2,09,14,34,264,41,25,69,309,47,29,41,217,44,30,24,285,40*73
$GPGSV,3,3,09,31,16,314,38,,,,,,,,,,,,*48
$GPGSA,M,3,04,12,14,25,29,30,31,,,,,,2.4,1.4,1.9*3A
Trace #58 at position 14.250000
$GPZDA,083219.04,09,10,2011,00,00*69
$GPRMC,083219.00,A,4611.974398,N,01258.218192,E,001.4,139.9,046.25,M,,*6F
$GPGLL,4611.973979,N,01258.218472,E,083220.00,A,A*6E
$GPVTG,162.0,T,162.2,M,002.0,N,003.7,K,A*27
$GPGSV,3,1,09,02,37,091,33,04,18,045,42,09,29,148,37,12,65,062,42*7F
$GPGSV,3,2,09,14,34,264,41,25,69,309,47,29,41,217,44,30,24,285,40*73
$GPGSV,3,3,09,31,16,314,38,,,,,,,,,,,,*48
$GPGSA,M,3,04,12,14,25,29,30,31,,,,,,2.4,1.4,1.9*3A
Trace #59 at position 14.500000
$GPZDA,083220.04,09,10,2011,00,00*63
$GPRMC,083220.00,A,4611.973979,N,01258.218472,E,002.0,162.0,091011,0.2,E,A*3F
$GPGGA,083221.00,4611.973594,N,01258.218595,E,,18,045,42,09,29,148,37,12,65,062,43*7B
$GPGSV,3,2,09,14,34,264,42,25,69,309,47,29,41,217,44,30,24,285,41*71
$GPGSV,3,3,09,31,16,314,39,,,,,,,,,,,,*49
$GPGSA,M,3,04,12,14,25,29,30,31,,,,,,2.4,1.4,1.9*3A
Trace #60 at position 14.750000
$GPZDA,083220.04,09,10,2011,00,00*63
$GPRMC,083220.00,A,4611.973979,N,01258.218472,E,002.0,162.0,091011,0.2,E,A*3F
$GPGGA,083221.00,4611.973594,N,01258.218595,E,,18,045,42,09,29,148,37,12,65,062,43*7B
$GPGSV,3,2,09,14,34,264,42,25,69,309,47,29,41,217,44,30,24,285,41*71
$GPGSV,3,3,09,31,16,314,39,,,,,,,,,,,,*49
$GPGSA,M,3,04,12,14,25,29,30,31,,,,,,2.4,1.4,1.9*3A
Trace #61 at position 15.000000
$GPZDA,083220.04,09,10,2011,00,00*63
$GPRMC,083220.00,A,4611.973979,N,01258.218472,E,002.0,162.0,091011,0.2,E,A*3F
$GPGGA,083221.00,4611.973594,N,01258.218595,E,,18,045,42,09,29,148,37,12,65,062,43*7B
$GPGSV,3,2,09,14,34,264,42,25,69,309,47,29,41,217,44,30,24,285,41*71
$GPGSV,3,3,09,31,16,314,39,,,,,,,,,,,,*49
$GPGSA,M,3,04,12,14,25,29,30,31,,,,,,2.4,1.4,1.9*3A
Trace #62 at position 15.250000
$GPZDA,083220.04,09,10,2011,00,00*63
$GPRMC,083220.00,A,4611.973979,N,01258.218472,E,002.0,162.0,091011,0.2,E,A*3F
$GPGGA,083221.00,4611.973594,N,01258.218595,E,,18,045,42,09,29,148,37,12,65,062,43*7B
$GPGSV,3,2,09,14,34,264,42,25,69,309,47,29,41,217,44,30,24,285,41*71
$GPGSV,3,3,09,31,16,314,39,,,,,,,,,,,,*49
$GPGSA,M,3,04,12,14,25,29,30,31,,,,,,2.4,1.4,1.9*3A
Trace #63 at position 15.500000
$GPZDA,083220.04,09,10,2011,00,00*63
$GPRMC,083220.00,A,4611.973979,N,01258.218472,E,002.0,162.0,091011,0.2,E,A*3F
$GPGGA,083221.00,4611.973594,N,01258.218595,E,,18,045,42,09,29,148,37,12,65,062,43*7B
$GPGSV,3,2,09,14,34,264,42,25,69,309,47,29,41,217,44,30,24,285,41*71
$GPGSV,3,3,09,31,16,314,39,,,,,,,,,,,,*49
$GPGSA,M,3,04,12,14,25,29,30,31,,,,,,2.4,1.4,1.9*3A
Trace #64 at position 15.750000
$GPZDA,083220.04,09,10,2011,00,00*63
$GPRMC,083220.00,A,4611.973979,N,01258.218472,E,002.0,162.0,091011,0.2,E,A*3F
$GPGGA,083221.00,4611.973594,N,01258.218595,E,,18,045,42,09,29,148,37,12,65,062,43*7B
$GPGSV,3,2,09,14,34,264,42,25,69,309,47,29,41,217,44,30,24,285,41*71
$GPGSV,3,3,09,31,16,314,39,,,,,,,,,,,,*49
$GPGSA,M,3,04,12,14,25,29,30,31,,,,,,2.4,1.4,1.9*3A
Trace #65 at position 16.000000
$GPZDA,083221.04,09,10,2011,00,00*62
$GPRMC,083221.00,A,4611.973594,N,01258.218595,E,000.8,172.4,091011,0.2,E,A*36
$GPGGA,083222.00,4611.973241,N,01258.218697,E,1,07,1.4,140.83,M,46.25,M,,*69
$GPGLL,4611.973241,N,01258.218697,E,083222.00,A,A*65
$GPVTG,165.3,T,165.5,M,001.6,N,003.0,K,A*21
$GPGSV,3,1,,2.4,1.4,1.9*3A
$GPZDA,083222.04,09,10,2011,00,00*61
$GPRMC,083222.00,A,4611.973241,N,01258.218697,E,001.6,165.3,091011,0.2,E,A*35
$GPGGA,083223.00,4611.972772,N,01258.218881,E,1,07,1.4,140.80,M,46.25,M,,*66
$GPGLL,4611.972772,N,01258.218881,E,083223.00,A,A*69
$GPVTG,162.9,T,163.0,M,001.7,N,003.2,K,A*2C
$GPGSV,3,1,09,02,37,091,35,04,18,045,41,09,29,148,38,12,65,062,43*74
$GPGSV,3,2,09,14,34,264,43,25,69,309,47,29,41,217,44,30,24,285,41*70
$GPGSV,3,3,09,31,16,314,40,,,,,,,,,,,,*47
$GPGSA,M,3,04,12,1083223.00,A,4611.972772,N,01258.218881,E,001.7,162.9,091011,0.2,E,A*35
Trace #66 at position 16.250000
$GPZDA,083221.04,09,10,2011,00,00*62
$GPRMC,083221.00,A,4611.973594,N,01258.218595,E,000.8,172.4,091011,0.2,E,A*36
$GPGGA,083222.00,4611.973241,N,01258.218697,E,1,07,1.4,140.83,M,46.25,M,,*69
$GPGLL,4611.973241,N,01258.218697,E,083222.00,A,A*65
$GPVTG,165.3,T,165.5,M,001.6,N,003.0,K,A*21
$GPGSV,3,1,,2.4,1.4,1.9*3A
$GPZDA,083222.04,09,10,2011,00,00*61
$GPRMC,083222.00,A,4611.973241,N,01258.218697,E,001.6,165.3,091011,0.2,E,A*35
$GPGGA,083223.00,4611.972772,N,01258.218881,E,1,07,1.4,140.80,M,46.25,M,,*66
$GPGLL,4611.972772,N,01258.218881,E,083223.00,A,A*69
$GPVTG,162.9,T,163.0,M,001.7,N,003.2,K,A*2C
$GPGSV,3,1,09,02,37,091,35,04,18,045,41,09,29,148,38,12,65,062,43*74
$GPGSV,3,2,09,14,34,264,43,25,69,309,47,29,41,217,44,30,24,285,41*70
$GPGSV,3,3,09,31,16,314,40,,,,,,,,,,,,*47
$GPGSA,M,3,04,12,1083223.00,A,4611.972772,N,01258.218881,E,001.7,162.9,091011,0.2,E,A*35
Trace #67 at position 16.500000
$GPZDA,083221.04,09,10,2011,00,00*62
$GPRMC,083221.00,A,4611.973594,N,01258.218595,E,000.8,172.4,091011,0.2,E,A*36
$GPGGA,083222.00,4611.973241,N,01258.218697,E,1,07,1.4,140.83,M,46.25,M,,*69
$GPGLL,4611.973241,N,01258.218697,E,083222.00,A,A*65
$GPVTG,165.3,T,165.5,M,001.6,N,003.0,K,A*21
$GPGSV,3,1,,2.4,1.4,1.9*3A
$GPZDA,083222.04,09,10,2011,00,00*61
$GPRMC,083222.00,A,4611.973241,N,01258.218697,E,001.6,165.3,091011,0.2,E,A*35
$GPGGA,083223.00,4611.972772,N,01258.218881,E,1,07,1.4,140.80,M,46.25,M,,*66
$GPGLL,4611.972772,N,01258.218881,E,083223.00,A,A*69
$GPVTG,162.9,T,163.0,M,001.7,N,003.2,K,A*2C
$GPGSV,3,1,09,02,37,091,35,04,18,045,41,09,29,148,38,12,65,062,43*74
$GPGSV,3,2,09,14,34,264,43,25,69,309,47,29,41,217,44,30,24,285,41*70
$GPGSV,3,3,09,31,16,314,40,,,,,,,,,,,,*47
$GPGSA,M,3,04,12,1083223.00,A,4611.972772,N,01258.218881,E,001.7,162.9,091011,0.2,E,A*35
Trace #68 at position 16.750000
$GPZDA,083221.04,09,10,2011,00,00*62
$GPRMC,083221.00,A,4611.973594,N,01258.218595,E,000.8,172.4,091011,0.2,E,A*36
$GPGGA,083222.00,4611.973241,N,01258.218697,E,1,07,1.4,140.83,M,46.25,M,,*69
$GPGLL,4611.973241,N,01258.218697,E,083222.00,A,A*65
$GPVTG,165.3,T,165.5,M,001.6,N,003.0,K,A*21
$GPGSV,3,1,,2.4,1.4,1.9*3A
$GPZDA,083222.04,09,10,2011,00,00*61
$GPRMC,083222.00,A,4611.973241,N,01258.218697,E,001.6,165.3,091011,0.2,E,A*35
$GPGGA,083223.00,4611.972772,N,01258.218881,E,1,07,1.4,140.80,M,46.25,M,,*66
$GPGLL,4611.972772,N,01258.218881,E,083223.00,A,A*69
$GPVTG,162.9,T,163.0,M,001.7,N,003.2,K,A*2C
$GPGSV,3,1,09,02,37,091,35,04,18,045,41,09,29,148,38,12,65,062,43*74
$GPGSV,3,2,09,14,34,264,43,25,69,309,47,29,41,217,44,30,24,285,41*70
$GPGSV,3,3,09,31,16,314,40,,,,,,,,,,,,*47
$GPGSA,M,3,04,12,1083223.00,A,4611.972772,N,01258.218881,E,001.7,162.9,091011,0.2,E,A*35
Trace #69 at position 17.000000
$GPGGA,083224.00,4611.972239,N,01258.219020,E,1,07,1.4,140.70,M,46.25,M,,*66
$GPGLL,4611.972239,N,01258.219020,E,083224.00,A,A*66
$GPVTG,175.2,T,175.4,M,002.2,N,004.0,K,A*21
$GPGSV,3,1,09,02,37,091,38,04,18,045,43,09,29,148,37,12,65,062,41*76
$GPGSV,3,2,09,14,34,264,42,25,69,309,48,29,41,217,44,30,24,285,40*7F
$GPGSV,3,3,09,31,16,314,39,,,,,,,,,,,,*49
$GPGSA,M,3,04,12,14,25,29,30,31,,,,,,2.4,1.4,1.9*3A
Trace #70 at position 17.250000
$GPGGA,083224.00,4611.972239,N,01258.219020,E,1,07,1.4,140.70,M,46.25,M,,*66
$GPGLL,4611.972239,N,01258.219020,E,083224.00,A,A*66
$GPVTG,175.2,T,175.4,M,002.2,N,004.0,K,A*21
$GPGSV,3,1,09,02,37,091,38,04,18,045,43,09,29,148,37,12,65,062,41*76
$GPGSV,3,2,09,14,34,264,42,25,69,309,48,29,41,217,44,30,24,285,40*7F
$GPGSV,3,3,09,31,16,314,39,,,,,,,,,,,,*49
$GPGSA,M,3,04,12,14,25,29,30,31,,,,,,2.4,1.4,1.9*3A
Trace #71 at position 17.500000
$GPGGA,083224.00,4611.972239,N,01258.219020,E,1,07,1.4,140.70,M,46.25,M,,*66
$GPGLL,4611.972239,N,01258.219020,E,083224.00,A,A*66
$GPVTG,175.2,T,175.4,M,002.2,N,004.0,K,A*21
$GPGSV,3,1,09,02,37,091,38,04,18,045,43,09,29,148,37,12,65,062,41*76
$GPGSV,3,2,09,14,34,264,42,25,69,309,48,29,41,217,44,30,24,285,40*7F
$GPGSV,3,3,09,31,16,314,39,,,,,,,,,,,,*49
$GPGSA,M,3,04,12,14,25,29,30,31,,,,,,2.4,1.4,1.9*3A
Trace #72 at position 17.750000
$GPZDA,083224.04,09,10,20112,E,A*31
$GPGGA,083225.00,4611.971626,N,01258.219192,E,1,07,1.4,140.46,M,46.25,M,,*63
$GPGLL,4611.971626,N,01258.219192,E,083225.00,A,A*66
$GPVTG,164.4,T,164.5,M,002.5,N,004.7,K,A*26
$GPGSV,3,1,09,02,37,091,36,04,18,045,42,09,29,148,38,12,65,062,42*75
$GPGSV,3,2,09,14,34,264,42,25,69,309,47,29,41,217,43,30,24,285,41*76
$GPGSV,3,3,09,31,16,314,41,,,,,,,,,,,,*46
$GPGSA,M,3,04,12,14,25,29,30,31,,,,,,2.4,1.4,1.9*3A
Trace #73 at position 18.000000
$GPZDA,083224.04,09,10,20112,E,A*31
$GPGGA,083225.00,4611.971626,N,01258.219192,E,1,07,1.4,140.46,M,46.25,M,,*63
$GPGLL,4611.971626,N,01258.219192,E,083225.00,A,A*66
$GPVTG,164.4,T,164.5,M,002.5,N,004.7,K,A*26
$GPGSV,3,1,09,02,37,091,36,04,18,045,42,09,29,148,38,12,65,062,42*75
$GPGSV,3,2,09,14,34,264,42,25,69,309,47,29,41,217,43,30,24,285,41*76
$GPGSV,3,3,09,31,16,314,41,,,,,,,,,,,,*46
$GPGSA,M,3,04,12,14,25,29,30,31,,,,,,2.4,1.4,1.9*3A
Trace #74 at position 18.250000
$GPZDA,083224.04,09,10,20112,E,A*31
$GPGGA,083225.00,4611.971626,N,01258.219192,E,1,07,1.4,140.46,M,46.25,M,,*63
$GPGLL,4611.971626,N,01258.219192,E,083225.00,A,A*66
$GPVTG,164.4,T,164.5,M,002.5,N,004.7,K,A*26
$GPGSV,3,1,09,02,37,091,36,04,18,045,42,09,29,148,38,12,65,062,42*75
$GPGSV,3,2,09,14,34,264,42,25,69,309,47,29,41,217,43,30,24,285,41*76
$GPGSV,3,3,09,31,16,314,41,,,,,,,,,,,,*46
$GPGSA,M,3,04,12,14,25,29,30,31,,,,,,2.4,1.4,1.9*3A
Trace #75 at position 18.500000
$GPZDA,083224.04,09,10,20112,E,A*31
$GPGGA,083225.00,4611.971626,N,01258.219192,E,1,07,1.4,140.46,M,46.25,M,,*63
$GPGLL,4611.971626,N,01258.219192,E,083225.00,A,A*66
$GPVTG,164.4,T,164.5,M,002.5,N,004.7,K,A*26
$GPGSV,3,1,09,02,37,091,36,04,18,045,42,09,29,148,38,12,65,062,42*75
$GPGSV,3,2,09,14,34,264,42,25,69,309,47,29,41,217,43,30,24,285,41*76
$GPGSV,3,3,09,31,16,314,41,,,,,,,,,,,,*46
$GPGSA,M,3,04,12,14,25,29,30,31,,,,,,2.4,1.4,1.9*3A
Trace #76 at position 18.750000
$GPZDA,083225.04,09,10,2011,00,00*66
$GPRMC,083225.00,A,4611.971626,N,01258.219192,E,002$GPGGA,083226.00,4611.971038,N,01258.219527,E,1,07,1.4,140.31,M,46.25,M,,*63
$GPGLL,4611.971038,N,01258.219527,E,083226.00,A,A*66
$GPVTG,152.7,T,152.9,M,002.4,N,004.4,K,A*2B
$GPGSV,3,1,09,02,37,091,36,04,18,045,42,09,29,148,36,12,65,062,43*7A
$GPGSV,3,2,09,14,34,264,42,25,69,309,47,29,41,217,43,30,24,285,41*76
$GPGSV,3,3,09,31,16,314,40,,,,,,,,,,,,*47
$GPGSA,M,3,04,12,14,25,29,30,31,,,,,,2.4,1.4,1.9*3A
Trace #77 at position 19.000000
$GPZDA,083225.04,09,10,2011,00,00*66
$GPRMC,083225.00,A,4611.971626,N,01258.219192,E,002$GPGGA,083226.00,4611.971038,N,01258.219527,E,1,07,1.4,140.31,M,46.25,M,,*63
$GPGLL,4611.971038,N,01258.219527,E,083226.00,A,A*66
$GPVTG,152.7,T,152.9,M,002.4,N,004.4,K,A*2B
$GPGSV,3,1,09,02,37,091,36,04,18,045,42,09,29,148,36,12,65,062,43*7A
$GPGSV,3,2,09,14,34,264,42,25,69,309,47,29,41,217,43,30,24,285,41*76
$GPGSV,3,3,09,31,16,314,40,,,,,,,,,,,,*47
$GPGSA,M,3,04,12,14,25,29,30,31,,,,,,2.4,1.4,1.9*3A
Trace #78 at position 19.250000
$GPZDA,083225.04,09,10,2011,00,00*66
$GPRMC,083225.00,A,4611.971626,N,01258.219192,E,002$GPGGA,083226.00,4611.971038,N,01258.219527,E,1,07,1.4,140.31,M,46.25,M,,*63
$GPGLL,4611.971038,N,01258.219527,E,083226.00,A,A*66
$GPVTG,152.7,T,152.9,M,002.4,N,004.4,K,A*2B
$GPGSV,3,1,09,02,37,091,36,04,18,045,42,09,29,148,36,12,65,062,43*7A
$GPGSV,3,2,09,14,34,264,42,25,69,309,47,29,41,217,43,30,24,285,41*76
$GPGSV,3,3,09,31,16,314,40,,,,,,,,,,,,*47
$GPGSA,M,3,04,12,14,25,29,30,31,,,,,,2.4,1.4,1.9*3A
Trace #79 at position 19.500000
$GPZDA,083225.04,09,10,2011,00,00*66
$GPRMC,083225.00,A,4611.971626,N,01258.219192,E,002$GPGGA,083226.00,4611.971038,N,01258.219527,E,1,07,1.4,140.31,M,46.25,M,,*63
$GPGLL,4611.971038,N,01258.219527,E,083226.00,A,A*66
$GPVTG,152.7,T,152.9,M,002.4,N,004.4,K,A*2B
$GPGSV,3,1,09,02,37,091,36,04,18,045,42,09,29,148,36,12,65,062,43*7A
$GPGSV,3,2,09,14,34,264,42,25,69,309,47,29,41,217,43,30,24,285,41*76
$GPGSV,3,3,09,31,16,314,40,,,,,,,,,,,,*47
$GPGSA,M,3,04,12,14,25,29,30,31,,,,,,2.4,1.4,1.9*3A
Trace #80 at position 19.750000
$GPZDA,083226.04,09,10,2011,00,00*65
$GPRMC,083226.00,A,4611.971038,N,01258.219527,E,002.4,152.7,0$GPGGA,083227.00,4611.970501,N,01258.219769,E,1,07,1.4,140.34,M,46.25,M,,*61
$GPGLL,4611.970501,N,01258.219769,E,083227.00,A,A*61
$GPVTG,172.8,T,172.9,M,002.1,N,003.9,K,A*2B
$GPGSV,3,1,09,02,37,091,37,04,18,045,41,09,29,148,37,12,65,062,42*78
$GPGSV,3,2,09,14,34,264,42,25,69,309,46,29,41,217,44,30,24,285,41*70
$GPGSV,3,3,09,31,16,314,41,,,,,,,,,,,,*46
$GPGSA,M,3,04,12,14,25,29,30,31,,,,,,2.4,1.4,1.9*3A
Trace #81 at position 20.000000
$GPZDA,083226.04,09,10,2011,00,00*65
$GPRMC,083226.00,A,4611.971038,N,01258.219527,E,002.4,152.7,0$GPGGA,083227.00,4611.970501,N,01258.219769,E,1,07,1.4,140.34,M,46.25,M,,*61
$GPGLL,4611.970501,N,01258.219769,E,083227.00,A,A*61
$GPVTG,172.8,T,172.9,M,002.1,N,003.9,K,A*2B
$GPGSV,3,1,09,02,37,091,37,04,18,045,41,09,29,148,37,12,65,062,42*78
$GPGSV,3,2,09,14,34,264,42,25,69,309,46,29,41,217,44,30,24,285,41*70
$GPGSV,3,3,09,31,16,314,41,,,,,,,,,,,,*46
$GPGSA,M,3,04,12,14,25,29,30,31,,,,,,2.4,1.4,1.9*3A
Trace #82 at position 20.250000
$GPZDA,083226.04,09,10,2011,00,00*65
$GPRMC,083226.00,A,4611.971038,N,01258.219527,E,002.4,152.7,0$GPGGA,083227.00,4611.970501,N,01258.219769,E,1,07,1.4,140.34,M,46.25,M,,*61
$GPGLL,4611.970501,N,01258.219769,E,083227.00,A,A*61
$GPVTG,172.8,T,172.9,M,002.1,N,003.9,K,A*2B
$GPGSV,3,1,09,02,37,091,37,04,18,045,41,09,29,148,37,12,65,062,42*78
$GPGSV,3,2,09,14,34,264,42,25,69,309,46,29,41,217,44,30,24,285,41*70
$GPGSV,3,3,09,31,16,314,41,,,,,,,,,,,,*46
$GPGSA,M,3,04,12,14,25,29,30,31,,,,,,2.4,1.4,1.9*3A
Trace #83 at position 20.500000
$GPZDA,083226.04,09,10,2011,00,00*65
$GPRMC,083226.00,A,4611.971038,N,01258.219527,E,002.4,152.7,0$GPGGA,083227.00,4611.970501,N,01258.219769,E,1,07,1.4,140.34,M,46.25,M,,*61
$GPGLL,4611.970501,N,01258.219769,E,083227.00,A,A*61
$GPVTG,172.8,T,172.9,M,002.1,N,003.9,K,A*2B
$GPGSV,3,1,09,02,37,091,37,04,18,045,41,09,29,148,37,12,65,062,42*78
$GPGSV,3,2,09,14,34,264,42,25,69,309,46,29,41,217,44,30,24,285,41*70
$GPGSV,3,3,09,31,16,314,41,,,,,,,,,,,,*46
$GPGSA,M,3,04,12,14,25,29,30,31,,,,,,2.4,1.4,1.9*3A
Trace #84 at position 20.750000
$GPZDA,083227.04,09,10,2011,00,00*64
$GPRMC,083227.00,A,4611.970501,N,01258.219769,E,002.1,172.8,0$GPGGA,083228.00,4611.970097,N,01258.219970,E,1,07,1.4,140.39,M,46.25,M,,*6F
$GPGLL,4611.970097,N,01258.219970,E,083228.00,A,A*62
$GPVTG,143.5,T,143.7,M,001.4,N,002.5,K,A*23
$GPGSV,3,1,09,02,37,091,38,04,18,045,42,09,29,148,36,12,65,062,40*77
$GPGSV,3,2,09,14,34,264,42,25,69,309,47,29,41,217,43,30,24,285,41*76
$GPGSV,3,3,09,31,16,314,39,,,,,,,,,,,,*49
$GPGSA,M,3,04,12,14,25,29,30,31,,,,,,2.4,1.4,1.9*3A
Trace #85 at position 21.000000
$GPZDA,083227.04,09,10,2011,00,00*64
$GPRMC,083227.00,A,4611.970501,N,01258.219769,E,002.1,172.8,0$GPGGA,083228.00,4611.970097,N,01258.219970,E,1,07,1.4,140.39,M,46.25,M,,*6F
$GPGLL,4611.970097,N,01258.219970,E,083228.00,A,A*62
$GPVTG,143.5,T,143.7,M,001.4,N,002.5,K,A*23
$GPGSV,3,1,09,02,37,091,38,04,18,045,42,09,29,148,36,12,65,062,40*77
$GPGSV,3,2,09,14,34,264,42,25,69,309,47,29,41,217,43,30,24,285,41*76
$GPGSV,3,3,09,31,16,314,39,,,,,,,,,,,,*49
$GPGSA,M,3,04,12,14,25,29,30,31,,,,,,2.4,1.4,1.9*3A
Trace #86 at position 21.250000
$GPZDA,083227.04,09,10,2011,00,00*64
$GPRMC,083227.00,A,4611.970501,N,01258.219769,E,002.1,172.8,0$GPGGA,083228.00,4611.970097,N,01258.219970,E,1,07,1.4,140.39,M,46.25,M,,*6F
$GPGLL,4611.970097,N,01258.219970,E,083228.00,A,A*62
$GPVTG,143.5,T,143.7,M,001.4,N,002.5,K,A*23
$GPGSV,3,1,09,02,37,091,38,04,18,045,42,09,29,148,36,12,65,062,40*77
$GPGSV,3,2,09,14,34,264,42,25,69,309,47,29,41,217,43,30,24,285,41*76
$GPGSV,3,3,09,31,16,314,39,,,,,,,,,,,,*49
$GPGSA,M,3,04,12,14,25,29,30,31,,,,,,2.4,1.4,1.9*3A
Trace #87 at position 21.500000
$GPZDA,083228.04,09,10,2011,00,00*6B
$GPRMC,083228.00,A,4611.970097,N,01258.219970,E,001.4,143.5,0$GPGGA,083229.00,4611.969767,N,01258.220228,E,1,07,1.4,140.43,M,46.25,M,,*6F
$GPGLL,4611.969767,N,01258.220228,E,083229.00,A,A*6F
$GPVTG,157.7,T,157.8,M,001.6,N,002.9,K,A*20
$GPGSV,3,1,09,02,37,091,38,04,18,045,41,09,29,148,38,12,65,062,40*7A
$GPGSV,3,2,09,14,34,264,42,25,69,309,47,29,41,217,43,30,24,285,40*77
$GPGSV,3,3,09,31,16,314,40,,,,,,,,,,,,*47
$GPGSA,M,3,04,12,14,25,29,30,31,,,,,,2.4,1.4,1.9*3A
Trace #88 at position 21.750000
$GPZDA,083228.04,09,10,2011,00,00*6B
$GPRMC,083228.00,A,4611.970097,N,01258.219970,E,001.4,143.5,0$GPGGA,083229.00,4611.969767,N,01258.220228,E,1,07,1.4,140.43,M,46.25,M,,*6F
$GPGLL,4611.969767,N,01258.220228,E,083229.00,A,A*6F
$GPVTG,157.7,T,157.8,M,001.6,N,002.9,K,A*20
$GPGSV,3,1,09,02,37,091,38,04,18,045,41,09,29,148,38,12,65,062,40*7A
$GPGSV,3,2,09,14,34,264,42,25,69,309,47,29,41,217,43,30,24,285,40*77
$GPGSV,3,3,09,31,16,314,40,,,,,,,,,,,,*47
$GPGSA,M,3,04,12,14,25,29,30,31,,,,,,2.4,1.4,1.9*3A
Trace #89 at position 22.000000
$GPZDA,083229.04,09,10,2011,00,00*6A
$GPRMC,083229.00,A,4611.969767,N,01258.220228,E,001.6,157.7,007,1.4,140.45,M,46.25,M,,*69
$GPGLL,4611.969353,N,01258.220452,E,083230.00,A,A*6F
$GPVTG,157.8,T,158.0,M,001.8,N,003.3,K,A*2D
$GPGSV,3,1,09,02,37,091,38,04,18,045,40,09,29,148,37,12,65,062,41*75
$GPGSV,3,2,09,14,34,264,42,25,69,309,47,29,41,217,43,30,25,285,42*74
$GPGSV,3,3,09,31,16,314,42,,,,,,,,,,,,*45
$GPGSA,M,3,04,12,14,25,29,30,31,,,,,,2.4,1.4,1.9*3A
Trace #90 at position 22.250000
$GPZDA,083229.04,09,10,2011,00,00*6A
$GPRMC,083229.00,A,4611.969767,N,01258.220228,E,001.6,157.7,007,1.4,140.45,M,46.25,M,,*69
$GPGLL,4611.969353,N,01258.220452,E,083230.00,A,A*6F
$GPVTG,157.8,T,158.0,M,001.8,N,003.3,K,A*2D
$GPGSV,3,1,09,02,37,091,38,04,18,045,40,09,29,148,37,12,65,062,41*75
$GPGSV,3,2,09,14,34,264,42,25,69,309,47,29,41,217,43,30,25,285,42*74
$GPGSV,3,3,09,31,16,314,42,,,,,,,,,,,,*45
$GPGSA,M,3,04,12,14,25,29,30,31,,,,,,2.4,1.4,1.9*3A
Trace #91 at position 22.500000
$GPZDA,083229.04,09,10,2011,00,00*6A
$GPRMC,083229.00,A,4611.969767,N,01258.220228,E,001.6,157.7,007,1.4,140.45,M,46.25,M,,*69
$GPGLL,4611.969353,N,01258.220452,E,083230.00,A,A*6F
$GPVTG,157.8,T,158.0,M,001.8,N,003.3,K,A*2D
$GPGSV,3,1,09,02,37,091,38,04,18,045,40,09,29,148,37,12,65,062,41*75
$GPGSV,3,2,09,14,34,264,42,25,69,309,47,29,41,217,43,30,25,285,42*74
$GPGSV,3,3,09,31,16,314,42,,,,,,,,,,,,*45
$GPGSA,M,3,04,12,14,25,29,30,31,,,,,,2.4,1.4,1.9*3A
Trace #92 at position 22.750000
$GPZDA,083230.04,09,10,2011,00,00*62
$GPRMC,083230.00,A,4611.969353,N,01258.220452,E,001.8,157.8,091011,0.2,E,A*3B
$GPGGA,083231.00,4611.968761,N4,E,083231.00,A,A*6B
$GPVTG,176.0,T,176.2,M,002.8,N,005.3,K,A*2D
$GPGSV,3,1,09,02,37,091,38,04,18,045,40,09,29,148,38,12,65,062,42*79
$GPGSV,3,2,09,14,34,264,42,25,69,309,46,29,41,217,43,30,25,285,41*76
$GPGSV,3,3,09,31,16,314,41,,,,,,,,,,,,*46
$GPGSA,M,3,04,12,14,25,29,30,31,,,,,,2.4,1.4,1.9*3A
Trace #93 at position 23.000000
$GPZDA,083230.04,09,10,2011,00,00*62
$GPRMC,083230.00,A,4611.969353,N,01258.220452,E,001.8,157.8,091011,0.2,E,A*3B
$GPGGA,083231.00,4611.968761,N4,E,083231.00,A,A*6B
$GPVTG,176.0,T,176.2,M,002.8,N,005.3,K,A*2D
$GPGSV,3,1,09,02,37,091,38,04,18,045,40,09,29,148,38,12,65,062,42*79
$GPGSV,3,2,09,14,34,264,42,25,69,309,46,29,41,217,43,30,25,285,41*76
$GPGSV,3,3,09,31,16,314,41,,,,,,,,,,,,*46
$GPGSA,M,3,04,12,14,25,29,30,31,,,,,,2.4,1.4,1.9*3A
Trace #94 at position 23.250000
$GPZDA,083230.04,09,10,2011,00,00*62
$GPRMC,083230.00,A,4611.969353,N,01258.220452,E,001.8,157.8,091011,0.2,E,A*3B
$GPGGA,083231.00,4611.968761,N4,E,083231.00,A,A*6B
$GPVTG,176.0,T,176.2,M,002.8,N,005.3,K,A*2D
$GPGSV,3,1,09,02,37,091,38,04,18,045,40,09,29,148,38,12,65,062,42*79
$GPGSV,3,2,09,14,34,264,42,25,69,309,46,29,41,217,43,30,25,285,41*76
$GPGSV,3,3,09,31,16,314,41,,,,,,,,,,,,*46
$GPGSA,M,3,04,12,14,25,29,30,31,,,,,,2.4,1.4,1.9*3A
Trace #95 at position 23.500000
$GPZDA,083231.04,09,10,2011,00,00*63
$GPRMC,083231.00,A,4611.968761,N,01258.220604,E,002.8,176.0,091011,0.2,E,A*37
$GPGGA,083232.00,4611.968147,N,01258.220767,E,1,07,1.4,140.15,M,46.25,M,,*6D
$GPGLL,4611.9604,18,045,39,09,29,148,38,12,65,062,41*79
$GPGSV,3,2,09,14,34,264,42,25,69,309,47,29,41,217,43,30,25,285,41*77
$GPGSV,3,3,09,31,16,314,40,,,,,,,,,,,,*47
$GPGSA,M,3,04,12,14,25,29,30,31,,,,,,2.4,1.4,1.9*3A
Trace #96 at position 23.750000
$GPZDA,083231.04,09,10,2011,00,00*63
$GPRMC,083231.00,A,4611.968761,N,01258.220604,E,002.8,176.0,091011,0.2,E,A*37
$GPGGA,083232.00,4611.968147,N,01258.220767,E,1,07,1.4,140.15,M,46.25,M,,*6D
$GPGLL,4611.9604,18,045,39,09,29,148,38,12,65,062,41*79
$GPGSV,3,2,09,14,34,264,42,25,69,309,47,29,41,217,43,30,25,285,41*77
$GPGSV,3,3,09,31,16,314,40,,,,,,,,,,,,*47
$GPGSA,M,3,04,12,14,25,29,30,31,,,,,,2.4,1.4,1.9*3A
Trace #97 at position 24.000000
$GPZDA,083232.04,09,10,2011,00,00*60
$GPRMC,083232.00,A,4611.968147,N,01258.220767,E,002.0,161.0,091011,0.2,E,A*3C
$GPGGA,083233.00,4611.967710,N,01258.220995,E,1,07,1.4,140.15,M,46.25,M,,*64
$GPGLL,4611.967710,N,01258.220995,E,083233.00,A,A*67
$GPVTG,161.2,T,161.3,M,001.6,N,003.0,K,A*26
$GPGSV,3,,,,2.4,1.4,1.9*3A
$GPZDA,083233.04,09,10,2011,00,00*61
$GPRMC,083233.00,A,4611.967710,N,01258.220995,E,001.6,161.2,091011,0.2,E,A*32
$GPGGA,083234.00,4611.967294,N,01258.221198,E,1,07,1.4,140.17,M,46.25,M,,*6C
$GPGLL,4611.967294,N,01258.221198,E,083234.00,A,A*6D
$GPVTG,162.8,T,162.9,M,001.8,N,003.4,K,A*2C
$GPGSV,3,1,09,02,37,091,38,04,18,045,40,09,29,148,37,12,65,062,43*77
$GPGSV,3,2,09,14,34,264,42,25,69,309,46,29,41,217,42,30,25,285,41*77
$GPGSV,3,3,09,31,16,314,41,,,,,,,,,,,,*46
$GPGSA,M,3,04,12C,083234.00,A,4611.967294,N,01258.221198,E,001.8,162.8,091011,0.2,E,A*3F
Trace #98 at position 24.250000
$GPZDA,083236.04,09,10,2011,00,00*64
$GPRMC,083236.00,A,4611.966839,N,01258.221322,E,001.1,176.2$GPGGA,083237.00,4611.966512,N,01258.221322,E,1,08,1.2,140.80,M,46.25,M,,*63
$GPGLL,4611.966512,N,01258.221322,E,083237.00,A,A*65
$GPVTG,186.1,T,186.3,M,001.3,N,002.3,K,A*22
$GPGSV,3,1,09,02,37,091,40,04,18,045,40,09,29,148,33,12,65,062,42*7D
$GPGSV,3,2,09,14,34,264,42,25,69,309,47,29,42,217,43,30,25,285,40*75
$GPGSV,3,3,09,31,16,314,41,,,,,,,,,,,,*46
$GPGSA,M,3,02,04,12,14,25,29,30,31,,,,,2.2,1.2,1.8*39
Trace #99 at position 24.500000
$GPZDA,083237.04,09,10,2011,00,00*65
$GPRMC,083237.00,A,4611.966512,N,01258.221322,E,001.3,186.1$GPGGA,083238.00,4611.966203,N,01258.221364,E,1,08,1.2,140.72,M,46.25,M,,*64
$GPGLL,4611.966203,N,01258.221364,E,083238.00,A,A*6F
$GPVTG,167.0,T,167.2,M,001.0,N,001.9,K,A*28
$GPGSV,3,1,09,02,37,091,37,04,18,045,40,09,29,148,26,12,65,063,44*7E
$GPGSV,3,2,09,14,34,263,42,25,69,309,46,29,42,217,43,30,25,285,40*73
$GPGSV,3,3,09,31,16,314,42,,,,,,,,,,,,*45
$GPGSA,M,3,02,04,12,14,25,29,30,31,,,,,2.2,1.2,1.8*39
Trace #100 at position 24.750000
$GPZDA,083237.04,09,10,2011,00,00*65
$GPRMC,083237.00,A,4611.966512,N,01258.221322,E,001.3,186.1$GPGGA,083238.00,4611.966203,N,01258.221364,E,1,08,1.2,140.72,M,46.25,M,,*64
$GPGLL,4611.966203,N,01258.221364,E,083238.00,A,A*6F
$GPVTG,167.0,T,167.2,M,001.0,N,001.9,K,A*28
$GPGSV,3,1,09,02,37,091,37,04,18,045,40,09,29,148,26,12,65,063,44*7E
$GPGSV,3,2,09,14,34,263,42,25,69,309,46,29,42,217,43,30,25,285,40*73
$GPGSV,3,3,09,31,16,314,42,,,,,,,,,,,,*45
$GPGSA,M,3,02,04,12,14,25,29,30,31,,,,,2.2,1.2,1.8*39
Trace #101 at position 25.000000
$GPZDA,083237.04,09,10,2011,00,00*65
$GPRMC,083237.00,A,4611.966512,N,01258.221322,E,001.3,186.1$GPGGA,083238.00,4611.966203,N,01258.221364,E,1,08,1.2,140.72,M,46.25,M,,*64
$GPGLL,4611.966203,N,01258.221364,E,083238.00,A,A*6F
$GPVTG,167.0,T,167.2,M,001.0,N,001.9,K,A*28
$GPGSV,3,1,09,02,37,091,37,04,18,045,40,09,29,148,26,12,65,063,44*7E
$GPGSV,3,2,09,14,34,263,42,25,69,309,46,29,42,217,43,30,25,285,40*73
$GPGSV,3,3,09,31,16,314,42,,,,,,,,,,,,*45
$GPGSA,M,3,02,04,12,14,25,29,30,31,,,,,2.2,1.2,1.8*39
Trace #102 at position 25.250000
$GPZDA,083237.04,09,10,2011,00,00*65
$GPRMC,083237.00,A,4611.966512,N,01258.221322,E,001.3,186.1$GPGGA,083238.00,4611.966203,N,01258.221364,E,1,08,1.2,140.72,M,46.25,M,,*64
$GPGLL,4611.966203,N,01258.221364,E,083238.00,A,A*6F
$GPVTG,167.0,T,167.2,M,001.0,N,001.9,K,A*28
$GPGSV,3,1,09,02,37,091,37,04,18,045,40,09,29,148,26,12,65,063,44*7E
$GPGSV,3,2,09,14,34,263,42,25,69,309,46,29,42,217,43,30,25,285,40*73
$GPGSV,3,3,09,31,16,314,42,,,,,,,,,,,,*45
$GPGSA,M,3,02,04,12,14,25,29,30,31,,,,,2.2,1.2,1.8*39
Trace #103 at position 25.500000
$GPZDA,083237.04,09,10,2011,00,00*65
$GPRMC,083237.00,A,4611.966512,N,01258.221322,E,001.3,186.1$GPGGA,083238.00,4611.966203,N,01258.221364,E,1,08,1.2,140.72,M,46.25,M,,*64
$GPGLL,4611.966203,N,01258.221364,E,083238.00,A,A*6F
$GPVTG,167.0,T,167.2,M,001.0,N,001.9,K,A*28
$GPGSV,3,1,09,02,37,091,37,04,18,045,40,09,29,148,26,12,65,063,44*7E
$GPGSV,3,2,09,14,34,263,42,25,69,309,46,29,42,217,43,30,25,285,40*73
$GPGSV,3,3,09,31,16,314,42,,,,,,,,,,,,*45
$GPGSA,M,3,02,04,12,14,25,29,30,31,,,,,2.2,1.2,1.8*39
Trace #104 at position 25.750000
$GPZDA,083238.04,09,10,2011,00,00*6A
$GPRMC,083238.00,A,4611.966203,N,01258.221364,E,001.0,167.0$GPGGA,083239.00,4611.965981,N,01258.221508,E,1,08,1.2,140.67,M,46.25,M,,*6F
$GPGLL,4611.965981,N,01258.221508,E,083239.00,A,A*60
$GPVTG,144.9,T,145.0,M,000.7,N,001.3,K,A*2E
$GPGSV,3,1,09,02,37,091,39,04,18,045,39,09,29,148,,12,65,063,43*7D
$GPGSV,3,2,09,14,34,263,43,25,69,309,43,29,42,217,39,30,25,285,39*74
$GPGSV,3,3,09,31,16,314,41,,,,,,,,,,,,*46
$GPGSA,M,3,02,04,12,14,25,29,30,31,,,,,2.2,1.2,1.8*39
Trace #105 at position 26.000000
$GPZDA,083238.04,09,10,2011,00,00*6A
$GPRMC,083238.00,A,4611.966203,N,01258.221364,E,001.0,167.0$GPGGA,083239.00,4611.965981,N,01258.221508,E,1,08,1.2,140.67,M,46.25,M,,*6F
$GPGLL,4611.965981,N,01258.221508,E,083239.00,A,A*60
$GPVTG,144.9,T,145.0,M,000.7,N,001.3,K,A*2E
$GPGSV,3,1,09,02,37,091,39,04,18,045,39,09,29,148,,12,65,063,43*7D
$GPGSV,3,2,09,14,34,263,43,25,69,309,43,29,42,217,39,30,25,285,39*74
$GPGSV,3,3,09,31,16,314,41,,,,,,,,,,,,*46
$GPGSA,M,3,02,04,12,14,25,29,30,31,,,,,2.2,1.2,1.8*39
Trace #106 at position 26.250000
$GPZDA,083238.04,09,10,2011,00,00*6A
$GPRMC,083238.00,A,4611.966203,N,01258.221364,E,001.0,167.0$GPGGA,083239.00,4611.965981,N,01258.221508,E,1,08,1.2,140.67,M,46.25,M,,*6F
$GPGLL,4611.965981,N,01258.221508,E,083239.00,A,A*60
$GPVTG,144.9,T,145.0,M,000.7,N,001.3,K,A*2E
$GPGSV,3,1,09,02,37,091,39,04,18,045,39,09,29,148,,12,65,063,43*7D
$GPGSV,3,2,09,14,34,263,43,25,69,309,43,29,42,217,39,30,25,285,39*74
$GPGSV,3,3,09,31,16,314,41,,,,,,,,,,,,*46
$GPGSA,M,3,02,04,12,14,25,29,30,31,,,,,2.2,1.2,1.8*39
Trace #107 at position 26.500000
$GPZDA,083238.04,09,10,2011,00,00*6A
$GPRMC,083238.00,A,4611.966203,N,01258.221364,E,001.0,167.0$GPGGA,083239.00,4611.965981,N,01258.221508,E,1,08,1.2,140.67,M,46.25,M,,*6F
$GPGLL,4611.965981,N,01258.221508,E,083239.00,A,A*60
$GPVTG,144.9,T,145.0,M,000.7,N,001.3,K,A*2E
$GPGSV,3,1,09,02,37,091,39,04,18,045,39,09,29,148,,12,65,063,43*7D
$GPGSV,3,2,09,14,34,263,43,25,69,309,43,29,42,217,39,30,25,285,39*74
$GPGSV,3,3,09,31,16,314,41,,,,,,,,,,,,*46
$GPGSA,M,3,02,04,12,14,25,29,30,31,,,,,2.2,1.2,1.8*39
Trace #108 at position 26.750000
$GPZDA,083238.04,09,10,2011,00,00*6A
$GPRMC,083238.00,A,4611.966203,N,01258.221364,E,001.0,167.0$GPGGA,083239.00,4611.965981,N,01258.221508,E,1,08,1.2,140.67,M,46.25,M,,*6F
$GPGLL,4611.965981,N,01258.221508,E,083239.00,A,A*60
$GPVTG,144.9,T,145.0,M,000.7,N,001.3,K,A*2E
$GPGSV,3,1,09,02,37,091,39,04,18,045,39,09,29,148,,12,65,063,43*7D
$GPGSV,3,2,09,14,34,263,43,25,69,309,43,29,42,217,39,30,25,285,39*74
$GPGSV,3,3,09,31,16,314,41,,,,,,,,,,,,*46
$GPGSA,M,3,02,04,12,14,25,29,30,31,,,,,2.2,1.2,1.8*39
Trace #109 at position 27.000000
$GPZDA,083239.04,09,10,2011,00,00*6B
$GPRMC,083239.00,A,4611.965981,N,01258.221508,E,000.7,144.9,0$GPGGA,083240.00,4611.965866,N,01258.221615,E,1,08,1.2,140.67,M,46.25,M,,*66
$GPGLL,4611.965866,N,01258.221615,E,083240.00,A,A*69
$GPVTG,157.8,T,157.9,M,000.2,N,000.4,K,A*24
$GPGSV,3,1,09,02,37,091,39,04,18,045,39,09,29,148,,12,65,063,45*7B
$GPGSV,3,2,09,14,34,263,45,25,69,309,44,29,42,217,39,30,25,285,42*79
$GPGSV,3,3,09,31,16,314,42,,,,,,,,,,,,*45
$GPGSA,M,3,02,04,12,14,25,29,30,31,,,,,2.2,1.2,1.8*39
Trace #110 at position 27.250000
$GPZDA,083239.04,09,10,2011,00,00*6B
$GPRMC,083239.00,A,4611.965981,N,01258.221508,E,000.7,144.9,0$GPGGA,083240.00,4611.965866,N,01258.221615,E,1,08,1.2,140.67,M,46.25,M,,*66
$GPGLL,4611.965866,N,01258.221615,E,083240.00,A,A*69
$GPVTG,157.8,T,157.9,M,000.2,N,000.4,K,A*24
$GPGSV,3,1,09,02,37,091,39,04,18,045,39,09,29,148,,12,65,063,45*7B
$GPGSV,3,2,09,14,34,263,45,25,69,309,44,29,42,217,39,30,25,285,42*79
$GPGSV,3,3,09,31,16,314,42,,,,,,,,,,,,*45
$GPGSA,M,3,02,04,12,14,25,29,30,31,,,,,2.2,1.2,1.8*39
Trace #111 at position 27.500000
