Trace #1 at position 0.000000
$GPZDA,120657.04,06,10,2011,00,00*60
$GPRMC,120657.00,A,4611.946689,N,01258.218589,E,000.7,207.3,061011,0.2,E,A*39
$GPGGA,,,,,,0,03,,,M,,M,,*65
$GPGLL,,,,,,V,N*64
$GPVTG,,T,,,,N,,K,N*61
$GPGSV,3,1,10,05,15,042,28,16,27,308,,31,32,224,39,18,13,151,*7D
$GPGSV,3,2,10,29,46,070,27,30,58,154,39,21,70,174,38,25,19,136,*70
$GPGSV,3,3,10,03,0RMC,120657.00,V,,,,,,,,,,N*7A
$GPGGA,,,,,,0,03,,,M,,M,,*65
$GPGLL,,,,,,V,N*64
$GPVTG,,T,,,,N,,K,N*61
$GPGSV,3,1,10,05,15,042,29,16,27,308,,31,32,224,35,18,13,151,*70
$GPGSV,3,2,10,29,46,070,25,30,58,154,39,21,70,174,35,25,19,136,*7F
$GPGSV,3,3,10,03,08,275,,06,23,274,,,,,,,,,*75
$GPGSA,M,1,,,,,,,,,,,,,9.2,4.7,7.9*3A
Trace #2 at position 0.250000
$GPZDA,120705.03,06,10,2011,00,00*61
$GPRMC,120705.00,A,4611.949219,N,01258.221610,E,000.2,56.3,061011,0.2,E,A*07
$GPGGA,120706.00,4611.949262,N,01258.221643,E,1,04,4.7,120.44,M,46.25,M,,*61
$GPGLL,4611.949262,N,01258.221643,E,120706.00,A,A*65
$GPVTG,353.4,T,353.5,M,000.1,N,000.2,K,A*21
$GPGSV,3,1,10,05,15,042,,16,27,308,,31,32,224,40,18,13,151,*79
$GPGSV,3,2,10,29,46,071,,30,58,154,40,21,70,174,40,25,19,136,*75
$GPGSV,3,3,10,03,08,275,,06,23,274,34,,,,,,,,*72
$GPGSA,M,3,31,30,21,06,,,,,,,,,9.2,4.7,7.9*3C
Trace #3 at position 0.500000
$GPZDA,120706.03,06,10,2011,00,00*62
$GPRMC,120706.00,A,4611.949262,N,01258.221643,E,000.1,353.4,061011,0.2,E,A*3C
$GPGGA,,,,,,0,03,,,M,,M,,*65
$GPGLL,,,,,,V,N*64
$GPVTG,,T,,,,N,,K,N*61
$GPGSV,3,1,10,05,15,042,,16,27,308,,31,32,224,37,18,13,151,*79
$GPGSV,3,2,10,29,46,071,,30,58,154,30,21,70,174,36,25,19,136,*73
$GPGSV,3,3,10,03,08,275,,06,23,274,29,,,,,,,,*7E
$GPGSA,M,1,,,,,,,,,,,,,9.2,4.7,7.9*3A
Trace #4 at position 0.750000
$GPZDA,120706.03,06,10,2011,00,00*62
$GPRMC,120706.00,A,4611.949262,N,01258.221643,E,000.1,353.4,061011,0.2,E,A*3C
$GPGGA,,,,,,0,03,,,M,,M,,*65
$GPGLL,,,,,,V,N*64
$GPVTG,,T,,,,N,,K,N*61
$GPGSV,3,1,10,05,15,042,,16,27,308,,31,32,224,37,18,13,151,*79
$GPGSV,3,2,10,29,46,071,,30,58,154,30,21,70,174,36,25,19,136,*73
$GPGSV,3,3,10,03,08,275,,06,23,274,29,,,,,,,,*7E
$GPGSA,M,1,,,,,,,,,,,,,9.2,4.7,7.9*3A
Trace #5 at position 1.000000
$GPZDA,120707.02,06,10,2011,00,00*62
$GPRMC,120706.00,V,,,,,,,,,,N*7F
$GPGGA,,,,,,0,03,,,M,,M,,*65
$GPGLL,,,,,,V,N*64
$GPVTG,,T,,,,N,,K,N*61
$GPGSV,3,1,10,05,15,042,,16,27,308,,31,32,224,39,18,13,151,*77
$GPGSV,3,2,10,29,46,071,,30,58,154,41,21,70,174,41,25,19,136,*75
$GPGSV,3,3,10,03,08,275,,06,23,274,32,,,,,,,,*74
$GPGSA,M,1,,,,,,,,,,,,,9.2,4.7,7.9*3A
Trace #6 at position 1.250000
$GPZDA,120708.03,06,10,2011,00,00*6C
$GPRMC,120706.00,V,,,,,,,,,,N*7F
$GPGGA,,,,,,0,03,,,M,,M,,*65
$GPGLL,,,,,,V,N*64
$GPVTG,,T,,,,N,,K,N*61
$GPGSV,3,1,10,05,15,042,,16,27,308,,31,32,224,36,18,13,151,*78
$GPGSV,3,2,10,29,46,071,,30,58,154,41,21,70,174,41,25,19,136,*75
$GPGSV,3,3,10,03,08,275,,06,23,274,32,,,,,,,,*74
$GPGSA,M,1,,,,,,,,,,,,,9.2,4.7,7.9*3A
Trace #7 at position 1.500000
$GPZDA,120709.02,06,10,2011,00,00*6C
$GPRMC,120706.00,V,,,,,,,,,,N*7F
$GPGGA,,,,,,0,03,,,M,,M,,*65
$GPGLL,,,,,,V,N*64
$GPVTG,,T,,,,N,,K,N*61
$GPGSV,3,1,10,05,15,042,,16,27,308,,31,32,224,37,18,13,151,*79
$GPGSV,3,2,10,29,46,071,,30,58,154,42,21,70,174,41,25,19,136,*76
$GPGSV,3,3,10,03,08,275,,06,23,274,33,,,,,,,,*75
$GPGSA,M,1,,,,,,,,,,,,,9.2,4.7,7.9*3A
Trace #8 at position 1.750000
$GPZDA,120710.02,06,10,2011,00,00*64
$GPRMC,120706.00,V,,,,,,,,,,N*7F
$GPGGA,,,,,,0,03,,,M,,M,,*65
$GPGLL,,,,,,V,N*64
$GPVTG,,T,,,,N,,K,N*61
$GPGSV,3,1,10,05,15,042,,16,27,308,,31,32,224,37,18,13,151,*79
$GPGSV,3,2,10,29,46,071,,30,58,154,42,21,70,174,41,25,19,136,*76
$GPGSV,3,3,10,03,08,275,,06,23,274,31,,,,,,,,*77
$GPGSA,M,1,,,,,,,,,,,,,9.2,4.7,7.9*3A
Trace #9 at position 2.000000
$GPZDA,120711.02,06,10,2011,00,00*65
$GPRMC,120706.00,V,,,,,,,,,,N*7F
$GPGGA,,,,,,0,03,,,M,,M,,*65
$GPGLL,,,,,,V,N*64
$GPVTG,,T,,,,N,,K,N*61
$GPGSV,3,1,10,05,15,042,37,16,27,308,,31,32,224,35,18,13,151,*7F
$GPGSV,3,2,10,29,46,071,,30,58,154,42,21,70,174,42,25,19,136,*75
$GPGSV,3,3,10,03,08,275,,06,23,274,31,,,,,,,,*77
$GPGSA,M,1,,,,,,,,,,,,,9.2,4.7,7.9*3A
Trace #10 at position 2.250000
$GPZDA,120712.02,06,10,2011,00,00*66
$GPRMC,120706.00,V,,,,,,,,,,N*7F
$GPGGA,120713.00,4611.945743,N,01258.219768,E,1,04,4.7,128.80,M,46.25,M,,*6C
$GPGLL,4611.945743,N,01258.219768,E,120713.00,A,A*68
$GPVTG,324.4,T,324.6,M,000.9,N,001.7,K,A*2E
$GPGSV,3,1,10,05,15,042,38,16,27,308,,31,32,224,40,18,13,151,*72
$GPGSV,3,2,10,29,46,071,36,30,57,154,42,21,70,174,41,25,19,136,*7C
$GPGSV,3,3,10,03,08,275,,06,23,274,32,,,,,,,,*74
$GPGSA,M,3,31,29,30,21,,,,,,,,,6.6,4.7,4.7*37
Trace #11 at position 2.500000
$GPZDA,120713.04,06,10,2011,00,00*61
$GPRMC,120713.00,A,4611.945743,N,01258.219768,E,000.9,324.4,061011,0.2,E,A*39
$GPGGA,,,,,,0,03,,,M,,M,,*65
$GPGLL,,,,,,V,N*64
$GPVTG,,T,,,,N,,K,N*61
$GPGSV,3,1,10,05,15,042,38,16,27,308,,31,32,224,40,18,13,151,*72
$GPGSV,3,2,10,29,46,071,37,30,57,154,43,21,70,174,41,25,19,136,*7C
$GPGSV,3,3,10,03,08,275,,06,23,274,32,,,,,,,,*74
$GPGSA,M,1,,,,,,,,,,,,,6.6,4.7,4.7*3C
Trace #12 at position 2.750000
$GPZDA,120713.04,06,10,2011,00,00*61
$GPRMC,120713.00,A,4611.945743,N,01258.219768,E,000.9,324.4,061011,0.2,E,A*39
$GPGGA,,,,,,0,03,,,M,,M,,*65
$GPGLL,,,,,,V,N*64
$GPVTG,,T,,,,N,,K,N*61
$GPGSV,3,1,10,05,15,042,38,16,27,308,,31,32,224,40,18,13,151,*72
$GPGSV,3,2,10,29,46,071,37,30,57,154,43,21,70,174,41,25,19,136,*7C
$GPGSV,3,3,10,03,08,275,,06,23,274,32,,,,,,,,*74
$GPGSA,M,1,,,,,,,,,,,,,6.6,4.7,4.7*3C
Trace #13 at position 3.000000
$GPZDA,120714.02,06,10,2011,00,00*60
$GPRMC,120713.00,V,,,,,,,,,,N*7B
$GPGGA,120715.00,4611.946236,N,01258.219511,E,1,04,4.7,128.58,M,46.25,M,,*67
$GPGLL,4611.946236,N,01258.219511,E,120715.00,A,A*66
$GPVTG,333.4,T,333.5,M,001.2,N,002.2,K,A*21
$GPGSV,3,1,10,05,15,042,38,16,27,308,,31,32,224,33,18,13,151,*76
$GPGSV,3,2,10,29,46,071,37,30,57,154,41,21,70,174,41,25,19,136,*7E
$GPGSV,3,3,10,03,08,275,,06,23,274,29,,,,,,,,*7E
$GPGSA,M,3,31,29,30,21,,,,,,,,,6.6,4.7,4.7*37
Trace #14 at position 3.250000
$GPZDA,120715.03,06,10,2011,00,00*60
$GPRMC,120715.00,A,4611.946236,N,01258.219511,E,001.2,333.4,061011,0.2,E,A*3B
$GPGGA,120716.00,4611.946443,N,01258.219379,E,1,05,4.5,128.04,M,46.25,M,,*62
$GPGLL,4611.946443,N,01258.219379,E,120716.00,A,A*69
$GPVTG,294.4,T,294.6,M,000.3,N,000.6,K,A*24
$GPGSV,3,1,10,05,15,042,39,16,27,308,,31,32,224,31,18,13,151,*75
$GPGSV,3,2,10,29,46,071,37,30,57,154,42,21,70,174,41,25,19,136,*7D
$GPGSV,3,3,10,03,08,275,,06,23,274,33,,,,,,,,*75
$GPGSA,M,3,05,31,29,30,21,,,,,,,,6.1,4.5,4.1*31
Trace #15 at position 3.500000
$GPZDA,120727.04,06,10,2011,00,00*66
$GPRMC,120727.00,A,4611.948237,N,01258.217456,E,000.1,308.1,061011,0.2,E,A*36
$GPGGA,120728.00,4611.948553,N,01258.217139,E,1,07,1.4,130.27,M,46.25,M,,*67
$GPGLL,4611.948553,N,01258.217139,E,120728.00,A,A*62
$GPVTG,36.5,T,36.6,M,000.1,N,000.1,K,A*20
$GPGSV,3,1,10,05,15,042,39,16,27,308,35,31,32,224,39,18,13,150,*7A
$GPGSV,3,2,10,29,46,071,39,30,57,154,43,21,70,174,42,25,19,136,*71
$GPGSV,3,3,10,03,08,275,30,06,24,274,36,,,,,,,,*74
$GPGSA,M,3,05,16,31,29,30,21,06,,,,,,2.9,1.4,2.5*3A
Trace #16 at position 3.750000
$GPZDA,120728.04,06,10,2011,00,00*69
$GPRMC,120728.00,A,4611.948553,N,01258.217139,E,000.1,36.5,061011,0.2,E,A*0A
$GPGGA,120729.00,4611.948603,N,01258.217064,E,1,06,2.1,130.31,M,46.25,M,,*69
$GPGLL,4611.948603,N,01258.217064,E,120729.00,A,A*6C
$GPVTG,172.1,T,172.3,M,000.1,N,000.1,K,A*21
$GPGSV,3,1,10,05,15,042,39,16,27,308,34,31,32,224,39,18,13,150,*7B
$GPGSV,3,2,10,29,46,071,38,30,57,154,42,21,70,174,42,25,19,136,*71
$GPGSV,3,3,10,03,08,275,31,06,24,274,37,,,,,,,,*74
$GPGSA,M,3,05,31,29,30,21,06,,,,,,,3.7,2.1,3.0*30
Trace #17 at position 4.000000
$GPZDA,120728.04,06,10,2011,00,00*69
$GPRMC,120728.00,A,4611.948553,N,01258.217139,E,000.1,36.5,061011,0.2,E,A*0A
$GPGGA,120729.00,4611.948603,N,01258.217064,E,1,06,2.1,130.31,M,46.25,M,,*69
$GPGLL,4611.948603,N,01258.217064,E,120729.00,A,A*6C
$GPVTG,172.1,T,172.3,M,000.1,N,000.1,K,A*21
$GPGSV,3,1,10,05,15,042,39,16,27,308,34,31,32,224,39,18,13,150,*7B
$GPGSV,3,2,10,29,46,071,38,30,57,154,42,21,70,174,42,25,19,136,*71
$GPGSV,3,3,10,03,08,275,31,06,24,274,37,,,,,,,,*74
$GPGSA,M,3,05,31,29,30,21,06,,,,,,,3.7,2.1,3.0*30
Trace #18 at position 4.250000
$GPZDA,120729.04,06,10,2011,00,00*68
$GPRMC,120729.00,A,4611.948603,N,01258.217064,E,000.1,172.1,061011,0.2,E,A*31
$GPGGA,120730.00,4611.948892,N,01258.216763,E,1,07,1.4,130.89,M,46.25,M,,*62
$GPGLL,4611.948892,N,01258.216763,E,120730.00,A,A*63
$GPVTG,330.6,T,330.8,M,000.2,N,000.3,K,A*2C
$GPGSV,3,1,10,05,15,042,37,16,27,308,35,31,32,224,37,18,13,150,*7A
$GPGSV,3,2,10,29,46,071,39,30,57,154,44,21,70,174,42,25,19,136,*76
$GPGSV,3,3,10,03,08,275,31,06,24,274,36,,,,,,,,*75
$GPGSA,M,3,05,16,31,29,30,21,06,,,,,,2.9,1.4,2.5*3A
Trace #19 at position 4.500000
$GPZDA,120730.04,06,10,2011,00,00*60
$GPRMC,120730.00,A,4611.948892,N,01258.216763,E,000.2,330.6,061011,0.2,E,A*3E
$GPGGA,120731.00,4611.949111,N,01258.216429,E,1,06,1.5,131.18,M,46.25,M,,*64
$GPGLL,4611.949111,N,01258.216429,E,120731.00,A,A*6C
$GPVTG,190.4,T,190.6,M,000.3,N,000.6,K,A*24
$GPGSV,3,1,10,05,15,042,39,16,27,308,37,31,32,224,30,18,13,150,*71
$GPGSV,3,2,10,29,46,071,39,30,57,155,44,21,70,174,42,25,19,136,*77
$GPGSV,3,3,10,03,08,275,25,06,24,274,28,,,,,,,,*7F
$GPGSA,M,3,05,16,31,29,30,21,,,,,,,3.0,1.5,2.6*36
Trace #20 at position 4.750000
$GPZDA,120731.04,06,10,2011,00,00*61
$GPRMC,120731.00,A,4611.949111,N,01258.216429,E,000.3,190.4,061011,0.2,E,A*3A
$GPGGA,120732.00,4611.948807,N,01258.216766,E,1,05,4.5,130.69,M,46.25,M,,*61
$GPGLL,4611.948807,N,01258.216766,E,120732.00,A,A*68
$GPVTG,100.9,T,101.1,M,000.1,N,000.1,K,A*2A
$GPGSV,3,1,10,05,15,042,37,16,27,308,27,31,32,224,36,18,13,150,*78
$GPGSV,3,2,10,29,46,071,38,30,57,155,44,21,70,174,42,25,19,136,*76
$GPGSV,3,3,10,03,08,275,,06,24,274,33,,,,,,,,*72
$GPGSA,M,3,05,31,29,30,21,,,,,,,,6.0,4.5,4.0*31
Trace #21 at position 5.000000
$GPZDA,120731.04,06,10,2011,00,00*61
$GPRMC,120731.00,A,4611.949111,N,01258.216429,E,000.3,190.4,061011,0.2,E,A*3A
$GPGGA,120732.00,4611.948807,N,01258.216766,E,1,05,4.5,130.69,M,46.25,M,,*61
$GPGLL,4611.948807,N,01258.216766,E,120732.00,A,A*68
$GPVTG,100.9,T,101.1,M,000.1,N,000.1,K,A*2A
$GPGSV,3,1,10,05,15,042,37,16,27,308,27,31,32,224,36,18,13,150,*78
$GPGSV,3,2,10,29,46,071,38,30,57,155,44,21,70,174,42,25,19,136,*76
$GPGSV,3,3,10,03,08,275,,06,24,274,33,,,,,,,,*72
$GPGSA,M,3,05,31,29,30,21,,,,,,,,6.0,4.5,4.0*31
Trace #22 at position 5.250000
$GPZDA,120732.04,06,10,2011,00,00*62
$GPRMC,120732.00,A,4611.948807,N,01258.216766,E,000.1,100.9,061011,0.2,E,A*38
$GPGGA,120733.00,4611.948838,N,01258.216717,E,1,06,2.1,130.78,M,46.25,M,,*6B
$GPGLL,4611.948838,N,01258.216717,E,120733.00,A,A*63
$GPVTG,327.2,T,327.4,M,000.1,N,000.2,K,A*26
$GPGSV,3,1,10,05,15,042,37,16,27,308,,31,32,224,37,18,13,150,*7C
$GPGSV,3,2,10,29,46,071,38,30,57,155,44,21,70,174,42,25,19,136,*76
$GPGSV,3,3,10,03,08,275,,06,24,274,35,,,,,,,,*74
$GPGSA,M,3,05,31,29,30,21,06,,,,,,,3.7,2.1,3.0*30
Trace #23 at position 5.500000
$GPZDA,120732.04,06,10,2011,00,00*62
$GPRMC,120732.00,A,4611.948807,N,01258.216766,E,000.1,100.9,061011,0.2,E,A*38
$GPGGA,120733.00,4611.948838,N,01258.216717,E,1,06,2.1,130.78,M,46.25,M,,*6B
$GPGLL,4611.948838,N,01258.216717,E,120733.00,A,A*63
$GPVTG,327.2,T,327.4,M,000.1,N,000.2,K,A*26
$GPGSV,3,1,10,05,15,042,37,16,27,308,,31,32,224,37,18,13,150,*7C
$GPGSV,3,2,10,29,46,071,38,30,57,155,44,21,70,174,42,25,19,136,*76
$GPGSV,3,3,10,03,08,275,,06,24,274,35,,,,,,,,*74
$GPGSA,M,3,05,31,29,30,21,06,,,,,,,3.7,2.1,3.0*30
Trace #24 at position 5.750000
$GPZDA,120733.04,06,10,2011,00,00*63
$GPRMC,120733.00,A,4611.948838,N,01258.216717,E,000.1,327.2,061011,0.2,E,A*3F
$GPGGA,120734.00,4611.948984,N,01258.216650,E,1,06,2.1,130.88,M,46.25,M,,*67
$GPGLL,4611.948984,N,01258.216650,E,120734.00,A,A*60
$GPVTG,357.2,T,357.4,M,000.8,N,001.6,K,A*2A
$GPGSV,3,1,10,05,15,042,38,16,27,308,,31,32,224,37,18,13,150,*73
$GPGSV,3,2,10,29,46,071,39,30,57,155,42,21,70,174,40,25,19,136,*73
$GPGSV,3,3,10,03,08,275,31,06,24,274,34,,,,,,,,*77
$GPGSA,M,3,05,31,29,30,21,06,,,,,,,3.7,2.1,3.0*30
Trace #25 at position 6.000000
$GPZDA,120734.04,06,10,2011,00,00*64
$GPRMC,120734.00,A,4611.948984,N,01258.21$GPGGA,120735.00,4611.949229,N,01258.216598,E,1,06,2.1,130.96,M,46.25,M,,*63
$GPGLL,4611.949229,N,01258.216598,E,120735.00,A,A*6B
$GPVTG,358.0,T,358.2,M,000.9,N,001.7,K,A*2E
$GPGSV,3,1,10,05,15,042,39,16,27,308,,31,32,224,37,18,13,150,*72
$GPGSV,3,2,10,29,46,071,38,30,57,155,42,21,70,174,40,25,19,136,*72
$GPGSV,3,3,10,03,08,275,29,06,24,274,32,,,,,,,,*78
$GPGSA,M,3,05,31,29,30,21,06,,,,,,,3.7,2.1,3.0*30
Trace #26 at position 6.250000
$GPZDA,120734.04,06,10,2011,00,00*64
$GPRMC,120734.00,A,4611.948984,N,01258.21$GPGGA,120735.00,4611.949229,N,01258.216598,E,1,06,2.1,130.96,M,46.25,M,,*63
$GPGLL,4611.949229,N,01258.216598,E,120735.00,A,A*6B
$GPVTG,358.0,T,358.2,M,000.9,N,001.7,K,A*2E
$GPGSV,3,1,10,05,15,042,39,16,27,308,,31,32,224,37,18,13,150,*72
$GPGSV,3,2,10,29,46,071,38,30,57,155,42,21,70,174,40,25,19,136,*72
$GPGSV,3,3,10,03,08,275,29,06,24,274,32,,,,,,,,*78
$GPGSA,M,3,05,31,29,30,21,06,,,,,,,3.7,2.1,3.0*30
Trace #27 at position 6.500000
$GPZDA,120735.04,06,10,2011,00,00*65
$GPRMC,120735.00,A,4611.949229,N,01258.216598,E,000.9,358.0,$GPGGA,120736.00,4611.949205,N,01258.216848,E,1,05,4.5,130.74,M,46.25,M,,*63
$GPGLL,4611.949205,N,01258.216848,E,120736.00,A,A*66
$GPVTG,340.0,T,340.1,M,000.7,N,001.3,K,A*27
$GPGSV,3,1,10,05,15,042,39,16,27,308,,31,32,224,37,18,13,150,*72
$GPGSV,3,2,10,29,46,071,39,30,57,155,41,21,70,174,41,25,19,136,*71
$GPGSV,3,3,10,03,08,275,,06,24,274,27,,,,,,,,*77
$GPGSA,M,3,05,31,29,30,21,,,,,,,,6.0,4.5,4.0*31
Trace #28 at position 6.750000
$GPZDA,120735.04,06,10,2011,00,00*65
$GPRMC,120735.00,A,4611.949229,N,01258.216598,E,000.9,358.0,$GPGGA,120736.00,4611.949205,N,01258.216848,E,1,05,4.5,130.74,M,46.25,M,,*63
$GPGLL,4611.949205,N,01258.216848,E,120736.00,A,A*66
$GPVTG,340.0,T,340.1,M,000.7,N,001.3,K,A*27
$GPGSV,3,1,10,05,15,042,39,16,27,308,,31,32,224,37,18,13,150,*72
$GPGSV,3,2,10,29,46,071,39,30,57,155,41,21,70,174,41,25,19,136,*71
$GPGSV,3,3,10,03,08,275,,06,24,274,27,,,,,,,,*77
$GPGSA,M,3,05,31,29,30,21,,,,,,,,6.0,4.5,4.0*31
Trace #29 at position 7.000000
$GPZDA,120736.03,06,10,2011,00,00*61
$GPRMC,120736.00,A,4611.949205,N,01258.216848,E,000.7,340.0,0610$GPGGA,120737.00,4611.949102,N,01258.216997,E,1,05,4.5,130.52,M,46.25,M,,*61
$GPGLL,4611.949102,N,01258.216997,E,120737.00,A,A*60
$GPVTG,293.6,T,293.8,M,000.4,N,000.8,K,A*21
$GPGSV,3,1,10,05,15,042,40,16,27,308,,31,32,224,40,18,14,150,*7B
$GPGSV,3,2,10,29,46,071,39,30,57,155,41,21,70,174,41,25,19,136,*71
$GPGSV,3,3,10,03,08,275,,06,24,274,,,,,,,,,*72
$GPGSA,M,3,05,31,29,30,21,,,,,,,,6.0,4.5,4.0*31
Trace #30 at position 7.250000
$GPZDA,120736.03,06,10,2011,00,00*61
$GPRMC,120736.00,A,4611.949205,N,01258.216848,E,000.7,340.0,0610$GPGGA,120737.00,4611.949102,N,01258.216997,E,1,05,4.5,130.52,M,46.25,M,,*61
$GPGLL,4611.949102,N,01258.216997,E,120737.00,A,A*60
$GPVTG,293.6,T,293.8,M,000.4,N,000.8,K,A*21
$GPGSV,3,1,10,05,15,042,40,16,27,308,,31,32,224,40,18,14,150,*7B
$GPGSV,3,2,10,29,46,071,39,30,57,155,41,21,70,174,41,25,19,136,*71
$GPGSV,3,3,10,03,08,275,,06,24,274,,,,,,,,,*72
$GPGSA,M,3,05,31,29,30,21,,,,,,,,6.0,4.5,4.0*31
Trace #31 at position 7.500000
$GPZDA,120737.03,06,10,2011,00,00*60
$GPRMC,120737.00,A,4611.949102,N,01258.216997,E,000.4,293.6,061011$GPGGA,120738.00,4611.949003,N,01258.217167,E,1,05,4.5,130.28,M,46.25,M,,*65
$GPGLL,4611.949003,N,01258.217167,E,120738.00,A,A*69
$GPVTG,1.8,T,1.9,M,000.4,N,000.8,K,A*2E
$GPGSV,3,1,10,05,15,042,39,16,27,308,,31,32,224,39,18,14,150,*7B
$GPGSV,3,2,10,29,46,071,39,30,57,155,41,21,70,174,41,25,19,136,*71
$GPGSV,3,3,10,03,08,275,,06,24,274,32,,,,,,,,*73
$GPGSA,M,3,05,31,29,30,21,,,,,,,,6.0,4.5,4.0*31
Trace #32 at position 7.750000
$GPZDA,120737.03,06,10,2011,00,00*60
$GPRMC,120737.00,A,4611.949102,N,01258.216997,E,000.4,293.6,061011$GPGGA,120738.00,4611.949003,N,01258.217167,E,1,05,4.5,130.28,M,46.25,M,,*65
$GPGLL,4611.949003,N,01258.217167,E,120738.00,A,A*69
$GPVTG,1.8,T,1.9,M,000.4,N,000.8,K,A*2E
$GPGSV,3,1,10,05,15,042,39,16,27,308,,31,32,224,39,18,14,150,*7B
$GPGSV,3,2,10,29,46,071,39,30,57,155,41,21,70,174,41,25,19,136,*71
$GPGSV,3,3,10,03,08,275,,06,24,274,32,,,,,,,,*73
$GPGSA,M,3,05,31,29,30,21,,,,,,,,6.0,4.5,4.0*31
Trace #33 at position 8.000000
$GPZDA,120738.04,06,10,2011,00,00*68
$GPRMC,120738.00,A,4611.949003,N,01258.217167,E,000.4,1.8,061011,0.2$GPGGA,120739.00,4611.949063,N,01258.217297,E,1,05,4.5,130.12,M,46.25,M,,*67
$GPGLL,4611.949063,N,01258.217297,E,120739.00,A,A*62
$GPVTG,340.2,T,340.3,M,001.2,N,002.2,K,A*21
$GPGSV,3,1,10,05,15,042,39,16,27,308,,31,32,224,40,18,14,150,*75
$GPGSV,3,2,10,29,46,071,39,30,57,155,42,21,70,174,41,25,19,136,*72
$GPGSV,3,3,10,03,08,275,,06,24,274,32,,,,,,,,*73
$GPGSA,M,3,05,31,29,30,21,,,,,,,,6.0,4.5,4.0*31
Trace #34 at position 8.250000
$GPZDA,120739.03,06,10,2011,00,00*6E
$GPRMC,120739.00,A,4611.949063,N,01258.217297,E,001.2,340.2,0610$GPGGA,120740.00,4611.949131,N,01258.217318,E,1,05,4.5,130.06,M,46.25,M,,*6C
$GPGLL,4611.949131,N,01258.217318,E,120740.00,A,A*6C
$GPVTG,310.5,T,310.6,M,000.6,N,001.1,K,A*26
$GPGSV,3,1,10,05,15,042,39,16,27,308,,31,32,224,40,18,14,150,*75
$GPGSV,3,2,10,29,46,071,38,30,57,155,43,21,70,174,40,25,19,136,*73
$GPGSV,3,3,10,03,08,275,,06,24,274,32,,,,,,,,*73
$GPGSA,M,3,05,31,29,30,21,,,,,,,,6.0,4.5,4.0*31
Trace #35 at position 8.500000
$GPZDA,120739.03,06,10,2011,00,00*6E
$GPRMC,120739.00,A,4611.949063,N,01258.217297,E,001.2,340.2,0610$GPGGA,120740.00,4611.949131,N,01258.217318,E,1,05,4.5,130.06,M,46.25,M,,*6C
$GPGLL,4611.949131,N,01258.217318,E,120740.00,A,A*6C
$GPVTG,310.5,T,310.6,M,000.6,N,001.1,K,A*26
$GPGSV,3,1,10,05,15,042,39,16,27,308,,31,32,224,40,18,14,150,*75
$GPGSV,3,2,10,29,46,071,38,30,57,155,43,21,70,174,40,25,19,136,*73
$GPGSV,3,3,10,03,08,275,,06,24,274,32,,,,,,,,*73
$GPGSA,M,3,05,31,29,30,21,,,,,,,,6.0,4.5,4.0*31
Trace #36 at position 8.750000
$GPZDA,120740.03,06,10,2011,00,00*60
$GPRMC,120740.00,A,4611.949131,N,01258.217318,E,000.6,310.5,06101258.217389,E,1,05,4.5,129.90,M,46.25,M,,*61
$GPGLL,4611.949145,N,01258.217389,E,120741.00,A,A*66
$GPVTG,351.4,T,351.5,M,000.6,N,001.2,K,A*27
$GPGSV,3,1,10,05,15,042,40,16,27,308,,31,32,224,41,18,14,150,*7A
$GPGSV,3,2,10,29,46,071,39,30,57,155,42,21,70,174,41,25,19,136,*72
$GPGSV,3,3,10,03,08,275,,06,24,274,33,,,,,,,,*72
$GPGSA,M,3,05,31,29,30,21,,,,,,,,6.0,4.5,4.0*31
Trace #37 at position 9.000000
$GPZDA,120740.03,06,10,2011,00,00*60
$GPRMC,120740.00,A,4611.949131,N,01258.217318,E,000.6,310.5,06101258.217389,E,1,05,4.5,129.90,M,46.25,M,,*61
$GPGLL,4611.949145,N,01258.217389,E,120741.00,A,A*66
$GPVTG,351.4,T,351.5,M,000.6,N,001.2,K,A*27
$GPGSV,3,1,10,05,15,042,40,16,27,308,,31,32,224,41,18,14,150,*7A
$GPGSV,3,2,10,29,46,071,39,30,57,155,42,21,70,174,41,25,19,136,*72
$GPGSV,3,3,10,03,08,275,,06,24,274,33,,,,,,,,*72
$GPGSA,M,3,05,31,29,30,21,,,,,,,,6.0,4.5,4.0*31
Trace #38 at position 9.250000
$GPZDA,120741.03,06,10,2011,00,00*61
$GPRMC,120741.00,A,4611.949145,N,01258.217389,E,000.6,351.4,061011,0.2,E,A*3A
$GPGGA,120742.00,T,332.7,M,001.3,N,002.4,K,A*25
$GPGSV,3,1,10,05,15,042,40,16,27,308,,31,32,224,39,18,14,150,*75
$GPGSV,3,2,10,29,46,071,38,30,57,155,42,21,70,174,41,25,19,136,*73
$GPGSV,3,3,10,03,08,275,,06,24,274,32,,,,,,,,*73
$GPGSA,M,3,05,31,29,30,21,,,,,,,,6.0,4.5,4.0*31
Trace #39 at position 9.500000
$GPZDA,120741.03,06,10,2011,00,00*61
$GPRMC,120741.00,A,4611.949145,N,01258.217389,E,000.6,351.4,061011,0.2,E,A*3A
$GPGGA,120742.00,T,332.7,M,001.3,N,002.4,K,A*25
$GPGSV,3,1,10,05,15,042,40,16,27,308,,31,32,224,39,18,14,150,*75
$GPGSV,3,2,10,29,46,071,38,30,57,155,42,21,70,174,41,25,19,136,*73
$GPGSV,3,3,10,03,08,275,,06,24,274,32,,,,,,,,*73
$GPGSA,M,3,05,31,29,30,21,,,,,,,,6.0,4.5,4.0*31
Trace #40 at position 9.750000
$GPZDA,120742.03,06,10,2011,00,00*62
$GPRMC,120742.00,A,4611.949275,N,01258.217413,E,001.3,332.5,061011,0.2,E,A*3D
$GPGGA,120743.00,4611.949440,N,01258.217330,E,1,05,4.4,129.63,M,46.25,M,,*6C
$GPGLL,4611.949440,N,01258.217330,E,120743.00,A,A*6615,042,39,16,27,308,,31,32,224,40,18,14,150,*75
$GPGSV,3,2,10,29,46,071,38,30,57,155,43,21,70,174,40,25,19,136,*73
$GPGSV,3,3,10,03,08,275,,06,24,274,33,,,,,,,,*72
$GPGSA,M,3,05,31,29,30,21,,,,,,,,6.0,4.4,4.0*30
Trace #41 at position 10.000000
$GPZDA,120743.03,06,10,2011,00,00*63
$GPRMC,120743.00,A,4611.949440,N,01258.217330,E,001.0,322.6,061011,0.2,E,A*3B
$GPGGA,120744.00,4611.949604,N,01258.217311,E,1,05,4.4,129.43,M,46.25,M,,*68
$GPGLL,4611.949604,N,01258.217311,E,120744.00,A,A*60
$GPVTG,347.7,T,347.8,M,001.1,N,002.1,K,A*2F
$G4,42,25,19,136,*71
$GPGSV,3,3,10,03,08,275,,06,24,274,,,,,,,,,*72
$GPGSA,M,3,05,31,29,30,21,,,,,,,,6.0,4.4,4.0*30
Trace #42 at position 10.250000
$GPZDA,120743.03,06,10,2011,00,00*63
$GPRMC,120743.00,A,4611.949440,N,01258.217330,E,001.0,322.6,061011,0.2,E,A*3B
$GPGGA,120744.00,4611.949604,N,01258.217311,E,1,05,4.4,129.43,M,46.25,M,,*68
$GPGLL,4611.949604,N,01258.217311,E,120744.00,A,A*60
$GPVTG,347.7,T,347.8,M,001.1,N,002.1,K,A*2F
$G4,42,25,19,136,*71
$GPGSV,3,3,10,03,08,275,,06,24,274,,,,,,,,,*72
$GPGSA,M,3,05,31,29,30,21,,,,,,,,6.0,4.4,4.0*30
Trace #43 at position 10.500000
$GPZDA,120744.03,06,10,2011,00,00*64
$GPRMC,120744.00,A,4611.949604,N,01258.217311,E,001.1,347.7,061011,0.2,E,A*3E
$GPGGA,120745.00,4611.949799,N,01258.217292,E,1,05,4.4,129.30,M,46.25,M,,*62
$GPGLL,4611.949799,N,01258.217292,E,120745.00,A,A*6E
$GPVTG,330.4,T,330.6,M,001.1,N,002.1,K,A*22
$GPGSV,3,1,10,05,15,042,38,16,27,308,,31,32,224,40,18,14,150,*74
$GPGSV,3,2,10,29,46,071,40,30,57,15274,32,,,,,,,,*73
$GPGSA,M,3,05,31,29,30,21,,,,,,,,6.0,4.4,4.0*30
Trace #44 at position 10.750000
$GPZDA,120744.03,06,10,2011,00,00*64
$GPRMC,120744.00,A,4611.949604,N,01258.217311,E,001.1,347.7,061011,0.2,E,A*3E
$GPGGA,120745.00,4611.949799,N,01258.217292,E,1,05,4.4,129.30,M,46.25,M,,*62
$GPGLL,4611.949799,N,01258.217292,E,120745.00,A,A*6E
$GPVTG,330.4,T,330.6,M,001.1,N,002.1,K,A*22
$GPGSV,3,1,10,05,15,042,38,16,27,308,,31,32,224,40,18,14,150,*74
$GPGSV,3,2,10,29,46,071,40,30,57,15274,32,,,,,,,,*73
$GPGSA,M,3,05,31,29,30,21,,,,,,,,6.0,4.4,4.0*30
Trace #45 at position 11.000000
$GPZDA,120744.03,06,10,2011,00,00*64
$GPRMC,120744.00,A,4611.949604,N,01258.217311,E,001.1,347.7,061011,0.2,E,A*3E
$GPGGA,120745.00,4611.949799,N,01258.217292,E,1,05,4.4,129.30,M,46.25,M,,*62
$GPGLL,4611.949799,N,01258.217292,E,120745.00,A,A*6E
$GPVTG,330.4,T,330.6,M,001.1,N,002.1,K,A*22
$GPGSV,3,1,10,05,15,042,38,16,27,308,,31,32,224,40,18,14,150,*74
$GPGSV,3,2,10,29,46,071,40,30,57,15274,32,,,,,,,,*73
$GPGSA,M,3,05,31,29,30,21,,,,,,,,6.0,4.4,4.0*30
Trace #46 at position 11.250000
$GPZDA,120745.03,06,10,2011,00,00*65
$GPRMC,120745.00,A,4611.949799,N,01258.217292,E,001.1,330.4,061011,0.2,E,A*33
$GPGGA,120746.00,4611.949931,N,01258.217300,E,1,05,4.4,129.19,M,46.25,M,,*6C
$GPGLL,4611.949931,N,01258.217300,E,120746.00,A,A*6B
$GPVTG,353.3,T,353.5,M,000.6,N,001.1,K,A*23
$GPGSV,3,1,10,05,15,042,39,16,27,308,,31,32,224,38,18,14,150,*7A
$GPGSV,3,2,10,29,46,071,39,30,57,155,42,21,70,174,41,25,19,136,*72
$GPGSV,3,3,10,030
$GPZDA,120746.03,06,10,2011,00,00*66
$GPRMC,120746.00,A,4611.949931,N,01258.217300,E,000.6,353.3,061011,0.2,E,A*32
$GPGGA,120747.00,4611.950041,N,01258.217338,E,1,05,4.4,129.08,M,46.25,M,,*60
$GPGLL,4611.950041,N,01258.217338,E,120747.00,A,A*67
$GPVTG,337.3,T,337.4,M,000.8,N,001.5,K,A*28
$GPGSV,3,1,10,05,15,042,39,16,27,308,,31,32,224,38,18,14,150,*7A
$GPGSV,3,2,10,29,46,071,39,30,57,155,42,21,70,174,41,25,19,136,*72
$GPGSV,3,3,10,03,08,275,,06,24,274,31,,,,,,,,*70
$GPGSA,M,3,05,31,29,30,21,,,,,,20747.00,A,4611.950041,N,01258.217338,E,000.8,337.3,061011,0.2,E,A*32
Trace #47 at position 11.500000
$GPGGA,120748.00,4611.950203,N,01258.217273,E,1,05,4.4,129.10,M,46.25,M,,*6C
$GPGLL,4611.950203,N,01258.217273,E,120748.00,A,A*62
$GPVTG,326.9,T,327.0,M,001.0,N,001.9,K,A*22
$GPGSV,3,1,10,05,15,042,40,16,27,308,,31,32,224,40,18,14,150,*7B
$GPGSV,3,2,10,29,46,071,39,30,57,155,42,21,70,174,41,25,19,136,*72
$GPGSV,3,3,10,03,08,275,,06,24,274,33,,,,,,,,*72
$GPGSA,M,3,05,31,29,30,21,,,,,,,,5.9,4.4,4.0*3A
Trace #48 at position 11.750000
$GPGGA,120748.00,4611.950203,N,01258.217273,E,1,05,4.4,129.10,M,46.25,M,,*6C
$GPGLL,4611.950203,N,01258.217273,E,120748.00,A,A*62
$GPVTG,326.9,T,327.0,M,001.0,N,001.9,K,A*22
$GPGSV,3,1,10,05,15,042,40,16,27,308,,31,32,224,40,18,14,150,*7B
$GPGSV,3,2,10,29,46,071,39,30,57,155,42,21,70,174,41,25,19,136,*72
$GPGSV,3,3,10,03,08,275,,06,24,274,33,,,,,,,,*72
$GPGSA,M,3,05,31,29,30,21,,,,,,,,5.9,4.4,4.0*3A
Trace #49 at position 12.000000
$GPZDA,120748.03,06,10,2011,00,$GPGGA,120749.00,4611.950658,N,01258.216834,E,1,06,2.1,129.35,M,46.25,M,,*68
$GPGLL,4611.950658,N,01258.216834,E,120749.00,A,A*61
$GPVTG,333.1,T,333.3,M,001.3,N,002.5,K,A*24
$GPGSV,3,1,10,05,15,042,39,16,27,308,,31,32,224,41,18,14,150,*74
$GPGSV,3,2,10,29,46,071,38,30,57,155,41,21,70,174,41,25,19,136,*70
$GPGSV,3,3,10,03,09,275,,06,24,274,33,,,,,,,,*73
$GPGSA,M,3,05,31,29,30,21,06,,,,,,,3.7,2.1,3.0*30
Trace #50 at position 12.250000
$GPZDA,120748.03,06,10,2011,00,$GPGGA,120749.00,4611.950658,N,01258.216834,E,1,06,2.1,129.35,M,46.25,M,,*68
$GPGLL,4611.950658,N,01258.216834,E,120749.00,A,A*61
$GPVTG,333.1,T,333.3,M,001.3,N,002.5,K,A*24
$GPGSV,3,1,10,05,15,042,39,16,27,308,,31,32,224,41,18,14,150,*74
$GPGSV,3,2,10,29,46,071,38,30,57,155,41,21,70,174,41,25,19,136,*70
$GPGSV,3,3,10,03,09,275,,06,24,274,33,,,,,,,,*73
$GPGSA,M,3,05,31,29,30,21,06,,,,,,,3.7,2.1,3.0*30
Trace #51 at position 12.500000
$GPZDA,120749.04,06,10,2011,00,00*6E
$GPRMC,120749.00,A,4611.950658,N,01258.216834,E,001.3,333.1,06$GPGGA,120750.00,4611.950841,N,01258.216823,E,1,05,4.4,129.29,M,46.25,M,,*6D
$GPGLL,4611.950841,N,01258.216823,E,120750.00,A,A*69
$GPVTG,344.5,T,344.6,M,000.8,N,001.5,K,A*2C
$GPGSV,3,1,10,05,15,042,38,16,27,308,,31,32,224,41,18,14,150,*75
$GPGSV,3,2,10,29,46,071,38,30,57,155,42,21,70,174,41,25,19,136,*73
$GPGSV,3,3,10,03,09,275,,06,24,274,,,,,,,,,*73
$GPGSA,M,3,05,31,29,30,21,,,,,,,,5.9,4.4,4.0*3A
Trace #52 at position 12.750000
$GPZDA,120750.04,06,10,2011,00,00*66
$GPRMC,120750.00,A,4611.950841,N,01258.216823,E,000.8,344.5,061011$GPGGA,120751.00,4611.950945,N,01258.216972,E,1,05,4.4,129.30,M,46.25,M,,*64
$GPGLL,4611.950945,N,01258.216972,E,120751.00,A,A*68
$GPVTG,35.3,T,35.5,M,000.6,N,001.1,K,A*23
$GPGSV,3,1,10,05,15,042,39,16,27,308,,31,32,224,39,18,14,150,*7B
$GPGSV,3,2,10,29,46,071,38,30,57,155,42,21,70,174,41,25,19,136,*73
$GPGSV,3,3,10,03,09,275,,06,24,274,31,,,,,,,,*71
$GPGSA,M,3,05,31,29,30,21,,,,,,,,5.9,4.4,3.9*34
Trace #53 at position 13.000000
$GPZDA,120750.04,06,10,2011,00,00*66
$GPRMC,120750.00,A,4611.950841,N,01258.216823,E,000.8,344.5,061011$GPGGA,120751.00,4611.950945,N,01258.216972,E,1,05,4.4,129.30,M,46.25,M,,*64
$GPGLL,4611.950945,N,01258.216972,E,120751.00,A,A*68
$GPVTG,35.3,T,35.5,M,000.6,N,001.1,K,A*23
$GPGSV,3,1,10,05,15,042,39,16,27,308,,31,32,224,39,18,14,150,*7B
$GPGSV,3,2,10,29,46,071,38,30,57,155,42,21,70,174,41,25,19,136,*73
$GPGSV,3,3,10,03,09,275,,06,24,274,31,,,,,,,,*71
$GPGSA,M,3,05,31,29,30,21,,,,,,,,5.9,4.4,3.9*34
Trace #54 at position 13.250000
$GPZDA,120750.04,06,10,2011,00,00*66
$GPRMC,120750.00,A,4611.950841,N,01258.216823,E,000.8,344.5,061011$GPGGA,120751.00,4611.950945,N,01258.216972,E,1,05,4.4,129.30,M,46.25,M,,*64
$GPGLL,4611.950945,N,01258.216972,E,120751.00,A,A*68
$GPVTG,35.3,T,35.5,M,000.6,N,001.1,K,A*23
$GPGSV,3,1,10,05,15,042,39,16,27,308,,31,32,224,39,18,14,150,*7B
$GPGSV,3,2,10,29,46,071,38,30,57,155,42,21,70,174,41,25,19,136,*73
$GPGSV,3,3,10,03,09,275,,06,24,274,31,,,,,,,,*71
$GPGSA,M,3,05,31,29,30,21,,,,,,,,5.9,4.4,3.9*34
Trace #55 at position 13.500000
$GPZDA,120751.03,06,10,2011,00,00*60
$GPRMC,120751.00,A,4611.950945,N,01258.216972,E,000.6,35.3,061011,$GPGGA,120752.00,4611.951055,N,01258.217062,E,1,05,4.4,129.18,M,46.25,M,,*6D
$GPGLL,4611.951055,N,01258.217062,E,120752.00,A,A*6B
$GPVTG,332.8,T,333.0,M,000.8,N,001.6,K,A*25
$GPGSV,3,1,10,05,15,042,36,16,27,308,,31,32,224,41,18,14,150,*7B
$GPGSV,3,2,10,29,46,071,38,30,57,155,42,21,70,174,40,25,19,136,*72
$GPGSV,3,3,10,03,09,275,,06,24,274,33,,,,,,,,*73
$GPGSA,M,3,05,31,29,30,21,,,,,,,,5.9,4.4,3.9*34
Trace #56 at position 13.750000
$GPZDA,120752.03,06,10,2011,00,00*63
$GPRMC,120752.00,A,4611.951055,N,01258.217062,E,000.8,332.8,0610$GPGGA,120753.00,4611.951385,N,01258.216587,E,1,06,2.1,129.44,M,46.25,M,,*64
$GPGLL,4611.951385,N,01258.216587,E,120753.00,A,A*6B
$GPVTG,284.5,T,284.6,M,000.8,N,001.5,K,A*2C
$GPGSV,3,1,10,05,15,042,37,16,27,308,,31,32,224,39,18,14,150,*75
$GPGSV,3,2,10,29,46,071,38,30,57,155,42,21,70,174,41,25,19,136,*73
$GPGSV,3,3,10,03,09,275,,06,24,274,32,,,,,,,,*72
$GPGSA,M,3,05,31,29,30,21,06,,,,,,,3.7,2.1,3.0*30
Trace #57 at position 14.000000
$GPZDA,120752.03,06,10,2011,00,00*63
$GPRMC,120752.00,A,4611.951055,N,01258.217062,E,000.8,332.8,0610$GPGGA,120753.00,4611.951385,N,01258.216587,E,1,06,2.1,129.44,M,46.25,M,,*64
$GPGLL,4611.951385,N,01258.216587,E,120753.00,A,A*6B
$GPVTG,284.5,T,284.6,M,000.8,N,001.5,K,A*2C
$GPGSV,3,1,10,05,15,042,37,16,27,308,,31,32,224,39,18,14,150,*75
$GPGSV,3,2,10,29,46,071,38,30,57,155,42,21,70,174,41,25,19,136,*73
$GPGSV,3,3,10,03,09,275,,06,24,274,32,,,,,,,,*72
$GPGSA,M,3,05,31,29,30,21,06,,,,,,,3.7,2.1,3.0*30
Trace #58 at position 14.250000
$GPZDA,120753.04,06,10,2011,00,00*65
$GPRMC,120753.00,A,4611.951385,N,01258.216587,E,000.8,284.5,06$GPGGA,120754.00,4611.951569,N,01258.216247,E,1,06,2.1,129.60,M,46.25,M,,*6A
$GPGLL,4611.951569,N,01258.216247,E,120754.00,A,A*63
$GPVTG,182.6,T,182.7,M,000.2,N,000.4,K,A*24
$GPGSV,3,1,10,05,15,042,33,16,27,308,,31,32,224,39,18,14,150,*71
$GPGSV,3,2,10,29,46,071,40,30,57,155,41,21,70,174,41,25,19,136,*7F
$GPGSV,3,3,10,03,09,275,,06,24,274,32,,,,,,,,*72
$GPGSA,M,3,05,31,29,30,21,06,,,,,,,3.7,2.1,3.0*30
Trace #59 at position 14.500000
$GPZDA,120753.04,06,10,2011,00,00*65
$GPRMC,120753.00,A,4611.951385,N,01258.216587,E,000.8,284.5,06$GPGGA,120754.00,4611.951569,N,01258.216247,E,1,06,2.1,129.60,M,46.25,M,,*6A
$GPGLL,4611.951569,N,01258.216247,E,120754.00,A,A*63
$GPVTG,182.6,T,182.7,M,000.2,N,000.4,K,A*24
$GPGSV,3,1,10,05,15,042,33,16,27,308,,31,32,224,39,18,14,150,*71
$GPGSV,3,2,10,29,46,071,40,30,57,155,41,21,70,174,41,25,19,136,*7F
$GPGSV,3,3,10,03,09,275,,06,24,274,32,,,,,,,,*72
$GPGSA,M,3,05,31,29,30,21,06,,,,,,,3.7,2.1,3.0*30
Trace #60 at position 14.750000
$GPZDA,120754.04,06,10,2011,00,00*62
$GPRMC,120754.00,A,4611.951569,N,01258.216247,E,000.2,182.6,0606,2.1,129.68,M,46.25,M,,*6F
$GPGLL,4611.951880,N,01258.216052,E,120755.00,A,A*6E
$GPVTG,352.8,T,352.9,M,001.2,N,002.3,K,A*20
$GPGSV,3,1,10,05,15,042,34,16,27,308,,31,32,224,37,18,14,150,*78
$GPGSV,3,2,10,29,46,071,39,30,57,155,42,21,70,174,41,25,19,136,*72
$GPGSV,3,3,10,03,09,275,,06,24,274,31,,,,,,,,*71
$GPGSA,M,3,05,31,29,30,21,06,,,,,,,3.7,2.1,3.0*30
Trace #61 at position 15.000000
$GPZDA,120755.03,06,10,2011,00,00*64
$GPRMC,120755.00,A,4611.951880,N,01258.216052,E,001.2,352.8,061011,0.2,E,A*38
$GPGGA,120756.00,4611.952164,N,*60
$GPVTG,113.1,T,113.3,M,000.7,N,001.3,K,A*24
$GPGSV,3,1,10,05,15,042,35,16,27,308,,31,32,224,39,18,14,150,*77
$GPGSV,3,2,10,29,46,071,39,30,57,155,41,21,70,174,40,25,19,136,*70
$GPGSV,3,3,10,03,09,275,,06,24,274,32,,,,,,,,*72
$GPGSA,M,3,05,31,29,30,21,06,,,,,,,3.7,2.1,3.0*30
Trace #62 at position 15.250000
$GPZDA,120755.03,06,10,2011,00,00*64
$GPRMC,120755.00,A,4611.951880,N,01258.216052,E,001.2,352.8,061011,0.2,E,A*38
$GPGGA,120756.00,4611.952164,N,*60
$GPVTG,113.1,T,113.3,M,000.7,N,001.3,K,A*24
$GPGSV,3,1,10,05,15,042,35,16,27,308,,31,32,224,39,18,14,150,*77
$GPGSV,3,2,10,29,46,071,39,30,57,155,41,21,70,174,40,25,19,136,*70
$GPGSV,3,3,10,03,09,275,,06,24,274,32,,,,,,,,*72
$GPGSA,M,3,05,31,29,30,21,06,,,,,,,3.7,2.1,3.0*30
Trace #63 at position 15.500000
$GPZDA,120755.03,06,10,2011,00,00*64
$GPRMC,120755.00,A,4611.951880,N,01258.216052,E,001.2,352.8,061011,0.2,E,A*38
$GPGGA,120756.00,4611.952164,N,*60
$GPVTG,113.1,T,113.3,M,000.7,N,001.3,K,A*24
$GPGSV,3,1,10,05,15,042,35,16,27,308,,31,32,224,39,18,14,150,*77
$GPGSV,3,2,10,29,46,071,39,30,57,155,41,21,70,174,40,25,19,136,*70
$GPGSV,3,3,10,03,09,275,,06,24,274,32,,,,,,,,*72
$GPGSA,M,3,05,31,29,30,21,06,,,,,,,3.7,2.1,3.0*30
Trace #64 at position 15.750000
$GPZDA,120755.03,06,10,2011,00,00*64
$GPRMC,120755.00,A,4611.951880,N,01258.216052,E,001.2,352.8,061011,0.2,E,A*38
$GPGGA,120756.00,4611.952164,N,*60
$GPVTG,113.1,T,113.3,M,000.7,N,001.3,K,A*24
$GPGSV,3,1,10,05,15,042,35,16,27,308,,31,32,224,39,18,14,150,*77
$GPGSV,3,2,10,29,46,071,39,30,57,155,41,21,70,174,40,25,19,136,*70
$GPGSV,3,3,10,03,09,275,,06,24,274,32,,,,,,,,*72
$GPGSA,M,3,05,31,29,30,21,06,,,,,,,3.7,2.1,3.0*30
Trace #65 at position 16.000000
$GPZDA,120756.03,06,10,2011,00,00*67
$GPRMC,120756.00,A,4611.952164,N,01258.215988,E,000.7,113.1,061011,0.2,E,A*3C
$GPGGA,120757.00,4611.952078,N,01258.216297,E,1,05,4.4,129.66,M,46.25,M,,*64
$GPGLL,4611.952078,N,01258.216294,3.9*34
$GPZDA,120757.03,06,10,2011,00,00*66
$GPRMC,120757.00,A,4611.952078,N,01258.216297,E,000.2,52.7,061011,0.2,E,A*00
$GPGGA,120758.00,4611.952211,N,01258.216518,E,1,05,4.4,129.57,M,46.25,M,,*64
$GPGLL,4611.952211,N,01258.216518,E,120758.00,A,A*69
$GPVTG,18.6,T,18.8,M,001.3,N,002.4,K,A*29
$GPGSV,3,1,10,05,15,042,38,16,27,308,,31,32,224,39,18,14,150,*7A
$GPGSV,3,2,10,29,46,071,39,30,57,155,43,21,70,174,39,25,19,136,*7C
$GPGSV,3,3,10,03,09,275,,06,24,274,32,,,,,,,,*72
$GPGSA,M,3,05,31,29,30,21,,MC,120758.00,A,4611.952211,N,01258.216518,E,001.3,18.6,061011,0.2,E,A*0D
Trace #66 at position 16.250000
$GPGGA,120759.00,4611.952460,N,01258.216617,E,1,05,4.4,129.46,M,46.25,M,,*69
$GPGLL,4611.952460,N,01258.216617,E,120759.00,A,A*64
$GPVTG,341.9,T,342.1,M,001.0,N,001.8,K,A*20
$GPGSV,3,1,10,05,15,042,38,16,27,308,,31,32,224,40,18,14,150,*74
$GPGSV,3,2,10,29,46,071,38,30,57,155,42,21,70,173,39,25,19,136,*7B
$GPGSV,3,3,10,03,09,275,,06,24,274,33,,,,,,,,*73
$GPGSA,M,3,05,31,29,30,21,,,,,,,,5.9,4.4,3.9*34
Trace #67 at position 16.500000
$GPGGA,120759.00,4611.952460,N,01258.216617,E,1,05,4.4,129.46,M,46.25,M,,*69
$GPGLL,4611.952460,N,01258.216617,E,120759.00,A,A*64
$GPVTG,341.9,T,342.1,M,001.0,N,001.8,K,A*20
$GPGSV,3,1,10,05,15,042,38,16,27,308,,31,32,224,40,18,14,150,*74
$GPGSV,3,2,10,29,46,071,38,30,57,155,42,21,70,173,39,25,19,136,*7B
$GPGSV,3,3,10,03,09,275,,06,24,274,33,,,,,,,,*73
$GPGSA,M,3,05,31,29,30,21,,,,,,,,5.9,4.4,3.9*34
Trace #68 at position 16.750000
$GPZDA,120759.03,06,10,2011,,E,A*33
$GPGGA,120800.00,4611.952692,N,01258.216558,E,1,05,4.4,129.50,M,46.25,M,,*6A
$GPGLL,4611.952692,N,01258.216558,E,120800.00,A,A*60
$GPVTG,343.0,T,343.1,M,001.1,N,002.1,K,A*21
$GPGSV,3,1,10,05,15,042,38,16,27,308,,31,32,224,39,18,14,150,*7A
$GPGSV,3,2,10,29,46,071,38,30,57,155,42,21,70,173,40,25,19,136,*75
$GPGSV,3,3,10,03,09,275,,06,24,274,33,,,,,,,,*73
$GPGSA,M,3,05,31,29,30,21,,,,,,,,5.9,4.4,3.9*34
Trace #69 at position 17.000000
$GPZDA,120759.03,06,10,2011,,E,A*33
$GPGGA,120800.00,4611.952692,N,01258.216558,E,1,05,4.4,129.50,M,46.25,M,,*6A
$GPGLL,4611.952692,N,01258.216558,E,120800.00,A,A*60
$GPVTG,343.0,T,343.1,M,001.1,N,002.1,K,A*21
$GPGSV,3,1,10,05,15,042,38,16,27,308,,31,32,224,39,18,14,150,*7A
$GPGSV,3,2,10,29,46,071,38,30,57,155,42,21,70,173,40,25,19,136,*75
$GPGSV,3,3,10,03,09,275,,06,24,274,33,,,,,,,,*73
$GPGSA,M,3,05,31,29,30,21,,,,,,,,5.9,4.4,3.9*34
Trace #70 at position 17.250000
$GPZDA,120800.03,06,10,2011,00,00*6B
$GPRMC,120800.00,A,4611.952692,N,01258.216558,E,001.1,3$GPGGA,120801.00,4611.952876,N,01258.216519,E,1,05,4.4,129.48,M,46.25,M,,*63
$GPGLL,4611.952876,N,01258.216519,E,120801.00,A,A*60
$GPVTG,345.8,T,345.9,M,000.6,N,001.2,K,A*27
$GPGSV,3,1,10,05,15,042,38,16,27,308,,31,32,224,40,18,14,150,*74
$GPGSV,3,2,10,29,46,071,39,30,57,155,42,21,70,173,40,25,19,136,*74
$GPGSV,3,3,10,03,09,275,,06,24,274,31,,,,,,,,*71
$GPGSA,M,3,05,31,29,30,21,,,,,,,,5.9,4.4,3.9*34
Trace #71 at position 17.500000
$GPZDA,120800.03,06,10,2011,00,00*6B
$GPRMC,120800.00,A,4611.952692,N,01258.216558,E,001.1,3$GPGGA,120801.00,4611.952876,N,01258.216519,E,1,05,4.4,129.48,M,46.25,M,,*63
$GPGLL,4611.952876,N,01258.216519,E,120801.00,A,A*60
$GPVTG,345.8,T,345.9,M,000.6,N,001.2,K,A*27
$GPGSV,3,1,10,05,15,042,38,16,27,308,,31,32,224,40,18,14,150,*74
$GPGSV,3,2,10,29,46,071,39,30,57,155,42,21,70,173,40,25,19,136,*74
$GPGSV,3,3,10,03,09,275,,06,24,274,31,,,,,,,,*71
$GPGSA,M,3,05,31,29,30,21,,,,,,,,5.9,4.4,3.9*34
Trace #72 at position 17.750000
$GPZDA,120801.03,06,10,2011,00,00*6A
$GPRMC,120801.00,A,4611.952876,N,01258.216519,E,000.6,345.8,0610$GPGGA,120802.00,4611.953051,N,01258.216488,E,1,05,4.4,129.40,M,46.25,M,,*6D
$GPGLL,4611.953051,N,01258.216488,E,120802.00,A,A*66
$GPVTG,345.5,T,345.7,M,001.0,N,001.8,K,A*29
$GPGSV,3,1,10,05,15,042,38,16,27,308,,31,32,224,40,18,14,150,*74
$GPGSV,3,2,10,29,46,071,39,30,57,155,42,21,70,173,40,25,19,136,*74
$GPGSV,3,3,10,03,09,275,,06,24,274,32,,,,,,,,*72
$GPGSA,M,3,05,31,29,30,21,,,,,,,,5.9,4.4,3.9*34
Trace #73 at position 18.000000
$GPZDA,120801.03,06,10,2011,00,00*6A
$GPRMC,120801.00,A,4611.952876,N,01258.216519,E,000.6,345.8,0610$GPGGA,120802.00,4611.953051,N,01258.216488,E,1,05,4.4,129.40,M,46.25,M,,*6D
$GPGLL,4611.953051,N,01258.216488,E,120802.00,A,A*66
$GPVTG,345.5,T,345.7,M,001.0,N,001.8,K,A*29
$GPGSV,3,1,10,05,15,042,38,16,27,308,,31,32,224,40,18,14,150,*74
$GPGSV,3,2,10,29,46,071,39,30,57,155,42,21,70,173,40,25,19,136,*74
$GPGSV,3,3,10,03,09,275,,06,24,274,32,,,,,,,,*72
$GPGSA,M,3,05,31,29,30,21,,,,,,,,5.9,4.4,3.9*34
Trace #74 at position 18.250000
$GPZDA,120802.03,06,10,2011,00,00*69
$GPRMC,120802.00,A,4611.953051,N,01258.216488,E,001.0,345.5,0610$GPGGA,120803.00,4611.953305,N,01258.216476,E,1,05,4.4,129.29,M,46.25,M,,*60
$GPGLL,4611.953305,N,01258.216476,E,120803.00,A,A*64
$GPVTG,1.9,T,2.1,M,001.2,N,002.2,K,A*2B
$GPGSV,3,1,10,05,15,042,38,16,27,308,,31,32,224,39,18,14,150,*7A
$GPGSV,3,2,10,29,46,071,39,30,57,155,43,21,70,173,40,25,19,137,*74
$GPGSV,3,3,10,03,09,275,,06,24,274,31,,,,,,,,*71
$GPGSA,M,3,05,31,29,30,21,,,,,,,,5.9,4.4,3.9*34
Trace #75 at position 18.500000
$GPZDA,120802.03,06,10,2011,00,00*69
$GPRMC,120802.00,A,4611.953051,N,01258.216488,E,001.0,345.5,0610$GPGGA,120803.00,4611.953305,N,01258.216476,E,1,05,4.4,129.29,M,46.25,M,,*60
$GPGLL,4611.953305,N,01258.216476,E,120803.00,A,A*64
$GPVTG,1.9,T,2.1,M,001.2,N,002.2,K,A*2B
$GPGSV,3,1,10,05,15,042,38,16,27,308,,31,32,224,39,18,14,150,*7A
$GPGSV,3,2,10,29,46,071,39,30,57,155,43,21,70,173,40,25,19,137,*74
$GPGSV,3,3,10,03,09,275,,06,24,274,31,,,,,,,,*71
$GPGSA,M,3,05,31,29,30,21,,,,,,,,5.9,4.4,3.9*34
Trace #76 at position 18.750000
$GPZDA,120802.03,06,10,2011,00,00*69
$GPRMC,120802.00,A,4611.953051,N,01258.216488,E,001.0,345.5,0610$GPGGA,120803.00,4611.953305,N,01258.216476,E,1,05,4.4,129.29,M,46.25,M,,*60
$GPGLL,4611.953305,N,01258.216476,E,120803.00,A,A*64
$GPVTG,1.9,T,2.1,M,001.2,N,002.2,K,A*2B
$GPGSV,3,1,10,05,15,042,38,16,27,308,,31,32,224,39,18,14,150,*7A
$GPGSV,3,2,10,29,46,071,39,30,57,155,43,21,70,173,40,25,19,137,*74
$GPGSV,3,3,10,03,09,275,,06,24,274,31,,,,,,,,*71
$GPGSA,M,3,05,31,29,30,21,,,,,,,,5.9,4.4,3.9*34
Trace #77 at position 19.000000
$GPZDA,120803.04,06,10,2011,00,00*6F
$GPRMC,120803.00,A,4611.953305,N,01258.216476,E,001.2,1.9,061011,0.2$GPGGA,120804.00,4611.953522,N,01258.216403,E,1,05,4.4,129.20,M,46.25,M,,*6F
$GPGLL,4611.953522,N,01258.216403,E,120804.00,A,A*62
$GPVTG,321.3,T,321.5,M,000.8,N,001.6,K,A*2A
$GPGSV,3,1,10,05,15,042,39,16,27,308,,31,32,224,40,18,14,150,*75
$GPGSV,3,2,10,29,46,071,40,30,57,155,43,21,70,173,40,25,19,137,*7A
$GPGSV,3,3,10,03,09,275,,06,24,274,,,,,,,,,*73
$GPGSA,M,3,05,31,29,30,21,,,,,,,,5.9,4.4,3.9*34
Trace #78 at position 19.250000
$GPZDA,120803.04,06,10,2011,00,00*6F
$GPRMC,120803.00,A,4611.953305,N,01258.216476,E,001.2,1.9,061011,0.2$GPGGA,120804.00,4611.953522,N,01258.216403,E,1,05,4.4,129.20,M,46.25,M,,*6F
$GPGLL,4611.953522,N,01258.216403,E,120804.00,A,A*62
$GPVTG,321.3,T,321.5,M,000.8,N,001.6,K,A*2A
$GPGSV,3,1,10,05,15,042,39,16,27,308,,31,32,224,40,18,14,150,*75
$GPGSV,3,2,10,29,46,071,40,30,57,155,43,21,70,173,40,25,19,137,*7A
$GPGSV,3,3,10,03,09,275,,06,24,274,,,,,,,,,*73
$GPGSA,M,3,05,31,29,30,21,,,,,,,,5.9,4.4,3.9*34
Trace #79 at position 19.500000
$GPZDA,120804.03,06,10,2011,00,00*6F
$GPRMC,120804.00,A,4611.953522,N,01258.216403,E,000.8,321.3,061011$GPGGA,120805.00,4611.953743,N,01258.216352,E,1,05,4.4,129.22,M,46.25,M,,*6A
$GPGLL,4611.953743,N,01258.216352,E,120805.00,A,A*65
$GPVTG,10.0,T,10.1,M,001.2,N,002.2,K,A*21
$GPGSV,3,1,10,05,15,042,38,16,27,308,,31,32,224,39,18,14,150,*7A
$GPGSV,3,2,10,29,46,071,38,30,57,155,42,21,70,173,41,25,19,137,*75
$GPGSV,3,3,10,03,09,275,,06,24,274,29,,,,,,,,*78
$GPGSA,M,3,05,31,29,30,21,,,,,,,,5.9,4.4,3.9*34
Trace #80 at position 19.750000
$GPZDA,120804.03,06,10,2011,00,00*6F
$GPRMC,120804.00,A,4611.953522,N,01258.216403,E,000.8,321.3,061011$GPGGA,120805.00,4611.953743,N,01258.216352,E,1,05,4.4,129.22,M,46.25,M,,*6A
$GPGLL,4611.953743,N,01258.216352,E,120805.00,A,A*65
$GPVTG,10.0,T,10.1,M,001.2,N,002.2,K,A*21
$GPGSV,3,1,10,05,15,042,38,16,27,308,,31,32,224,39,18,14,150,*7A
$GPGSV,3,2,10,29,46,071,38,30,57,155,42,21,70,173,41,25,19,137,*75
$GPGSV,3,3,10,03,09,275,,06,24,274,29,,,,,,,,*78
$GPGSA,M,3,05,31,29,30,21,,,,,,,,5.9,4.4,3.9*34
Trace #81 at position 20.000000
$GPZDA,120805.03,06,10,2011,00,00*6E
$GPRMC,120805.00,A,4611.953743,N,01258.216352,E,001.2,10.0,061011,$GPGGA,120806.00,4611.953950,N,01258.216437,E,1,05,4.4,129.24,M,46.25,M,,*67
$GPGLL,4611.953950,N,01258.216437,E,120806.00,A,A*6E
$GPVTG,29.3,T,29.4,M,000.6,N,001.1,K,A*22
$GPGSV,3,1,10,05,15,042,39,16,27,308,,31,32,224,37,18,14,150,*75
$GPGSV,3,2,10,29,46,071,39,30,57,155,43,21,70,173,40,25,19,137,*74
$GPGSV,3,3,10,03,09,275,,06,24,274,,,,,,,,,*73
$GPGSA,M,3,05,31,29,30,21,,,,,,,,5.9,4.4,3.9*34
Trace #82 at position 20.250000
$GPZDA,120805.03,06,10,2011,00,00*6E
$GPRMC,120805.00,A,4611.953743,N,01258.216352,E,001.2,10.0,061011,$GPGGA,120806.00,4611.953950,N,01258.216437,E,1,05,4.4,129.24,M,46.25,M,,*67
$GPGLL,4611.953950,N,01258.216437,E,120806.00,A,A*6E
$GPVTG,29.3,T,29.4,M,000.6,N,001.1,K,A*22
$GPGSV,3,1,10,05,15,042,39,16,27,308,,31,32,224,37,18,14,150,*75
$GPGSV,3,2,10,29,46,071,39,30,57,155,43,21,70,173,40,25,19,137,*74
$GPGSV,3,3,10,03,09,275,,06,24,274,,,,,,,,,*73
$GPGSA,M,3,05,31,29,30,21,,,,,,,,5.9,4.4,3.9*34
Trace #83 at position 20.500000
$GPZDA,120806.03,06,10,2011,00,00*6D
$GPRMC,120806.00,A,4611.953950,N,01258.216437,E,000.6,29.3,061011,0.05,4.4,129.27,M,46.25,M,,*67
$GPGLL,4611.954118,N,01258.216504,E,120807.00,A,A*6D
$GPVTG,15.9,T,16.0,M,000.8,N,001.6,K,A*26
$GPGSV,3,1,10,05,15,042,39,16,27,308,,31,32,224,39,18,14,150,*7B
$GPGSV,3,2,10,29,46,071,39,30,57,155,43,21,70,173,41,25,19,137,*75
$GPGSV,3,3,10,03,09,275,,06,24,274,,,,,,,,,*73
$GPGSA,M,3,05,31,29,30,21,,,,,,,,5.9,4.4,3.9*34
Trace #84 at position 20.750000
$GPZDA,120806.03,06,10,2011,00,00*6D
$GPRMC,120806.00,A,4611.953950,N,01258.216437,E,000.6,29.3,061011,0.05,4.4,129.27,M,46.25,M,,*67
$GPGLL,4611.954118,N,01258.216504,E,120807.00,A,A*6D
$GPVTG,15.9,T,16.0,M,000.8,N,001.6,K,A*26
$GPGSV,3,1,10,05,15,042,39,16,27,308,,31,32,224,39,18,14,150,*7B
$GPGSV,3,2,10,29,46,071,39,30,57,155,43,21,70,173,41,25,19,137,*75
$GPGSV,3,3,10,03,09,275,,06,24,274,,,,,,,,,*73
$GPGSA,M,3,05,31,29,30,21,,,,,,,,5.9,4.4,3.9*34
Trace #85 at position 21.000000
$GPZDA,120807.03,06,10,2011,00,00*6C
$GPRMC,120807.00,A,4611.954118,N,01258.216504,E,000.8,15.9,061011,0.2,E,A*01
$GPGGA,120808.00,4611.954362,N,01258.258.216432,E,120808.00,A,A*69
$GPVTG,340.4,T,340.6,M,001.1,N,002.0,K,A*23
$GPGSV,3,1,10,05,15,042,38,16,27,308,,31,32,224,39,18,14,150,*7A
$GPGSV,3,2,10,29,46,071,39,30,57,155,43,21,70,173,41,25,19,137,*75
$GPGSV,3,3,10,03,09,275,,06,24,274,,,,,,,,,*73
$GPGSA,M,3,05,31,29,30,21,,,,,,,,5.9,4.4,3.9*34
Trace #86 at position 21.250000
$GPZDA,120807.03,06,10,2011,00,00*6C
$GPRMC,120807.00,A,4611.954118,N,01258.216504,E,000.8,15.9,061011,0.2,E,A*01
$GPGGA,120808.00,4611.954362,N,01258.258.216432,E,120808.00,A,A*69
$GPVTG,340.4,T,340.6,M,001.1,N,002.0,K,A*23
$GPGSV,3,1,10,05,15,042,38,16,27,308,,31,32,224,39,18,14,150,*7A
$GPGSV,3,2,10,29,46,071,39,30,57,155,43,21,70,173,41,25,19,137,*75
$GPGSV,3,3,10,03,09,275,,06,24,274,,,,,,,,,*73
$GPGSA,M,3,05,31,29,30,21,,,,,,,,5.9,4.4,3.9*34
Trace #87 at position 21.500000
$GPZDA,120807.03,06,10,2011,00,00*6C
$GPRMC,120807.00,A,4611.954118,N,01258.216504,E,000.8,15.9,061011,0.2,E,A*01
$GPGGA,120808.00,4611.954362,N,01258.258.216432,E,120808.00,A,A*69
$GPVTG,340.4,T,340.6,M,001.1,N,002.0,K,A*23
$GPGSV,3,1,10,05,15,042,38,16,27,308,,31,32,224,39,18,14,150,*7A
$GPGSV,3,2,10,29,46,071,39,30,57,155,43,21,70,173,41,25,19,137,*75
$GPGSV,3,3,10,03,09,275,,06,24,274,,,,,,,,,*73
$GPGSA,M,3,05,31,29,30,21,,,,,,,,5.9,4.4,3.9*34
Trace #88 at position 21.750000
$GPZDA,120807.03,06,10,2011,00,00*6C
$GPRMC,120807.00,A,4611.954118,N,01258.216504,E,000.8,15.9,061011,0.2,E,A*01
$GPGGA,120808.00,4611.954362,N,01258.258.216432,E,120808.00,A,A*69
$GPVTG,340.4,T,340.6,M,001.1,N,002.0,K,A*23
$GPGSV,3,1,10,05,15,042,38,16,27,308,,31,32,224,39,18,14,150,*7A
$GPGSV,3,2,10,29,46,071,39,30,57,155,43,21,70,173,41,25,19,137,*75
$GPGSV,3,3,10,03,09,275,,06,24,274,,,,,,,,,*73
$GPGSA,M,3,05,31,29,30,21,,,,,,,,5.9,4.4,3.9*34
Trace #89 at position 22.000000
$GPZDA,120807.03,06,10,2011,00,00*6C
$GPRMC,120807.00,A,4611.954118,N,01258.216504,E,000.8,15.9,061011,0.2,E,A*01
$GPGGA,120808.00,4611.954362,N,01258.258.216432,E,120808.00,A,A*69
$GPVTG,340.4,T,340.6,M,001.1,N,002.0,K,A*23
$GPGSV,3,1,10,05,15,042,38,16,27,308,,31,32,224,39,18,14,150,*7A
$GPGSV,3,2,10,29,46,071,39,30,57,155,43,21,70,173,41,25,19,137,*75
$GPGSV,3,3,10,03,09,275,,06,24,274,,,,,,,,,*73
$GPGSA,M,3,05,31,29,30,21,,,,,,,,5.9,4.4,3.9*34
Trace #90 at position 22.250000
$GPZDA,120808.04,06,10,2011,00,00*64
$GPRMC,120808.00,A,4611.954362,N,01258.216432,E,001.1,340.4,061011,0.2,E,A*33
$GPGGA,120809.00,4611.954613,N,01258.216391,E,1,05,4.4,129.24,M,46.25,M,,*6C
$GPGLL,4611PGSA,M,3,05,31,29,30,21,,,,,,,,5.8,4.4,3.9*35
$GPZDA,120809.03,06,10,2011,00,00*62
$GPRMC,120809.00,A,4611.954613,N,01258.216391,E,001.0,23.1,061011,0.2,E,A*0D
$GPGGA,120810.00,4611.954813,N,01258.216262,E,1,05,4.4,129.41,M,46.25,M,,*64
$GPGLL,4611.954813,N,01258.216262,E,120810.00,A,A*6E
$GPVTG,308.2,T,308.4,M,001.0,N,001.8,K,A*2D
$GPGSV,3,1,10,05,15,042,39,16,27,308,,31,32,224,39,18,14,150,*7B
$GPGSV,3,2,10,29,46,071,39,30,57,155,43,21,70,173,40,25,19,137,*74
$GPGSV,3,3,10,03,09,275,,06,24,274,32,,10,2011,00,00*6A
$GPRMC,120810.00,A,4611.954813,N,01258.216262,E,001.0,308.2,061011,0.2,E,A*3F
$GPGGA,120811.00,4611.955006,N,01258.216070,E,1,05,4.3,129.60,M,46.25,M,,*6D
$GPGLL,4611.955006,N,01258.216070,E,120811.00,A,A*63
$GPVTG,1.2,T,1.4,M,000.8,N,001.5,K,A*29
$GPGSV,3,1,10,05,15,042,39,16,27,308,,31,32,224,39,18,14,150,*7B
$GPGSV,3,2,10,29,46,071,39,30,57,155,43,21,70,173,40,25,19,137,*74
$GPGSV,3,3,10,03,09,275,,06,24,274,33,,,,,,,,*73
$GPGSA,M,3,05,31,29,30,21,,,,,,,,5.8,4.3,3.9*32
Trace #91 at position 22.500000
$GPZDA,120808.04,06,10,2011,00,00*64
$GPRMC,120808.00,A,4611.954362,N,01258.216432,E,001.1,340.4,061011,0.2,E,A*33
$GPGGA,120809.00,4611.954613,N,01258.216391,E,1,05,4.4,129.24,M,46.25,M,,*6C
$GPGLL,4611PGSA,M,3,05,31,29,30,21,,,,,,,,5.8,4.4,3.9*35
$GPZDA,120809.03,06,10,2011,00,00*62
$GPRMC,120809.00,A,4611.954613,N,01258.216391,E,001.0,23.1,061011,0.2,E,A*0D
$GPGGA,120810.00,4611.954813,N,01258.216262,E,1,05,4.4,129.41,M,46.25,M,,*64
$GPGLL,4611.954813,N,01258.216262,E,120810.00,A,A*6E
$GPVTG,308.2,T,308.4,M,001.0,N,001.8,K,A*2D
$GPGSV,3,1,10,05,15,042,39,16,27,308,,31,32,224,39,18,14,150,*7B
$GPGSV,3,2,10,29,46,071,39,30,57,155,43,21,70,173,40,25,19,137,*74
$GPGSV,3,3,10,03,09,275,,06,24,274,32,,10,2011,00,00*6A
$GPRMC,120810.00,A,4611.954813,N,01258.216262,E,001.0,308.2,061011,0.2,E,A*3F
$GPGGA,120811.00,4611.955006,N,01258.216070,E,1,05,4.3,129.60,M,46.25,M,,*6D
$GPGLL,4611.955006,N,01258.216070,E,120811.00,A,A*63
$GPVTG,1.2,T,1.4,M,000.8,N,001.5,K,A*29
$GPGSV,3,1,10,05,15,042,39,16,27,308,,31,32,224,39,18,14,150,*7B
$GPGSV,3,2,10,29,46,071,39,30,57,155,43,21,70,173,40,25,19,137,*74
$GPGSV,3,3,10,03,09,275,,06,24,274,33,,,,,,,,*73
$GPGSA,M,3,05,31,29,30,21,,,,,,,,5.8,4.3,3.9*32
Trace #92 at position 22.750000
$GPZDA,10.8,1.2,061011,0.2,E,A*31
$GPGGA,120812.00,4611.955244,N,01258.215947,E,1,05,4.3,129.62,M,46.25,M,,*66
$GPGLL,4611.955244,N,01258.215947,E,120812.00,A,A*6A
$GPVTG,334.9,T,335.1,M,001.0,N,001.8,K,A*22
$GPGSV,3,1,10,05,15,042,39,16,27,308,,31,32,224,39,18,14,150,*7B
$GPGSV,3,2,10,29,46,071,38,30,57,155,43,21,70,173,40,25,19,137,*75
$GPGSV,3,3,10,03,09,275,,06,24,274,32,,,,,,,,*72
$GPGSA,M,3,05,31,29,30,21,,,,,,,,5.8,4.3,3.9*32
Trace #93 at position 23.000000
$GPZDA,10.8,1.2,061011,0.2,E,A*31
$GPGGA,120812.00,4611.955244,N,01258.215947,E,1,05,4.3,129.62,M,46.25,M,,*66
$GPGLL,4611.955244,N,01258.215947,E,120812.00,A,A*6A
$GPVTG,334.9,T,335.1,M,001.0,N,001.8,K,A*22
$GPGSV,3,1,10,05,15,042,39,16,27,308,,31,32,224,39,18,14,150,*7B
$GPGSV,3,2,10,29,46,071,38,30,57,155,43,21,70,173,40,25,19,137,*75
$GPGSV,3,3,10,03,09,275,,06,24,274,32,,,,,,,,*72
$GPGSA,M,3,05,31,29,30,21,,,,,,,,5.8,4.3,3.9*32
Trace #94 at position 23.250000
$GPZDA,120812.03,06,10,2011,00,00*68
$GPRMC,120812.00,A,4611.955244,N,0125$GPGGA,120813.00,4611.955553,N,01258.215757,E,1,05,4.3,129.60,M,46.25,M,,*6B
$GPGLL,4611.955553,N,01258.215757,E,120813.00,A,A*65
$GPVTG,345.4,T,345.6,M,001.3,N,002.5,K,A*24
$GPGSV,3,1,10,05,15,042,39,16,27,308,,31,32,224,38,18,14,150,*7A
$GPGSV,3,2,10,29,46,071,38,30,57,155,43,21,70,173,41,25,19,137,*74
$GPGSV,3,3,10,03,09,275,,06,24,274,30,,,,,,,,*70
$GPGSA,M,3,05,31,29,30,21,,,,,,,,5.8,4.3,3.9*32
Trace #95 at position 23.500000
$GPZDA,120812.03,06,10,2011,00,00*68
$GPRMC,120812.00,A,4611.955244,N,0125$GPGGA,120813.00,4611.955553,N,01258.215757,E,1,05,4.3,129.60,M,46.25,M,,*6B
$GPGLL,4611.955553,N,01258.215757,E,120813.00,A,A*65
$GPVTG,345.4,T,345.6,M,001.3,N,002.5,K,A*24
$GPGSV,3,1,10,05,15,042,39,16,27,308,,31,32,224,38,18,14,150,*7A
$GPGSV,3,2,10,29,46,071,38,30,57,155,43,21,70,173,41,25,19,137,*74
$GPGSV,3,3,10,03,09,275,,06,24,274,30,,,,,,,,*70
$GPGSA,M,3,05,31,29,30,21,,,,,,,,5.8,4.3,3.9*32
Trace #96 at position 23.750000
$GPZDA,120813.04,06,10,2011,00,00*6E
$GPRMC,120813.00,A,4611.955553,N,01258.215757,E,001.3,345.4,0610$GPGGA,120814.00,4611.955847,N,01258.215505,E,1,05,4.3,129.63,M,46.25,M,,*62
$GPGLL,4611.955847,N,01258.215505,E,120814.00,A,A*6F
$GPVTG,314.5,T,314.7,M,001.2,N,002.2,K,A*22
$GPGSV,3,1,10,05,15,042,39,16,27,308,,31,32,224,40,18,14,150,*75
$GPGSV,3,2,10,29,46,071,37,30,57,155,43,21,70,173,40,25,19,137,*7A
$GPGSV,3,3,10,03,09,275,,06,24,274,31,,,,,,,,*71
$GPGSA,M,3,05,31,29,30,21,,,,,,,,5.8,4.3,3.9*32
Trace #97 at position 24.000000
$GPZDA,120813.04,06,10,2011,00,00*6E
$GPRMC,120813.00,A,4611.955553,N,01258.215757,E,001.3,345.4,0610$GPGGA,120814.00,4611.955847,N,01258.215505,E,1,05,4.3,129.63,M,46.25,M,,*62
$GPGLL,4611.955847,N,01258.215505,E,120814.00,A,A*6F
$GPVTG,314.5,T,314.7,M,001.2,N,002.2,K,A*22
$GPGSV,3,1,10,05,15,042,39,16,27,308,,31,32,224,40,18,14,150,*75
$GPGSV,3,2,10,29,46,071,37,30,57,155,43,21,70,173,40,25,19,137,*7A
$GPGSV,3,3,10,03,09,275,,06,24,274,31,,,,,,,,*71
$GPGSA,M,3,05,31,29,30,21,,,,,,,,5.8,4.3,3.9*32
Trace #98 at position 24.250000
$GPZDA,120814.03,06,10,2011,00,00*6E
$GPRMC,120814.00,A,4611.955847,N,01258.215505,E,001.2,314.5,0610$GPGGA,120815.00,4611.956127,N,01258.215217,E,1,05,4.3,129.72,M,46.25,M,,*6B
$GPGLL,4611.956127,N,01258.215217,E,120815.00,A,A*66
$GPVTG,332.7,T,332.9,M,001.3,N,002.4,K,A*29
$GPGSV,3,1,10,05,15,042,39,16,27,309,,31,32,224,38,18,14,150,*7B
$GPGSV,3,2,10,29,46,071,38,30,57,155,42,21,71,173,41,25,19,137,*74
$GPGSV,3,3,10,03,09,275,32,06,24,274,,,,,,,,,*72
$GPGSA,M,3,05,31,29,30,21,,,,,,,,5.8,4.3,3.9*32
Trace #99 at position 24.500000
$GPZDA,120814.03,06,10,2011,00,00*6E
$GPRMC,120814.00,A,4611.955847,N,01258.215505,E,001.2,314.5,0610$GPGGA,120815.00,4611.956127,N,01258.215217,E,1,05,4.3,129.72,M,46.25,M,,*6B
$GPGLL,4611.956127,N,01258.215217,E,120815.00,A,A*66
$GPVTG,332.7,T,332.9,M,001.3,N,002.4,K,A*29
$GPGSV,3,1,10,05,15,042,39,16,27,309,,31,32,224,38,18,14,150,*7B
$GPGSV,3,2,10,29,46,071,38,30,57,155,42,21,71,173,41,25,19,137,*74
$GPGSV,3,3,10,03,09,275,32,06,24,274,,,,,,,,,*72
$GPGSA,M,3,05,31,29,30,21,,,,,,,,5.8,4.3,3.9*32
Trace #100 at position 24.750000
$GPZDA,120814.03,06,10,2011,00,00*6E
$GPRMC,120814.00,A,4611.955847,N,01258.215505,E,001.2,314.5,0610$GPGGA,120815.00,4611.956127,N,01258.215217,E,1,05,4.3,129.72,M,46.25,M,,*6B
$GPGLL,4611.956127,N,01258.215217,E,120815.00,A,A*66
$GPVTG,332.7,T,332.9,M,001.3,N,002.4,K,A*29
$GPGSV,3,1,10,05,15,042,39,16,27,309,,31,32,224,38,18,14,150,*7B
$GPGSV,3,2,10,29,46,071,38,30,57,155,42,21,71,173,41,25,19,137,*74
$GPGSV,3,3,10,03,09,275,32,06,24,274,,,,,,,,,*72
$GPGSA,M,3,05,31,29,30,21,,,,,,,,5.8,4.3,3.9*32
Trace #101 at position 25.000000
$GPZDA,120815.03,06,10,2011,00,00*6F
$GPRMC,120815.00,A,4611.956127,N,01258.215217,E,001.3,332.7,0610$GPGGA,120816.00,4611.956426,N,01258.215009,E,1,05,4.3,129.73,M,46.25,M,,*60
$GPGLL,4611.956426,N,01258.215009,E,120816.00,A,A*6C
$GPVTG,333.5,T,333.7,M,001.2,N,002.1,K,A*21
$GPGSV,3,1,10,05,15,042,39,16,27,309,,31,32,224,39,18,14,150,*7A
$GPGSV,3,2,10,29,46,071,39,30,57,155,43,21,71,173,41,25,19,137,*74
$GPGSV,3,3,10,03,09,275,28,06,24,274,,,,,,,,,*79
$GPGSA,M,3,05,31,29,30,21,,,,,,,,5.8,4.3,3.9*32
Trace #102 at position 25.250000
$GPZDA,120815.03,06,10,2011,00,00*6F
$GPRMC,120815.00,A,4611.956127,N,01258.215217,E,001.3,332.7,0610$GPGGA,120816.00,4611.956426,N,01258.215009,E,1,05,4.3,129.73,M,46.25,M,,*60
$GPGLL,4611.956426,N,01258.215009,E,120816.00,A,A*6C
$GPVTG,333.5,T,333.7,M,001.2,N,002.1,K,A*21
$GPGSV,3,1,10,05,15,042,39,16,27,309,,31,32,224,39,18,14,150,*7A
$GPGSV,3,2,10,29,46,071,39,30,57,155,43,21,71,173,41,25,19,137,*74
$GPGSV,3,3,10,03,09,275,28,06,24,274,,,,,,,,,*79
$GPGSA,M,3,05,31,29,30,21,,,,,,,,5.8,4.3,3.9*32
Trace #103 at position 25.500000
$GPZDA,120816.03,06,10,2011,00,00*6C
$GPRMC,120816.00,A,4611.956426,N,01258.215009,E,001.2,333.5,0610$GPGGA,120817.00,4611.956687,N,01258.214791,E,1,05,4.3,129.71,M,46.25,M,,*6D
$GPGLL,4611.956687,N,01258.214791,E,120817.00,A,A*63
$GPVTG,322.0,T,322.2,M,001.1,N,002.1,K,A*22
$GPGSV,3,1,10,05,15,042,39,16,27,309,,31,32,224,40,18,14,150,*74
$GPGSV,3,2,10,29,46,071,39,30,57,155,43,21,71,173,40,25,19,137,*75
$GPGSV,3,3,10,03,09,275,30,06,24,274,32,,,,,,,,*71
$GPGSA,M,3,05,31,29,30,21,,,,,,,,5.8,4.3,3.9*32
Trace #104 at position 25.750000
$GPZDA,120817.03,06,10,2011,00,00*6D
$GPRMC,120817.00,A,4611.956687,N,01258.214791,E,001.1,322.0,06$GPGGA,120818.00,4611.956892,N,01258.214642,E,1,05,4.3,129.71,M,46.25,M,,*67
$GPGLL,4611.956892,N,01258.214642,E,120818.00,A,A*69
$GPVTG,341.1,T,341.2,M,000.6,N,001.1,K,A*26
$GPGSV,3,1,10,05,15,042,39,16,27,309,,31,32,224,38,18,14,150,*7B
$GPGSV,3,2,10,29,46,071,38,30,57,155,42,21,71,173,41,25,19,137,*74
$GPGSV,3,3,10,03,09,275,30,06,24,274,32,,,,,,,,*71
$GPGSA,M,3,05,31,29,30,21,,,,,,,,5.8,4.3,3.9*32
Trace #105 at position 26.000000
$GPZDA,120817.03,06,10,2011,00,00*6D
$GPRMC,120817.00,A,4611.956687,N,01258.214791,E,001.1,322.0,06$GPGGA,120818.00,4611.956892,N,01258.214642,E,1,05,4.3,129.71,M,46.25,M,,*67
$GPGLL,4611.956892,N,01258.214642,E,120818.00,A,A*69
$GPVTG,341.1,T,341.2,M,000.6,N,001.1,K,A*26
$GPGSV,3,1,10,05,15,042,39,16,27,309,,31,32,224,38,18,14,150,*7B
$GPGSV,3,2,10,29,46,071,38,30,57,155,42,21,71,173,41,25,19,137,*74
$GPGSV,3,3,10,03,09,275,30,06,24,274,32,,,,,,,,*71
$GPGSA,M,3,05,31,29,30,21,,,,,,,,5.8,4.3,3.9*32
Trace #106 at position 26.250000
$GPZDA,120818.04,06,10,2011,00,00*65
$GPRMC,120818.00,A,4611.956892,N,01258.214642,E,000.6,341.1,0646.25,M,,*6A
$GPGLL,4611.957065,N,01258.214578,E,120819.00,A,A*63
$GPVTG,337.6,T,337.8,M,000.6,N,001.1,K,A*2B
$GPGSV,3,1,10,05,15,042,39,16,27,309,,31,32,224,39,18,14,150,*7A
$GPGSV,3,2,10,29,46,071,39,30,57,155,42,21,71,173,41,25,19,137,*75
$GPGSV,3,3,10,03,09,275,31,06,24,274,,,,,,,,,*71
$GPGSA,M,3,05,31,29,30,21,,,,,,,,5.8,4.3,3.9*32
Trace #107 at position 26.500000
$GPZDA,120819.03,06,10,2011,00,00*63
$GPRMC,120819.00,A,4611.957065,N,01258.214578,E,000.6,337.6,061011,0.2,E,A*3D
$GPGGA,120820.00,4611.957280,N,01258.214497,E,1,0T,343.4,M,000.8,N,001.6,K,A*2A
$GPGSV,3,1,10,05,15,042,39,16,27,309,,31,32,224,40,18,14,150,*74
$GPGSV,3,2,10,29,46,071,38,30,57,155,43,21,71,173,40,25,19,137,*74
$GPGSV,3,3,10,03,09,275,31,06,24,274,33,,,,,,,,*71
$GPGSA,M,3,05,31,29,30,21,,,,,,,,5.8,4.3,3.9*32
Trace #108 at position 26.750000
$GPZDA,120820.04,06,10,2011,00,00*6E
$GPRMC,120820.00,A,4611.957280,N,01258.214497,E,000.8,343.2,061011,0.2,E,A*37
$GPGGA,120821.00,4611.957543,N,01258.214465,E,1,05,4.3,129.91,M,46.25,M,,*64
$GPGLL,4611.957543,N,01258.214465,E,120821.00,A,A*,03,09,275,30,06,24,274,32,,,,,,,,*71
$GPGSA,M,3,05,31,29,30,21,,,,,,,,5.8,4.3,3.9*32
Trace #109 at position 27.000000
$GPZDA,120821.03,06,10,2011,00,00*68
$GPRMC,120821.00,A,4611.957543,N,01258.214465,E,000.9,1.4,061011,0.2,E,A*31
$GPGGA,120822.00,4611.957841,N,01258.214362,E,1,05,4.3,129.92,M,46.25,M,,*6B
$GPGLL,4611.957841,N,01258.214362,E,120822.00,A,A*68
$GPVTG,332.3,T,332.5,M,001.2,N,002.3,K,A*27
$GPGSV,3,1,10,05,15,042,39,16,27,309,,31,32,224,39,18,14,150,*7A
$GPGSV,3,2,10,29,46,071,38,30,57,155,43,21,71,173,41,25,19,137,*75,,,,,,,5.8,4.3,3.9*32
$GPZDA,120822.03,06,10,2011,00,00*6B
$GPRMC,120822.00,A,4611.957841,N,01258.214362,E,001.2,332.3,061011,0.2,E,A*33
$GPGGA,120823.00,4611.958136,N,01258.214087,E,1,05,4.3,129.93,M,46.25,M,,*65
$GPGLL,4611.958136,N,01258.214087,E,120823.00,A,A*67
$GPVTG,316.3,T,316.4,M,001.3,N,002.5,K,A*21
$GPGSV,3,1,10,05,15,042,40,16,27,309,,31,32,224,39,18,14,150,*74
$GPGSV,3,2,10,29,46,071,38,30,57,155,42,21,71,173,41,25,19,137,*74
$GPGSV,3,3,10,03,09,275,31,06,24,274,,,,,,,,,*71
$GPGSA,M,3,1,00,00*6D
Trace #110 at position 27.250000
$GPRMC,120823.00,A,4611.958136,N,01258.214087,E,001.3,316.3,061011,0.2,E,A*3B
$GPGGA,120824.00,4611.958407,N,01258.214029,E,1,05,4.3,129.85,M,46.25,M,,*66
$GPGLL,4611.958407,N,01258.214029,E,120824.00,A,A*63
$GPVTG,26.5,T,26.6,M,001.1,N,002.1,K,A*23
$GPGSV,3,1,10,05,15,042,39,16,27,309,,31,32,224,38,18,14,150,*7B
$GPGSV,3,2,10,29,46,071,39,30,57,155,43,21,71,173,41,25,19,137,*74
$GPGSV,3,3,10,03,09,275,28,06,24,274,,,,,,,,,*79
