Trace #1 at position 0.000000
$GPZDA,133022.03,06,10,2011,00,00*61$GPGGA,133023.00,4611.951527,N,01258.217895,E,1,05,1.9,137.80,M,46.25,M,,*68
$GPGLL,4611.951527,N,01258.217895,E,133023.00,A,A*68
$GPVTG,108.0,T,108.2,M,000.1,N,000.1,K,A*21
$GPGSV,3,1,10,19,11,283,,16,60,288,36,07,05,335,,18,44,125,39*7F
$GPGSV,3,2,10,29,16,096,36,30,18,162,,21,64,060,38,22,23,168,39*78
$GPGSV,3,3,10,03,40,294,,06,56,297,32,,,,,,,,*78
$GPGSA,M,3,16,18,29,21,22,,,,,,,,3.5,1.9,2.9*3D
Trace #2 at position 0.250000
$GPZDA,133027.03,06,10,2011,00,00*64
$GPRMC,133027.00,A,4611.951560,N,01258.217691,E,000.1,127.2,0610$GPGGA,133028.00,4611.951554,N,01258.217683,E,1,05,1.9,137.71,M,46.25,M,,*60
$GPGLL,4611.951554,N,01258.217683,E,133028.00,A,A*6E
$GPVTG,108.5,T,108.7,M,000.1,N,000.3,K,A*23
$GPGSV,3,1,10,19,11,283,,16,60,288,34,07,05,335,,18,44,125,41*72
$GPGSV,3,2,10,29,16,097,37,30,18,162,,21,64,060,39,22,23,168,38*78
$GPGSV,3,3,10,03,40,294,,06,56,297,28,,,,,,,,*73
$GPGSA,M,3,16,18,29,21,22,,,,,,,,3.5,1.9,2.9*3D
Trace #3 at position 0.500000
$GPZDA,133028.04,06,10,2011,00,00*6C
$GPRMC,133028.00,A,4611.951554,N,01258.217683,E,000.1,108.5,0610$GPGGA,133029.00,4611.951548,N,01258.217659,E,1,05,1.9,137.71,M,46.25,M,,*6B
$GPGLL,4611.951548,N,01258.217659,E,133029.00,A,A*65
$GPVTG,198.1,T,198.2,M,000.1,N,000.1,K,A*20
$GPGSV,3,1,10,19,11,283,,16,60,288,34,07,05,335,,18,44,125,42*71
$GPGSV,3,2,10,29,16,097,37,30,18,162,,21,64,060,39,22,23,168,38*78
$GPGSV,3,3,10,03,40,294,,06,56,297,28,,,,,,,,*73
$GPGSA,M,3,16,18,29,21,22,,,,,,,,3.5,1.9,2.9*3D
Trace #4 at position 0.750000
$GPZDA,133029.03,06,10,2011,00,00*6A
$GPRMC,133029.00,A,4611.951548,N,01258.217659,E,000.1,198.1,061046.25,M,,*62
$GPGLL,4611.951537,N,01258.217624,E,133030.00,A,A*6F
$GPVTG,157.2,T,157.4,M,000.1,N,000.2,K,A*26
$GPGSV,3,1,10,19,11,283,,16,60,288,33,07,05,335,,18,44,125,41*75
$GPGSV,3,2,10,29,16,097,37,30,18,162,,21,64,060,39,22,23,168,38*78
$GPGSV,3,3,10,03,40,294,,06,56,297,28,,,,,,,,*73
$GPGSA,M,3,16,18,29,21,22,,,,,,,,3.5,1.9,2.9*3D
Trace #5 at position 1.000000
$GPZDA,133030.03,06,10,2011,00,00*62
$GPRMC,133030.00,A,4611.951537,N,01258.217624,E,000.1,157.2,061011,0.2,E,A*36
$GPGGA,133031.00,4611.951535,N,01258.217580,E,1,0$GPGSV,3,1,10,19,11,283,,16,60,288,33,07,05,334,,18,44,125,41*74
$GPGSV,3,2,10,29,16,097,37,30,18,162,,21,64,060,38,22,23,168,38*79
$GPGSV,3,3,10,03,40,294,,06,56,297,29,,,,,,,,*72
$GPGSA,M,3,16,18,29,21,22,,,,,,,,3.5,1.9,2.9*3D
Trace #6 at position 1.250000
$GPZDA,133030.03,06,10,2011,00,00*62
$GPRMC,133030.00,A,4611.951537,N,01258.217624,E,000.1,157.2,061011,0.2,E,A*36
$GPGGA,133031.00,4611.951535,N,01258.217580,E,1,0$GPGSV,3,1,10,19,11,283,,16,60,288,33,07,05,334,,18,44,125,41*74
$GPGSV,3,2,10,29,16,097,37,30,18,162,,21,64,060,38,22,23,168,38*79
$GPGSV,3,3,10,03,40,294,,06,56,297,29,,,,,,,,*72
$GPGSA,M,3,16,18,29,21,22,,,,,,,,3.5,1.9,2.9*3D
Trace #7 at position 1.500000
$GPZDA,133031.03,06,10,2011,00,00*63
$GPRMC,133031.00,A,4611.951535,N,01258.217580,E,000.1,265.5,061011,0.2,E,A*3D
$GPGGA,133032.00,4611.951546,N,01258.217506,E,1,05,1.9,137.67,M,46.25,M,,*61
$GPGLL,4611.951546,N,01258.217506,E,133032.00,A,A*68
$GPVTG,276.2,T,276.3,M,000.2,N,38,22,23,168,39*78
$GPGSV,3,3,10,03,40,294,,06,56,297,30,,,,,,,,*7A
$GPGSA,M,3,16,18,29,21,22,,,,,,,,3.5,1.9,2.9*3D
Trace #8 at position 1.750000
$GPZDA,133032.03,06,10,2011,00,00*60
$GPRMC,133032.00,A,4611.951546,N,01258.217506,E,000.2,276.2,061011,0.2,E,A*32
$GPGGA,133033.00,4611.951503,N,01258.217435,E,1,05,1.9,137.81,M,46.25,M,,*68
$GPGLL,4611.951503,N,01258.217435,E,133033.00,A,A*69
$GPVTG,196.0,T,196.1,M,000.4,N,000.8,K,A*2E
$GPGSV,3,1,10,19,11,283,,16,60,288,35,07,05,334,,18,44,125,39*7D
$GPGSV,3,2,10,29,16,097,33,30,18,*79
$GPGSA,M,3,16,18,29,21,22,,,,,,,,3.5,1.9,2.9*3D
Trace #9 at position 2.000000
$GPZDA,133032.03,06,10,2011,00,00*60
$GPRMC,133032.00,A,4611.951546,N,01258.217506,E,000.2,276.2,061011,0.2,E,A*32
$GPGGA,133033.00,4611.951503,N,01258.217435,E,1,05,1.9,137.81,M,46.25,M,,*68
$GPGLL,4611.951503,N,01258.217435,E,133033.00,A,A*69
$GPVTG,196.0,T,196.1,M,000.4,N,000.8,K,A*2E
$GPGSV,3,1,10,19,11,283,,16,60,288,35,07,05,334,,18,44,125,39*7D
$GPGSV,3,2,10,29,16,097,33,30,18,*79
$GPGSA,M,3,16,18,29,21,22,,,,,,,,3.5,1.9,2.9*3D
Trace #10 at position 2.250000
$GPZDA,133032.03,06,10,2011,00,00*60
$GPRMC,133032.00,A,4611.951546,N,01258.217506,E,000.2,276.2,061011,0.2,E,A*32
$GPGGA,133033.00,4611.951503,N,01258.217435,E,1,05,1.9,137.81,M,46.25,M,,*68
$GPGLL,4611.951503,N,01258.217435,E,133033.00,A,A*69
$GPVTG,196.0,T,196.1,M,000.4,N,000.8,K,A*2E
$GPGSV,3,1,10,19,11,283,,16,60,288,35,07,05,334,,18,44,125,39*7D
$GPGSV,3,2,10,29,16,097,33,30,18,*79
$GPGSA,M,3,16,18,29,21,22,,,,,,,,3.5,1.9,2.9*3D
Trace #11 at position 2.500000
$GPZDA,133033.04,06,10,2011,00,00*66
$GPRMC,133033.00,A,4611.951503,N,01258.217435,E,000.4,196.0,061011,0.2,E,A*3A
$GPGGA,133034.00,4611.951212,N,01258.217422,E,1,04,3.9,139.23,M,46.25,M,,*6B
$GPGLL,4611.951212,N,01258.217422,E,133034.00,A,A*6F
$GPVTG,221.0,T,221.2,M,001.7,N,003.2,K,A*26
$GPGSV,3,1,10,19,11,283,,16,60,288,28,07,05,334,,18,44,125,40*7F
$GPGSV,3,2,10,29,16,097,33,30,18,162,,21,64,060,39,22,23,168,36*72
$GPGSV,3,3,10,03,40,294,,06,5.217422,E,001.7,221.0,061011,0.2,E,A*31
$GPGGA,133035.00,4611.951122,N,01258.217195,E,1,05,1.9,140.13,M,46.25,M,,*6D
$GPGLL,4611.951122,N,01258.217195,E,133035.00,A,A*67
$GPVTG,17.4,T,17.6,M,000.3,N,000.5,K,A*27
$GPGSV,3,1,10,19,11,283,,16,60,288,35,07,05,334,,18,44,125,41*72
$GPGSV,3,2,10,29,16,097,35,30,18,162,,21,64,060,38,22,23,168,37*74
$GPGSV,3,3,10,03,40,294,,06,56,297,27,,,,,,,,*7C
$GPGSA,M,3,16,18,29,21,22,,,,,,,,3.5,1.9,2.9*3D
Trace #12 at position 2.750000
$GPZDA,133035.04,06,10,2011,00,00*60
$GPRMC,133035.00,A,4611.9$GPGGA,133036.00,4611.951222,N,01258.217315,E,1,04,3.9,140.22,M,46.25,M,,*66
$GPGLL,4611.951222,N,01258.217315,E,133036.00,A,A*6D
$GPVTG,314.6,T,314.8,M,000.9,N,001.6,K,A*23
$GPGSV,3,1,10,19,11,283,,16,60,288,29,07,05,334,,18,44,125,42*7C
$GPGSV,3,2,10,29,16,097,35,30,18,162,,21,64,060,39,22,23,168,38*7A
$GPGSV,3,3,10,03,40,294,,06,56,297,29,,,,,,,,*72
$GPGSA,M,3,18,29,21,22,,,,,,,,,5.4,3.9,3.8*3F
Trace #13 at position 3.000000
$GPZDA,133035.04,06,10,2011,00,00*60
$GPRMC,133035.00,A,4611.9$GPGGA,133036.00,4611.951222,N,01258.217315,E,1,04,3.9,140.22,M,46.25,M,,*66
$GPGLL,4611.951222,N,01258.217315,E,133036.00,A,A*6D
$GPVTG,314.6,T,314.8,M,000.9,N,001.6,K,A*23
$GPGSV,3,1,10,19,11,283,,16,60,288,29,07,05,334,,18,44,125,42*7C
$GPGSV,3,2,10,29,16,097,35,30,18,162,,21,64,060,39,22,23,168,38*7A
$GPGSV,3,3,10,03,40,294,,06,56,297,29,,,,,,,,*72
$GPGSA,M,3,18,29,21,22,,,,,,,,,5.4,3.9,3.8*3F
Trace #14 at position 3.250000
$GPZDA,133036.03,06,10,2011,00,00*64
$GPRMC,133036.00,A,4611.951222,N,01258.217315,E,000.9,314.6,061011$GPGGA,133037.00,4611.951378,N,01258.217361,E,1,04,3.9,140.31,M,46.25,M,,*68
$GPGLL,4611.951378,N,01258.217361,E,133037.00,A,A*61
$GPVTG,341.9,T,342.0,M,000.7,N,001.3,K,A*2C
$GPGSV,3,1,10,19,11,283,,16,60,288,32,07,05,334,,18,44,125,39*7A
$GPGSV,3,2,10,29,16,097,34,30,18,162,,21,64,060,38,22,23,168,36*74
$GPGSV,3,3,10,03,40,294,,06,56,297,26,,,,,,,,*7D
$GPGSA,M,3,18,29,21,22,,,,,,,,,5.4,3.9,3.8*3F
Trace #15 at position 3.500000
$GPZDA,133036.03,06,10,2011,00,00*64
$GPRMC,133036.00,A,4611.951222,N,01258.217315,E,000.9,314.6,061011$GPGGA,133037.00,4611.951378,N,01258.217361,E,1,04,3.9,140.31,M,46.25,M,,*68
$GPGLL,4611.951378,N,01258.217361,E,133037.00,A,A*61
$GPVTG,341.9,T,342.0,M,000.7,N,001.3,K,A*2C
$GPGSV,3,1,10,19,11,283,,16,60,288,32,07,05,334,,18,44,125,39*7A
$GPGSV,3,2,10,29,16,097,34,30,18,162,,21,64,060,38,22,23,168,36*74
$GPGSV,3,3,10,03,40,294,,06,56,297,26,,,,,,,,*7D
$GPGSA,M,3,18,29,21,22,,,,,,,,,5.4,3.9,3.8*3F
Trace #16 at position 3.750000
$GPZDA,133037.03,06,10,2011,00,00*65
$GPRMC,133037.00,A,4611.951378,N,01258.217361,E,000.7,341.9,061011$GPGGA,133038.00,4611.951613,N,01258.217403,E,1,04,3.9,140.26,M,46.25,M,,*6A
$GPGLL,4611.951613,N,01258.217403,E,133038.00,A,A*65
$GPVTG,335.6,T,335.8,M,001.3,N,002.4,K,A*29
$GPGSV,3,1,10,19,11,283,,16,60,288,30,07,05,334,,18,44,125,40*76
$GPGSV,3,2,10,29,16,097,33,30,18,162,,21,64,060,38,22,23,168,39*7C
$GPGSV,3,3,10,03,40,294,,06,56,297,28,,,,,,,,*73
$GPGSA,M,3,18,29,21,22,,,,,,,,,5.4,3.9,3.8*3F
Trace #17 at position 4.000000
$GPZDA,133037.03,06,10,2011,00,00*65
$GPRMC,133037.00,A,4611.951378,N,01258.217361,E,000.7,341.9,061011$GPGGA,133038.00,4611.951613,N,01258.217403,E,1,04,3.9,140.26,M,46.25,M,,*6A
$GPGLL,4611.951613,N,01258.217403,E,133038.00,A,A*65
$GPVTG,335.6,T,335.8,M,001.3,N,002.4,K,A*29
$GPGSV,3,1,10,19,11,283,,16,60,288,30,07,05,334,,18,44,125,40*76
$GPGSV,3,2,10,29,16,097,33,30,18,162,,21,64,060,38,22,23,168,39*7C
$GPGSV,3,3,10,03,40,294,,06,56,297,28,,,,,,,,*73
$GPGSA,M,3,18,29,21,22,,,,,,,,,5.4,3.9,3.8*3F
Trace #18 at position 4.250000
$GPZDA,133038.03,06,10,2011,00,00*6A
$GPRMC,133038.00,A,4611.951613,N,01258.217403,E,001.3,335.6,061011$GPGGA,133039.00,4611.951795,N,01258.217432,E,1,04,3.9,140.25,M,46.25,M,,*65
$GPGLL,4611.951795,N,01258.217432,E,133039.00,A,A*69
$GPVTG,323.9,T,324.1,M,000.3,N,000.6,K,A*29
$GPGSV,3,1,10,19,11,283,,16,60,288,31,07,05,334,,18,44,125,40*77
$GPGSV,3,2,10,29,16,097,34,30,18,162,,21,64,060,38,22,23,168,40*75
$GPGSV,3,3,10,03,40,294,,06,56,297,29,,,,,,,,*72
$GPGSA,M,3,18,29,21,22,,,,,,,,,5.4,3.9,3.8*3F
Trace #19 at position 4.500000
$GPZDA,133038.03,06,10,2011,00,00*6A
$GPRMC,133038.00,A,4611.951613,N,01258.217403,E,001.3,335.6,061011$GPGGA,133039.00,4611.951795,N,01258.217432,E,1,04,3.9,140.25,M,46.25,M,,*65
$GPGLL,4611.951795,N,01258.217432,E,133039.00,A,A*69
$GPVTG,323.9,T,324.1,M,000.3,N,000.6,K,A*29
$GPGSV,3,1,10,19,11,283,,16,60,288,31,07,05,334,,18,44,125,40*77
$GPGSV,3,2,10,29,16,097,34,30,18,162,,21,64,060,38,22,23,168,40*75
$GPGSV,3,3,10,03,40,294,,06,56,297,29,,,,,,,,*72
$GPGSA,M,3,18,29,21,22,,,,,,,,,5.4,3.9,3.8*3F
Trace #20 at position 4.750000
$GPZDA,133038.03,06,10,2011,00,00*6A
$GPRMC,133038.00,A,4611.951613,N,01258.217403,E,001.3,335.6,061011$GPGGA,133039.00,4611.951795,N,01258.217432,E,1,04,3.9,140.25,M,46.25,M,,*65
$GPGLL,4611.951795,N,01258.217432,E,133039.00,A,A*69
$GPVTG,323.9,T,324.1,M,000.3,N,000.6,K,A*29
$GPGSV,3,1,10,19,11,283,,16,60,288,31,07,05,334,,18,44,125,40*77
$GPGSV,3,2,10,29,16,097,34,30,18,162,,21,64,060,38,22,23,168,40*75
$GPGSV,3,3,10,03,40,294,,06,56,297,29,,,,,,,,*72
$GPGSA,M,3,18,29,21,22,,,,,,,,,5.4,3.9,3.8*3F
Trace #21 at position 5.000000
$GPZDA,133039.03,06,10,2011,00,00*6B
$GPRMC,133039.00,A,4611.951795,N,01258.217432,E,000.3,323.9,061011$GPGGA,133040.00,4611.951944,N,01258.217536,E,1,04,3.9,140.12,M,46.25,M,,*68
$GPGLL,4611.951944,N,01258.217536,E,133040.00,A,A*60
$GPVTG,1.5,T,1.7,M,000.9,N,001.6,K,A*2F
$GPGSV,3,1,10,19,11,283,,16,60,288,30,07,05,334,,18,44,125,40*76
$GPGSV,3,2,10,29,16,097,32,30,18,162,,21,64,060,38,22,23,168,38*7C
$GPGSV,3,3,10,03,40,294,,06,56,297,,,,,,,,,*79
$GPGSA,M,3,18,29,21,22,,,,,,,,,5.4,3.9,3.8*3F
Trace #22 at position 5.250000
$GPZDA,133039.03,06,10,2011,00,00*6B
$GPRMC,133039.00,A,4611.951795,N,01258.217432,E,000.3,323.9,061011$GPGGA,133040.00,4611.951944,N,01258.217536,E,1,04,3.9,140.12,M,46.25,M,,*68
$GPGLL,4611.951944,N,01258.217536,E,133040.00,A,A*60
$GPVTG,1.5,T,1.7,M,000.9,N,001.6,K,A*2F
$GPGSV,3,1,10,19,11,283,,16,60,288,30,07,05,334,,18,44,125,40*76
$GPGSV,3,2,10,29,16,097,32,30,18,162,,21,64,060,38,22,23,168,38*7C
$GPGSV,3,3,10,03,40,294,,06,56,297,,,,,,,,,*79
$GPGSA,M,3,18,29,21,22,,,,,,,,,5.4,3.9,3.8*3F
Trace #23 at position 5.500000
$GPZDA,133040.03,06,10,2011,00,00*65
$GPRMC,133040.00,A,4611.951944,N,01258.217536,E,000.9,1.5,061011,0.2,E,A$GPGGA,133041.00,4611.952146,N,01258.217512,E,1,04,3.9,139.93,M,46.25,M,,*61
$GPGLL,4611.952146,N,01258.217512,E,133041.00,A,A*6E
$GPVTG,304.1,T,304.3,M,001.0,N,001.9,K,A*28
$GPGSV,3,1,10,19,11,283,,16,60,288,,07,05,334,,18,44,125,41*74
$GPGSV,3,2,10,29,16,097,32,30,18,162,,21,64,060,39,22,23,168,39*7C
$GPGSV,3,3,10,03,40,294,,06,56,297,,,,,,,,,*79
$GPGSA,M,3,18,29,21,22,,,,,,,,,5.4,3.9,3.8*3F
Trace #24 at position 5.750000
$GPZDA,133040.03,06,10,2011,00,00*65
$GPRMC,133040.00,A,4611.951944,N,01258.217536,E,000.9,1.5,061011,0.2,E,A$GPGGA,133041.00,4611.952146,N,01258.217512,E,1,04,3.9,139.93,M,46.25,M,,*61
$GPGLL,4611.952146,N,01258.217512,E,133041.00,A,A*6E
$GPVTG,304.1,T,304.3,M,001.0,N,001.9,K,A*28
$GPGSV,3,1,10,19,11,283,,16,60,288,,07,05,334,,18,44,125,41*74
$GPGSV,3,2,10,29,16,097,32,30,18,162,,21,64,060,39,22,23,168,39*7C
$GPGSV,3,3,10,03,40,294,,06,56,297,,,,,,,,,*79
$GPGSA,M,3,18,29,21,22,,,,,,,,,5.4,3.9,3.8*3F
Trace #25 at position 6.000000
$GPZDA,133040.03,06,10,2011,00,00*65
$GPRMC,133040.00,A,4611.951944,N,01258.217536,E,000.9,1.5,061011,0.2,E,A$GPGGA,133041.00,4611.952146,N,01258.217512,E,1,04,3.9,139.93,M,46.25,M,,*61
$GPGLL,4611.952146,N,01258.217512,E,133041.00,A,A*6E
$GPVTG,304.1,T,304.3,M,001.0,N,001.9,K,A*28
$GPGSV,3,1,10,19,11,283,,16,60,288,,07,05,334,,18,44,125,41*74
$GPGSV,3,2,10,29,16,097,32,30,18,162,,21,64,060,39,22,23,168,39*7C
$GPGSV,3,3,10,03,40,294,,06,56,297,,,,,,,,,*79
$GPGSA,M,3,18,29,21,22,,,,,,,,,5.4,3.9,3.8*3F
Trace #26 at position 6.250000
$GPZDA,133041.03,06,10,2011,00,00*64
$GPRMC,133041.00,A,4611.952146,N,01258.217512,E,001.0,304.1,061011,0.21258.217380,E,1,04,3.9,139.96,M,46.25,M,,*6C
$GPGLL,4611.952342,N,01258.217380,E,133042.00,A,A*66
$GPVTG,325.6,T,325.8,M,001.0,N,001.9,K,A*24
$GPGSV,3,1,10,19,11,283,,16,60,288,32,07,05,334,,18,44,125,42*76
$GPGSV,3,2,10,29,16,097,34,30,18,162,,21,64,060,39,22,23,168,38*7B
$GPGSV,3,3,10,03,40,294,,06,56,297,,,,,,,,,*79
$GPGSA,M,3,18,29,21,22,,,,,,,,,5.4,3.9,3.8*3F
Trace #27 at position 6.500000
$GPZDA,133041.03,06,10,2011,00,00*64
$GPRMC,133041.00,A,4611.952146,N,01258.217512,E,001.0,304.1,061011,0.21258.217380,E,1,04,3.9,139.96,M,46.25,M,,*6C
$GPGLL,4611.952342,N,01258.217380,E,133042.00,A,A*66
$GPVTG,325.6,T,325.8,M,001.0,N,001.9,K,A*24
$GPGSV,3,1,10,19,11,283,,16,60,288,32,07,05,334,,18,44,125,42*76
$GPGSV,3,2,10,29,16,097,34,30,18,162,,21,64,060,39,22,23,168,38*7B
$GPGSV,3,3,10,03,40,294,,06,56,297,,,,,,,,,*79
$GPGSA,M,3,18,29,21,22,,,,,,,,,5.4,3.9,3.8*3F
Trace #28 at position 6.750000
$GPZDA,133042.03,06,10,2011,00,00*67
$GPRMC,133042.00,A,4611.952342,N,01258.217380,E,001.0,325.6,061011,0.2,E,A*3C
$GPGGA,133043.00,4611258.217382,E,133043.00,A,A*65
$GPVTG,352.5,T,352.7,M,000.9,N,001.7,K,A*2E
$GPGSV,3,1,10,19,11,283,,16,60,288,30,07,05,334,,18,44,125,41*77
$GPGSV,3,2,10,29,16,097,35,30,18,162,,21,64,060,38,22,23,168,37*74
$GPGSV,3,3,10,03,40,294,,06,56,297,,,,,,,,,*79
$GPGSA,M,3,18,29,21,22,,,,,,,,,5.4,3.9,3.8*3F
Trace #29 at position 7.000000
$GPZDA,133042.03,06,10,2011,00,00*67
$GPRMC,133042.00,A,4611.952342,N,01258.217380,E,001.0,325.6,061011,0.2,E,A*3C
$GPGGA,133043.00,4611258.217382,E,133043.00,A,A*65
$GPVTG,352.5,T,352.7,M,000.9,N,001.7,K,A*2E
$GPGSV,3,1,10,19,11,283,,16,60,288,30,07,05,334,,18,44,125,41*77
$GPGSV,3,2,10,29,16,097,35,30,18,162,,21,64,060,38,22,23,168,37*74
$GPGSV,3,3,10,03,40,294,,06,56,297,,,,,,,,,*79
$GPGSA,M,3,18,29,21,22,,,,,,,,,5.4,3.9,3.8*3F
Trace #30 at position 7.250000
$GPZDA,133043.03,06,10,2011,00,00*66
$GPRMC,133043.00,A,4611.952588,N,01258.217382,E,000.9,352.5,061011,0.2,E,A*34
$GPGGA,133044.00,4611.952948,N,01258.217044,E,1,05,1.9,139.62,M,46.25,M,,*69
$GPGLL,4611.1,10,19,11,283,,16,60,288,33,07,05,334,,18,44,125,40*75
$GPGSV,3,2,10,29,16,097,34,30,18,162,,21,64,060,37,22,23,168,36*7B
$GPGSV,3,3,10,03,40,294,,06,56,297,,,,,,,,,*79
$GPGSA,M,3,16,18,29,21,22,,,,,,,,3.5,1.9,2.9*3D
Trace #31 at position 7.500000
$GPZDA,133043.03,06,10,2011,00,00*66
$GPRMC,133043.00,A,4611.952588,N,01258.217382,E,000.9,352.5,061011,0.2,E,A*34
$GPGGA,133044.00,4611.952948,N,01258.217044,E,1,05,1.9,139.62,M,46.25,M,,*69
$GPGLL,4611.1,10,19,11,283,,16,60,288,33,07,05,334,,18,44,125,40*75
$GPGSV,3,2,10,29,16,097,34,30,18,162,,21,64,060,37,22,23,168,36*7B
$GPGSV,3,3,10,03,40,294,,06,56,297,,,,,,,,,*79
$GPGSA,M,3,16,18,29,21,22,,,,,,,,3.5,1.9,2.9*3D
Trace #32 at position 7.750000
$GPZDA,133044.03,06,10,2011,00,00*61
$GPRMC,133044.00,A,4611.952948,N,01258.217044,E,001.3,324.9,061011,0.2,E,A*3C
$GPGGA,133045.00,4611.953269,N,01258.216554,E,1,05,1.9,139.25,M,46.25,M,,*67
$GPGLL,4611.953269,N,01258.216554,E,133045.00,A,A*66
$GPVTG,301.6,T,301.7,M,001.5,N,002.9,K,A*4,060,38,22,23,168,37*77
$GPGSV,3,3,10,03,40,294,,06,56,297,,,,,,,,,*79
$GPGSA,M,3,16,18,29,21,22,,,,,,,,3.5,1.9,2.9*3D
Trace #33 at position 8.000000
$GPZDA,133044.03,06,10,2011,00,00*61
$GPRMC,133044.00,A,4611.952948,N,01258.217044,E,001.3,324.9,061011,0.2,E,A*3C
$GPGGA,133045.00,4611.953269,N,01258.216554,E,1,05,1.9,139.25,M,46.25,M,,*67
$GPGLL,4611.953269,N,01258.216554,E,133045.00,A,A*66
$GPVTG,301.6,T,301.7,M,001.5,N,002.9,K,A*4,060,38,22,23,168,37*77
$GPGSV,3,3,10,03,40,294,,06,56,297,,,,,,,,,*79
$GPGSA,M,3,16,18,29,21,22,,,,,,,,3.5,1.9,2.9*3D
Trace #34 at position 8.250000
$GPZDA,133044.03,06,10,2011,00,00*61
$GPRMC,133044.00,A,4611.952948,N,01258.217044,E,001.3,324.9,061011,0.2,E,A*3C
$GPGGA,133045.00,4611.953269,N,01258.216554,E,1,05,1.9,139.25,M,46.25,M,,*67
$GPGLL,4611.953269,N,01258.216554,E,133045.00,A,A*66
$GPVTG,301.6,T,301.7,M,001.5,N,002.9,K,A*4,060,38,22,23,168,37*77
$GPGSV,3,3,10,03,40,294,,06,56,297,,,,,,,,,*79
$GPGSA,M,3,16,18,29,21,22,,,,,,,,3.5,1.9,2.9*3D
Trace #35 at position 8.500000
$GPZDA,133045.03,06,10,2011,00,00*60
$GPRMC,133045.00,A,4611.953269,N,01258.216554,E,001.5,301.6,061011,0.2,E,A*3F
$GPGGA,133046.00,4611.953757,N,01258.216091,E,1,05,1.9,138.57,M,46.25,M,,*64
$GPGLL,4611.953757,N,01258.216091,E,133046.00,A,A*61
$GPVTG,340.0,T,340.2,M,002.5,N,004.7,K,A*25
$GPGSV,3,1,10,19,11,283,,16,60,288,32,07,05,334,,18,44,125,40*74
$GPGSV,3,2,10,29,16,097,32,30,,*79
$GPGSA,M,3,16,18,29,21,22,,,,,,,,3.5,1.9,2.9*3D
Trace #36 at position 8.750000
$GPZDA,133045.03,06,10,2011,00,00*60
$GPRMC,133045.00,A,4611.953269,N,01258.216554,E,001.5,301.6,061011,0.2,E,A*3F
$GPGGA,133046.00,4611.953757,N,01258.216091,E,1,05,1.9,138.57,M,46.25,M,,*64
$GPGLL,4611.953757,N,01258.216091,E,133046.00,A,A*61
$GPVTG,340.0,T,340.2,M,002.5,N,004.7,K,A*25
$GPGSV,3,1,10,19,11,283,,16,60,288,32,07,05,334,,18,44,125,40*74
$GPGSV,3,2,10,29,16,097,32,30,,*79
$GPGSA,M,3,16,18,29,21,22,,,,,,,,3.5,1.9,2.9*3D
Trace #37 at position 9.000000
$GPZDA,133045.03,06,10,2011,00,00*60
$GPRMC,133045.00,A,4611.953269,N,01258.216554,E,001.5,301.6,061011,0.2,E,A*3F
$GPGGA,133046.00,4611.953757,N,01258.216091,E,1,05,1.9,138.57,M,46.25,M,,*64
$GPGLL,4611.953757,N,01258.216091,E,133046.00,A,A*61
$GPVTG,340.0,T,340.2,M,002.5,N,004.7,K,A*25
$GPGSV,3,1,10,19,11,283,,16,60,288,32,07,05,334,,18,44,125,40*74
$GPGSV,3,2,10,29,16,097,32,30,,*79
$GPGSA,M,3,16,18,29,21,22,,,,,,,,3.5,1.9,2.9*3D
Trace #38 at position 9.250000
$GPZDA,133045.03,06,10,2011,00,00*60
$GPRMC,133045.00,A,4611.953269,N,01258.216554,E,001.5,301.6,061011,0.2,E,A*3F
$GPGGA,133046.00,4611.953757,N,01258.216091,E,1,05,1.9,138.57,M,46.25,M,,*64
$GPGLL,4611.953757,N,01258.216091,E,133046.00,A,A*61
$GPVTG,340.0,T,340.2,M,002.5,N,004.7,K,A*25
$GPGSV,3,1,10,19,11,283,,16,60,288,32,07,05,334,,18,44,125,40*74
$GPGSV,3,2,10,29,16,097,32,30,,*79
$GPGSA,M,3,16,18,29,21,22,,,,,,,,3.5,1.9,2.9*3D
Trace #39 at position 9.500000
$GPZDA,133046.03,06,10,2011,00,00*63
$GPRMC,133046.00,A,4611.953757,N,01258.216091,E,002.5,340.0,061011,0.2,E,A*38
$GPGGA,133047.00,4611.954206,N,01258.216118,E,1,04,3.9,138.27,M,46.25,M,,*67
$GPGLL,4611.954206,N,01258.216118,E,133047.00,A,A*66
$GPVTG,351.3,T,351.5,M,001.3,N,002.5,K,A*20
$GPGSV,3,1,10,19,11,283,,16,60,288,,07,05,334,,18,44,125,40*75
$GPGSV,3,2,10,29,16,097,35,30,18,162,,21,64,060,38,22,23,168,38*7B
$GPGSV,3,3,10,03,40,294,,06,563047.00,A,4611.954206,N,01258.216118,E,001.3,351.3,061011,0.2,E,A*39
$GPGGA,133048.00,4611.954459,N,01258.216231,E,1,04,3.9,138.40,M,46.25,M,,*6D
$GPGLL,4611.954459,N,01258.216231,E,133048.00,A,A*6D
$GPVTG,342.7,T,342.9,M,001.0,N,001.8,K,A*25
$GPGSV,3,1,10,19,11,283,,16,60,288,,07,05,334,,18,44,125,40*75
$GPGSV,3,2,10,29,16,097,34,30,18,162,,21,64,060,38,22,23,168,38*7A
$GPGSV,3,3,10,03,40,294,,06,56,297,,,,,,,,,*79
$GPGSA,M,3,18,29,21,22,,,,,,,,,5.4,3.9,3.8*3F
Trace #40 at position 9.750000
$GPZDA,133046.03,06,10,2011,00,00*63
$GPRMC,133046.00,A,4611.953757,N,01258.216091,E,002.5,340.0,061011,0.2,E,A*38
$GPGGA,133047.00,4611.954206,N,01258.216118,E,1,04,3.9,138.27,M,46.25,M,,*67
$GPGLL,4611.954206,N,01258.216118,E,133047.00,A,A*66
$GPVTG,351.3,T,351.5,M,001.3,N,002.5,K,A*20
$GPGSV,3,1,10,19,11,283,,16,60,288,,07,05,334,,18,44,125,40*75
$GPGSV,3,2,10,29,16,097,35,30,18,162,,21,64,060,38,22,23,168,38*7B
$GPGSV,3,3,10,03,40,294,,06,563047.00,A,4611.954206,N,01258.216118,E,001.3,351.3,061011,0.2,E,A*39
$GPGGA,133048.00,4611.954459,N,01258.216231,E,1,04,3.9,138.40,M,46.25,M,,*6D
$GPGLL,4611.954459,N,01258.216231,E,133048.00,A,A*6D
$GPVTG,342.7,T,342.9,M,001.0,N,001.8,K,A*25
$GPGSV,3,1,10,19,11,283,,16,60,288,,07,05,334,,18,44,125,40*75
$GPGSV,3,2,10,29,16,097,34,30,18,162,,21,64,060,38,22,23,168,38*7A
$GPGSV,3,3,10,03,40,294,,06,56,297,,,,,,,,,*79
$GPGSA,M,3,18,29,21,22,,,,,,,,,5.4,3.9,3.8*3F
Trace #41 at position 10.000000
$GPZDA,133046.03,06,10,2011,00,00*63
$GPRMC,133046.00,A,4611.953757,N,01258.216091,E,002.5,340.0,061011,0.2,E,A*38
$GPGGA,133047.00,4611.954206,N,01258.216118,E,1,04,3.9,138.27,M,46.25,M,,*67
$GPGLL,4611.954206,N,01258.216118,E,133047.00,A,A*66
$GPVTG,351.3,T,351.5,M,001.3,N,002.5,K,A*20
$GPGSV,3,1,10,19,11,283,,16,60,288,,07,05,334,,18,44,125,40*75
$GPGSV,3,2,10,29,16,097,35,30,18,162,,21,64,060,38,22,23,168,38*7B
$GPGSV,3,3,10,03,40,294,,06,563047.00,A,4611.954206,N,01258.216118,E,001.3,351.3,061011,0.2,E,A*39
$GPGGA,133048.00,4611.954459,N,01258.216231,E,1,04,3.9,138.40,M,46.25,M,,*6D
$GPGLL,4611.954459,N,01258.216231,E,133048.00,A,A*6D
$GPVTG,342.7,T,342.9,M,001.0,N,001.8,K,A*25
$GPGSV,3,1,10,19,11,283,,16,60,288,,07,05,334,,18,44,125,40*75
$GPGSV,3,2,10,29,16,097,34,30,18,162,,21,64,060,38,22,23,168,38*7A
$GPGSV,3,3,10,03,40,294,,06,56,297,,,,,,,,,*79
$GPGSA,M,3,18,29,21,22,,,,,,,,,5.4,3.9,3.8*3F
Trace #42 at position 10.250000
$GPZDA,133048.03,06,10,2011,00,00*6D
$GPGGA,133049.00,4611.954707,N,01258.216311,E,1,04,3.9,138.35,M,46.25,M,,*65
$GPGLL,4611.954707,N,01258.216311,E,133049.00,A,A*67
$GPVTG,351.6,T,351.7,M,001.2,N,002.2,K,A*21
$GPGSV,3,1,10,19,11,283,,16,60,288,31,07,05,334,,18,44,125,41*76
$GPGSV,3,2,10,29,16,097,33,30,18,162,,21,64,060,38,22,23,168,36*73
$GPGSV,3,3,10,03,40,294,,06,56,297,,,,,,,,,*79
$GPGSA,M,3,18,29,21,22,,,,,,,,,5.4,3.9,3.8*3F
Trace #43 at position 10.500000
$GPZDA,133048.03,06,10,2011,00,00*6D
$GPGGA,133049.00,4611.954707,N,01258.216311,E,1,04,3.9,138.35,M,46.25,M,,*65
$GPGLL,4611.954707,N,01258.216311,E,133049.00,A,A*67
$GPVTG,351.6,T,351.7,M,001.2,N,002.2,K,A*21
$GPGSV,3,1,10,19,11,283,,16,60,288,31,07,05,334,,18,44,125,41*76
$GPGSV,3,2,10,29,16,097,33,30,18,162,,21,64,060,38,22,23,168,36*73
$GPGSV,3,3,10,03,40,294,,06,56,297,,,,,,,,,*79
$GPGSA,M,3,18,29,21,22,,,,,,,,,5.4,3.9,3.8*3F
Trace #44 at position 10.750000
$GPZDA,133049.03,06,10,2011,00,00*6C
$GPRMC,133049.00,A,4611.954707,N,01258.216311,E,001.2,351.6,061011,0$GPGGA,133050.00,4611.955003,N,01258.216407,E,1,04,3.9,138.23,M,46.25,M,,*68
$GPGLL,4611.955003,N,01258.216407,E,133050.00,A,A*6D
$GPVTG,357.3,T,357.5,M,001.2,N,002.3,K,A*27
$GPGSV,3,1,10,19,11,283,,16,60,288,29,07,05,334,,18,44,125,40*7E
$GPGSV,3,2,10,29,16,097,33,30,18,162,,21,64,060,38,22,23,168,38*7D
$GPGSV,3,3,10,03,40,294,,06,56,297,,,,,,,,,*79
$GPGSA,M,3,18,29,21,22,,,,,,,,,5.4,3.9,3.8*3F
Trace #45 at position 11.000000
$GPZDA,133049.03,06,10,2011,00,00*6C
$GPRMC,133049.00,A,4611.954707,N,01258.216311,E,001.2,351.6,061011,0$GPGGA,133050.00,4611.955003,N,01258.216407,E,1,04,3.9,138.23,M,46.25,M,,*68
$GPGLL,4611.955003,N,01258.216407,E,133050.00,A,A*6D
$GPVTG,357.3,T,357.5,M,001.2,N,002.3,K,A*27
$GPGSV,3,1,10,19,11,283,,16,60,288,29,07,05,334,,18,44,125,40*7E
$GPGSV,3,2,10,29,16,097,33,30,18,162,,21,64,060,38,22,23,168,38*7D
$GPGSV,3,3,10,03,40,294,,06,56,297,,,,,,,,,*79
$GPGSA,M,3,18,29,21,22,,,,,,,,,5.4,3.9,3.8*3F
Trace #46 at position 11.250000
$GPZDA,133049.03,06,10,2011,00,00*6C
$GPRMC,133049.00,A,4611.954707,N,01258.216311,E,001.2,351.6,061011,0$GPGGA,133050.00,4611.955003,N,01258.216407,E,1,04,3.9,138.23,M,46.25,M,,*68
$GPGLL,4611.955003,N,01258.216407,E,133050.00,A,A*6D
$GPVTG,357.3,T,357.5,M,001.2,N,002.3,K,A*27
$GPGSV,3,1,10,19,11,283,,16,60,288,29,07,05,334,,18,44,125,40*7E
$GPGSV,3,2,10,29,16,097,33,30,18,162,,21,64,060,38,22,23,168,38*7D
$GPGSV,3,3,10,03,40,294,,06,56,297,,,,,,,,,*79
$GPGSA,M,3,18,29,21,22,,,,,,,,,5.4,3.9,3.8*3F
Trace #47 at position 11.500000
$GPZDA,133050.03,06,10,2011,00,00*64
$GPRMC,133050.00,A,4611.955003,N,01258.216407,E,001.2,357.3,061011,0$GPGGA,,,,,,0,03,,,M,,M,,*65
$GPGLL,,,,,,V,N*64
$GPVTG,,T,,,,N,,K,N*61
$GPGSV,3,1,10,19,11,283,,16,60,288,,07,05,334,,18,44,125,40*75
$GPGSV,3,2,10,29,16,097,33,30,18,162,,21,64,060,38,22,23,168,39*7C
$GPGSV,3,3,10,03,40,294,,06,56,297,,,,,,,,,*79
$GPGSA,M,1,,,,,,,,,,,,,5.4,3.9,3.8*3C
Trace #48 at position 11.750000
$GPZDA,133051.02,06,10,2011,00,00*64
$GPRMC,133050.00,V,,,,,,,,,,N*79
$GPGGA,,,,,,0,03,,,M,,M,,*65
$GPGLL,,,,,,V,N*64
$GPVTG,,T,,,,N,,K,N*61
$GPGSV,3,1,10,19,11,283,,16,60,288,30,07,05,334,,18,44,125,41*77
$GPGSV,3,2,10,29,16,097,33,30,18,162,,21,64,060,38,22,23,168,38*7D
$GPGSV,3,3,10,03,40,294,,06,56,297,,,,,,,,,*79
$GPGSA,M,1,,,,,,,,,,,,,5.4,3.9,3.8*3C
Trace #49 at position 12.000000
$GPZDA,133051.02,06,10,2011,00,00*64
$GPRMC,133050.00,V,,,,,,,,,,N*79
$GPGGA,,,,,,0,03,,,M,,M,,*65
$GPGLL,,,,,,V,N*64
$GPVTG,,T,,,,N,,K,N*61
$GPGSV,3,1,10,19,11,283,,16,60,288,30,07,05,334,,18,44,125,41*77
$GPGSV,3,2,10,29,16,097,33,30,18,162,,21,64,060,38,22,23,168,38*7D
$GPGSV,3,3,10,03,40,294,,06,56,297,,,,,,,,,*79
$GPGSA,M,1,,,,,,,,,,,,,5.4,3.9,3.8*3C
Trace #50 at position 12.250000
$GPZDA,133052.02,06,10,2011,00,00*67
$GPRMC,133050.00,V,,,,,,,,,,N*79
$GPGGA,133053.00,4611.955837,N,01258.216317,E,1,04,3.9,138.80,M,46.25,M,,*6B
$GPGLL,4611.955837,N,01258.216317,E,133053.00,A,A*67
$GPVTG,341.5,T,341.6,M,000.9,N,001.6,K,A*2E
$GPGSV,3,1,10,19,11,283,,16,60,288,33,07,05,334,,18,44,125,41*74
$GPGSV,3,2,10,29,16,097,32,30,18,162,,21,64,060,36,22,23,168,39*73
$GPGSV,3,3,10,03,40,294,,06,56,297,,,,,,,,,*79
$GPGSA,M,3,18,29,21,22,,,,,,,,,5.4,3.9,3.8*3F
Trace #51 at position 12.500000
$GPZDA,133052.02,06,10,2011,00,00*67
$GPRMC,133050.00,V,,,,,,,,,,N*79
$GPGGA,133053.00,4611.955837,N,01258.216317,E,1,04,3.9,138.80,M,46.25,M,,*6B
$GPGLL,4611.955837,N,01258.216317,E,133053.00,A,A*67
$GPVTG,341.5,T,341.6,M,000.9,N,001.6,K,A*2E
$GPGSV,3,1,10,19,11,283,,16,60,288,33,07,05,334,,18,44,125,41*74
$GPGSV,3,2,10,29,16,097,32,30,18,162,,21,64,060,36,22,23,168,39*73
$GPGSV,3,3,10,03,40,294,,06,56,297,,,,,,,,,*79
$GPGSA,M,3,18,29,21,22,,,,,,,,,5.4,3.9,3.8*3F
Trace #52 at position 12.750000
$GPZDA,133053.03,06,10,2011,00,00*67
$GPRMC,133053.00,A,4611.955837,N,01258.216317,E,000.9,341.5,061011,0.2,E,A*34
$GPGGA,133054.00,4611.955858,N,01258.216090,E,1,04,8.6,140.08,M,46.25,M,,*62
$GPGLL,4611.955858,N,01258.216090,E,133054.00,A,A*65
$GPVTG,7.6,T,7.7,M,001.9,N,003.6,K,A*2F
$GPGSV,3,1,10,19,11,283,,16,60,288,32,07,05,334,,18,44,125,40*74
$GPGSV,3,2,10,29,16,097,33,30,18,162,,21,64,060,37,22,23,168,38*72
$GPGSV,3,3,10,03,40,294,,06,56,297,,,,,,,,,*79
$GPGSA,M,3,16,18,21,22,,,,,,,,,20.4,8.6,18.5*37
Trace #53 at position 13.000000
$GPZDA,133053.03,06,10,2011,00,00*67
$GPRMC,133053.00,A,4611.955837,N,01258.216317,E,000.9,341.5,061011,0.2,E,A*34
$GPGGA,133054.00,4611.955858,N,01258.216090,E,1,04,8.6,140.08,M,46.25,M,,*62
$GPGLL,4611.955858,N,01258.216090,E,133054.00,A,A*65
$GPVTG,7.6,T,7.7,M,001.9,N,003.6,K,A*2F
$GPGSV,3,1,10,19,11,283,,16,60,288,32,07,05,334,,18,44,125,40*74
$GPGSV,3,2,10,29,16,097,33,30,18,162,,21,64,060,37,22,23,168,38*72
$GPGSV,3,3,10,03,40,294,,06,56,297,,,,,,,,,*79
$GPGSA,M,3,16,18,21,22,,,,,,,,,20.4,8.6,18.5*37
Trace #54 at position 13.250000
$GPZDA,133053.03,06,10,2011,00,00*67
$GPRMC,133053.00,A,4611.955837,N,01258.216317,E,000.9,341.5,061011,0.2,E,A*34
$GPGGA,133054.00,4611.955858,N,01258.216090,E,1,04,8.6,140.08,M,46.25,M,,*62
$GPGLL,4611.955858,N,01258.216090,E,133054.00,A,A*65
$GPVTG,7.6,T,7.7,M,001.9,N,003.6,K,A*2F
$GPGSV,3,1,10,19,11,283,,16,60,288,32,07,05,334,,18,44,125,40*74
$GPGSV,3,2,10,29,16,097,33,30,18,162,,21,64,060,37,22,23,168,38*72
$GPGSV,3,3,10,03,40,294,,06,56,297,,,,,,,,,*79
$GPGSA,M,3,16,18,21,22,,,,,,,,,20.4,8.6,18.5*37
Trace #55 at position 13.500000
$GPZDA,133054.03,06,10,2011,00,00*60
$GPRMC,133054.00,A,4611.955858,N,01258.216090,E,001.9,7.6,061011,0.2,E,A*35
$GPGGA,133055.00,4611.956327,N,01258.215920,E,1,05,1.9,139.25,M,46.25,M,,*64
$GPGLL,4611.956327,N,01258.215920,E,133055.00,A,A*65
$GPVTG,333.4,T,333.5,M,000.9,N,001.7,K,A*2D
$GPGSV,3,1,10,19,11,283,,16,60,287,31,07,05,334,,18,44,125,40*78
$GPGSV,3,2,10,29,16,097,34,30,18,162,,21,64,060,39,22,23,168,38*7B
$GPGSV,3,3,10,03,40,294,,06,56,297,,,,,,,,,*79
$GPGSA,M,3,16,18,29,21,22,,,,,,,,3.5,1.9,2.9*3D
Trace #56 at position 13.750000
$GPZDA,133054.03,06,10,2011,00,00*60
$GPRMC,133054.00,A,4611.955858,N,01258.216090,E,001.9,7.6,061011,0.2,E,A*35
$GPGGA,133055.00,4611.956327,N,01258.215920,E,1,05,1.9,139.25,M,46.25,M,,*64
$GPGLL,4611.956327,N,01258.215920,E,133055.00,A,A*65
$GPVTG,333.4,T,333.5,M,000.9,N,001.7,K,A*2D
$GPGSV,3,1,10,19,11,283,,16,60,287,31,07,05,334,,18,44,125,40*78
$GPGSV,3,2,10,29,16,097,34,30,18,162,,21,64,060,39,22,23,168,38*7B
$GPGSV,3,3,10,03,40,294,,06,56,297,,,,,,,,,*79
$GPGSA,M,3,16,18,29,21,22,,,,,,,,3.5,1.9,2.9*3D
Trace #57 at position 14.000000
$GPZDA,133055.03,06,10,2011,00,00*61
$GPRMC,133055.00,A,4611.956327,N,01258.215920,E,000.9,333.4,061011,0.2,E,A*32
$GPGGA,133056.00,4611.956612,N,01258.215888,E,1,04,3.9,139.28,M,46.25,M,,*69
$GPGLL,4611.956612,N,01258.215888,E,133056.00,A,A*66
$GPVTG,344.7,T,344.9,M,001.3,N,002.3,K,A*2E
$GPGSV,3,1,10,19,11,283,,16,60,287,,07,05,334,,18,44,125,41*7B
$GPGSV,3,2,10,29,16,097,34,30,18,162,,21,64,060,38,22,23,168,38*7A
$GPGSV,3,3,10,03,40,294,,06,56,297,,,,,,,,,*79
$GPGSA,M,3,18,29,21,22,,,,,,,,,5.4,3.9,3.8*3F
Trace #58 at position 14.250000
$GPZDA,133055.03,06,10,2011,00,00*61
$GPRMC,133055.00,A,4611.956327,N,01258.215920,E,000.9,333.4,061011,0.2,E,A*32
$GPGGA,133056.00,4611.956612,N,01258.215888,E,1,04,3.9,139.28,M,46.25,M,,*69
$GPGLL,4611.956612,N,01258.215888,E,133056.00,A,A*66
$GPVTG,344.7,T,344.9,M,001.3,N,002.3,K,A*2E
$GPGSV,3,1,10,19,11,283,,16,60,287,,07,05,334,,18,44,125,41*7B
$GPGSV,3,2,10,29,16,097,34,30,18,162,,21,64,060,38,22,23,168,38*7A
$GPGSV,3,3,10,03,40,294,,06,56,297,,,,,,,,,*79
$GPGSA,M,3,18,29,21,22,,,,,,,,,5.4,3.9,3.8*3F
Trace #59 at position 14.500000
$GPZDA,133056.03,06,10,2011,00,00*62
$GPRMC,133056.00,A,4611.956612,N,01258.215888,E,001.3,344.7,061011,0.2,E,A*39
$GPGGA,133057.00,4611.956991,N,01258.215822,E,1,04,3.9,139.27,M,46.25,M,,*63
$GPGLL,4611.956991,N,01258.215822,E,133057.00,A,A*63
$GPVTG,341.5,T,341.7,M,001.6,N,003.0,K,A*25
$GPGSV,3,1,10,19,11,283,,16,60,287,30,07,05,334,,18,44,125,41*78
$GPGSV,3,94,,06,56,297,,,,,,,,,*79
$GPGSA,M,3,18,29,21,22,,,,,,,,,5.4,3.9,3.8*3F
Trace #60 at position 14.750000
$GPZDA,133056.03,06,10,2011,00,00*62
$GPRMC,133056.00,A,4611.956612,N,01258.215888,E,001.3,344.7,061011,0.2,E,A*39
$GPGGA,133057.00,4611.956991,N,01258.215822,E,1,04,3.9,139.27,M,46.25,M,,*63
$GPGLL,4611.956991,N,01258.215822,E,133057.00,A,A*63
$GPVTG,341.5,T,341.7,M,001.6,N,003.0,K,A*25
$GPGSV,3,1,10,19,11,283,,16,60,287,30,07,05,334,,18,44,125,41*78
$GPGSV,3,94,,06,56,297,,,,,,,,,*79
$GPGSA,M,3,18,29,21,22,,,,,,,,,5.4,3.9,3.8*3F
Trace #61 at position 15.000000
$GPZDA,133056.03,06,10,2011,00,00*62
$GPRMC,133056.00,A,4611.956612,N,01258.215888,E,001.3,344.7,061011,0.2,E,A*39
$GPGGA,133057.00,4611.956991,N,01258.215822,E,1,04,3.9,139.27,M,46.25,M,,*63
$GPGLL,4611.956991,N,01258.215822,E,133057.00,A,A*63
$GPVTG,341.5,T,341.7,M,001.6,N,003.0,K,A*25
$GPGSV,3,1,10,19,11,283,,16,60,287,30,07,05,334,,18,44,125,41*78
$GPGSV,3,94,,06,56,297,,,,,,,,,*79
$GPGSA,M,3,18,29,21,22,,,,,,,,,5.4,3.9,3.8*3F
Trace #62 at position 15.250000
$GPZDA,133056.03,06,10,2011,00,00*62
$GPRMC,133056.00,A,4611.956612,N,01258.215888,E,001.3,344.7,061011,0.2,E,A*39
$GPGGA,133057.00,4611.956991,N,01258.215822,E,1,04,3.9,139.27,M,46.25,M,,*63
$GPGLL,4611.956991,N,01258.215822,E,133057.00,A,A*63
$GPVTG,341.5,T,341.7,M,001.6,N,003.0,K,A*25
$GPGSV,3,1,10,19,11,283,,16,60,287,30,07,05,334,,18,44,125,41*78
$GPGSV,3,94,,06,56,297,,,,,,,,,*79
$GPGSA,M,3,18,29,21,22,,,,,,,,,5.4,3.9,3.8*3F
Trace #63 at position 15.500000
$GPZDA,133057.03,06,10,2011,00,00*63
$GPRMC,133057.00,A,4611.956991,N,01258.215822,E,001.6,341.5,061011,0.2,E,A*3E
$GPGGA,133058.00,4611.957194,N,01258.215708,E,1,04,3.9,139.44,M,46.25,M,,*62
$GPGLL,4611.957194,N,01258.215708,E,133058.00,A,A*67
$GPVTG,265.1,T,265.2,M,000.5,N,000.9,K,A*2C
$GPGSV,3,1,10,19,11,283,,16,60,287,32,07,05,334,,18,44,125,41*7A
$GPGSV,3,2,10,29,16,097,31,30,18,162,,21,64,060,37,22,23,168,39*71
$GPGSV,3,3,,,,,5.4,3.9,3.8*3F
$GPZDA,133058.04,06,10,2011,00,00*6B
$GPRMC,133058.00,A,4611.957194,N,01258.215708,E,000.5,265.1,061011,0.2,E,A*3B
$GPGGA,133059.00,4611.957204,N,01258.215700,E,1,04,3.9,139.92,M,46.25,M,,*6A
$GPGLL,4611.957204,N,01258.215700,E,133059.00,A,A*64
$GPVTG,113.6,T,113.7,M,000.1,N,000.2,K,A*21
$GPGSV,3,1,10,19,11,283,,16,60,287,27,07,05,334,,18,44,125,42*7D
$GPGSV,3,2,10,29,16,097,32,30,18,162,,21,64,060,38,22,23,168,38*7C
$GPGSV,3,3,10,03,40,294,,06,56,297,,,,,,,,,*79
$GPGSA,M,3,18,2059.00,A,4611.957204,N,01258.215700,E,000.1,113.6,061011,0.2,E,A*39
Trace #64 at position 15.750000
$GPZDA,133057.03,06,10,2011,00,00*63
$GPRMC,133057.00,A,4611.956991,N,01258.215822,E,001.6,341.5,061011,0.2,E,A*3E
$GPGGA,133058.00,4611.957194,N,01258.215708,E,1,04,3.9,139.44,M,46.25,M,,*62
$GPGLL,4611.957194,N,01258.215708,E,133058.00,A,A*67
$GPVTG,265.1,T,265.2,M,000.5,N,000.9,K,A*2C
$GPGSV,3,1,10,19,11,283,,16,60,287,32,07,05,334,,18,44,125,41*7A
$GPGSV,3,2,10,29,16,097,31,30,18,162,,21,64,060,37,22,23,168,39*71
$GPGSV,3,3,,,,,5.4,3.9,3.8*3F
$GPZDA,133058.04,06,10,2011,00,00*6B
$GPRMC,133058.00,A,4611.957194,N,01258.215708,E,000.5,265.1,061011,0.2,E,A*3B
$GPGGA,133059.00,4611.957204,N,01258.215700,E,1,04,3.9,139.92,M,46.25,M,,*6A
$GPGLL,4611.957204,N,01258.215700,E,133059.00,A,A*64
$GPVTG,113.6,T,113.7,M,000.1,N,000.2,K,A*21
$GPGSV,3,1,10,19,11,283,,16,60,287,27,07,05,334,,18,44,125,42*7D
$GPGSV,3,2,10,29,16,097,32,30,18,162,,21,64,060,38,22,23,168,38*7C
$GPGSV,3,3,10,03,40,294,,06,56,297,,,,,,,,,*79
$GPGSA,M,3,18,2059.00,A,4611.957204,N,01258.215700,E,000.1,113.6,061011,0.2,E,A*39
Trace #65 at position 16.000000
$GPGGA,133100.00,4611.957288,N,01258.215678,E,1,04,3.9,140.50,M,46.25,M,,*6D
$GPGLL,4611.957288,N,01258.215678,E,133100.00,A,A*63
$GPVTG,309.2,T,309.4,M,000.6,N,001.1,K,A*23
$GPGSV,3,1,10,19,11,283,,16,60,287,32,07,05,334,,18,44,125,41*7A
$GPGSV,3,2,10,29,16,097,32,30,18,162,,21,64,060,39,22,23,168,39*7C
$GPGSV,3,3,10,03,40,294,,06,56,297,,,,,,,,,*79
$GPGSA,M,3,18,29,21,22,,,,,,,,,5.4,3.9,3.8*3F
Trace #66 at position 16.250000
$GPZDA,133100.03,06,10,2011,00,00*60$GPGGA,,,,,,0,03,,,M,,M,,*65
$GPGLL,,,,,,V,N*64
$GPVTG,,T,,,,N,,K,N*61
$GPGSV,3,1,10,19,11,283,,16,60,287,31,07,05,334,,18,44,125,40*78
$GPGSV,3,2,10,29,16,097,32,30,18,162,,21,64,060,37,22,23,168,38*73
$GPGSV,3,3,10,03,40,294,,06,56,297,,,,,,,,,*79
$GPGSA,M,1,,,,,,,,,,,,,5.4,3.9,3.8*3C
Trace #67 at position 16.500000
$GPZDA,133100.03,06,10,2011,00,00*60$GPGGA,,,,,,0,03,,,M,,M,,*65
$GPGLL,,,,,,V,N*64
$GPVTG,,T,,,,N,,K,N*61
$GPGSV,3,1,10,19,11,283,,16,60,287,31,07,05,334,,18,44,125,40*78
$GPGSV,3,2,10,29,16,097,32,30,18,162,,21,64,060,37,22,23,168,38*73
$GPGSV,3,3,10,03,40,294,,06,56,297,,,,,,,,,*79
$GPGSA,M,1,,,,,,,,,,,,,5.4,3.9,3.8*3C
Trace #68 at position 16.750000
$GPZDA,133101.02,06,10,2011,00,00*60
$GPRMC,133100.00,V,,,,,,,,,,N*7D
$GPGGA,,,,,,0,03,,,M,,M,,*65
$GPGLL,,,,,,V,N*64
$GPVTG,,T,,,,N,,K,N*61
$GPGSV,3,1,10,19,11,283,,16,60,287,32,07,05,334,,18,44,125,40*7B
$GPGSV,3,2,10,29,16,097,30,30,18,162,,21,64,060,38,22,23,168,39*7F
$GPGSV,3,3,10,03,40,294,,06,56,297,,,,,,,,,*79
$GPGSA,M,1,,,,,,,,,,,,,5.4,3.9,3.8*3C
Trace #69 at position 17.000000
$GPZDA,133101.02,06,10,2011,00,00*60
$GPRMC,133100.00,V,,,,,,,,,,N*7D
$GPGGA,,,,,,0,03,,,M,,M,,*65
$GPGLL,,,,,,V,N*64
$GPVTG,,T,,,,N,,K,N*61
$GPGSV,3,1,10,19,11,283,,16,60,287,32,07,05,334,,18,44,125,40*7B
$GPGSV,3,2,10,29,16,097,30,30,18,162,,21,64,060,38,22,23,168,39*7F
$GPGSV,3,3,10,03,40,294,,06,56,297,,,,,,,,,*79
$GPGSA,M,1,,,,,,,,,,,,,5.4,3.9,3.8*3C
Trace #70 at position 17.250000
$GPZDA,133102.02,06,10,2011,00,00*63
$GPRMC,133100.00,V,,,,,,,,,,N*7D
$GPGGA,,,,,,0,03,,,M,,M,,*65
$GPGLL,,,,,,V,N*64
$GPVTG,,T,,,,N,,K,N*61
$GPGSV,3,1,10,19,11,283,,16,60,287,31,07,05,334,,18,44,125,41*79
$GPGSV,3,2,10,29,16,097,32,30,18,162,,21,64,060,38,22,23,168,38*7C
$GPGSV,3,3,10,03,40,294,,06,56,297,,,,,,,,,*79
$GPGSA,M,1,,,,,,,,,,,,,5.4,3.9,3.8*3C
Trace #71 at position 17.500000
$GPZDA,133103.02,06,10,2011,00,00*62
$GPRMC,133100.00,V,,,,,,,,,,N*7D
$GPGGA,,,,,,0,03,,,M,,M,,*65
$GPGLL,,,,,,V,N*64
$GPVTG,,T,,,,N,,K,N*61
$GPGSV,3,1,10,19,11,283,,16,60,287,30,07,05,334,,18,44,125,41*78
$GPGSV,3,2,10,29,16,097,32,30,18,162,,21,64,060,38,22,23,168,38*7C
$GPGSV,3,3,10,03,40,294,,06,56,297,,,,,,,,,*79
$GPGSA,M,1,,,,,,,,,,,,,5.4,3.9,3.8*3C
Trace #72 at position 17.750000
$GPZDA,133103.02,06,10,2011,00,00*62
$GPRMC,133100.00,V,,,,,,,,,,N*7D
$GPGGA,,,,,,0,03,,,M,,M,,*65
$GPGLL,,,,,,V,N*64
$GPVTG,,T,,,,N,,K,N*61
$GPGSV,3,1,10,19,11,283,,16,60,287,30,07,05,334,,18,44,125,41*78
$GPGSV,3,2,10,29,16,097,32,30,18,162,,21,64,060,38,22,23,168,38*7C
$GPGSV,3,3,10,03,40,294,,06,56,297,,,,,,,,,*79
$GPGSA,M,1,,,,,,,,,,,,,5.4,3.9,3.8*3C
Trace #73 at position 18.000000
$GPZDA,133104.02,06,10,2011,00,00*65
$GPRMC,133100.00,V,,,,,,,,,,N*7D
$GPGGA,133105.00,4611.958470,N,01258.214711,E,1,04,3.9,141.44,M,46.25,M,,*6D
$GPGLL,4611.958470,N,01258.214711,E,133105.00,A,A*67
$GPVTG,330.8,T,331.0,M,001.3,N,002.4,K,A*2E
$GPGSV,3,1,10,19,11,283,,16,60,287,31,07,05,334,,18,44,125,42*7A
$GPGSV,3,2,10,29,16,097,33,30,18,162,,21,64,060,38,22,23,168,39*7C
$GPGSV,3,3,10,03,40,294,,06,56,297,,,,,,,,,*79
$GPGSA,M,3,18,29,21,22,,,,,,,,,5.4,3.9,3.8*3F
Trace #74 at position 18.250000
$GPZDA,133104.02,06,10,2011,00,00*65
$GPRMC,133100.00,V,,,,,,,,,,N*7D
$GPGGA,133105.00,4611.958470,N,01258.214711,E,1,04,3.9,141.44,M,46.25,M,,*6D
$GPGLL,4611.958470,N,01258.214711,E,133105.00,A,A*67
$GPVTG,330.8,T,331.0,M,001.3,N,002.4,K,A*2E
$GPGSV,3,1,10,19,11,283,,16,60,287,31,07,05,334,,18,44,125,42*7A
$GPGSV,3,2,10,29,16,097,33,30,18,162,,21,64,060,38,22,23,168,39*7C
$GPGSV,3,3,10,03,40,294,,06,56,297,,,,,,,,,*79
$GPGSA,M,3,18,29,21,22,,,,,,,,,5.4,3.9,3.8*3F
Trace #75 at position 18.500000
$GPZDA,133104.02,06,10,2011,00,00*65
$GPRMC,133100.00,V,,,,,,,,,,N*7D
$GPGGA,133105.00,4611.958470,N,01258.214711,E,1,04,3.9,141.44,M,46.25,M,,*6D
$GPGLL,4611.958470,N,01258.214711,E,133105.00,A,A*67
$GPVTG,330.8,T,331.0,M,001.3,N,002.4,K,A*2E
$GPGSV,3,1,10,19,11,283,,16,60,287,31,07,05,334,,18,44,125,42*7A
$GPGSV,3,2,10,29,16,097,33,30,18,162,,21,64,060,38,22,23,168,39*7C
$GPGSV,3,3,10,03,40,294,,06,56,297,,,,,,,,,*79
$GPGSA,M,3,18,29,21,22,,,,,,,,,5.4,3.9,3.8*3F
Trace #76 at position 18.750000
$GPZDA,133105.03,06,10,2011,00,00*65
$GPRMC,133105.00,A,4611.958470,N,01258.214711,E,001.3,330.8,061011,0.2,E,A*34
$GPGGA,133106.00,4611.958914,N,01258.214512,E,1,04,3.9,140.99,M,46.25,M,,*61
$GPGLL,4611.958914,N,01258.214512,E,133106.00,A,A*6A
$GPVTG,322.5,T,322.7,M,001.8,N,003.3,K,A*28
$GPGSV,3,1,10,19,11,283,,16,60,287,29,07,05,334,,18,44,125,41*70
$GPGSV,3,2,10,29,16,097,32,30,18,162,,21,64,060,37,22,23,168,39*72
$GPGSV,3,3,10,03,40,294,,06,56,297,,,,,,,,,*79
$GPGSA,M,3,18,29,21,22,,,,,,,,,5.4,3.9,3.8*3F
Trace #77 at position 19.000000
$GPZDA,133105.03,06,10,2011,00,00*65
$GPRMC,133105.00,A,4611.958470,N,01258.214711,E,001.3,330.8,061011,0.2,E,A*34
$GPGGA,133106.00,4611.958914,N,01258.214512,E,1,04,3.9,140.99,M,46.25,M,,*61
$GPGLL,4611.958914,N,01258.214512,E,133106.00,A,A*6A
$GPVTG,322.5,T,322.7,M,001.8,N,003.3,K,A*28
$GPGSV,3,1,10,19,11,283,,16,60,287,29,07,05,334,,18,44,125,41*70
$GPGSV,3,2,10,29,16,097,32,30,18,162,,21,64,060,37,22,23,168,39*72
$GPGSV,3,3,10,03,40,294,,06,56,297,,,,,,,,,*79
$GPGSA,M,3,18,29,21,22,,,,,,,,,5.4,3.9,3.8*3F
Trace #78 at position 19.250000
$GPZDA,133106.03,06,10,2011,00,00*66
$GPRMC,133106.00,A,4611.958914,N,01258.214512,E,001.8,322.5,061011,0.2,E,A*3C
$GPGGA,133107.00,4611.959311,N,01258.214473,E,1,04,3.9,140.59,M,46.25,M,,*64
$GPGLL,4611.959311,N,01258.214473,E,133107.00,A,A*63
$GPVTG,12.1,T,12.3,M,001.0,N,001.9,K,A*28
$GPGSV,3,1,10,19,11,283,,16,60,287,30,07,05,334,,18,44,125,41*78
$GPGSV,3,2,10,29,16,097,,30,18,162,,21,64,060,37,22,23,168,39*73
$GPGSV,3,3,10,03,40,294,,06,56,297,,,,,,,,,*79
$GPGSA,M,3,18,29,21,22,,,,,,,,,5.4,3.9,3.8*3F
Trace #79 at position 19.500000
$GPZDA,133106.03,06,10,2011,00,00*66
$GPRMC,133106.00,A,4611.958914,N,01258.214512,E,001.8,322.5,061011,0.2,E,A*3C
$GPGGA,133107.00,4611.959311,N,01258.214473,E,1,04,3.9,140.59,M,46.25,M,,*64
$GPGLL,4611.959311,N,01258.214473,E,133107.00,A,A*63
$GPVTG,12.1,T,12.3,M,001.0,N,001.9,K,A*28
$GPGSV,3,1,10,19,11,283,,16,60,287,30,07,05,334,,18,44,125,41*78
$GPGSV,3,2,10,29,16,097,,30,18,162,,21,64,060,37,22,23,168,39*73
$GPGSV,3,3,10,03,40,294,,06,56,297,,,,,,,,,*79
$GPGSA,M,3,18,29,21,22,,,,,,,,,5.4,3.9,3.8*3F
Trace #80 at position 19.750000
$GPZDA,133107.03,06,10,2011,00,00*67
$GPRMC,133107.00,A,4611.959311,N,01258.214473,E,001.0,12.1,061011,0.2,E,A*09
$GPGGA,133108.00,4611.959546,N,01258.214472,E,1,04,3.9,140.72,M,46.25,M,,*67
$GPGLL,4611.959546,N,01258.214472,E,133108.00,A,A*69
$GPVTG,278.4,T,278.6,M,000.9,N,001.6,K,A*2F
$GPGSV,3,1,10,19,11,283,,16,60,287,30,07,05,334,,18,44,125,40*79
$GPGSV,3,2,10,29,16,097,34,30,18,162,,21,64,060,37,22,23,168,38*75
$GPGSV,3,3,10,03,40,294,,06,56,297,,,,,,,,,*79
$GPGSA,M,3,18,29,21,22,,,,,,,,,5.4,3.9,3.8*3F
Trace #81 at position 20.000000
$GPZDA,133107.03,06,10,2011,00,00*67
$GPRMC,133107.00,A,4611.959311,N,01258.214473,E,001.0,12.1,061011,0.2,E,A*09
$GPGGA,133108.00,4611.959546,N,01258.214472,E,1,04,3.9,140.72,M,46.25,M,,*67
$GPGLL,4611.959546,N,01258.214472,E,133108.00,A,A*69
$GPVTG,278.4,T,278.6,M,000.9,N,001.6,K,A*2F
$GPGSV,3,1,10,19,11,283,,16,60,287,30,07,05,334,,18,44,125,40*79
$GPGSV,3,2,10,29,16,097,34,30,18,162,,21,64,060,37,22,23,168,38*75
$GPGSV,3,3,10,03,40,294,,06,56,297,,,,,,,,,*79
$GPGSA,M,3,18,29,21,22,,,,,,,,,5.4,3.9,3.8*3F
Trace #82 at position 20.250000
$GPZDA,133108.03,06,10,2011,00,00*68
$GPRMC,133108.00,A,4611.959546,N,01258.214472,E,000.9,278.4,061011,0.2,E,A*30
$GPGGA,,,,,,0,03,,,M,,M,,*65
$GPGLL,,,,,,V,N*64
$GPVTG,,T,,,,N,,K,N*61
$GPGSV,3,1,10,19,11,283,,16,60,287,31,07,05,334,,18,44,125,40*78
$GPGSV,3,2,10,29,16,097,32,30,18,162,,21,64,060,37,22,23,168,39*72
$GPGSV,3,3,10,03,40,294,,06,56,297,,,,,,,,,*79
$GPGSA,M,1,,,,,,,,,,,,,5.4,3.9,3.8*3C
Trace #83 at position 20.500000
$GPZDA,133108.03,06,10,2011,00,00*68
$GPRMC,133108.00,A,4611.959546,N,01258.214472,E,000.9,278.4,061011,0.2,E,A*30
$GPGGA,,,,,,0,03,,,M,,M,,*65
$GPGLL,,,,,,V,N*64
$GPVTG,,T,,,,N,,K,N*61
$GPGSV,3,1,10,19,11,283,,16,60,287,31,07,05,334,,18,44,125,40*78
$GPGSV,3,2,10,29,16,097,32,30,18,162,,21,64,060,37,22,23,168,39*72
$GPGSV,3,3,10,03,40,294,,06,56,297,,,,,,,,,*79
$GPGSA,M,1,,,,,,,,,,,,,5.4,3.9,3.8*3C
Trace #84 at position 20.750000
$GPZDA,133108.03,06,10,2011,00,00*68
$GPRMC,133108.00,A,4611.959546,N,01258.214472,E,000.9,278.4,061011,0.2,E,A*30
$GPGGA,,,,,,0,03,,,M,,M,,*65
$GPGLL,,,,,,V,N*64
$GPVTG,,T,,,,N,,K,N*61
$GPGSV,3,1,10,19,11,283,,16,60,287,31,07,05,334,,18,44,125,40*78
$GPGSV,3,2,10,29,16,097,32,30,18,162,,21,64,060,37,22,23,168,39*72
$GPGSV,3,3,10,03,40,294,,06,56,297,,,,,,,,,*79
$GPGSA,M,1,,,,,,,,,,,,,5.4,3.9,3.8*3C
Trace #85 at position 21.000000
$GPZDA,133109.02,06,10,2011,00,00*68
$GPRMC,133108.00,V,,,,,,,,,,N*75
$GPGGA,133110.00,4611.959950,N,01258.214143,E,1,04,3.9,141.30,M,46.25,M,,*65
$GPGLL,4611.959950,N,01258.214143,E,133110.00,A,A*6C
$GPVTG,345.3,T,345.5,M,001.1,N,002.0,K,A*27
$GPGSV,3,1,10,19,11,283,,16,60,287,,07,05,334,,18,44,125,40*7A
$GPGSV,3,2,10,29,16,097,32,30,18,162,,21,64,060,38,22,23,168,40*73
$GPGSV,3,3,10,03,40,294,,06,56,297,,,,,,,,,*79
$GPGSA,M,3,18,29,21,22,,,,,,,,,5.4,3.9,3.8*3F
Trace #86 at position 21.250000
$GPZDA,133109.02,06,10,2011,00,00*68
$GPRMC,133108.00,V,,,,,,,,,,N*75
$GPGGA,133110.00,4611.959950,N,01258.214143,E,1,04,3.9,141.30,M,46.25,M,,*65
$GPGLL,4611.959950,N,01258.214143,E,133110.00,A,A*6C
$GPVTG,345.3,T,345.5,M,001.1,N,002.0,K,A*27
$GPGSV,3,1,10,19,11,283,,16,60,287,,07,05,334,,18,44,125,40*7A
$GPGSV,3,2,10,29,16,097,32,30,18,162,,21,64,060,38,22,23,168,40*73
$GPGSV,3,3,10,03,40,294,,06,56,297,,,,,,,,,*79
$GPGSA,M,3,18,29,21,22,,,,,,,,,5.4,3.9,3.8*3F
Trace #87 at position 21.500000
$GPZDA,133110.03,06,10,2011,00,00*61
$GPRMC,133110.00,A,4611.959950,N,01258.214143,E,001.1,345.3,061011,0.2,E,A*34
$GPGGA,133111.00,4611.960407,N,01258.214043,E,1,04,3.9,140.50,M,46.25,M,,*67
$GPGLL,4611.960407,N,01258.214043,E,133111.00,A,A*69
$GPVTG,336.2,T,336.4,M,002.1,N,003.8,K,A*2D
$GPGSV,3,1,10,19,11,283,,16,60,287,30,07,05,334,,18,44,124,41*79
$GPGSV,3,2,10,29,16,097,,30,18,162,,21,64,060,38,22,23,168,39*7C
$GPGSV,3,3,10,03,40,294,,06,56,297,,,,,,,,,*79
$GPGSA,M,3,18,29,21,22,,,,,,,,,5.4,3.9,3.8*3F
Trace #88 at position 21.750000
$GPZDA,133110.03,06,10,2011,00,00*61
$GPRMC,133110.00,A,4611.959950,N,01258.214143,E,001.1,345.3,061011,0.2,E,A*34
$GPGGA,133111.00,4611.960407,N,01258.214043,E,1,04,3.9,140.50,M,46.25,M,,*67
$GPGLL,4611.960407,N,01258.214043,E,133111.00,A,A*69
$GPVTG,336.2,T,336.4,M,002.1,N,003.8,K,A*2D
$GPGSV,3,1,10,19,11,283,,16,60,287,30,07,05,334,,18,44,124,41*79
$GPGSV,3,2,10,29,16,097,,30,18,162,,21,64,060,38,22,23,168,39*7C
$GPGSV,3,3,10,03,40,294,,06,56,297,,,,,,,,,*79
$GPGSA,M,3,18,29,21,22,,,,,,,,,5.4,3.9,3.8*3F
Trace #89 at position 22.000000
$GPZDA,133110.03,06,10,2011,00,00*61
$GPRMC,133110.00,A,4611.959950,N,01258.214143,E,001.1,345.3,061011,0.2,E,A*34
$GPGGA,133111.00,4611.960407,N,01258.214043,E,1,04,3.9,140.50,M,46.25,M,,*67
$GPGLL,4611.960407,N,01258.214043,E,133111.00,A,A*69
$GPVTG,336.2,T,336.4,M,002.1,N,003.8,K,A*2D
$GPGSV,3,1,10,19,11,283,,16,60,287,30,07,05,334,,18,44,124,41*79
$GPGSV,3,2,10,29,16,097,,30,18,162,,21,64,060,38,22,23,168,39*7C
$GPGSV,3,3,10,03,40,294,,06,56,297,,,,,,,,,*79
$GPGSA,M,3,18,29,21,22,,,,,,,,,5.4,3.9,3.8*3F
Trace #90 at position 22.250000
$GPZDA,133111.03,06,10,2011,00,00*60
$GPRMC,133111.00,A,4611.960407,N,01258.214043,E,002.1,336.2,061011,0.2,E,A*37
$GPGGA,133112.00,4611.960857,N,01258.213913,E,1,04,3.9,139.87,M,46.25,M,,*62
$GPGLL,4611.960857,N,01258.213913,E,133112.00,A,A*68
$GPVTG,341.3,T,341.5,M,001.3,N,002.4,K,A*21
$GPGSV,3,1,10,19,11,283,,16,60,287,29,07,05,334,,18,44,124,41*71
$GPGSV,3,2,10,29,16,097,30,30,18,162,,21,64,060,38,22,23,168,39*7F
$GPGSV,3,3,10,03,40,294,,06,56,297,,,,,,,,,*79
$GPGSA,M,3,18,29,21,22,,,,,,,,,5.4,3.9,3.8*3F
Trace #91 at position 22.500000
$GPZDA,133111.03,06,10,2011,00,00*60
$GPRMC,133111.00,A,4611.960407,N,01258.214043,E,002.1,336.2,061011,0.2,E,A*37
$GPGGA,133112.00,4611.960857,N,01258.213913,E,1,04,3.9,139.87,M,46.25,M,,*62
$GPGLL,4611.960857,N,01258.213913,E,133112.00,A,A*68
$GPVTG,341.3,T,341.5,M,001.3,N,002.4,K,A*21
$GPGSV,3,1,10,19,11,283,,16,60,287,29,07,05,334,,18,44,124,41*71
$GPGSV,3,2,10,29,16,097,30,30,18,162,,21,64,060,38,22,23,168,39*7F
$GPGSV,3,3,10,03,40,294,,06,56,297,,,,,,,,,*79
$GPGSA,M,3,18,29,21,22,,,,,,,,,5.4,3.9,3.8*3F
Trace #92 at position 22.750000
$GPZDA,133112.03,06,10,2011,00,00*63
$GPRMC,133112.00,A,4611.960857,N,01258.213913,E,001.3,341.3,061011,0.2,E,A*36
$GPGGA,,,,,,0,03,,,M,,M,,*65
$GPGLL,,,,,,V,N*64
$GPVTG,,T,,,,N,,K,N*61
$GPGSV,3,1,10,19,11,283,,16,60,287,30,07,05,334,,18,44,124,41*79
$GPGSV,3,2,10,29,16,097,31,30,18,162,,21,64,060,38,22,23,168,39*7E
$GPGSV,3,3,10,03,40,294,,06,56,297,,,,,,,,,*79
$GPGSA,M,1,,,,,,,,,,,,,5.4,3.9,3.8*3C
Trace #93 at position 23.000000
$GPZDA,133112.03,06,10,2011,00,00*63
$GPRMC,133112.00,A,4611.960857,N,01258.213913,E,001.3,341.3,061011,0.2,E,A*36
$GPGGA,,,,,,0,03,,,M,,M,,*65
$GPGLL,,,,,,V,N*64
$GPVTG,,T,,,,N,,K,N*61
$GPGSV,3,1,10,19,11,283,,16,60,287,30,07,05,334,,18,44,124,41*79
$GPGSV,3,2,10,29,16,097,31,30,18,162,,21,64,060,38,22,23,168,39*7E
$GPGSV,3,3,10,03,40,294,,06,56,297,,,,,,,,,*79
$GPGSA,M,1,,,,,,,,,,,,,5.4,3.9,3.8*3C
Trace #94 at position 23.250000
$GPZDA,133113.02,06,10,2011,00,00*63
$GPRMC,133112.00,V,,,,,,,,,,N*7E
$GPGGA,133114.00,4611.961657,N,01258.213618,E,1,04,3.9,139.49,M,46.25,M,,*6D
$GPGLL,4611.961657,N,01258.213618,E,133114.00,A,A*65
$GPVTG,339.5,T,339.7,M,001.8,N,003.3,K,A*28
$GPGSV,3,1,10,19,11,283,,16,60,287,31,07,05,334,,18,44,124,40*79
$GPGSV,3,2,10,29,16,097,33,30,18,162,,21,64,060,39,22,23,168,40*73
$GPGSV,3,3,10,03,40,294,,06,56,297,,,,,,,,,*79
$GPGSA,M,3,18,29,21,22,,,,,,,,,5.4,3.9,3.8*3F
Trace #95 at position 23.500000
$GPZDA,133113.02,06,10,2011,00,00*63
$GPRMC,133112.00,V,,,,,,,,,,N*7E
$GPGGA,133114.00,4611.961657,N,01258.213618,E,1,04,3.9,139.49,M,46.25,M,,*6D
$GPGLL,4611.961657,N,01258.213618,E,133114.00,A,A*65
$GPVTG,339.5,T,339.7,M,001.8,N,003.3,K,A*28
$GPGSV,3,1,10,19,11,283,,16,60,287,31,07,05,334,,18,44,124,40*79
$GPGSV,3,2,10,29,16,097,33,30,18,162,,21,64,060,39,22,23,168,40*73
$GPGSV,3,3,10,03,40,294,,06,56,297,,,,,,,,,*79
$GPGSA,M,3,18,29,21,22,,,,,,,,,5.4,3.9,3.8*3F
Trace #96 at position 23.750000
$GPZDA,133113.02,06,10,2011,00,00*63
$GPRMC,133112.00,V,,,,,,,,,,N*7E
$GPGGA,133114.00,4611.961657,N,01258.213618,E,1,04,3.9,139.49,M,46.25,M,,*6D
$GPGLL,4611.961657,N,01258.213618,E,133114.00,A,A*65
$GPVTG,339.5,T,339.7,M,001.8,N,003.3,K,A*28
$GPGSV,3,1,10,19,11,283,,16,60,287,31,07,05,334,,18,44,124,40*79
$GPGSV,3,2,10,29,16,097,33,30,18,162,,21,64,060,39,22,23,168,40*73
$GPGSV,3,3,10,03,40,294,,06,56,297,,,,,,,,,*79
$GPGSA,M,3,18,29,21,22,,,,,,,,,5.4,3.9,3.8*3F
Trace #97 at position 24.000000
$GPZDA,133114.03,06,10,2011,00,00*65
$GPRMC,133114.00,A,4611.961657,N,01258.213618,E,001.8,339.5,061011,0.2,E,A*39
$GPGGA,133115.00,4611.962022,N,01258.213544,E,1,04,3.9,139.47,M,46.25,M,,*6F
$GPGLL,4611.962022,N,01258.213544,E,133115.00,A,A*69
$GPVTG,340.7,T,340.8,M,001.1,N,002.1,K,A*2F
$GPGSV,3,1,10,19,11,283,,16,60,287,29,07,05,334,,18,44,124,41*71
$GPGSV,3,2,10,29,16,097,32,30,18,162,,21,64,060,38,22,23,168,38*7C
$GPGSV,3,3,10,03,41,294,,06,56,297,,,,,,,,,*78
$GPGSA,M,3,18,29,21,22,,,,,,,,,5.4,3.9,3.8*3F
Trace #98 at position 24.250000
$GPZDA,133114.03,06,10,2011,00,00*65
$GPRMC,133114.00,A,4611.961657,N,01258.213618,E,001.8,339.5,061011,0.2,E,A*39
$GPGGA,133115.00,4611.962022,N,01258.213544,E,1,04,3.9,139.47,M,46.25,M,,*6F
$GPGLL,4611.962022,N,01258.213544,E,133115.00,A,A*69
$GPVTG,340.7,T,340.8,M,001.1,N,002.1,K,A*2F
$GPGSV,3,1,10,19,11,283,,16,60,287,29,07,05,334,,18,44,124,41*71
$GPGSV,3,2,10,29,16,097,32,30,18,162,,21,64,060,38,22,23,168,38*7C
$GPGSV,3,3,10,03,41,294,,06,56,297,,,,,,,,,*78
$GPGSA,M,3,18,29,21,22,,,,,,,,,5.4,3.9,3.8*3F
Trace #99 at position 24.500000
$GPZDA,133114.03,06,10,2011,00,00*65
$GPRMC,133114.00,A,4611.961657,N,01258.213618,E,001.8,339.5,061011,0.2,E,A*39
$GPGGA,133115.00,4611.962022,N,01258.213544,E,1,04,3.9,139.47,M,46.25,M,,*6F
$GPGLL,4611.962022,N,01258.213544,E,133115.00,A,A*69
$GPVTG,340.7,T,340.8,M,001.1,N,002.1,K,A*2F
$GPGSV,3,1,10,19,11,283,,16,60,287,29,07,05,334,,18,44,124,41*71
$GPGSV,3,2,10,29,16,097,32,30,18,162,,21,64,060,38,22,23,168,38*7C
$GPGSV,3,3,10,03,41,294,,06,56,297,,,,,,,,,*78
$GPGSA,M,3,18,29,21,22,,,,,,,,,5.4,3.9,3.8*3F
Trace #100 at position 24.750000
$GPZDA,133115.03,06,10,2011,00,00*64
$GPRMC,133115.00,A,4611.962022,N,01258.213544,E,001.1,340.7,061011,0.2,E,A*30
$GPGGA,133116.00,4611.962281,N,01258.213581,E,1,04,3.9,139.27,M,46.25,M,,*68
$GPGLL,4611.962281,N,01258.213581,E,133116.00,A,A*68
$GPVTG,0.2,T,0.4,M,000.9,N,001.6,K,A*2B
$GPGSV,3,1,10,19,11,283,,16,60,287,31,07,05,334,,18,44,124,41*78
$GPGSV,3,2,10,29,16,097,,30,18,162,,21,64,060,38,22,23,168,39*7C
$GPGSV,3,3,10,03,41,294,,06,56,297,,,,,,,,,*78
$GPGSA,M,3,18,29,21,22,,,,,,,,,5.4,3.9,3.8*3F
Trace #101 at position 25.000000
$GPZDA,133116.03,06,10,2011,00,00*67
$GPRMC,133116.00,A,4611.962281,N,01258.213581,E,000.9,0.2,061011,0.2,E,A*3A
$GPGGA,,,,,,0,03,,,M,,M,,*65
$GPGLL,,,,,,V,N*64
$GPVTG,,T,,,,N,,K,N*61
$GPGSV,3,1,10,19,11,283,,16,60,287,,07,05,334,,18,44,124,41*7A
$GPGSV,3,2,10,29,16,097,32,30,18,162,,21,64,060,38,22,23,168,40*73
$GPGSV,3,3,10,03,41,294,,06,56,297,,,,,,,,,*78
$GPGSA,M,1,,,,,,,,,,,,,5.4,3.9,3.8*3C
Trace #102 at position 25.250000
$GPZDA,133116.03,06,10,2011,00,00*67
$GPRMC,133116.00,A,4611.962281,N,01258.213581,E,000.9,0.2,061011,0.2,E,A*3A
$GPGGA,,,,,,0,03,,,M,,M,,*65
$GPGLL,,,,,,V,N*64
$GPVTG,,T,,,,N,,K,N*61
$GPGSV,3,1,10,19,11,283,,16,60,287,,07,05,334,,18,44,124,41*7A
$GPGSV,3,2,10,29,16,097,32,30,18,162,,21,64,060,38,22,23,168,40*73
$GPGSV,3,3,10,03,41,294,,06,56,297,,,,,,,,,*78
$GPGSA,M,1,,,,,,,,,,,,,5.4,3.9,3.8*3C
Trace #103 at position 25.500000
$GPZDA,133117.02,06,10,2011,00,00*67
$GPRMC,133116.00,V,,,,,,,,,,N*7A
$GPGGA,,,,,,0,03,,,M,,M,,*65
$GPGLL,,,,,,V,N*64
$GPVTG,,T,,,,N,,K,N*61
$GPGSV,3,1,10,19,11,283,,16,60,287,31,07,05,334,,18,44,124,40*79
$GPGSV,3,2,10,29,16,097,,30,18,162,,21,64,060,38,22,23,168,40*72
$GPGSV,3,3,10,03,41,294,,06,56,297,,,,,,,,,*78
$GPGSA,M,1,,,,,,,,,,,,,5.4,3.9,3.8*3C
Trace #104 at position 25.750000
$GPZDA,133126.02,06,10,2011,00,00*65
$GPRMC,133122.00,V,,,,,,,,,,N*7D
$GPGGA,,,,,,0,03,,,M,,M,,*65
$GPGLL,,,,,,V,N*64
$GPVTG,,T,,,,N,,K,N*61
$GPGSV,3,1,10,19,11,283,,16,60,287,26,07,05,334,,18,44,124,41*7E
$GPGSV,3,2,10,29,16,097,32,30,17,162,,21,64,060,38,22,23,168,40*7C
$GPGSV,3,3,10,03,41,294,,06,56,297,,,,,,,,,*78
$GPGSA,M,1,,,,,,,,,,,,,5.4,3.9,3.8*3C
Trace #105 at position 26.000000
$GPZDA,133126.02,06,10,2011,00,00*65
$GPRMC,133122.00,V,,,,,,,,,,N*7D
$GPGGA,,,,,,0,03,,,M,,M,,*65
$GPGLL,,,,,,V,N*64
$GPVTG,,T,,,,N,,K,N*61
$GPGSV,3,1,10,19,11,283,,16,60,287,26,07,05,334,,18,44,124,41*7E
$GPGSV,3,2,10,29,16,097,32,30,17,162,,21,64,060,38,22,23,168,40*7C
$GPGSV,3,3,10,03,41,294,,06,56,297,,,,,,,,,*78
$GPGSA,M,1,,,,,,,,,,,,,5.4,3.9,3.8*3C
Trace #106 at position 26.250000
$GPZDA,133127.02,06,10,2011,00,00*64
$GPRMC,133122.00,V,,,,,,,,,,N*7D
$GPGGA,133128.00,4611.964415,N,01258.213378,E,1,04,3.9,138.73,M,46.25,M,,*68
$GPGLL,4611.964415,N,01258.213378,E,133128.00,A,A*68
$GPVTG,165.9,T,166.1,M,000.1,N,000.2,K,A*2B
$GPGSV,3,1,10,19,11,283,,16,60,287,22,07,05,334,,18,44,124,41*7A
$GPGSV,3,2,10,29,16,097,34,30,17,162,,21,64,060,38,22,23,168,40*7A
$GPGSV,3,3,10,03,41,294,,06,56,297,,,,,,,,,*78
$GPGSA,M,3,18,29,21,22,,,,,,,,,5.4,3.9,3.8*3F
Trace #107 at position 26.500000
$GPZDA,133127.02,06,10,2011,00,00*64
$GPRMC,133122.00,V,,,,,,,,,,N*7D
$GPGGA,133128.00,4611.964415,N,01258.213378,E,1,04,3.9,138.73,M,46.25,M,,*68
$GPGLL,4611.964415,N,01258.213378,E,133128.00,A,A*68
$GPVTG,165.9,T,166.1,M,000.1,N,000.2,K,A*2B
$GPGSV,3,1,10,19,11,283,,16,60,287,22,07,05,334,,18,44,124,41*7A
$GPGSV,3,2,10,29,16,097,34,30,17,162,,21,64,060,38,22,23,168,40*7A
$GPGSV,3,3,10,03,41,294,,06,56,297,,,,,,,,,*78
$GPGSA,M,3,18,29,21,22,,,,,,,,,5.4,3.9,3.8*3F
Trace #108 at position 26.750000
$GPZDA,133128.03,06,10,2011,00,00*6A
$GPRMC,133128.00,A,4611.964415,N,01258.213378,E,000.1,165.9,061011,0.2,E,A*3B
$GPGGA,133129.00,4611.964399,N,01258.213381,E,1,04,3.9,138.81,M,46.25,M,,*61
$GPGLL,4611.964399,N,01258.213381,E,133129.00,A,A*6C
$GPVTG,272.7,T,272.8,M,000.0,N,000.1,K,A*2D
$GPGSV,3,1,10,19,11,283,,16,60,287,,07,05,334,,18,44,124,41*7A
$GPGSV,3,2,10,29,16,097,33,30,17,162,,21,64,060,38,22,23,168,39*73
$GPGSV,3,3,10,03,41,294,,06,56,297,,,,,,,,,*78
$GPGSA,M,3,18,29,21,22,,,,,,,,,5.4,3.9,3.8*3F
Trace #109 at position 27.000000
$GPZDA,133128.03,06,10,2011,00,00*6A
$GPRMC,133128.00,A,4611.964415,N,01258.213378,E,000.1,165.9,061011,0.2,E,A*3B
$GPGGA,133129.00,4611.964399,N,01258.213381,E,1,04,3.9,138.81,M,46.25,M,,*61
$GPGLL,4611.964399,N,01258.213381,E,133129.00,A,A*6C
$GPVTG,272.7,T,272.8,M,000.0,N,000.1,K,A*2D
$GPGSV,3,1,10,19,11,283,,16,60,287,,07,05,334,,18,44,124,41*7A
$GPGSV,3,2,10,29,16,097,33,30,17,162,,21,64,060,38,22,23,168,39*73
$GPGSV,3,3,10,03,41,294,,06,56,297,,,,,,,,,*78
$GPGSA,M,3,18,29,21,22,,,,,,,,,5.4,3.9,3.8*3F
Trace #110 at position 27.250000
$GPZDA,133128.03,06,10,2011,00,00*6A
$GPRMC,133128.00,A,4611.964415,N,01258.213378,E,000.1,165.9,061011,0.2,E,A*3B
$GPGGA,133129.00,4611.964399,N,01258.213381,E,1,04,3.9,138.81,M,46.25,M,,*61
$GPGLL,4611.964399,N,01258.213381,E,133129.00,A,A*6C
$GPVTG,272.7,T,272.8,M,000.0,N,000.1,K,A*2D
$GPGSV,3,1,10,19,11,283,,16,60,287,,07,05,334,,18,44,124,41*7A
$GPGSV,3,2,10,29,16,097,33,30,17,162,,21,64,060,38,22,23,168,39*73
$GPGSV,3,3,10,03,41,294,,06,56,297,,,,,,,,,*78
$GPGSA,M,3,18,29,21,22,,,,,,,,,5.4,3.9,3.8*3F
Trace #111 at position 27.500000
$GPZDA,133129.03,06,10,2011,00,00*6B
$GPRMC,133129.00,A,4611.964399,N,01258.213381,E,000.0,272.7,061011,0.2,E,A*35
$GPGGA,133130.00,4611.964381,N,01258.213383,E,1,04,3.9,138.83,M,46.25,M,,*60
$GPGLL,4611.964381,N,01258.213383,E,133130.00,A,A*6F
$GPVTG,127.3,T,127.4,M,000.2,N,000.3,K,A*25
$GPGSV,3,1,10,19,11,283,,16,60,287,,07,05,334,,18,44,124,41*7A
$GPGSV,3,2,10,29,16,097,33,30,17,162,,21,64,060,38,22,23,168,39*73
$GPGSV,3,3,10,03,41,294,,06,56,297,,,,,,,,,*78
$GPGSA,M,3,18,29,21,22,,,,,,,,,5.4,3.9,3.8*3F
Trace #112 at position 27.750000
$GPZDA,133129.03,06,10,2011,00,00*6B
$GPRMC,133129.00,A,4611.964399,N,01258.213381,E,000.0,272.7,061011,0.2,E,A*35
$GPGGA,133130.00,4611.964381,N,01258.213383,E,1,04,3.9,138.83,M,46.25,M,,*60
$GPGLL,4611.964381,N,01258.213383,E,133130.00,A,A*6F
$GPVTG,127.3,T,127.4,M,000.2,N,000.3,K,A*25
$GPGSV,3,1,10,19,11,283,,16,60,287,,07,05,334,,18,44,124,41*7A
$GPGSV,3,2,10,29,16,097,33,30,17,162,,21,64,060,38,22,23,168,39*73
$GPGSV,3,3,10,03,41,294,,06,56,297,,,,,,,,,*78
$GPGSA,M,3,18,29,21,22,,,,,,,,,5.4,3.9,3.8*3F
Trace #113 at position 28.000000
$GPZDA,133130.03,06,10,2011,00,00*63
$GPRMC,133130.00,A,4611.964381,N,01258.213383,E,000.2,127.3,061011,0.2,E,A*33
$GPGGA,133131.00,4611.964430,N,01258.213332,E,1,04,3.9,138.88,M,46.25,M,,*6D
$GPGLL,4611.964430,N,01258.213332,E,133131.00,A,A*69
$GPVTG,327.8,T,327.9,M,000.6,N,001.0,K,A*25
