Trace #1 at position 0.000000
$GPZDA,102009.03,08,10,2011,00,00*64
$GPRMC,102009.00,A,4611.952723,N,01258.222030,E,000.1,144.3,081011,0.2,E,A*32
$GPGGA,102010.00,4611.952711,N,01258.222031,E,1,04,2.3,138.59,M,46.25,M,,*6D
$GPGLL,4611.952711,N,01258.222031,E,102010.00,A,A*6E
$GPVTG,180.4,T,180.5,M,000.1,N,000.1,K,A*22
$GPGSV,2,1,07,21,24,186,42,02,21,045,47,12,27,109,44,25,61,104,43*7E
$GPGSV,2,2,07,29,84,332,,30,69,307,34,31,51,284,,,,,*4C
$GPGSA,M,3,21,02,12,25,,,,,,,,,3.4,2.3,2.5*3A
Trace #2 at position 0.250000
$GPZDA,102011.03,08,10,2011,00,00*6D
$GPRMC,102011.00,A,4611.952706,N,01258.222027,E,000.0,120.9,081011,0.2,E,A*33
$GPGGA,102012.00,4611.952703,N,01258.222029,E,1,04,2.3,138.59,M,46.25,M,,*65
$GPGLL,4611.952703,N,01258.222029,E,102012.00,A,A*66
$GPVTG,150.5,T,150.7,M,000.0,N,000.1,K,A*20
$GPGSV,2,1,07,21,24,186,42,02,21,045,48,12,27,109,44,25,61,104,44*76
$GPGSV,2,2,07,29,84,332,,30,69,307,35,31,51,284,,,,,*4D
$GPGSA,M,3,21,02,12,25,,,,,,,,,3.4,2.3,2.5*3A
Trace #3 at position 0.500000
$GPZDA,102012.03,08,10,2011,00,00*6E
$GPRMC,102012.00,A,4611.952703,N,01258.222029,E,000.0,150.5,081011,0.2,E,A*30
$GPGGA,102013.00,4611.952606,N,01258.222189,E,1,05,1.6,138.39,M,46.25,M,,*6A
$GPGLL,4611.952606,N,01258.222189,E,102013.00,A,A*68
$GPVTG,245.5,T,245.6,M,000.4,N,000.7,K,A*23
$GPGSV,2,1,07,21,24,186,41,02,21,045,39,12,27,109,41,25,61,104,45*77
$GPGSV,2,2,07,29,84,332,,30,69,307,40,31,51,284,,,,,*4F
$GPGSA,M,3,21,02,12,25,30,,,,,,,,2.7,1.6,2.2*3A
Trace #4 at position 0.750000
$GPZDA,102013.04,08,10,2011,00,00*68
$GPRMC,102013.00,A,4611.952606,N,01258.222189,E,000.4,245.5,081011,0.2,E,A*3D
$GPGGA,102014.00,4611.952630,N,01258.222278,E,1,05,1.6,138.22,M,46.25,M,,*6F
$GPGLL,4611.952630,N,01258.222278,E,102014.00,A,A*67
$GPVTG,342.8,T,342.9,M,000.8,N,001.5,K,A*2E
$GPGSV,2,1,07,21,24,186,41,02,21,045,36,12,27,109,39,25,61,104,41*73
$GPGSV,2,2,07,29,84,333,,30,69,307,38,31,51,284,,,,,*41
$GPGSA,M,3,21,02,12,25,30,,,,,,,,2.7,1.6,2.2*3A
Trace #5 at position 1.000000
$GPZDA,102013.04,08,10,2011,00,00*68
$GPRMC,102013.00,A,4611.952606,N,01258.222189,E,000.4,245.5,081011,0.2,E,A*3D
$GPGGA,102014.00,4611.952630,N,01258.222278,E,1,05,1.6,138.22,M,46.25,M,,*6F
$GPGLL,4611.952630,N,01258.222278,E,102014.00,A,A*67
$GPVTG,342.8,T,342.9,M,000.8,N,001.5,K,A*2E
$GPGSV,2,1,07,21,24,186,41,02,21,045,36,12,27,109,39,25,61,104,41*73
$GPGSV,2,2,07,29,84,333,,30,69,307,38,31,51,284,,,,,*41
$GPGSA,M,3,21,02,12,25,30,,,,,,,,2.7,1.6,2.2*3A
Trace #6 at position 1.250000
$GPZDA,102014.03,08,10,2011,00,00*68
$GPRMC,102014.00,A,4611.952630,N,01258.222278,E,000.8,342.8,081011,0.2,E,A*35
$GPGGA,102015.00,4611.952787,N,01258.222338,E,1,05,1.6,138.17,M,46.25,M,,*60
$GPGLL,4611.952787,N,01258.222338,E,102015.00,A,A*6E
$GPVTG,335.6,T,335.7,M,000.9,N,001.6,K,A*2C
$GPGSV,2,1,07,21,24,186,40,02,21,045,37,12,27,109,39,25,61,104,42*70
$GPGSV,2,2,07,29,84,333,37,30,69,307,39,31,51,284,,,,,*44
$GPGSA,M,3,21,02,12,25,30,,,,,,,,2.7,1.6,2.2*3A
Trace #7 at position 1.500000
$GPZDA,102015.03,08,10,2011,00,00*69
$GPRMC,102015.00,A,4611.952787,N,01258.222338,E,000.9,335.6,081011,0.2,E,A*33
$GPGGA,102016.00,4611.952931,N,01258.222303,E,1,05,1.6,138.13,M,46.25,M,,*6C
$GPGLL,4611.952931,N,01258.222303,E,102016.00,A,A*66
$GPVTG,312.3,T,312.4,M,000.9,N,001.7,K,A*2B
$GPGSV,2,1,07,21,24,186,40,02,21,045,36,12,27,109,40,25,61,104,41*7C
$GPGSV,2,2,07,29,84,333,38,30,69,307,38,31,51,284,33,,,,*4A
$GPGSA,M,3,21,02,12,25,30,,,,,,,,2.7,1.6,2.2*3A
Trace #8 at position 1.750000
$GPZDA,102019.03,08,10,2011,00,00*65
$GPRMC,102019.00,A,4611.952576,N,01258.222518,E,000.1,147.1,081011,0.2,E,A*3F
$GPGGA,102020.00,4611.952431,N,01258.222617,E,1,05,3.0,140.47,M,46.25,M,,*6E
$GPGLL,4611.952431,N,01258.222617,E,102020.00,A,A*6E
$GPVTG,337.8,T,338.0,M,000.1,N,000.1,K,A*24
$GPGSV,2,1,07,21,24,186,42,02,21,045,37,12,27,109,41,25,61,104,44*7B
$GPGSV,2,2,07,29,84,333,40,30,70,307,38,31,51,284,32,,,,*4C
$GPGSA,M,3,21,12,25,29,30,,,,,,,,5.5,3.0,4.6*30
Trace #9 at position 2.000000
$GPZDA,102020.03,08,10,2011,00,00*6F
$GPRMC,102020.00,A,4611.952431,N,01258.222617,E,000.1,337.8,081011,0.2,E,A*37
$GPGGA,102021.00,4611.952368,N,01258.222675,E,1,05,3.0,140.80,M,46.25,M,,*6B
$GPGLL,4611.952368,N,01258.222675,E,102021.00,A,A*60
$GPVTG,347.7,T,347.8,M,000.4,N,000.8,K,A*20
$GPGSV,2,1,07,21,24,186,41,02,21,045,38,12,27,109,41,25,61,104,43*70
$GPGSV,2,2,07,29,84,333,39,30,70,307,38,31,51,284,26,,,,*47
$GPGSA,M,3,21,12,25,29,30,,,,,,,,5.5,3.0,4.6*30
Trace #10 at position 2.250000
$GPZDA,102021.03,08,10,2011,00,00*6E
$GPRMC,102021.00,A,4611.952368,N,01258.222675,E,000.4,347.7,081011,0.2,E,A*34
$GPGGA,102022.00,4611.952325,N,01258.222714,E,1,05,3.0,141.14,M,46.25,M,,*6B
$GPGLL,4611.952325,N,01258.222714,E,102022.00,A,A*6C
$GPVTG,326.4,T,326.5,M,000.1,N,000.2,K,A*21
$GPGSV,2,1,07,21,24,186,40,02,21,045,38,12,27,109,40,25,61,104,43*70
$GPGSV,2,2,07,29,84,333,40,30,70,307,38,31,51,284,25,,,,*4A
$GPGSA,M,3,21,12,25,29,30,,,,,,,,5.5,3.0,4.6*30
Trace #11 at position 2.500000
$GPZDA,102022.03,08,10,2011,00,00*6D
$GPRMC,102022.00,A,4611.952325,N,01258.222714,E,000.1,326.4,081011,0.2,E,A*39
$GPGGA,102023.00,4611.952288,N,01258.222726,E,1,05,3.0,141.57,M,46.25,M,,*6A
$GPGLL,4611.952288,N,01258.222726,E,102023.00,A,A*6A
$GPVTG,332.4,T,332.6,M,000.4,N,000.8,K,A*2D
$GPGSV,2,1,07,21,24,186,40,02,21,045,37,12,27,109,39,25,61,104,44*76
$GPGSV,2,2,07,29,84,333,40,30,70,307,38,31,51,284,32,,,,*4C
$GPGSA,M,3,21,12,25,29,30,,,,,,,,5.5,3.0,4.6*30
Trace #12 at position 2.750000
$GPZDA,102022.03,08,10,2011,00,00*6D
$GPRMC,102022.00,A,4611.952325,N,01258.222714,E,000.1,326.4,081011,0.2,E,A*39
$GPGGA,102023.00,4611.952288,N,01258.222726,E,1,05,3.0,141.57,M,46.25,M,,*6A
$GPGLL,4611.952288,N,01258.222726,E,102023.00,A,A*6A
$GPVTG,332.4,T,332.6,M,000.4,N,000.8,K,A*2D
$GPGSV,2,1,07,21,24,186,40,02,21,045,37,12,27,109,39,25,61,104,44*76
$GPGSV,2,2,07,29,84,333,40,30,70,307,38,31,51,284,32,,,,*4C
$GPGSA,M,3,21,12,25,29,30,,,,,,,,5.5,3.0,4.6*30
Trace #13 at position 3.000000
$GPZDA,102023.04,08,10,2011,00,00*6B
$GPRMC,102023.00,A,4611.952288,N,01258.222726,E,000.4,332.4,081011,0.2,E,A*3F
$GPGGA,102024.00,4611.952356,N,01258.222760,E,1,05,3.0,141.92,M,46.25,M,,*64
$GPGLL,4611.952356,N,01258.222760,E,102024.00,A,A*6D
$GPVTG,7.2,T,7.4,M,000.8,N,001.5,K,A*29
$GPGSV,2,1,07,21,25,186,40,02,21,045,37,12,27,109,39,25,61,104,46*75
$GPGSV,2,2,07,29,84,333,40,30,70,307,36,31,51,284,34,,,,*44
$GPGSA,M,3,21,12,25,29,30,,,,,,,,5.5,3.0,4.6*30
Trace #14 at position 3.250000
$GPZDA,102023.04,08,10,2011,00,00*6B
$GPRMC,102023.00,A,4611.952288,N,01258.222726,E,000.4,332.4,081011,0.2,E,A*3F
$GPGGA,102024.00,4611.952356,N,01258.222760,E,1,05,3.0,141.92,M,46.25,M,,*64
$GPGLL,4611.952356,N,01258.222760,E,102024.00,A,A*6D
$GPVTG,7.2,T,7.4,M,000.8,N,001.5,K,A*29
$GPGSV,2,1,07,21,25,186,40,02,21,045,37,12,27,109,39,25,61,104,46*75
$GPGSV,2,2,07,29,84,333,40,30,70,307,36,31,51,284,34,,,,*44
$GPGSA,M,3,21,12,25,29,30,,,,,,,,5.5,3.0,4.6*30
Trace #15 at position 3.500000
$GPZDA,102024.03,08,10,2011,00,00*6B
$GPRMC,102024.00,A,4611.952356,N,01258.222760,E,000.8,7.2,081011,0.2,E,A*37
$GPGGA,102025.00,4611.952518,N,01258.222828,E,1,05,3.0,142.19,M,46.25,M,,*6A
$GPGLL,4611.952518,N,01258.222828,E,102025.00,A,A*63
$GPVTG,5.3,T,5.5,M,001.0,N,001.8,K,A*2D
$GPGSV,2,1,07,21,25,186,41,02,21,045,37,12,27,109,39,25,61,104,45*77
$GPGSV,2,2,07,29,84,333,39,30,70,307,37,31,51,284,33,,,,*4C
$GPGSA,M,3,21,12,25,29,30,,,,,,,,5.5,3.0,4.6*30
Trace #16 at position 3.750000
$GPZDA,102024.03,08,10,2011,00,00*6B
$GPRMC,102024.00,A,4611.952356,N,01258.222760,E,000.8,7.2,081011,0.2,E,A*37
$GPGGA,102025.00,4611.952518,N,01258.222828,E,1,05,3.0,142.19,M,46.25,M,,*6A
$GPGLL,4611.952518,N,01258.222828,E,102025.00,A,A*63
$GPVTG,5.3,T,5.5,M,001.0,N,001.8,K,A*2D
$GPGSV,2,1,07,21,25,186,41,02,21,045,37,12,27,109,39,25,61,104,45*77
$GPGSV,2,2,07,29,84,333,39,30,70,307,37,31,51,284,33,,,,*4C
$GPGSA,M,3,21,12,25,29,30,,,,,,,,5.5,3.0,4.6*30
Trace #17 at position 4.000000
$GPZDA,102024.03,08,10,2011,00,00*6B
$GPRMC,102024.00,A,4611.952356,N,01258.222760,E,000.8,7.2,081011,0.2,E,A*37
$GPGGA,102025.00,4611.952518,N,01258.222828,E,1,05,3.0,142.19,M,46.25,M,,*6A
$GPGLL,4611.952518,N,01258.222828,E,102025.00,A,A*63
$GPVTG,5.3,T,5.5,M,001.0,N,001.8,K,A*2D
$GPGSV,2,1,07,21,25,186,41,02,21,045,37,12,27,109,39,25,61,104,45*77
$GPGSV,2,2,07,29,84,333,39,30,70,307,37,31,51,284,33,,,,*4C
$GPGSA,M,3,21,12,25,29,30,,,,,,,,5.5,3.0,4.6*30
Trace #18 at position 4.250000
$GPZDA,102025.03,08,10,2011,00,00*6A
$GPRMC,102025.00,A,4611.952518,N,01258.222828,E,001.0,5.3,081011,0.2,E,A*33
$GPGGA,102026.00,4611.952737,N,01258.222846,E,1,05,3.0,142.50,M,46.25,M,,*63
$GPGLL,4611.952737,N,01258.222846,E,102026.00,A,A*67
$GPVTG,356.7,T,356.8,M,001.1,N,002.1,K,A*2F
$GPGSV,2,1,07,21,25,186,41,02,21,045,36,12,27,109,39,25,61,105,42*70
$GPGSV,2,2,07,29,84,333,39,30,70,307,38,31,51,284,36,,,,*46
$GPGSA,M,3,21,12,25,29,30,,,,,,,,5.5,3.0,4.6*30
Trace #19 at position 4.500000
$GPZDA,102025.03,08,10,2011,00,00*6A
$GPRMC,102025.00,A,4611.952518,N,01258.222828,E,001.0,5.3,081011,0.2,E,A*33
$GPGGA,102026.00,4611.952737,N,01258.222846,E,1,05,3.0,142.50,M,46.25,M,,*63
$GPGLL,4611.952737,N,01258.222846,E,102026.00,A,A*67
$GPVTG,356.7,T,356.8,M,001.1,N,002.1,K,A*2F
$GPGSV,2,1,07,21,25,186,41,02,21,045,36,12,27,109,39,25,61,105,42*70
$GPGSV,2,2,07,29,84,333,39,30,70,307,38,31,51,284,36,,,,*46
$GPGSA,M,3,21,12,25,29,30,,,,,,,,5.5,3.0,4.6*30
Trace #20 at position 4.750000
$GPZDA,102026.03,08,10,2011,00,00*69
$GPRMC,102026.00,A,4611.952737,N,01258.222846,E,001.1,356.7,081011,0.2,E,A*37
$GPGGA,102027.00,4611.953020,N,01258.222781,E,1,05,3.0,142.76,M,46.25,M,,*62
$GPGLL,4611.953020,N,01258.222781,E,102027.00,A,A*62
$GPVTG,347.8,T,347.9,M,001.4,N,002.5,K,A*20
$GPGSV,2,1,07,21,25,186,42,02,21,045,37,12,27,109,40,25,61,105,44*7A
$GPGSV,2,2,07,29,84,333,40,30,70,307,39,31,51,284,35,,,,*4A
$GPGSA,M,3,21,12,25,29,30,,,,,,,,5.5,3.0,4.6*30
Trace #21 at position 5.000000
$GPZDA,102026.03,08,10,2011,00,00*69
$GPRMC,102026.00,A,4611.952737,N,01258.222846,E,001.1,356.7,081011,0.2,E,A*37
$GPGGA,102027.00,4611.953020,N,01258.222781,E,1,05,3.0,142.76,M,46.25,M,,*62
$GPGLL,4611.953020,N,01258.222781,E,102027.00,A,A*62
$GPVTG,347.8,T,347.9,M,001.4,N,002.5,K,A*20
$GPGSV,2,1,07,21,25,186,42,02,21,045,37,12,27,109,40,25,61,105,44*7A
$GPGSV,2,2,07,29,84,333,40,30,70,307,39,31,51,284,35,,,,*4A
$GPGSA,M,3,21,12,25,29,30,,,,,,,,5.5,3.0,4.6*30
Trace #22 at position 5.250000
$GPZDA,102026.03,08,10,2011,00,00*69
$GPRMC,102026.00,A,4611.952737,N,01258.222846,E,001.1,356.7,081011,0.2,E,A*37
$GPGGA,102027.00,4611.953020,N,01258.222781,E,1,05,3.0,142.76,M,46.25,M,,*62
$GPGLL,4611.953020,N,01258.222781,E,102027.00,A,A*62
$GPVTG,347.8,T,347.9,M,001.4,N,002.5,K,A*20
$GPGSV,2,1,07,21,25,186,42,02,21,045,37,12,27,109,40,25,61,105,44*7A
$GPGSV,2,2,07,29,84,333,40,30,70,307,39,31,51,284,35,,,,*4A
$GPGSA,M,3,21,12,25,29,30,,,,,,,,5.5,3.0,4.6*30
Trace #23 at position 5.500000
$GPZDA,102027.03,08,10,2011,00,00*68
$GPRMC,102027.00,A,4611.953020,N,01258.222781,E,001.4,347.8,081011,0.2,E,A*38
$GPGGA,102028.00,4611.953367,N,01258.222648,E,1,05,3.0,142.81,M,46.25,M,,*61
$GPGLL,4611.953367,N,01258.222648,E,102028.00,A,A*69
$GPVTG,347.1,T,347.3,M,001.7,N,003.1,K,A*25
$GPGSV,2,1,07,21,25,186,42,02,21,045,36,12,27,109,42,25,60,105,44*78
$GPGSV,2,2,07,29,84,333,40,30,70,307,37,31,51,284,34,,,,*45
$GPGSA,M,3,21,12,25,29,30,,,,,,,,5.5,3.0,4.6*30
Trace #24 at position 5.750000
$GPZDA,102027.03,08,10,2011,00,00*68
$GPRMC,102027.00,A,4611.953020,N,01258.222781,E,001.4,347.8,081011,0.2,E,A*38
$GPGGA,102028.00,4611.953367,N,01258.222648,E,1,05,3.0,142.81,M,46.25,M,,*61
$GPGLL,4611.953367,N,01258.222648,E,102028.00,A,A*69
$GPVTG,347.1,T,347.3,M,001.7,N,003.1,K,A*25
$GPGSV,2,1,07,21,25,186,42,02,21,045,36,12,27,109,42,25,60,105,44*78
$GPGSV,2,2,07,29,84,333,40,30,70,307,37,31,51,284,34,,,,*45
$GPGSA,M,3,21,12,25,29,30,,,,,,,,5.5,3.0,4.6*30
Trace #25 at position 6.000000
$GPZDA,102028.03,08,10,2011,00,00*67
$GPRMC,102028.00,A,4611.953367,N,01258.222648,E,001.7,347.1,081011,0.2,E,A*39
$GPGGA,102029.00,4611.953691,N,01258.222361,E,1,05,3.0,142.86,M,46.25,M,,*65
$GPGLL,4611.953691,N,01258.222361,E,102029.00,A,A*6A
$GPVTG,315.1,T,315.3,M,001.6,N,003.0,K,A*25
$GPGSV,2,1,07,21,25,186,42,02,21,045,35,12,27,109,41,25,60,105,44*78
$GPGSV,2,2,07,29,84,333,39,30,70,307,38,31,51,284,36,,,,*46
$GPGSA,M,3,21,12,25,29,30,,,,,,,,5.5,3.0,4.6*30
Trace #26 at position 6.250000
$GPZDA,102028.03,08,10,2011,00,00*67
$GPRMC,102028.00,A,4611.953367,N,01258.222648,E,001.7,347.1,081011,0.2,E,A*39
$GPGGA,102029.00,4611.953691,N,01258.222361,E,1,05,3.0,142.86,M,46.25,M,,*65
$GPGLL,4611.953691,N,01258.222361,E,102029.00,A,A*6A
$GPVTG,315.1,T,315.3,M,001.6,N,003.0,K,A*25
$GPGSV,2,1,07,21,25,186,42,02,21,045,35,12,27,109,41,25,60,105,44*78
$GPGSV,2,2,07,29,84,333,39,30,70,307,38,31,51,284,36,,,,*46
$GPGSA,M,3,21,12,25,29,30,,,,,,,,5.5,3.0,4.6*30
Trace #27 at position 6.500000
$GPZDA,102028.03,08,10,2011,00,00*67
$GPRMC,102028.00,A,4611.953367,N,01258.222648,E,001.7,347.1,081011,0.2,E,A*39
$GPGGA,102029.00,4611.953691,N,01258.222361,E,1,05,3.0,142.86,M,46.25,M,,*65
$GPGLL,4611.953691,N,01258.222361,E,102029.00,A,A*6A
$GPVTG,315.1,T,315.3,M,001.6,N,003.0,K,A*25
$GPGSV,2,1,07,21,25,186,42,02,21,045,35,12,27,109,41,25,60,105,44*78
$GPGSV,2,2,07,29,84,333,39,30,70,307,38,31,51,284,36,,,,*46
$GPGSA,M,3,21,12,25,29,30,,,,,,,,5.5,3.0,4.6*30
Trace #28 at position 6.750000
$GPZDA,102028.03,08,10,2011,00,00*67
$GPRMC,102028.00,A,4611.953367,N,01258.222648,E,001.7,347.1,081011,0.2,E,A*39
$GPGGA,102029.00,4611.953691,N,01258.222361,E,1,05,3.0,142.86,M,46.25,M,,*65
$GPGLL,4611.953691,N,01258.222361,E,102029.00,A,A*6A
$GPVTG,315.1,T,315.3,M,001.6,N,003.0,K,A*25
$GPGSV,2,1,07,21,25,186,42,02,21,045,35,12,27,109,41,25,60,105,44*78
$GPGSV,2,2,07,29,84,333,39,30,70,307,38,31,51,284,36,,,,*46
$GPGSA,M,3,21,12,25,29,30,,,,,,,,5.5,3.0,4.6*30
Trace #29 at position 7.000000
$GPZDA,102029.03,08,10,2011,00,00*66
$GPRMC,102029.00,A,4611.953691,N,01258.222361,E,001.6,315.1,081011,0.2,E,A*3C
$GPGGA,102030.00,4611.953941,N,01258.222065,E,1,05,3.0,143.02,M,46.25,M,,*65
$GPGLL,4611.953941,N,01258.222065,E,102030.00,A,A*67
$GPVTG,333.8,T,333.9,M,001.2,N,002.1,K,A*22
$GPGSV,2,1,07,21,25,186,41,02,21,045,36,12,27,109,41,25,60,105,43*7F
$GPGSV,2,2,07,29,84,334,40,30,70,307,37,31,51,284,34,,,,*42
$GPGSA,M,3,21,12,25,29,30,,,,,,,,5.5,3.0,4.6*30
Trace #30 at position 7.250000
$GPZDA,102029.03,08,10,2011,00,00*66
$GPRMC,102029.00,A,4611.953691,N,01258.222361,E,001.6,315.1,081011,0.2,E,A*3C
$GPGGA,102030.00,4611.953941,N,01258.222065,E,1,05,3.0,143.02,M,46.25,M,,*65
$GPGLL,4611.953941,N,01258.222065,E,102030.00,A,A*67
$GPVTG,333.8,T,333.9,M,001.2,N,002.1,K,A*22
$GPGSV,2,1,07,21,25,186,41,02,21,045,36,12,27,109,41,25,60,105,43*7F
$GPGSV,2,2,07,29,84,334,40,30,70,307,37,31,51,284,34,,,,*42
$GPGSA,M,3,21,12,25,29,30,,,,,,,,5.5,3.0,4.6*30
Trace #31 at position 7.500000
$GPZDA,102029.03,08,10,2011,00,00*66
$GPRMC,102029.00,A,4611.953691,N,01258.222361,E,001.6,315.1,081011,0.2,E,A*3C
$GPGGA,102030.00,4611.953941,N,01258.222065,E,1,05,3.0,143.02,M,46.25,M,,*65
$GPGLL,4611.953941,N,01258.222065,E,102030.00,A,A*67
$GPVTG,333.8,T,333.9,M,001.2,N,002.1,K,A*22
$GPGSV,2,1,07,21,25,186,41,02,21,045,36,12,27,109,41,25,60,105,43*7F
$GPGSV,2,2,07,29,84,334,40,30,70,307,37,31,51,284,34,,,,*42
$GPGSA,M,3,21,12,25,29,30,,,,,,,,5.5,3.0,4.6*30
Trace #32 at position 7.750000
$GPZDA,102030.03,08,10,2011,00,00*6E
$GPRMC,102030.00,A,4611.953941,N,01258.222065,E,001.2,333.8,081011,0.2,E,A*38
$GPGGA,102031.00,4611.954287,N,01258.221833,E,1,05,3.0,143.04,M,46.25,M,,*6C
$GPGLL,4611.954287,N,01258.221833,E,102031.00,A,A*68
$GPVTG,333.6,T,333.8,M,002.0,N,003.7,K,A*2B
$GPGSV,2,1,07,21,25,186,41,02,21,045,38,12,27,109,41,25,60,105,44*76
$GPGSV,2,2,07,29,84,334,40,30,70,307,37,31,51,284,33,,,,*45
$GPGSA,M,3,21,12,25,29,30,,,,,,,,5.5,3.0,4.6*30
Trace #33 at position 8.000000
$GPZDA,102030.03,08,10,2011,00,00*6E
$GPRMC,102030.00,A,4611.953941,N,01258.222065,E,001.2,333.8,081011,0.2,E,A*38
$GPGGA,102031.00,4611.954287,N,01258.221833,E,1,05,3.0,143.04,M,46.25,M,,*6C
$GPGLL,4611.954287,N,01258.221833,E,102031.00,A,A*68
$GPVTG,333.6,T,333.8,M,002.0,N,003.7,K,A*2B
$GPGSV,2,1,07,21,25,186,41,02,21,045,38,12,27,109,41,25,60,105,44*76
$GPGSV,2,2,07,29,84,334,40,30,70,307,37,31,51,284,33,,,,*45
$GPGSA,M,3,21,12,25,29,30,,,,,,,,5.5,3.0,4.6*30
Trace #34 at position 8.250000
$GPZDA,102030.03,08,10,2011,00,00*6E
$GPRMC,102030.00,A,4611.953941,N,01258.222065,E,001.2,333.8,081011,0.2,E,A*38
$GPGGA,102031.00,4611.954287,N,01258.221833,E,1,05,3.0,143.04,M,46.25,M,,*6C
$GPGLL,4611.954287,N,01258.221833,E,102031.00,A,A*68
$GPVTG,333.6,T,333.8,M,002.0,N,003.7,K,A*2B
$GPGSV,2,1,07,21,25,186,41,02,21,045,38,12,27,109,41,25,60,105,44*76
$GPGSV,2,2,07,29,84,334,40,30,70,307,37,31,51,284,33,,,,*45
$GPGSA,M,3,21,12,25,29,30,,,,,,,,5.5,3.0,4.6*30
Trace #35 at position 8.500000
$GPZDA,102031.03,08,10,2011,00,00*6F
$GPRMC,102031.00,A,4611.954287,N,01258.221833,E,002.0,333.6,081011,0.2,E,A*38
$GPGGA,102032.00,4611.954714,N,01258.221566,E,1,05,3.0,143.04,M,46.25,M,,*6D
$GPGLL,4611.954714,N,01258.221566,E,102032.00,A,A*69
$GPVTG,335.3,T,335.5,M,001.7,N,003.2,K,A*22
$GPGSV,2,1,07,21,25,186,42,02,21,045,38,12,27,109,39,25,60,105,44*7A
$GPGSV,2,2,07,29,84,334,40,30,70,307,38,31,51,284,36,,,,*4F
$GPGSA,M,3,21,12,25,29,30,,,,,,,,5.5,3.0,4.6*30
Trace #36 at position 8.750000
$GPZDA,102031.03,08,10,2011,00,00*6F
$GPRMC,102031.00,A,4611.954287,N,01258.221833,E,002.0,333.6,081011,0.2,E,A*38
$GPGGA,102032.00,4611.954714,N,01258.221566,E,1,05,3.0,143.04,M,46.25,M,,*6D
$GPGLL,4611.954714,N,01258.221566,E,102032.00,A,A*69
$GPVTG,335.3,T,335.5,M,001.7,N,003.2,K,A*22
$GPGSV,2,1,07,21,25,186,42,02,21,045,38,12,27,109,39,25,60,105,44*7A
$GPGSV,2,2,07,29,84,334,40,30,70,307,38,31,51,284,36,,,,*4F
$GPGSA,M,3,21,12,25,29,30,,,,,,,,5.5,3.0,4.6*30
Trace #37 at position 9.000000
$GPZDA,102031.03,08,10,2011,00,00*6F
$GPRMC,102031.00,A,4611.954287,N,01258.221833,E,002.0,333.6,081011,0.2,E,A*38
$GPGGA,102032.00,4611.954714,N,01258.221566,E,1,05,3.0,143.04,M,46.25,M,,*6D
$GPGLL,4611.954714,N,01258.221566,E,102032.00,A,A*69
$GPVTG,335.3,T,335.5,M,001.7,N,003.2,K,A*22
$GPGSV,2,1,07,21,25,186,42,02,21,045,38,12,27,109,39,25,60,105,44*7A
$GPGSV,2,2,07,29,84,334,40,30,70,307,38,31,51,284,36,,,,*4F
$GPGSA,M,3,21,12,25,29,30,,,,,,,,5.5,3.0,4.6*30
Trace #38 at position 9.250000
$GPZDA,102032.03,08,10,2011,00,00*6C
$GPRMC,102032.00,A,4611.954714,N,01258.221566,E,001.7,335.3,081011,0.2,E,A*3E
$GPGGA,102033.00,4611.955074,N,01258.221355,E,1,05,3.0,143.22,M,46.25,M,,*6E
$GPGLL,4611.955074,N,01258.221355,E,102033.00,A,A*6E
$GPVTG,334.7,T,334.8,M,001.4,N,002.5,K,A*2E
$GPGSV,2,1,07,21,25,186,40,02,21,045,37,12,27,109,40,25,60,105,44*79
$GPGSV,2,2,07,29,84,334,40,30,70,307,37,31,51,284,34,,,,*42
$GPGSA,M,3,21,12,25,29,30,,,,,,,,5.5,3.0,4.6*30
Trace #39 at position 9.500000
$GPZDA,102032.03,08,10,2011,00,00*6C
$GPRMC,102032.00,A,4611.954714,N,01258.221566,E,001.7,335.3,081011,0.2,E,A*3E
$GPGGA,102033.00,4611.955074,N,01258.221355,E,1,05,3.0,143.22,M,46.25,M,,*6E
$GPGLL,4611.955074,N,01258.221355,E,102033.00,A,A*6E
$GPVTG,334.7,T,334.8,M,001.4,N,002.5,K,A*2E
$GPGSV,2,1,07,21,25,186,40,02,21,045,37,12,27,109,40,25,60,105,44*79
$GPGSV,2,2,07,29,84,334,40,30,70,307,37,31,51,284,34,,,,*42
$GPGSA,M,3,21,12,25,29,30,,,,,,,,5.5,3.0,4.6*30
Trace #40 at position 9.750000
$GPZDA,102032.03,08,10,2011,00,00*6C
$GPRMC,102032.00,A,4611.954714,N,01258.221566,E,001.7,335.3,081011,0.2,E,A*3E
$GPGGA,102033.00,4611.955074,N,01258.221355,E,1,05,3.0,143.22,M,46.25,M,,*6E
$GPGLL,4611.955074,N,01258.221355,E,102033.00,A,A*6E
$GPVTG,334.7,T,334.8,M,001.4,N,002.5,K,A*2E
$GPGSV,2,1,07,21,25,186,40,02,21,045,37,12,27,109,40,25,60,105,44*79
$GPGSV,2,2,07,29,84,334,40,30,70,307,37,31,51,284,34,,,,*42
$GPGSA,M,3,21,12,25,29,30,,,,,,,,5.5,3.0,4.6*30
Trace #41 at position 10.000000
$GPZDA,102033.03,08,10,2011,00,00*6D
$GPRMC,102033.00,A,4611.955074,N,01258.221355,E,001.4,334.7,081011,0.2,E,A*3F
$GPGGA,102034.00,4611.955434,N,01258.221163,E,1,05,3.0,143.40,M,46.25,M,,*6A
$GPGLL,4611.955434,N,01258.221163,E,102034.00,A,A*6E
$GPVTG,337.5,T,337.7,M,001.6,N,003.1,K,A*24
$GPGSV,2,1,07,21,25,186,43,02,21,045,38,12,27,109,39,25,60,105,45*7A
$GPGSV,2,2,07,29,84,334,40,30,70,307,37,31,51,284,35,,,,*43
$GPGSA,M,3,21,12,25,29,30,,,,,,,,5.5,3.0,4.6*30
Trace #42 at position 10.250000
$GPZDA,102033.03,08,10,2011,00,00*6D
$GPRMC,102033.00,A,4611.955074,N,01258.221355,E,001.4,334.7,081011,0.2,E,A*3F
$GPGGA,102034.00,4611.955434,N,01258.221163,E,1,05,3.0,143.40,M,46.25,M,,*6A
$GPGLL,4611.955434,N,01258.221163,E,102034.00,A,A*6E
$GPVTG,337.5,T,337.7,M,001.6,N,003.1,K,A*24
$GPGSV,2,1,07,21,25,186,43,02,21,045,38,12,27,109,39,25,60,105,45*7A
$GPGSV,2,2,07,29,84,334,40,30,70,307,37,31,51,284,35,,,,*43
$GPGSA,M,3,21,12,25,29,30,,,,,,,,5.5,3.0,4.6*30
Trace #43 at position 10.500000
$GPZDA,102033.03,08,10,2011,00,00*6D
$GPRMC,102033.00,A,4611.955074,N,01258.221355,E,001.4,334.7,081011,0.2,E,A*3F
$GPGGA,102034.00,4611.955434,N,01258.221163,E,1,05,3.0,143.40,M,46.25,M,,*6A
$GPGLL,4611.955434,N,01258.221163,E,102034.00,A,A*6E
$GPVTG,337.5,T,337.7,M,001.6,N,003.1,K,A*24
$GPGSV,2,1,07,21,25,186,43,02,21,045,38,12,27,109,39,25,60,105,45*7A
$GPGSV,2,2,07,29,84,334,40,30,70,307,37,31,51,284,35,,,,*43
$GPGSA,M,3,21,12,25,29,30,,,,,,,,5.5,3.0,4.6*30
Trace #44 at position 10.750000
$GPZDA,102034.03,08,10,2011,00,00*6A
$GPRMC,102034.00,A,4611.955434,N,01258.221163,E,001.6,337.5,081011,0.2,E,A*3C
$GPGGA,102035.00,4611.955813,N,01258.220939,E,1,05,3.0,143.45,M,46.25,M,,*61
$GPGLL,4611.955813,N,01258.220939,E,102035.00,A,A*60
$GPVTG,330.5,T,330.6,M,001.5,N,002.8,K,A*2E
$GPGSV,2,1,07,21,25,186,42,02,21,045,37,12,27,109,39,25,60,105,46*77
$GPGSV,2,2,07,29,84,334,41,30,70,307,38,31,51,284,36,,,,*4E
$GPGSA,M,3,21,12,25,29,30,,,,,,,,5.5,3.0,4.6*30
Trace #45 at position 11.000000
$GPZDA,102034.03,08,10,2011,00,00*6A
$GPRMC,102034.00,A,4611.955434,N,01258.221163,E,001.6,337.5,081011,0.2,E,A*3C
$GPGGA,102035.00,4611.955813,N,01258.220939,E,1,05,3.0,143.45,M,46.25,M,,*61
$GPGLL,4611.955813,N,01258.220939,E,102035.00,A,A*60
$GPVTG,330.5,T,330.6,M,001.5,N,002.8,K,A*2E
$GPGSV,2,1,07,21,25,186,42,02,21,045,37,12,27,109,39,25,60,105,46*77
$GPGSV,2,2,07,29,84,334,41,30,70,307,38,31,51,284,36,,,,*4E
$GPGSA,M,3,21,12,25,29,30,,,,,,,,5.5,3.0,4.6*30
Trace #46 at position 11.250000
$GPZDA,102034.03,08,10,2011,00,00*6A
$GPRMC,102034.00,A,4611.955434,N,01258.221163,E,001.6,337.5,081011,0.2,E,A*3C
$GPGGA,102035.00,4611.955813,N,01258.220939,E,1,05,3.0,143.45,M,46.25,M,,*61
$GPGLL,4611.955813,N,01258.220939,E,102035.00,A,A*60
$GPVTG,330.5,T,330.6,M,001.5,N,002.8,K,A*2E
$GPGSV,2,1,07,21,25,186,42,02,21,045,37,12,27,109,39,25,60,105,46*77
$GPGSV,2,2,07,29,84,334,41,30,70,307,38,31,51,284,36,,,,*4E
$GPGSA,M,3,21,12,25,29,30,,,,,,,,5.5,3.0,4.6*30
Trace #47 at position 11.500000
$GPZDA,102035.03,08,10,2011,00,00*6B
$GPRMC,102035.00,A,4611.955813,N,01258.220939,E,001.5,330.5,081011,0.2,E,A*36
$GPGGA,102036.00,4611.956437,N,01258.220607,E,1,04,5.2,142.86,M,46.25,M,,*62
$GPGLL,4611.956437,N,01258.220607,E,102036.00,A,A*68
$GPVTG,347.7,T,347.9,M,001.5,N,002.9,K,A*22
$GPGSV,2,1,07,21,25,186,41,02,21,045,36,12,27,109,40,25,60,105,44*79
$GPGSV,2,2,07,29,84,334,39,30,70,307,36,31,51,284,,,,,*4A
$GPGSA,M,3,21,12,25,29,,,,,,,,,8.5,5.2,6.7*39
Trace #48 at position 11.750000
$GPZDA,102035.03,08,10,2011,00,00*6B
$GPRMC,102035.00,A,4611.955813,N,01258.220939,E,001.5,330.5,081011,0.2,E,A*36
$GPGGA,102036.00,4611.956437,N,01258.220607,E,1,04,5.2,142.86,M,46.25,M,,*62
$GPGLL,4611.956437,N,01258.220607,E,102036.00,A,A*68
$GPVTG,347.7,T,347.9,M,001.5,N,002.9,K,A*22
$GPGSV,2,1,07,21,25,186,41,02,21,045,36,12,27,109,40,25,60,105,44*79
$GPGSV,2,2,07,29,84,334,39,30,70,307,36,31,51,284,,,,,*4A
$GPGSA,M,3,21,12,25,29,,,,,,,,,8.5,5.2,6.7*39
Trace #49 at position 12.000000
$GPZDA,102035.03,08,10,2011,00,00*6B
$GPRMC,102035.00,A,4611.955813,N,01258.220939,E,001.5,330.5,081011,0.2,E,A*36
$GPGGA,102036.00,4611.956437,N,01258.220607,E,1,04,5.2,142.86,M,46.25,M,,*62
$GPGLL,4611.956437,N,01258.220607,E,102036.00,A,A*68
$GPVTG,347.7,T,347.9,M,001.5,N,002.9,K,A*22
$GPGSV,2,1,07,21,25,186,41,02,21,045,36,12,27,109,40,25,60,105,44*79
$GPGSV,2,2,07,29,84,334,39,30,70,307,36,31,51,284,,,,,*4A
$GPGSA,M,3,21,12,25,29,,,,,,,,,8.5,5.2,6.7*39
Trace #50 at position 12.250000
$GPZDA,102036.03,08,10,2011,00,00*68
$GPRMC,102036.00,A,4611.956437,N,01258.220607,E,001.5,347.7,081011,0.2,E,A*3C
$GPGGA,102037.00,4611.957040,N,01258.220391,E,1,04,5.2,142.42,M,46.25,M,,*64
$GPGLL,4611.957040,N,01258.220391,E,102037.00,A,A*66
$GPVTG,351.1,T,351.3,M,001.3,N,002.5,K,A*24
$GPGSV,2,1,07,21,25,186,41,02,21,045,35,12,27,109,39,25,60,105,45*75
$GPGSV,2,2,07,29,84,334,40,30,70,307,38,31,51,284,35,,,,*4C
$GPGSA,M,3,21,12,25,29,,,,,,,,,8.5,5.2,6.7*39
Trace #51 at position 12.500000
$GPZDA,102036.03,08,10,2011,00,00*68
$GPRMC,102036.00,A,4611.956437,N,01258.220607,E,001.5,347.7,081011,0.2,E,A*3C
$GPGGA,102037.00,4611.957040,N,01258.220391,E,1,04,5.2,142.42,M,46.25,M,,*64
$GPGLL,4611.957040,N,01258.220391,E,102037.00,A,A*66
$GPVTG,351.1,T,351.3,M,001.3,N,002.5,K,A*24
$GPGSV,2,1,07,21,25,186,41,02,21,045,35,12,27,109,39,25,60,105,45*75
$GPGSV,2,2,07,29,84,334,40,30,70,307,38,31,51,284,35,,,,*4C
$GPGSA,M,3,21,12,25,29,,,,,,,,,8.5,5.2,6.7*39
Trace #52 at position 12.750000
$GPZDA,102037.03,08,10,2011,00,00*69
$GPRMC,102037.00,A,4611.957040,N,01258.220391,E,001.3,351.1,081011,0.2,E,A*35
$GPGGA,102038.00,4611.957604,N,01258.220082,E,1,04,5.2,142.05,M,46.25,M,,*6F
$GPGLL,4611.957604,N,01258.220082,E,102038.00,A,A*6E
$GPVTG,327.4,T,327.6,M,001.7,N,003.1,K,A*25
$GPGSV,2,1,07,21,25,186,40,02,21,045,33,12,27,109,40,25,60,105,44*7D
$GPGSV,2,2,07,29,84,334,39,30,70,307,36,31,51,284,32,,,,*4B
$GPGSA,M,3,21,12,25,29,,,,,,,,,8.5,5.2,6.7*39
Trace #53 at position 13.000000
$GPZDA,102037.03,08,10,2011,00,00*69
$GPRMC,102037.00,A,4611.957040,N,01258.220391,E,001.3,351.1,081011,0.2,E,A*35
$GPGGA,102038.00,4611.957604,N,01258.220082,E,1,04,5.2,142.05,M,46.25,M,,*6F
$GPGLL,4611.957604,N,01258.220082,E,102038.00,A,A*6E
$GPVTG,327.4,T,327.6,M,001.7,N,003.1,K,A*25
$GPGSV,2,1,07,21,25,186,40,02,21,045,33,12,27,109,40,25,60,105,44*7D
$GPGSV,2,2,07,29,84,334,39,30,70,307,36,31,51,284,32,,,,*4B
$GPGSA,M,3,21,12,25,29,,,,,,,,,8.5,5.2,6.7*39
Trace #54 at position 13.250000
$GPZDA,102037.03,08,10,2011,00,00*69
$GPRMC,102037.00,A,4611.957040,N,01258.220391,E,001.3,351.1,081011,0.2,E,A*35
$GPGGA,102038.00,4611.957604,N,01258.220082,E,1,04,5.2,142.05,M,46.25,M,,*6F
$GPGLL,4611.957604,N,01258.220082,E,102038.00,A,A*6E
$GPVTG,327.4,T,327.6,M,001.7,N,003.1,K,A*25
$GPGSV,2,1,07,21,25,186,40,02,21,045,33,12,27,109,40,25,60,105,44*7D
$GPGSV,2,2,07,29,84,334,39,30,70,307,36,31,51,284,32,,,,*4B
$GPGSA,M,3,21,12,25,29,,,,,,,,,8.5,5.2,6.7*39
Trace #55 at position 13.500000
$GPZDA,102038.03,08,10,2011,00,00*66
$GPRMC,102038.00,A,4611.957604,N,01258.220082,E,001.7,327.4,081011,0.2,E,A*3D
$GPGGA,102039.00,4611.958116,N,01258.219786,E,1,04,5.2,141.64,M,46.25,M,,*68
$GPGLL,4611.958116,N,01258.219786,E,102039.00,A,A*6D
$GPVTG,349.2,T,349.4,M,001.2,N,002.2,K,A*26
$GPGSV,2,1,07,21,25,186,42,02,21,045,33,12,27,109,41,25,60,105,44*7E
$GPGSV,2,2,07,29,84,334,38,30,70,307,36,31,51,284,33,,,,*4B
$GPGSA,M,3,21,12,25,29,,,,,,,,,8.5,5.2,6.7*39
Trace #56 at position 13.750000
$GPZDA,102038.03,08,10,2011,00,00*66
$GPRMC,102038.00,A,4611.957604,N,01258.220082,E,001.7,327.4,081011,0.2,E,A*3D
$GPGGA,102039.00,4611.958116,N,01258.219786,E,1,04,5.2,141.64,M,46.25,M,,*68
$GPGLL,4611.958116,N,01258.219786,E,102039.00,A,A*6D
$GPVTG,349.2,T,349.4,M,001.2,N,002.2,K,A*26
$GPGSV,2,1,07,21,25,186,42,02,21,045,33,12,27,109,41,25,60,105,44*7E
$GPGSV,2,2,07,29,84,334,38,30,70,307,36,31,51,284,33,,,,*4B
$GPGSA,M,3,21,12,25,29,,,,,,,,,8.5,5.2,6.7*39
Trace #57 at position 14.000000
$GPZDA,102039.03,08,10,2011,00,00*67
$GPRMC,102039.00,A,4611.958116,N,01258.219786,E,001.2,349.2,081011,0.2,E,A*35
$GPGGA,102040.00,4611.958531,N,01258.219618,E,1,04,5.2,141.31,M,46.25,M,,*61
$GPGLL,4611.958531,N,01258.219618,E,102040.00,A,A*64
$GPVTG,340.6,T,340.8,M,000.9,N,001.6,K,A*23
$GPGSV,2,1,07,21,25,186,41,02,21,045,33,12,27,109,38,25,60,105,44*73
$GPGSV,2,2,07,29,84,334,37,30,70,307,36,31,51,284,31,,,,*46
$GPGSA,M,3,21,12,25,29,,,,,,,,,8.5,5.2,6.7*39
Trace #58 at position 14.250000
$GPZDA,102039.03,08,10,2011,00,00*67
$GPRMC,102039.00,A,4611.958116,N,01258.219786,E,001.2,349.2,081011,0.2,E,A*35
$GPGGA,102040.00,4611.958531,N,01258.219618,E,1,04,5.2,141.31,M,46.25,M,,*61
$GPGLL,4611.958531,N,01258.219618,E,102040.00,A,A*64
$GPVTG,340.6,T,340.8,M,000.9,N,001.6,K,A*23
$GPGSV,2,1,07,21,25,186,41,02,21,045,33,12,27,109,38,25,60,105,44*73
$GPGSV,2,2,07,29,84,334,37,30,70,307,36,31,51,284,31,,,,*46
$GPGSA,M,3,21,12,25,29,,,,,,,,,8.5,5.2,6.7*39
Trace #59 at position 14.500000
$GPZDA,102039.03,08,10,2011,00,00*67
$GPRMC,102039.00,A,4611.958116,N,01258.219786,E,001.2,349.2,081011,0.2,E,A*35
$GPGGA,102040.00,4611.958531,N,01258.219618,E,1,04,5.2,141.31,M,46.25,M,,*61
$GPGLL,4611.958531,N,01258.219618,E,102040.00,A,A*64
$GPVTG,340.6,T,340.8,M,000.9,N,001.6,K,A*23
$GPGSV,2,1,07,21,25,186,41,02,21,045,33,12,27,109,38,25,60,105,44*73
$GPGSV,2,2,07,29,84,334,37,30,70,307,36,31,51,284,31,,,,*46
$GPGSA,M,3,21,12,25,29,,,,,,,,,8.5,5.2,6.7*39
Trace #60 at position 14.750000
$GPZDA,102040.03,08,10,2011,00,00*69
$GPRMC,102040.00,A,4611.958531,N,01258.219618,E,000.9,340.6,081011,0.2,E,A*3B
$GPGGA,102041.00,4611.958987,N,01258.219475,E,1,04,5.2,141.13,M,46.25,M,,*68
$GPGLL,4611.958987,N,01258.219475,E,102041.00,A,A*6D
$GPVTG,356.5,T,356.7,M,001.6,N,002.9,K,A*2D
$GPGSV,2,1,07,21,25,186,39,02,21,045,35,12,27,109,37,25,60,105,43*72
$GPGSV,2,2,07,29,84,334,39,30,70,307,38,31,51,284,36,,,,*41
$GPGSA,M,3,21,12,25,29,,,,,,,,,8.5,5.2,6.7*39
Trace #61 at position 15.000000
$GPZDA,102040.03,08,10,2011,00,00*69
$GPRMC,102040.00,A,4611.958531,N,01258.219618,E,000.9,340.6,081011,0.2,E,A*3B
$GPGGA,102041.00,4611.958987,N,01258.219475,E,1,04,5.2,141.13,M,46.25,M,,*68
$GPGLL,4611.958987,N,01258.219475,E,102041.00,A,A*6D
$GPVTG,356.5,T,356.7,M,001.6,N,002.9,K,A*2D
$GPGSV,2,1,07,21,25,186,39,02,21,045,35,12,27,109,37,25,60,105,43*72
$GPGSV,2,2,07,29,84,334,39,30,70,307,38,31,51,284,36,,,,*41
$GPGSA,M,3,21,12,25,29,,,,,,,,,8.5,5.2,6.7*39
Trace #62 at position 15.250000
$GPZDA,102041.03,08,10,2011,00,00*68
$GPRMC,102041.00,A,4611.958987,N,01258.219475,E,001.6,356.5,081011,0.2,E,A*38
$GPGGA,102042.00,4611.959537,N,01258.219300,E,1,04,5.2,140.86,M,46.25,M,,*65
$GPGLL,4611.959537,N,01258.219300,E,102042.00,A,A*6D
$GPVTG,344.3,T,344.5,M,001.8,N,003.4,K,A*2B
$GPGSV,2,1,07,21,25,186,42,02,21,045,36,12,27,109,38,25,60,105,43*72
$GPGSV,2,2,07,29,84,335,39,30,70,307,38,31,51,284,37,,,,*41
$GPGSA,M,3,21,12,25,29,,,,,,,,,8.5,5.2,6.7*39
Trace #63 at position 15.500000
$GPZDA,102041.03,08,10,2011,00,00*68
$GPRMC,102041.00,A,4611.958987,N,01258.219475,E,001.6,356.5,081011,0.2,E,A*38
$GPGGA,102042.00,4611.959537,N,01258.219300,E,1,04,5.2,140.86,M,46.25,M,,*65
$GPGLL,4611.959537,N,01258.219300,E,102042.00,A,A*6D
$GPVTG,344.3,T,344.5,M,001.8,N,003.4,K,A*2B
$GPGSV,2,1,07,21,25,186,42,02,21,045,36,12,27,109,38,25,60,105,43*72
$GPGSV,2,2,07,29,84,335,39,30,70,307,38,31,51,284,37,,,,*41
$GPGSA,M,3,21,12,25,29,,,,,,,,,8.5,5.2,6.7*39
Trace #64 at position 15.750000
$GPZDA,102041.03,08,10,2011,00,00*68
$GPRMC,102041.00,A,4611.958987,N,01258.219475,E,001.6,356.5,081011,0.2,E,A*38
$GPGGA,102042.00,4611.959537,N,01258.219300,E,1,04,5.2,140.86,M,46.25,M,,*65
$GPGLL,4611.959537,N,01258.219300,E,102042.00,A,A*6D
$GPVTG,344.3,T,344.5,M,001.8,N,003.4,K,A*2B
$GPGSV,2,1,07,21,25,186,42,02,21,045,36,12,27,109,38,25,60,105,43*72
$GPGSV,2,2,07,29,84,335,39,30,70,307,38,31,51,284,37,,,,*41
$GPGSA,M,3,21,12,25,29,,,,,,,,,8.5,5.2,6.7*39
Trace #65 at position 16.000000
$GPZDA,102042.03,08,10,2011,00,00*6B
$GPRMC,102042.00,A,4611.959537,N,01258.219300,E,001.8,344.3,081011,0.2,E,A*33
$GPGGA,102043.00,4611.959956,N,01258.219098,E,1,04,5.2,140.52,M,46.25,M,,*64
$GPGLL,4611.959956,N,01258.219098,E,102043.00,A,A*65
$GPVTG,339.3,T,339.5,M,000.8,N,001.5,K,A*29
$GPGSV,2,1,07,21,25,186,42,02,21,045,36,12,27,109,39,25,60,105,43*73
$GPGSV,2,2,07,29,84,335,38,30,70,307,37,31,51,284,34,,,,*4C
$GPGSA,M,3,21,12,25,29,,,,,,,,,8.5,5.2,6.7*39
Trace #66 at position 16.250000
$GPZDA,102042.03,08,10,2011,00,00*6B
$GPRMC,102042.00,A,4611.959537,N,01258.219300,E,001.8,344.3,081011,0.2,E,A*33
$GPGGA,102043.00,4611.959956,N,01258.219098,E,1,04,5.2,140.52,M,46.25,M,,*64
$GPGLL,4611.959956,N,01258.219098,E,102043.00,A,A*65
$GPVTG,339.3,T,339.5,M,000.8,N,001.5,K,A*29
$GPGSV,2,1,07,21,25,186,42,02,21,045,36,12,27,109,39,25,60,105,43*73
$GPGSV,2,2,07,29,84,335,38,30,70,307,37,31,51,284,34,,,,*4C
$GPGSA,M,3,21,12,25,29,,,,,,,,,8.5,5.2,6.7*39
Trace #67 at position 16.500000
$GPZDA,102043.03,08,10,2011,00,00*6A
$GPRMC,102043.00,A,4611.959956,N,01258.219098,E,000.8,339.3,081011,0.2,E,A*30
$GPGGA,102044.00,4611.960320,N,01258.218912,E,1,04,5.2,140.31,M,46.25,M,,*6D
$GPGLL,4611.960320,N,01258.218912,E,102044.00,A,A*69
$GPVTG,342.0,T,342.2,M,001.4,N,002.7,K,A*21
$GPGSV,2,1,07,21,25,186,40,02,21,045,36,12,26,109,40,25,60,105,43*7E
$GPGSV,2,2,07,29,84,335,39,30,70,307,38,31,51,284,37,,,,*41
$GPGSA,M,3,21,12,25,29,,,,,,,,,8.5,5.2,6.7*39
Trace #68 at position 16.750000
$GPZDA,102043.03,08,10,2011,00,00*6A
$GPRMC,102043.00,A,4611.959956,N,01258.219098,E,000.8,339.3,081011,0.2,E,A*30
$GPGGA,102044.00,4611.960320,N,01258.218912,E,1,04,5.2,140.31,M,46.25,M,,*6D
$GPGLL,4611.960320,N,01258.218912,E,102044.00,A,A*69
$GPVTG,342.0,T,342.2,M,001.4,N,002.7,K,A*21
$GPGSV,2,1,07,21,25,186,40,02,21,045,36,12,26,109,40,25,60,105,43*7E
$GPGSV,2,2,07,29,84,335,39,30,70,307,38,31,51,284,37,,,,*41
$GPGSA,M,3,21,12,25,29,,,,,,,,,8.5,5.2,6.7*39
Trace #69 at position 17.000000
$GPZDA,102043.03,08,10,2011,00,00*6A
$GPRMC,102043.00,A,4611.959956,N,01258.219098,E,000.8,339.3,081011,0.2,E,A*30
$GPGGA,102044.00,4611.960320,N,01258.218912,E,1,04,5.2,140.31,M,46.25,M,,*6D
$GPGLL,4611.960320,N,01258.218912,E,102044.00,A,A*69
$GPVTG,342.0,T,342.2,M,001.4,N,002.7,K,A*21
$GPGSV,2,1,07,21,25,186,40,02,21,045,36,12,26,109,40,25,60,105,43*7E
$GPGSV,2,2,07,29,84,335,39,30,70,307,38,31,51,284,37,,,,*41
$GPGSA,M,3,21,12,25,29,,,,,,,,,8.5,5.2,6.7*39
Trace #70 at position 17.250000
$GPZDA,102043.03,08,10,2011,00,00*6A
$GPRMC,102043.00,A,4611.959956,N,01258.219098,E,000.8,339.3,081011,0.2,E,A*30
$GPGGA,102044.00,4611.960320,N,01258.218912,E,1,04,5.2,140.31,M,46.25,M,,*6D
$GPGLL,4611.960320,N,01258.218912,E,102044.00,A,A*69
$GPVTG,342.0,T,342.2,M,001.4,N,002.7,K,A*21
$GPGSV,2,1,07,21,25,186,40,02,21,045,36,12,26,109,40,25,60,105,43*7E
$GPGSV,2,2,07,29,84,335,39,30,70,307,38,31,51,284,37,,,,*41
$GPGSA,M,3,21,12,25,29,,,,,,,,,8.5,5.2,6.7*39
Trace #71 at position 17.500000
$GPZDA,102044.03,08,10,2011,00,00*6D
$GPRMC,102044.00,A,4611.960320,N,01258.218912,E,001.4,342.0,081011,0.2,E,A*3E
$GPGGA,102045.00,4611.960796,N,01258.218731,E,1,04,5.2,140.13,M,46.25,M,,*6A
$GPGLL,4611.960796,N,01258.218731,E,102045.00,A,A*6E
$GPVTG,350.7,T,350.8,M,001.7,N,003.1,K,A*28
$GPGSV,2,1,07,21,25,186,42,02,21,045,37,12,26,109,39,25,60,105,43*73
$GPGSV,2,2,07,29,84,335,39,30,70,307,37,31,51,284,33,,,,*4A
$GPGSA,M,3,21,12,25,29,,,,,,,,,8.5,5.2,6.7*39
Trace #72 at position 17.750000
$GPZDA,102044.03,08,10,2011,00,00*6D
$GPRMC,102044.00,A,4611.960320,N,01258.218912,E,001.4,342.0,081011,0.2,E,A*3E
$GPGGA,102045.00,4611.960796,N,01258.218731,E,1,04,5.2,140.13,M,46.25,M,,*6A
$GPGLL,4611.960796,N,01258.218731,E,102045.00,A,A*6E
$GPVTG,350.7,T,350.8,M,001.7,N,003.1,K,A*28
$GPGSV,2,1,07,21,25,186,42,02,21,045,37,12,26,109,39,25,60,105,43*73
$GPGSV,2,2,07,29,84,335,39,30,70,307,37,31,51,284,33,,,,*4A
$GPGSA,M,3,21,12,25,29,,,,,,,,,8.5,5.2,6.7*39
Trace #73 at position 18.000000
$GPZDA,102044.03,08,10,2011,00,00*6D
$GPRMC,102044.00,A,4611.960320,N,01258.218912,E,001.4,342.0,081011,0.2,E,A*3E
$GPGGA,102045.00,4611.960796,N,01258.218731,E,1,04,5.2,140.13,M,46.25,M,,*6A
$GPGLL,4611.960796,N,01258.218731,E,102045.00,A,A*6E
$GPVTG,350.7,T,350.8,M,001.7,N,003.1,K,A*28
$GPGSV,2,1,07,21,25,186,42,02,21,045,37,12,26,109,39,25,60,105,43*73
$GPGSV,2,2,07,29,84,335,39,30,70,307,37,31,51,284,33,,,,*4A
$GPGSA,M,3,21,12,25,29,,,,,,,,,8.5,5.2,6.7*39
Trace #74 at position 18.250000
$GPZDA,102045.03,08,10,2011,00,00*6C
$GPRMC,102045.00,A,4611.960796,N,01258.218731,E,001.7,350.7,081011,0.2,E,A*3E
$GPGGA,102046.00,4611.961276,N,01258.218503,E,1,04,5.2,139.97,M,46.25,M,,*62
$GPGLL,4611.961276,N,01258.218503,E,102046.00,A,A*64
$GPVTG,334.3,T,334.4,M,001.6,N,003.1,K,A*21
$GPGSV,2,1,07,21,25,186,40,02,21,045,36,12,26,110,39,25,60,105,44*7F
$GPGSV,2,2,07,29,84,335,40,30,70,307,38,31,51,284,33,,,,*4B
$GPGSA,M,3,21,12,25,29,,,,,,,,,8.5,5.2,6.7*39
Trace #75 at position 18.500000
$GPZDA,102045.03,08,10,2011,00,00*6C
$GPRMC,102045.00,A,4611.960796,N,01258.218731,E,001.7,350.7,081011,0.2,E,A*3E
$GPGGA,102046.00,4611.961276,N,01258.218503,E,1,04,5.2,139.97,M,46.25,M,,*62
$GPGLL,4611.961276,N,01258.218503,E,102046.00,A,A*64
$GPVTG,334.3,T,334.4,M,001.6,N,003.1,K,A*21
$GPGSV,2,1,07,21,25,186,40,02,21,045,36,12,26,110,39,25,60,105,44*7F
$GPGSV,2,2,07,29,84,335,40,30,70,307,38,31,51,284,33,,,,*4B
$GPGSA,M,3,21,12,25,29,,,,,,,,,8.5,5.2,6.7*39
Trace #76 at position 18.750000
$GPZDA,102045.03,08,10,2011,00,00*6C
$GPRMC,102045.00,A,4611.960796,N,01258.218731,E,001.7,350.7,081011,0.2,E,A*3E
$GPGGA,102046.00,4611.961276,N,01258.218503,E,1,04,5.2,139.97,M,46.25,M,,*62
$GPGLL,4611.961276,N,01258.218503,E,102046.00,A,A*64
$GPVTG,334.3,T,334.4,M,001.6,N,003.1,K,A*21
$GPGSV,2,1,07,21,25,186,40,02,21,045,36,12,26,110,39,25,60,105,44*7F
$GPGSV,2,2,07,29,84,335,40,30,70,307,38,31,51,284,33,,,,*4B
$GPGSA,M,3,21,12,25,29,,,,,,,,,8.5,5.2,6.7*39
Trace #77 at position 19.000000
$GPZDA,102046.03,08,10,2011,00,00*6F
$GPRMC,102046.00,A,4611.961276,N,01258.218503,E,001.6,334.3,081011,0.2,E,A*33
$GPGGA,102047.00,4611.961721,N,01258.218299,E,1,04,5.2,139.81,M,46.25,M,,*67
$GPGLL,4611.961721,N,01258.218299,E,102047.00,A,A*66
$GPVTG,353.6,T,353.8,M,001.4,N,002.6,K,A*2C
$GPGSV,2,1,07,21,25,186,43,02,21,045,33,12,26,110,38,25,60,105,44*78
$GPGSV,2,2,07,29,84,335,39,30,70,307,38,31,51,284,33,,,,*45
$GPGSA,M,3,21,12,25,29,,,,,,,,,8.5,5.2,6.7*39
Trace #78 at position 19.250000
$GPZDA,102046.03,08,10,2011,00,00*6F
$GPRMC,102046.00,A,4611.961276,N,01258.218503,E,001.6,334.3,081011,0.2,E,A*33
$GPGGA,102047.00,4611.961721,N,01258.218299,E,1,04,5.2,139.81,M,46.25,M,,*67
$GPGLL,4611.961721,N,01258.218299,E,102047.00,A,A*66
$GPVTG,353.6,T,353.8,M,001.4,N,002.6,K,A*2C
$GPGSV,2,1,07,21,25,186,43,02,21,045,33,12,26,110,38,25,60,105,44*78
$GPGSV,2,2,07,29,84,335,39,30,70,307,38,31,51,284,33,,,,*45
$GPGSA,M,3,21,12,25,29,,,,,,,,,8.5,5.2,6.7*39
Trace #79 at position 19.500000
$GPZDA,102046.03,08,10,2011,00,00*6F
$GPRMC,102046.00,A,4611.961276,N,01258.218503,E,001.6,334.3,081011,0.2,E,A*33
$GPGGA,102047.00,4611.961721,N,01258.218299,E,1,04,5.2,139.81,M,46.25,M,,*67
$GPGLL,4611.961721,N,01258.218299,E,102047.00,A,A*66
$GPVTG,353.6,T,353.8,M,001.4,N,002.6,K,A*2C
$GPGSV,2,1,07,21,25,186,43,02,21,045,33,12,26,110,38,25,60,105,44*78
$GPGSV,2,2,07,29,84,335,39,30,70,307,38,31,51,284,33,,,,*45
$GPGSA,M,3,21,12,25,29,,,,,,,,,8.5,5.2,6.7*39
Trace #80 at position 19.750000
$GPZDA,102046.03,08,10,2011,00,00*6F
$GPRMC,102046.00,A,4611.961276,N,01258.218503,E,001.6,334.3,081011,0.2,E,A*33
$GPGGA,102047.00,4611.961721,N,01258.218299,E,1,04,5.2,139.81,M,46.25,M,,*67
$GPGLL,4611.961721,N,01258.218299,E,102047.00,A,A*66
$GPVTG,353.6,T,353.8,M,001.4,N,002.6,K,A*2C
$GPGSV,2,1,07,21,25,186,43,02,21,045,33,12,26,110,38,25,60,105,44*78
$GPGSV,2,2,07,29,84,335,39,30,70,307,38,31,51,284,33,,,,*45
$GPGSA,M,3,21,12,25,29,,,,,,,,,8.5,5.2,6.7*39
Trace #81 at position 20.000000
$GPZDA,102047.03,08,10,2011,00,00*6E
$GPRMC,102047.00,A,4611.961721,N,01258.218299,E,001.4,353.6,081011,0.2,E,A*37
$GPGGA,102048.00,4611.962130,N,01258.218182,E,1,04,5.2,139.77,M,46.25,M,,*6D
$GPGLL,4611.962130,N,01258.218182,E,102048.00,A,A*65
$GPVTG,349.9,T,350.0,M,001.2,N,002.2,K,A*21
$GPGSV,2,1,07,21,25,186,40,02,21,045,34,12,26,110,40,25,60,105,44*73
$GPGSV,2,2,07,29,84,335,40,30,70,307,37,31,51,284,33,,,,*44
$GPGSA,M,3,21,12,25,29,,,,,,,,,8.4,5.2,6.7*38
Trace #82 at position 20.250000
$GPZDA,102047.03,08,10,2011,00,00*6E
$GPRMC,102047.00,A,4611.961721,N,01258.218299,E,001.4,353.6,081011,0.2,E,A*37
$GPGGA,102048.00,4611.962130,N,01258.218182,E,1,04,5.2,139.77,M,46.25,M,,*6D
$GPGLL,4611.962130,N,01258.218182,E,102048.00,A,A*65
$GPVTG,349.9,T,350.0,M,001.2,N,002.2,K,A*21
$GPGSV,2,1,07,21,25,186,40,02,21,045,34,12,26,110,40,25,60,105,44*73
$GPGSV,2,2,07,29,84,335,40,30,70,307,37,31,51,284,33,,,,*44
$GPGSA,M,3,21,12,25,29,,,,,,,,,8.4,5.2,6.7*38
Trace #83 at position 20.500000
$GPZDA,102047.03,08,10,2011,00,00*6E
$GPRMC,102047.00,A,4611.961721,N,01258.218299,E,001.4,353.6,081011,0.2,E,A*37
$GPGGA,102048.00,4611.962130,N,01258.218182,E,1,04,5.2,139.77,M,46.25,M,,*6D
$GPGLL,4611.962130,N,01258.218182,E,102048.00,A,A*65
$GPVTG,349.9,T,350.0,M,001.2,N,002.2,K,A*21
$GPGSV,2,1,07,21,25,186,40,02,21,045,34,12,26,110,40,25,60,105,44*73
$GPGSV,2,2,07,29,84,335,40,30,70,307,37,31,51,284,33,,,,*44
$GPGSA,M,3,21,12,25,29,,,,,,,,,8.4,5.2,6.7*38
Trace #84 at position 20.750000
$GPZDA,102047.03,08,10,2011,00,00*6E
$GPRMC,102047.00,A,4611.961721,N,01258.218299,E,001.4,353.6,081011,0.2,E,A*37
$GPGGA,102048.00,4611.962130,N,01258.218182,E,1,04,5.2,139.77,M,46.25,M,,*6D
$GPGLL,4611.962130,N,01258.218182,E,102048.00,A,A*65
$GPVTG,349.9,T,350.0,M,001.2,N,002.2,K,A*21
$GPGSV,2,1,07,21,25,186,40,02,21,045,34,12,26,110,40,25,60,105,44*73
$GPGSV,2,2,07,29,84,335,40,30,70,307,37,31,51,284,33,,,,*44
$GPGSA,M,3,21,12,25,29,,,,,,,,,8.4,5.2,6.7*38
Trace #85 at position 21.000000
$GPZDA,102048.03,08,10,2011,00,00*61
$GPRMC,102048.00,A,4611.962130,N,01258.218182,E,001.2,349.9,081011,0.2,E,A*36
$GPGGA,102049.00,4611.962592,N,01258.217977,E,1,04,5.2,139.73,M,46.25,M,,*69
$GPGLL,4611.962592,N,01258.217977,E,102049.00,A,A*65
$GPVTG,341.3,T,341.4,M,001.9,N,003.5,K,A*2A
$GPGSV,2,1,07,21,25,186,42,02,21,045,34,12,26,110,39,25,60,105,43*78
$GPGSV,2,2,07,29,84,335,40,30,70,307,36,31,51,284,34,,,,*42
$GPGSA,M,3,21,12,25,29,,,,,,,,,8.4,5.2,6.7*38
Trace #86 at position 21.250000
$GPZDA,102048.03,08,10,2011,00,00*61
$GPRMC,102048.00,A,4611.962130,N,01258.218182,E,001.2,349.9,081011,0.2,E,A*36
$GPGGA,102049.00,4611.962592,N,01258.217977,E,1,04,5.2,139.73,M,46.25,M,,*69
$GPGLL,4611.962592,N,01258.217977,E,102049.00,A,A*65
$GPVTG,341.3,T,341.4,M,001.9,N,003.5,K,A*2A
$GPGSV,2,1,07,21,25,186,42,02,21,045,34,12,26,110,39,25,60,105,43*78
$GPGSV,2,2,07,29,84,335,40,30,70,307,36,31,51,284,34,,,,*42
$GPGSA,M,3,21,12,25,29,,,,,,,,,8.4,5.2,6.7*38
Trace #87 at position 21.500000
$GPZDA,102048.03,08,10,2011,00,00*61
$GPRMC,102048.00,A,4611.962130,N,01258.218182,E,001.2,349.9,081011,0.2,E,A*36
$GPGGA,102049.00,4611.962592,N,01258.217977,E,1,04,5.2,139.73,M,46.25,M,,*69
$GPGLL,4611.962592,N,01258.217977,E,102049.00,A,A*65
$GPVTG,341.3,T,341.4,M,001.9,N,003.5,K,A*2A
$GPGSV,2,1,07,21,25,186,42,02,21,045,34,12,26,110,39,25,60,105,43*78
$GPGSV,2,2,07,29,84,335,40,30,70,307,36,31,51,284,34,,,,*42
$GPGSA,M,3,21,12,25,29,,,,,,,,,8.4,5.2,6.7*38
Trace #88 at position 21.750000
$GPZDA,102048.03,08,10,2011,00,00*61
$GPRMC,102048.00,A,4611.962130,N,01258.218182,E,001.2,349.9,081011,0.2,E,A*36
$GPGGA,102049.00,4611.962592,N,01258.217977,E,1,04,5.2,139.73,M,46.25,M,,*69
$GPGLL,4611.962592,N,01258.217977,E,102049.00,A,A*65
$GPVTG,341.3,T,341.4,M,001.9,N,003.5,K,A*2A
$GPGSV,2,1,07,21,25,186,42,02,21,045,34,12,26,110,39,25,60,105,43*78
$GPGSV,2,2,07,29,84,335,40,30,70,307,36,31,51,284,34,,,,*42
$GPGSA,M,3,21,12,25,29,,,,,,,,,8.4,5.2,6.7*38
Trace #89 at position 22.000000
$GPZDA,102049.03,08,10,2011,00,00*60
$GPRMC,102049.00,A,4611.962592,N,01258.217977,E,001.9,341.3,081011,0.2,E,A*3F
$GPGGA,102050.00,4611.963159,N,01258.217572,E,1,04,5.2,139.64,M,46.25,M,,*6C
$GPGLL,4611.963159,N,01258.217572,E,102050.00,A,A*66
$GPVTG,326.6,T,326.7,M,002.4,N,004.5,K,A*25
$GPGSV,2,1,07,21,25,186,42,02,21,045,35,12,26,110,39,25,60,105,43*79
$GPGSV,2,2,07,29,84,335,40,30,70,307,36,31,51,284,,,,,*45
$GPGSA,M,3,21,12,25,29,,,,,,,,,8.4,5.2,6.7*38
Trace #90 at position 22.250000
$GPZDA,102049.03,08,10,2011,00,00*60
$GPRMC,102049.00,A,4611.962592,N,01258.217977,E,001.9,341.3,081011,0.2,E,A*3F
$GPGGA,102050.00,4611.963159,N,01258.217572,E,1,04,5.2,139.64,M,46.25,M,,*6C
$GPGLL,4611.963159,N,01258.217572,E,102050.00,A,A*66
$GPVTG,326.6,T,326.7,M,002.4,N,004.5,K,A*25
$GPGSV,2,1,07,21,25,186,42,02,21,045,35,12,26,110,39,25,60,105,43*79
$GPGSV,2,2,07,29,84,335,40,30,70,307,36,31,51,284,,,,,*45
$GPGSA,M,3,21,12,25,29,,,,,,,,,8.4,5.2,6.7*38
Trace #91 at position 22.500000
$GPZDA,102049.03,08,10,2011,00,00*60
$GPRMC,102049.00,A,4611.962592,N,01258.217977,E,001.9,341.3,081011,0.2,E,A*3F
$GPGGA,102050.00,4611.963159,N,01258.217572,E,1,04,5.2,139.64,M,46.25,M,,*6C
$GPGLL,4611.963159,N,01258.217572,E,102050.00,A,A*66
$GPVTG,326.6,T,326.7,M,002.4,N,004.5,K,A*25
$GPGSV,2,1,07,21,25,186,42,02,21,045,35,12,26,110,39,25,60,105,43*79
$GPGSV,2,2,07,29,84,335,40,30,70,307,36,31,51,284,,,,,*45
$GPGSA,M,3,21,12,25,29,,,,,,,,,8.4,5.2,6.7*38
Trace #92 at position 22.750000
$GPZDA,102049.03,08,10,2011,00,00*60
$GPRMC,102049.00,A,4611.962592,N,01258.217977,E,001.9,341.3,081011,0.2,E,A*3F
$GPGGA,102050.00,4611.963159,N,01258.217572,E,1,04,5.2,139.64,M,46.25,M,,*6C
$GPGLL,4611.963159,N,01258.217572,E,102050.00,A,A*66
$GPVTG,326.6,T,326.7,M,002.4,N,004.5,K,A*25
$GPGSV,2,1,07,21,25,186,42,02,21,045,35,12,26,110,39,25,60,105,43*79
$GPGSV,2,2,07,29,84,335,40,30,70,307,36,31,51,284,,,,,*45
$GPGSA,M,3,21,12,25,29,,,,,,,,,8.4,5.2,6.7*38
Trace #93 at position 23.000000
$GPZDA,102050.03,08,10,2011,00,00*68
$GPRMC,102050.00,A,4611.963159,N,01258.217572,E,002.4,326.6,081011,0.2,E,A*36
$GPGGA,102051.00,4611.963762,N,01258.217199,E,1,04,5.2,139.55,M,46.25,M,,*60
$GPGLL,4611.963762,N,01258.217199,E,102051.00,A,A*68
$GPVTG,345.0,T,345.2,M,002.2,N,004.2,K,A*27
$GPGSV,2,1,07,21,25,186,39,02,21,045,36,12,26,110,38,25,60,105,41*75
$GPGSV,2,2,07,29,84,335,39,30,70,307,37,31,51,284,35,,,,*4C
$GPGSA,M,3,21,12,25,29,,,,,,,,,8.4,5.2,6.7*38
Trace #94 at position 23.250000
$GPZDA,102050.03,08,10,2011,00,00*68
$GPRMC,102050.00,A,4611.963159,N,01258.217572,E,002.4,326.6,081011,0.2,E,A*36
$GPGGA,102051.00,4611.963762,N,01258.217199,E,1,04,5.2,139.55,M,46.25,M,,*60
$GPGLL,4611.963762,N,01258.217199,E,102051.00,A,A*68
$GPVTG,345.0,T,345.2,M,002.2,N,004.2,K,A*27
$GPGSV,2,1,07,21,25,186,39,02,21,045,36,12,26,110,38,25,60,105,41*75
$GPGSV,2,2,07,29,84,335,39,30,70,307,37,31,51,284,35,,,,*4C
$GPGSA,M,3,21,12,25,29,,,,,,,,,8.4,5.2,6.7*38
Trace #95 at position 23.500000
$GPZDA,102050.03,08,10,2011,00,00*68
$GPRMC,102050.00,A,4611.963159,N,01258.217572,E,002.4,326.6,081011,0.2,E,A*36
$GPGGA,102051.00,4611.963762,N,01258.217199,E,1,04,5.2,139.55,M,46.25,M,,*60
$GPGLL,4611.963762,N,01258.217199,E,102051.00,A,A*68
$GPVTG,345.0,T,345.2,M,002.2,N,004.2,K,A*27
$GPGSV,2,1,07,21,25,186,39,02,21,045,36,12,26,110,38,25,60,105,41*75
$GPGSV,2,2,07,29,84,335,39,30,70,307,37,31,51,284,35,,,,*4C
$GPGSA,M,3,21,12,25,29,,,,,,,,,8.4,5.2,6.7*38
Trace #96 at position 23.750000
$GPZDA,102050.03,08,10,2011,00,00*68
$GPRMC,102050.00,A,4611.963159,N,01258.217572,E,002.4,326.6,081011,0.2,E,A*36
$GPGGA,102051.00,4611.963762,N,01258.217199,E,1,04,5.2,139.55,M,46.25,M,,*60
$GPGLL,4611.963762,N,01258.217199,E,102051.00,A,A*68
$GPVTG,345.0,T,345.2,M,002.2,N,004.2,K,A*27
$GPGSV,2,1,07,21,25,186,39,02,21,045,36,12,26,110,38,25,60,105,41*75
$GPGSV,2,2,07,29,84,335,39,30,70,307,37,31,51,284,35,,,,*4C
$GPGSA,M,3,21,12,25,29,,,,,,,,,8.4,5.2,6.7*38
Trace #97 at position 24.000000
$GPZDA,102051.03,08,10,2011,00,00*69
$GPRMC,102051.00,A,4611.963762,N,01258.217199,E,002.2,345.0,081011,0.2,E,A*3D
$GPGGA,102052.00,4611.964374,N,01258.216941,E,1,04,5.2,139.37,M,46.25,M,,*6F
$GPGLL,4611.964374,N,01258.216941,E,102052.00,A,A*63
$GPVTG,340.4,T,340.6,M,002.3,N,004.3,K,A*27
$GPGSV,2,1,07,21,25,186,41,02,21,045,36,12,26,110,40,25,60,105,44*70
$GPGSV,2,2,07,29,84,335,40,30,70,307,35,31,51,284,34,,,,*41
$GPGSA,M,3,21,12,25,29,,,,,,,,,8.4,5.2,6.7*38
Trace #98 at position 24.250000
$GPZDA,102051.03,08,10,2011,00,00*69
$GPRMC,102051.00,A,4611.963762,N,01258.217199,E,002.2,345.0,081011,0.2,E,A*3D
$GPGGA,102052.00,4611.964374,N,01258.216941,E,1,04,5.2,139.37,M,46.25,M,,*6F
$GPGLL,4611.964374,N,01258.216941,E,102052.00,A,A*63
$GPVTG,340.4,T,340.6,M,002.3,N,004.3,K,A*27
$GPGSV,2,1,07,21,25,186,41,02,21,045,36,12,26,110,40,25,60,105,44*70
$GPGSV,2,2,07,29,84,335,40,30,70,307,35,31,51,284,34,,,,*41
$GPGSA,M,3,21,12,25,29,,,,,,,,,8.4,5.2,6.7*38
Trace #99 at position 24.500000
$GPZDA,102051.03,08,10,2011,00,00*69
$GPRMC,102051.00,A,4611.963762,N,01258.217199,E,002.2,345.0,081011,0.2,E,A*3D
$GPGGA,102052.00,4611.964374,N,01258.216941,E,1,04,5.2,139.37,M,46.25,M,,*6F
$GPGLL,4611.964374,N,01258.216941,E,102052.00,A,A*63
$GPVTG,340.4,T,340.6,M,002.3,N,004.3,K,A*27
$GPGSV,2,1,07,21,25,186,41,02,21,045,36,12,26,110,40,25,60,105,44*70
$GPGSV,2,2,07,29,84,335,40,30,70,307,35,31,51,284,34,,,,*41
$GPGSA,M,3,21,12,25,29,,,,,,,,,8.4,5.2,6.7*38
Trace #100 at position 24.750000
$GPZDA,102052.03,08,10,2011,00,00*6A
$GPRMC,102052.00,A,4611.964374,N,01258.216941,E,002.3,340.4,081011,0.2,E,A*36
$GPGGA,102053.00,4611.964933,N,01258.216720,E,1,04,5.2,139.27,M,46.25,M,,*6F
$GPGLL,4611.964933,N,01258.216720,E,102053.00,A,A*62
$GPVTG,348.0,T,348.2,M,001.9,N,003.5,K,A*2F
$GPGSV,2,1,07,21,25,186,40,02,21,045,36,12,26,110,40,25,60,105,43*76
$GPGSV,2,2,07,29,84,335,40,30,70,307,35,31,51,284,36,,,,*43
$GPGSA,M,3,21,12,25,29,,,,,,,,,8.4,5.2,6.7*38
Trace #101 at position 25.000000
$GPZDA,102059.03,08,10,2011,00,00*61
$GPRMC,102059.00,A,4611.965632,N,01258.216602,E,000.4,156.8,081011,0.2,E,A*3F
$GPGGA,102100.00,4611.965613,N,01258.216594,E,1,04,5.2,139.26,M,46.25,M,,*68
$GPGLL,4611.965613,N,01258.216594,E,102100.00,A,A*64
$GPVTG,321.5,T,321.7,M,000.2,N,000.3,K,A*20
$GPGSV,2,1,07,21,25,186,40,02,21,045,34,12,26,110,40,25,60,105,43*74
$GPGSV,2,2,07,29,84,336,37,30,70,307,37,31,51,284,30,,,,*44
$GPGSA,M,3,21,12,25,29,,,,,,,,,8.4,5.2,6.6*39
Trace #102 at position 25.250000
$GPZDA,102059.03,08,10,2011,00,00*61
$GPRMC,102059.00,A,4611.965632,N,01258.216602,E,000.4,156.8,081011,0.2,E,A*3F
$GPGGA,102100.00,4611.965613,N,01258.216594,E,1,04,5.2,139.26,M,46.25,M,,*68
$GPGLL,4611.965613,N,01258.216594,E,102100.00,A,A*64
$GPVTG,321.5,T,321.7,M,000.2,N,000.3,K,A*20
$GPGSV,2,1,07,21,25,186,40,02,21,045,34,12,26,110,40,25,60,105,43*74
$GPGSV,2,2,07,29,84,336,37,30,70,307,37,31,51,284,30,,,,*44
$GPGSA,M,3,21,12,25,29,,,,,,,,,8.4,5.2,6.6*39
Trace #103 at position 25.500000
$GPZDA,102100.03,08,10,2011,00,00*6C
$GPRMC,102100.00,A,4611.965613,N,01258.216594,E,000.2,321.5,081011,0.2,E,A*34
$GPGGA,102101.00,4611.965652,N,01258.216545,E,1,04,5.2,139.16,M,46.25,M,,*63
$GPGLL,4611.965652,N,01258.216545,E,102101.00,A,A*6C
$GPVTG,319.7,T,319.9,M,000.1,N,000.2,K,A*2E
$GPGSV,2,1,07,21,25,186,40,02,21,045,33,12,26,110,40,25,60,105,43*73
$GPGSV,2,2,07,29,84,336,39,30,70,307,36,31,51,284,33,,,,*48
$GPGSA,M,3,21,12,25,29,,,,,,,,,8.4,5.2,6.6*39
Trace #104 at position 25.750000
$GPZDA,102100.03,08,10,2011,00,00*6C
$GPRMC,102100.00,A,4611.965613,N,01258.216594,E,000.2,321.5,081011,0.2,E,A*34
$GPGGA,102101.00,4611.965652,N,01258.216545,E,1,04,5.2,139.16,M,46.25,M,,*63
$GPGLL,4611.965652,N,01258.216545,E,102101.00,A,A*6C
$GPVTG,319.7,T,319.9,M,000.1,N,000.2,K,A*2E
$GPGSV,2,1,07,21,25,186,40,02,21,045,33,12,26,110,40,25,60,105,43*73
$GPGSV,2,2,07,29,84,336,39,30,70,307,36,31,51,284,33,,,,*48
$GPGSA,M,3,21,12,25,29,,,,,,,,,8.4,5.2,6.6*39
Trace #105 at position 26.000000
$GPZDA,102101.03,08,10,2011,00,00*6D
$GPRMC,102101.00,A,4611.965652,N,01258.216545,E,000.1,319.7,081011,0.2,E,A*36
$GPGGA,102102.00,4611.965843,N,01258.216484,E,1,04,5.2,139.16,M,46.25,M,,*62
$GPGLL,4611.965843,N,01258.216484,E,102102.00,A,A*6D
$GPVTG,352.4,T,352.5,M,001.3,N,002.4,K,A*26
$GPGSV,2,1,07,21,25,186,41,02,21,045,34,12,26,110,39,25,60,105,42*7A
$GPGSV,2,2,07,29,84,336,40,30,70,307,37,31,51,284,38,,,,*4C
$GPGSA,M,3,21,12,25,29,,,,,,,,,8.4,5.2,6.6*39
Trace #106 at position 26.250000
$GPZDA,102101.03,08,10,2011,00,00*6D
$GPRMC,102101.00,A,4611.965652,N,01258.216545,E,000.1,319.7,081011,0.2,E,A*36
$GPGGA,102102.00,4611.965843,N,01258.216484,E,1,04,5.2,139.16,M,46.25,M,,*62
$GPGLL,4611.965843,N,01258.216484,E,102102.00,A,A*6D
$GPVTG,352.4,T,352.5,M,001.3,N,002.4,K,A*26
$GPGSV,2,1,07,21,25,186,41,02,21,045,34,12,26,110,39,25,60,105,42*7A
$GPGSV,2,2,07,29,84,336,40,30,70,307,37,31,51,284,38,,,,*4C
$GPGSA,M,3,21,12,25,29,,,,,,,,,8.4,5.2,6.6*39
Trace #107 at position 26.500000
$GPZDA,102101.03,08,10,2011,00,00*6D
$GPRMC,102101.00,A,4611.965652,N,01258.216545,E,000.1,319.7,081011,0.2,E,A*36
$GPGGA,102102.00,4611.965843,N,01258.216484,E,1,04,5.2,139.16,M,46.25,M,,*62
$GPGLL,4611.965843,N,01258.216484,E,102102.00,A,A*6D
$GPVTG,352.4,T,352.5,M,001.3,N,002.4,K,A*26
$GPGSV,2,1,07,21,25,186,41,02,21,045,34,12,26,110,39,25,60,105,42*7A
$GPGSV,2,2,07,29,84,336,40,30,70,307,37,31,51,284,38,,,,*4C
$GPGSA,M,3,21,12,25,29,,,,,,,,,8.4,5.2,6.6*39
Trace #108 at position 26.750000
$GPZDA,102102.03,08,10,2011,00,00*6E
$GPRMC,102102.00,A,4611.965843,N,01258.216484,E,001.3,352.4,081011,0.2,E,A*38
$GPGGA,102103.00,4611.966069,N,01258.216512,E,1,04,5.2,139.34,M,46.25,M,,*6E
$GPGLL,4611.966069,N,01258.216512,E,102103.00,A,A*61
$GPVTG,62.6,T,62.8,M,000.6,N,001.1,K,A*2B
$GPGSV,2,1,07,21,25,186,42,02,21,045,33,12,26,110,42,25,60,105,44*74
$GPGSV,2,2,07,29,84,336,38,30,70,307,36,31,51,284,30,,,,*4A
$GPGSA,M,3,21,12,25,29,,,,,,,,,8.4,5.2,6.6*39
Trace #109 at position 27.000000
$GPZDA,102102.03,08,10,2011,00,00*6E
$GPRMC,102102.00,A,4611.965843,N,01258.216484,E,001.3,352.4,081011,0.2,E,A*38
$GPGGA,102103.00,4611.966069,N,01258.216512,E,1,04,5.2,139.34,M,46.25,M,,*6E
$GPGLL,4611.966069,N,01258.216512,E,102103.00,A,A*61
$GPVTG,62.6,T,62.8,M,000.6,N,001.1,K,A*2B
$GPGSV,2,1,07,21,25,186,42,02,21,045,33,12,26,110,42,25,60,105,44*74
$GPGSV,2,2,07,29,84,336,38,30,70,307,36,31,51,284,30,,,,*4A
$GPGSA,M,3,21,12,25,29,,,,,,,,,8.4,5.2,6.6*39
Trace #110 at position 27.250000
$GPZDA,102103.03,08,10,2011,00,00*6F
$GPRMC,102103.00,A,4611.966069,N,01258.216512,E,000.6,62.6,081011,0.2,E,A*02
$GPGGA,102104.00,4611.966265,N,01258.216568,E,1,04,5.1,139.54,M,46.25,M,,*6F
$GPGLL,4611.966265,N,01258.216568,E,102104.00,A,A*65
$GPVTG,5.9,T,6.1,M,001.0,N,001.8,K,A*20
$GPGSV,2,1,07,21,25,186,40,02,21,045,33,12,26,110,40,25,60,105,44*74
$GPGSV,2,2,07,29,84,336,38,30,70,307,33,31,51,284,29,,,,*47
$GPGSA,M,3,21,12,25,29,,,,,,,,,8.4,5.1,6.6*3A
Trace #111 at position 27.500000
$GPZDA,102103.03,08,10,2011,00,00*6F
$GPRMC,102103.00,A,4611.966069,N,01258.216512,E,000.6,62.6,081011,0.2,E,A*02
$GPGGA,102104.00,4611.966265,N,01258.216568,E,1,04,5.1,139.54,M,46.25,M,,*6F
$GPGLL,4611.966265,N,01258.216568,E,102104.00,A,A*65
$GPVTG,5.9,T,6.1,M,001.0,N,001.8,K,A*20
$GPGSV,2,1,07,21,25,186,40,02,21,045,33,12,26,110,40,25,60,105,44*74
$GPGSV,2,2,07,29,84,336,38,30,70,307,33,31,51,284,29,,,,*47
$GPGSA,M,3,21,12,25,29,,,,,,,,,8.4,5.1,6.6*3A
Trace #112 at position 27.750000
$GPZDA,102103.03,08,10,2011,00,00*6F
$GPRMC,102103.00,A,4611.966069,N,01258.216512,E,000.6,62.6,081011,0.2,E,A*02
$GPGGA,102104.00,4611.966265,N,01258.216568,E,1,04,5.1,139.54,M,46.25,M,,*6F
$GPGLL,4611.966265,N,01258.216568,E,102104.00,A,A*65
$GPVTG,5.9,T,6.1,M,001.0,N,001.8,K,A*20
$GPGSV,2,1,07,21,25,186,40,02,21,045,33,12,26,110,40,25,60,105,44*74
$GPGSV,2,2,07,29,84,336,38,30,70,307,33,31,51,284,29,,,,*47
$GPGSA,M,3,21,12,25,29,,,,,,,,,8.4,5.1,6.6*3A
Trace #113 at position 28.000000
$GPZDA,102104.03,08,10,2011,00,00*68
$GPRMC,102104.00,A,4611.966265,N,01258.216568,E,001.0,5.9,081011,0.2,E,A*3F
$GPGGA,102105.00,4611.966572,N,01258.216447,E,1,04,5.1,139.53,M,46.25,M,,*64
$GPGLL,4611.966572,N,01258.216447,E,102105.00,A,A*69
$GPVTG,340.4,T,340.5,M,001.1,N,002.1,K,A*21
$GPGSV,2,1,07,21,25,186,42,02,21,045,33,12,26,110,40,25,60,105,43*71
$GPGSV,2,2,07,29,84,336,39,30,70,307,36,31,51,284,34,,,,*4F
$GPGSA,M,3,21,12,25,29,,,,,,,,,8.4,5.1,6.6*3A
Trace #114 at position 28.250000
$GPZDA,102104.03,08,10,2011,00,00*68
$GPRMC,102104.00,A,4611.966265,N,01258.216568,E,001.0,5.9,081011,0.2,E,A*3F
$GPGGA,102105.00,4611.966572,N,01258.216447,E,1,04,5.1,139.53,M,46.25,M,,*64
$GPGLL,4611.966572,N,01258.216447,E,102105.00,A,A*69
$GPVTG,340.4,T,340.5,M,001.1,N,002.1,K,A*21
$GPGSV,2,1,07,21,25,186,42,02,21,045,33,12,26,110,40,25,60,105,43*71
$GPGSV,2,2,07,29,84,336,39,30,70,307,36,31,51,284,34,,,,*4F
$GPGSA,M,3,21,12,25,29,,,,,,,,,8.4,5.1,6.6*3A
Trace #115 at position 28.500000
$GPZDA,102104.03,08,10,2011,00,00*68
$GPRMC,102104.00,A,4611.966265,N,01258.216568,E,001.0,5.9,081011,0.2,E,A*3F
$GPGGA,102105.00,4611.966572,N,01258.216447,E,1,04,5.1,139.53,M,46.25,M,,*64
$GPGLL,4611.966572,N,01258.216447,E,102105.00,A,A*69
$GPVTG,340.4,T,340.5,M,001.1,N,002.1,K,A*21
$GPGSV,2,1,07,21,25,186,42,02,21,045,33,12,26,110,40,25,60,105,43*71
$GPGSV,2,2,07,29,84,336,39,30,70,307,36,31,51,284,34,,,,*4F
$GPGSA,M,3,21,12,25,29,,,,,,,,,8.4,5.1,6.6*3A
Trace #116 at position 28.750000
$GPZDA,102105.03,08,10,2011,00,00*69
$GPRMC,102105.00,A,4611.966572,N,01258.216447,E,001.1,340.4,081011,0.2,E,A*3D
$GPGGA,102106.00,4611.966963,N,01258.216243,E,1,04,5.1,139.48,M,46.25,M,,*63
$GPGLL,4611.966963,N,01258.216243,E,102106.00,A,A*64
$GPVTG,346.9,T,347.1,M,001.6,N,003.0,K,A*2E
$GPGSV,2,1,07,21,25,186,40,02,21,045,34,12,26,110,40,25,60,105,43*74
$GPGSV,2,2,07,29,84,337,39,30,70,307,37,31,51,284,34,,,,*4F
$GPGSA,M,3,21,12,25,29,,,,,,,,,8.4,5.1,6.6*3A
Trace #117 at position 29.000000
$GPZDA,102105.03,08,10,2011,00,00*69
$GPRMC,102105.00,A,4611.966572,N,01258.216447,E,001.1,340.4,081011,0.2,E,A*3D
$GPGGA,102106.00,4611.966963,N,01258.216243,E,1,04,5.1,139.48,M,46.25,M,,*63
$GPGLL,4611.966963,N,01258.216243,E,102106.00,A,A*64
$GPVTG,346.9,T,347.1,M,001.6,N,003.0,K,A*2E
$GPGSV,2,1,07,21,25,186,40,02,21,045,34,12,26,110,40,25,60,105,43*74
$GPGSV,2,2,07,29,84,337,39,30,70,307,37,31,51,284,34,,,,*4F
$GPGSA,M,3,21,12,25,29,,,,,,,,,8.4,5.1,6.6*3A
