Trace #1 at position 0.000000
$GPZDA,090407.03,09,10,2011,00,00*65
$GPRMC,090407.00,A,4611.953170,N,01258.231060,E,000.1,142.7,091011,0.2,E,A*37
$GPGGA,090408.00,4611.953133,N,01258.231104,E,1,04,5.4,140.83,M,46.25,M,,*60
$GPGLL,4611.953133,N,01258.231104,E,090408.00,A,A*6B
$GPVTG,122.7,T,122.9,M,000.1,N,000.1,K,A*2D
$GPGSV,2,1,08,02,38,073,41,09,15,153,,12,54,082,43,14,25,249,38*79
$GPGSV,2,2,08,25,78,355,43,29,56,226,48,30,37,293,,31,29,312,*79
$GPGSA,M,3,02,12,25,29,,,,,,,,,9.2,5.4,7.5*3B
Trace #2 at position 0.250000
$GPZDA,090410.02,09,10,2011,00,00*62
$GPRMC,090409.00,V,,,,,,,,,,N*79
$GPGGA,090411.00,4611.952797,N,01258.231622,E,1,04,5.4,142.05,M,46.25,M,,*6E
$GPGLL,4611.952797,N,01258.231622,E,090411.00,A,A*69
$GPVTG,142.8,T,143.0,M,002.2,N,004.1,K,A*2F
$GPGSV,2,1,08,02,38,073,42,09,15,153,,12,54,082,43,14,25,249,38*7A
$GPGSV,2,2,08,25,78,355,43,29,56,226,48,30,37,293,,31,29,312,*79
$GPGSA,M,3,02,12,25,29,,,,,,,,,9.2,5.4,7.5*3B
Trace #3 at position 0.500000
$GPZDA,090410.02,09,10,2011,00,00*62
$GPRMC,090409.00,V,,,,,,,,,,N*79
$GPGGA,090411.00,4611.952797,N,01258.231622,E,1,04,5.4,142.05,M,46.25,M,,*6E
$GPGLL,4611.952797,N,01258.231622,E,090411.00,A,A*69
$GPVTG,142.8,T,143.0,M,002.2,N,004.1,K,A*2F
$GPGSV,2,1,08,02,38,073,42,09,15,153,,12,54,082,43,14,25,249,38*7A
$GPGSV,2,2,08,25,78,355,43,29,56,226,48,30,37,293,,31,29,312,*79
$GPGSA,M,3,02,12,25,29,,,,,,,,,9.2,5.4,7.5*3B
Trace #4 at position 0.750000
$GPZDA,090411.03,09,10,2011,00,00*62
$GPRMC,090411.00,A,4611.952797,N,01258.231622,E,002.2,142.8,091011,0.2,E,A*30
$GPGGA,090412.00,4611.952748,N,01258.231709,E,1,05,3.4,142.49,M,46.25,M,,*68
$GPGLL,4611.952748,N,01258.231709,E,090412.00,A,A*60
$GPVTG,336.4,T,336.6,M,001.0,N,001.9,K,A*28
$GPGSV,2,1,08,02,38,073,43,09,15,153,,12,54,082,44,14,25,249,39*7D
$GPGSV,2,2,08,25,78,355,46,29,56,226,46,30,37,293,,31,29,312,*72
$GPGSA,M,3,02,12,14,25,29,,,,,,,,4.2,3.4,2.5*30
Trace #5 at position 1.000000
$GPZDA,090411.03,09,10,2011,00,00*62
$GPRMC,090411.00,A,4611.952797,N,01258.231622,E,002.2,142.8,091011,0.2,E,A*30
$GPGGA,090412.00,4611.952748,N,01258.231709,E,1,05,3.4,142.49,M,46.25,M,,*68
$GPGLL,4611.952748,N,01258.231709,E,090412.00,A,A*60
$GPVTG,336.4,T,336.6,M,001.0,N,001.9,K,A*28
$GPGSV,2,1,08,02,38,073,43,09,15,153,,12,54,082,44,14,25,249,39*7D
$GPGSV,2,2,08,25,78,355,46,29,56,226,46,30,37,293,,31,29,312,*72
$GPGSA,M,3,02,12,14,25,29,,,,,,,,4.2,3.4,2.5*30
Trace #6 at position 1.250000
$GPZDA,090412.03,09,10,2011,00,00*61
$GPRMC,090412.00,A,4611.952748,N,01258.231709,E,001.0,336.4,091011,0.2,E,A*35
$GPGGA,090413.00,4611.953101,N,01258.231358,E,1,05,3.4,142.22,M,46.25,M,,*6E
$GPGLL,4611.953101,N,01258.231358,E,090413.00,A,A*6B
$GPVTG,321.2,T,321.4,M,001.6,N,003.0,K,A*21
$GPGSV,2,1,08,02,38,073,44,09,15,153,,12,54,082,45,14,25,249,39*7B
$GPGSV,2,2,08,25,78,355,46,29,56,226,47,30,37,293,,31,29,312,*73
$GPGSA,M,3,02,12,14,25,29,,,,,,,,4.2,3.4,2.5*30
Trace #7 at position 1.500000
$GPZDA,090412.03,09,10,2011,00,00*61
$GPRMC,090412.00,A,4611.952748,N,01258.231709,E,001.0,336.4,091011,0.2,E,A*35
$GPGGA,090413.00,4611.953101,N,01258.231358,E,1,05,3.4,142.22,M,46.25,M,,*6E
$GPGLL,4611.953101,N,01258.231358,E,090413.00,A,A*6B
$GPVTG,321.2,T,321.4,M,001.6,N,003.0,K,A*21
$GPGSV,2,1,08,02,38,073,44,09,15,153,,12,54,082,45,14,25,249,39*7B
$GPGSV,2,2,08,25,78,355,46,29,56,226,47,30,37,293,,31,29,312,*73
$GPGSA,M,3,02,12,14,25,29,,,,,,,,4.2,3.4,2.5*30
Trace #8 at position 1.750000
$GPZDA,090412.03,09,10,2011,00,00*61
$GPRMC,090412.00,A,4611.952748,N,01258.231709,E,001.0,336.4,091011,0.2,E,A*35
$GPGGA,090413.00,4611.953101,N,01258.231358,E,1,05,3.4,142.22,M,46.25,M,,*6E
$GPGLL,4611.953101,N,01258.231358,E,090413.00,A,A*6B
$GPVTG,321.2,T,321.4,M,001.6,N,003.0,K,A*21
$GPGSV,2,1,08,02,38,073,44,09,15,153,,12,54,082,45,14,25,249,39*7B
$GPGSV,2,2,08,25,78,355,46,29,56,226,47,30,37,293,,31,29,312,*73
$GPGSA,M,3,02,12,14,25,29,,,,,,,,4.2,3.4,2.5*30
Trace #9 at position 2.000000
$GPZDA,090413.03,09,10,2011,00,00*60
$GPRMC,090413.00,A,4611.953101,N,01258.231358,E,001.6,321.2,091011,0.2,E,A*38
$GPGGA,090414.00,4611.953430,N,01258.231169,E,1,05,3.4,142.01,M,46.25,M,,*6F
$GPGLL,4611.953430,N,01258.231169,E,090414.00,A,A*6B
$GPVTG,21.7,T,21.9,M,000.9,N,001.7,K,A*22
$GPGSV,2,1,08,02,38,073,44,09,15,153,,12,54,082,44,14,25,249,39*7A
$GPGSV,2,2,08,25,78,355,46,29,56,226,46,30,37,293,,31,29,312,*72
$GPGSA,M,3,02,12,14,25,29,,,,,,,,4.2,3.4,2.5*30
Trace #10 at position 2.250000
$GPZDA,090413.03,09,10,2011,00,00*60
$GPRMC,090413.00,A,4611.953101,N,01258.231358,E,001.6,321.2,091011,0.2,E,A*38
$GPGGA,090414.00,4611.953430,N,01258.231169,E,1,05,3.4,142.01,M,46.25,M,,*6F
$GPGLL,4611.953430,N,01258.231169,E,090414.00,A,A*6B
$GPVTG,21.7,T,21.9,M,000.9,N,001.7,K,A*22
$GPGSV,2,1,08,02,38,073,44,09,15,153,,12,54,082,44,14,25,249,39*7A
$GPGSV,2,2,08,25,78,355,46,29,56,226,46,30,37,293,,31,29,312,*72
$GPGSA,M,3,02,12,14,25,29,,,,,,,,4.2,3.4,2.5*30
Trace #11 at position 2.500000
$GPZDA,090414.03,09,10,2011,00,00*67
$GPRMC,090414.00,A,4611.953430,N,01258.231169,E,000.9,21.7,091011,0.2,E,A*00
$GPGGA,090415.00,4611.953717,N,01258.230991,E,1,05,3.4,141.85,M,46.25,M,,*69
$GPGLL,4611.953717,N,01258.230991,E,090415.00,A,A*62
$GPVTG,314.8,T,315.0,M,001.4,N,002.6,K,A*2B
$GPGSV,2,1,08,02,38,073,42,09,15,153,,12,53,082,45,14,25,249,41*75
$GPGSV,2,2,08,25,78,355,42,29,56,226,47,30,37,293,,31,29,312,*77
$GPGSA,M,3,02,12,14,25,29,,,,,,,,4.2,3.4,2.5*30
Trace #12 at position 2.750000
$GPZDA,090414.03,09,10,2011,00,00*67
$GPRMC,090414.00,A,4611.953430,N,01258.231169,E,000.9,21.7,091011,0.2,E,A*00
$GPGGA,090415.00,4611.953717,N,01258.230991,E,1,05,3.4,141.85,M,46.25,M,,*69
$GPGLL,4611.953717,N,01258.230991,E,090415.00,A,A*62
$GPVTG,314.8,T,315.0,M,001.4,N,002.6,K,A*2B
$GPGSV,2,1,08,02,38,073,42,09,15,153,,12,53,082,45,14,25,249,41*75
$GPGSV,2,2,08,25,78,355,42,29,56,226,47,30,37,293,,31,29,312,*77
$GPGSA,M,3,02,12,14,25,29,,,,,,,,4.2,3.4,2.5*30
Trace #13 at position 3.000000
$GPZDA,090414.03,09,10,2011,00,00*67
$GPRMC,090414.00,A,4611.953430,N,01258.231169,E,000.9,21.7,091011,0.2,E,A*00
$GPGGA,090415.00,4611.953717,N,01258.230991,E,1,05,3.4,141.85,M,46.25,M,,*69
$GPGLL,4611.953717,N,01258.230991,E,090415.00,A,A*62
$GPVTG,314.8,T,315.0,M,001.4,N,002.6,K,A*2B
$GPGSV,2,1,08,02,38,073,42,09,15,153,,12,53,082,45,14,25,249,41*75
$GPGSV,2,2,08,25,78,355,42,29,56,226,47,30,37,293,,31,29,312,*77
$GPGSA,M,3,02,12,14,25,29,,,,,,,,4.2,3.4,2.5*30
Trace #14 at position 3.250000
$GPZDA,090415.03,09,10,2011,00,00*66
$GPRMC,090415.00,A,4611.953717,N,01258.230991,E,001.4,314.8,091011,0.2,E,A*3F
$GPGGA,090416.00,4611.954080,N,01258.230737,E,1,05,3.4,141.69,M,46.25,M,,*64
$GPGLL,4611.954080,N,01258.230737,E,090416.00,A,A*6D
$GPVTG,354.9,T,355.0,M,001.4,N,002.7,K,A*2B
$GPGSV,2,1,08,02,38,073,44,09,15,153,,12,53,082,44,14,25,249,40*73
$GPGSV,2,2,08,25,78,355,45,29,56,226,47,30,37,293,,31,29,312,*70
$GPGSA,M,3,02,12,14,25,29,,,,,,,,4.2,3.4,2.5*30
Trace #15 at position 3.500000
$GPZDA,090415.03,09,10,2011,00,00*66
$GPRMC,090415.00,A,4611.953717,N,01258.230991,E,001.4,314.8,091011,0.2,E,A*3F
$GPGGA,090416.00,4611.954080,N,01258.230737,E,1,05,3.4,141.69,M,46.25,M,,*64
$GPGLL,4611.954080,N,01258.230737,E,090416.00,A,A*6D
$GPVTG,354.9,T,355.0,M,001.4,N,002.7,K,A*2B
$GPGSV,2,1,08,02,38,073,44,09,15,153,,12,53,082,44,14,25,249,40*73
$GPGSV,2,2,08,25,78,355,45,29,56,226,47,30,37,293,,31,29,312,*70
$GPGSA,M,3,02,12,14,25,29,,,,,,,,4.2,3.4,2.5*30
Trace #16 at position 3.750000
$GPZDA,090416.03,09,10,2011,00,00*65
$GPRMC,090416.00,A,4611.954080,N,01258.230737,E,001.4,354.9,091011,0.2,E,A*35
$GPGGA,090417.00,4611.954500,N,01258.230581,E,1,05,3.4,141.57,M,46.25,M,,*6A
$GPGLL,4611.954500,N,01258.230581,E,090417.00,A,A*6E
$GPVTG,341.6,T,341.8,M,001.6,N,002.9,K,A*21
$GPGSV,2,1,08,02,38,073,44,09,15,153,,12,53,082,43,14,25,249,40*74
$GPGSV,2,2,08,25,78,355,45,29,56,226,45,30,37,293,,31,29,312,*72
$GPGSA,M,3,02,12,14,25,29,,,,,,,,4.2,3.4,2.5*30
Trace #17 at position 4.000000
$GPZDA,090416.03,09,10,2011,00,00*65
$GPRMC,090416.00,A,4611.954080,N,01258.230737,E,001.4,354.9,091011,0.2,E,A*35
$GPGGA,090417.00,4611.954500,N,01258.230581,E,1,05,3.4,141.57,M,46.25,M,,*6A
$GPGLL,4611.954500,N,01258.230581,E,090417.00,A,A*6E
$GPVTG,341.6,T,341.8,M,001.6,N,002.9,K,A*21
$GPGSV,2,1,08,02,38,073,44,09,15,153,,12,53,082,43,14,25,249,40*74
$GPGSV,2,2,08,25,78,355,45,29,56,226,45,30,37,293,,31,29,312,*72
$GPGSA,M,3,02,12,14,25,29,,,,,,,,4.2,3.4,2.5*30
Trace #18 at position 4.250000
$GPZDA,090416.03,09,10,2011,00,00*65
$GPRMC,090416.00,A,4611.954080,N,01258.230737,E,001.4,354.9,091011,0.2,E,A*35
$GPGGA,090417.00,4611.954500,N,01258.230581,E,1,05,3.4,141.57,M,46.25,M,,*6A
$GPGLL,4611.954500,N,01258.230581,E,090417.00,A,A*6E
$GPVTG,341.6,T,341.8,M,001.6,N,002.9,K,A*21
$GPGSV,2,1,08,02,38,073,44,09,15,153,,12,53,082,43,14,25,249,40*74
$GPGSV,2,2,08,25,78,355,45,29,56,226,45,30,37,293,,31,29,312,*72
$GPGSA,M,3,02,12,14,25,29,,,,,,,,4.2,3.4,2.5*30
Trace #19 at position 4.500000
$GPZDA,090416.03,09,10,2011,00,00*65
$GPRMC,090416.00,A,4611.954080,N,01258.230737,E,001.4,354.9,091011,0.2,E,A*35
$GPGGA,090417.00,4611.954500,N,01258.230581,E,1,05,3.4,141.57,M,46.25,M,,*6A
$GPGLL,4611.954500,N,01258.230581,E,090417.00,A,A*6E
$GPVTG,341.6,T,341.8,M,001.6,N,002.9,K,A*21
$GPGSV,2,1,08,02,38,073,44,09,15,153,,12,53,082,43,14,25,249,40*74
$GPGSV,2,2,08,25,78,355,45,29,56,226,45,30,37,293,,31,29,312,*72
$GPGSA,M,3,02,12,14,25,29,,,,,,,,4.2,3.4,2.5*30
Trace #20 at position 4.750000
$GPZDA,090417.03,09,10,2011,00,00*64
$GPRMC,090417.00,A,4611.954500,N,01258.230581,E,001.6,341.6,091011,0.2,E,A*3F
$GPGGA,090418.00,4611.954896,N,01258.230343,E,1,05,3.4,141.49,M,46.25,M,,*60
$GPGLL,4611.954896,N,01258.230343,E,090418.00,A,A*6B
$GPVTG,335.1,T,335.3,M,001.4,N,002.7,K,A*21
$GPGSV,2,1,08,02,38,073,44,09,15,153,,12,53,082,44,14,25,249,38*7C
$GPGSV,2,2,08,25,78,355,43,29,56,226,45,30,37,293,,31,29,312,*74
$GPGSA,M,3,02,12,14,25,29,,,,,,,,4.2,3.4,2.5*30
Trace #21 at position 5.000000
$GPZDA,090417.03,09,10,2011,00,00*64
$GPRMC,090417.00,A,4611.954500,N,01258.230581,E,001.6,341.6,091011,0.2,E,A*3F
$GPGGA,090418.00,4611.954896,N,01258.230343,E,1,05,3.4,141.49,M,46.25,M,,*60
$GPGLL,4611.954896,N,01258.230343,E,090418.00,A,A*6B
$GPVTG,335.1,T,335.3,M,001.4,N,002.7,K,A*21
$GPGSV,2,1,08,02,38,073,44,09,15,153,,12,53,082,44,14,25,249,38*7C
$GPGSV,2,2,08,25,78,355,43,29,56,226,45,30,37,293,,31,29,312,*74
$GPGSA,M,3,02,12,14,25,29,,,,,,,,4.2,3.4,2.5*30
Trace #22 at position 5.250000
$GPZDA,090417.03,09,10,2011,00,00*64
$GPRMC,090417.00,A,4611.954500,N,01258.230581,E,001.6,341.6,091011,0.2,E,A*3F
$GPGGA,090418.00,4611.954896,N,01258.230343,E,1,05,3.4,141.49,M,46.25,M,,*60
$GPGLL,4611.954896,N,01258.230343,E,090418.00,A,A*6B
$GPVTG,335.1,T,335.3,M,001.4,N,002.7,K,A*21
$GPGSV,2,1,08,02,38,073,44,09,15,153,,12,53,082,44,14,25,249,38*7C
$GPGSV,2,2,08,25,78,355,43,29,56,226,45,30,37,293,,31,29,312,*74
$GPGSA,M,3,02,12,14,25,29,,,,,,,,4.2,3.4,2.5*30
Trace #23 at position 5.500000
$GPZDA,090418.03,09,10,2011,00,00*6B
$GPRMC,090418.00,A,4611.954896,N,01258.230343,E,001.4,335.1,091011,0.2,E,A*3C
$GPGGA,090419.00,4611.955396,N,01258.230188,E,1,05,3.4,141.40,M,46.25,M,,*67
$GPGLL,4611.955396,N,01258.230188,E,090419.00,A,A*65
$GPVTG,358.3,T,358.5,M,002.3,N,004.3,K,A*23
$GPGSV,2,1,08,02,38,073,45,09,15,153,,12,53,082,43,14,25,249,38*7A
$GPGSV,2,2,08,25,78,355,44,29,56,226,44,30,37,293,,31,29,312,*72
$GPGSA,M,3,02,12,14,25,29,,,,,,,,4.2,3.4,2.5*30
Trace #24 at position 5.750000
$GPZDA,090418.03,09,10,2011,00,00*6B
$GPRMC,090418.00,A,4611.954896,N,01258.230343,E,001.4,335.1,091011,0.2,E,A*3C
$GPGGA,090419.00,4611.955396,N,01258.230188,E,1,05,3.4,141.40,M,46.25,M,,*67
$GPGLL,4611.955396,N,01258.230188,E,090419.00,A,A*65
$GPVTG,358.3,T,358.5,M,002.3,N,004.3,K,A*23
$GPGSV,2,1,08,02,38,073,45,09,15,153,,12,53,082,43,14,25,249,38*7A
$GPGSV,2,2,08,25,78,355,44,29,56,226,44,30,37,293,,31,29,312,*72
$GPGSA,M,3,02,12,14,25,29,,,,,,,,4.2,3.4,2.5*30
Trace #25 at position 6.000000
$GPZDA,090418.03,09,10,2011,00,00*6B
$GPRMC,090418.00,A,4611.954896,N,01258.230343,E,001.4,335.1,091011,0.2,E,A*3C
$GPGGA,090419.00,4611.955396,N,01258.230188,E,1,05,3.4,141.40,M,46.25,M,,*67
$GPGLL,4611.955396,N,01258.230188,E,090419.00,A,A*65
$GPVTG,358.3,T,358.5,M,002.3,N,004.3,K,A*23
$GPGSV,2,1,08,02,38,073,45,09,15,153,,12,53,082,43,14,25,249,38*7A
$GPGSV,2,2,08,25,78,355,44,29,56,226,44,30,37,293,,31,29,312,*72
$GPGSA,M,3,02,12,14,25,29,,,,,,,,4.2,3.4,2.5*30
Trace #26 at position 6.250000
$GPZDA,090418.03,09,10,2011,00,00*6B
$GPRMC,090418.00,A,4611.954896,N,01258.230343,E,001.4,335.1,091011,0.2,E,A*3C
$GPGGA,090419.00,4611.955396,N,01258.230188,E,1,05,3.4,141.40,M,46.25,M,,*67
$GPGLL,4611.955396,N,01258.230188,E,090419.00,A,A*65
$GPVTG,358.3,T,358.5,M,002.3,N,004.3,K,A*23
$GPGSV,2,1,08,02,38,073,45,09,15,153,,12,53,082,43,14,25,249,38*7A
$GPGSV,2,2,08,25,78,355,44,29,56,226,44,30,37,293,,31,29,312,*72
$GPGSA,M,3,02,12,14,25,29,,,,,,,,4.2,3.4,2.5*30
Trace #27 at position 6.500000
$GPZDA,090419.03,09,10,2011,00,00*6A
$GPRMC,090419.00,A,4611.955396,N,01258.230188,E,002.3,358.3,091011,0.2,E,A*3F
$GPGGA,090420.00,4611.955928,N,01258.229965,E,1,05,3.4,141.29,M,46.25,M,,*6E
$GPGLL,4611.955928,N,01258.229965,E,090420.00,A,A*63
$GPVTG,329.3,T,329.5,M,001.8,N,003.3,K,A*2C
$GPGSV,2,1,08,02,38,073,45,09,15,153,,12,53,082,43,14,25,249,38*7A
$GPGSV,2,2,08,25,78,355,44,29,56,226,45,30,37,293,38,31,29,312,*78
$GPGSA,M,3,02,12,14,25,29,,,,,,,,4.2,3.4,2.5*30
Trace #28 at position 6.750000
$GPZDA,090419.03,09,10,2011,00,00*6A
$GPRMC,090419.00,A,4611.955396,N,01258.230188,E,002.3,358.3,091011,0.2,E,A*3F
$GPGGA,090420.00,4611.955928,N,01258.229965,E,1,05,3.4,141.29,M,46.25,M,,*6E
$GPGLL,4611.955928,N,01258.229965,E,090420.00,A,A*63
$GPVTG,329.3,T,329.5,M,001.8,N,003.3,K,A*2C
$GPGSV,2,1,08,02,38,073,45,09,15,153,,12,53,082,43,14,25,249,38*7A
$GPGSV,2,2,08,25,78,355,44,29,56,226,45,30,37,293,38,31,29,312,*78
$GPGSA,M,3,02,12,14,25,29,,,,,,,,4.2,3.4,2.5*30
Trace #29 at position 7.000000
$GPZDA,090419.03,09,10,2011,00,00*6A
$GPRMC,090419.00,A,4611.955396,N,01258.230188,E,002.3,358.3,091011,0.2,E,A*3F
$GPGGA,090420.00,4611.955928,N,01258.229965,E,1,05,3.4,141.29,M,46.25,M,,*6E
$GPGLL,4611.955928,N,01258.229965,E,090420.00,A,A*63
$GPVTG,329.3,T,329.5,M,001.8,N,003.3,K,A*2C
$GPGSV,2,1,08,02,38,073,45,09,15,153,,12,53,082,43,14,25,249,38*7A
$GPGSV,2,2,08,25,78,355,44,29,56,226,45,30,37,293,38,31,29,312,*78
$GPGSA,M,3,02,12,14,25,29,,,,,,,,4.2,3.4,2.5*30
Trace #30 at position 7.250000
$GPZDA,090419.03,09,10,2011,00,00*6A
$GPRMC,090419.00,A,4611.955396,N,01258.230188,E,002.3,358.3,091011,0.2,E,A*3F
$GPGGA,090420.00,4611.955928,N,01258.229965,E,1,05,3.4,141.29,M,46.25,M,,*6E
$GPGLL,4611.955928,N,01258.229965,E,090420.00,A,A*63
$GPVTG,329.3,T,329.5,M,001.8,N,003.3,K,A*2C
$GPGSV,2,1,08,02,38,073,45,09,15,153,,12,53,082,43,14,25,249,38*7A
$GPGSV,2,2,08,25,78,355,44,29,56,226,45,30,37,293,38,31,29,312,*78
$GPGSA,M,3,02,12,14,25,29,,,,,,,,4.2,3.4,2.5*30
Trace #31 at position 7.500000
$GPZDA,090419.03,09,10,2011,00,00*6A
$GPRMC,090419.00,A,4611.955396,N,01258.230188,E,002.3,358.3,091011,0.2,E,A*3F
$GPGGA,090420.00,4611.955928,N,01258.229965,E,1,05,3.4,141.29,M,46.25,M,,*6E
$GPGLL,4611.955928,N,01258.229965,E,090420.00,A,A*63
$GPVTG,329.3,T,329.5,M,001.8,N,003.3,K,A*2C
$GPGSV,2,1,08,02,38,073,45,09,15,153,,12,53,082,43,14,25,249,38*7A
$GPGSV,2,2,08,25,78,355,44,29,56,226,45,30,37,293,38,31,29,312,*78
$GPGSA,M,3,02,12,14,25,29,,,,,,,,4.2,3.4,2.5*30
Trace #32 at position 7.750000
$GPZDA,090420.03,09,10,2011,00,00*60
$GPRMC,090420.00,A,4611.955928,N,01258.229965,E,001.8,329.3,091011,0.2,E,A*37
$GPGGA,090421.00,4611.956432,N,01258.229538,E,1,05,3.4,141.18,M,46.25,M,,*6C
$GPGLL,4611.956432,N,01258.229538,E,090421.00,A,A*63
$GPVTG,329.4,T,329.5,M,002.5,N,004.5,K,A*24
$GPGSV,2,1,08,02,38,073,45,09,15,153,,12,53,082,44,14,25,249,38*7D
$GPGSV,2,2,08,25,78,355,44,29,56,226,45,30,37,293,39,31,29,312,35*7F
$GPGSA,M,3,02,12,14,25,29,,,,,,,,4.2,3.4,2.5*30
Trace #33 at position 8.000000
$GPZDA,090420.03,09,10,2011,00,00*60
$GPRMC,090420.00,A,4611.955928,N,01258.229965,E,001.8,329.3,091011,0.2,E,A*37
$GPGGA,090421.00,4611.956432,N,01258.229538,E,1,05,3.4,141.18,M,46.25,M,,*6C
$GPGLL,4611.956432,N,01258.229538,E,090421.00,A,A*63
$GPVTG,329.4,T,329.5,M,002.5,N,004.5,K,A*24
$GPGSV,2,1,08,02,38,073,45,09,15,153,,12,53,082,44,14,25,249,38*7D
$GPGSV,2,2,08,25,78,355,44,29,56,226,45,30,37,293,39,31,29,312,35*7F
$GPGSA,M,3,02,12,14,25,29,,,,,,,,4.2,3.4,2.5*30
Trace #34 at position 8.250000
$GPZDA,090420.03,09,10,2011,00,00*60
$GPRMC,090420.00,A,4611.955928,N,01258.229965,E,001.8,329.3,091011,0.2,E,A*37
$GPGGA,090421.00,4611.956432,N,01258.229538,E,1,05,3.4,141.18,M,46.25,M,,*6C
$GPGLL,4611.956432,N,01258.229538,E,090421.00,A,A*63
$GPVTG,329.4,T,329.5,M,002.5,N,004.5,K,A*24
$GPGSV,2,1,08,02,38,073,45,09,15,153,,12,53,082,44,14,25,249,38*7D
$GPGSV,2,2,08,25,78,355,44,29,56,226,45,30,37,293,39,31,29,312,35*7F
$GPGSA,M,3,02,12,14,25,29,,,,,,,,4.2,3.4,2.5*30
Trace #35 at position 8.500000
$GPZDA,090420.03,09,10,2011,00,00*60
$GPRMC,090420.00,A,4611.955928,N,01258.229965,E,001.8,329.3,091011,0.2,E,A*37
$GPGGA,090421.00,4611.956432,N,01258.229538,E,1,05,3.4,141.18,M,46.25,M,,*6C
$GPGLL,4611.956432,N,01258.229538,E,090421.00,A,A*63
$GPVTG,329.4,T,329.5,M,002.5,N,004.5,K,A*24
$GPGSV,2,1,08,02,38,073,45,09,15,153,,12,53,082,44,14,25,249,38*7D
$GPGSV,2,2,08,25,78,355,44,29,56,226,45,30,37,293,39,31,29,312,35*7F
$GPGSA,M,3,02,12,14,25,29,,,,,,,,4.2,3.4,2.5*30
Trace #36 at position 8.750000
$GPZDA,090421.03,09,10,2011,00,00*61
$GPRMC,090421.00,A,4611.956432,N,01258.229538,E,002.5,329.4,091011,0.2,E,A*3E
$GPGGA,090422.00,4611.956980,N,01258.229103,E,1,05,3.4,141.15,M,46.25,M,,*6A
$GPGLL,4611.956980,N,01258.229103,E,090422.00,A,A*68
$GPVTG,329.6,T,329.8,M,002.1,N,003.9,K,A*24
$GPGSV,2,1,08,02,38,073,44,09,15,153,,12,53,082,44,14,25,249,37*73
$GPGSV,2,2,08,25,78,355,45,29,56,226,45,30,37,293,39,31,29,312,36*7D
$GPGSA,M,3,02,12,14,25,29,,,,,,,,4.2,3.4,2.5*30
Trace #37 at position 9.000000
$GPZDA,090421.03,09,10,2011,00,00*61
$GPRMC,090421.00,A,4611.956432,N,01258.229538,E,002.5,329.4,091011,0.2,E,A*3E
$GPGGA,090422.00,4611.956980,N,01258.229103,E,1,05,3.4,141.15,M,46.25,M,,*6A
$GPGLL,4611.956980,N,01258.229103,E,090422.00,A,A*68
$GPVTG,329.6,T,329.8,M,002.1,N,003.9,K,A*24
$GPGSV,2,1,08,02,38,073,44,09,15,153,,12,53,082,44,14,25,249,37*73
$GPGSV,2,2,08,25,78,355,45,29,56,226,45,30,37,293,39,31,29,312,36*7D
$GPGSA,M,3,02,12,14,25,29,,,,,,,,4.2,3.4,2.5*30
Trace #38 at position 9.250000
$GPZDA,090421.03,09,10,2011,00,00*61
$GPRMC,090421.00,A,4611.956432,N,01258.229538,E,002.5,329.4,091011,0.2,E,A*3E
$GPGGA,090422.00,4611.956980,N,01258.229103,E,1,05,3.4,141.15,M,46.25,M,,*6A
$GPGLL,4611.956980,N,01258.229103,E,090422.00,A,A*68
$GPVTG,329.6,T,329.8,M,002.1,N,003.9,K,A*24
$GPGSV,2,1,08,02,38,073,44,09,15,153,,12,53,082,44,14,25,249,37*73
$GPGSV,2,2,08,25,78,355,45,29,56,226,45,30,37,293,39,31,29,312,36*7D
$GPGSA,M,3,02,12,14,25,29,,,,,,,,4.2,3.4,2.5*30
Trace #39 at position 9.500000
$GPZDA,090421.03,09,10,2011,00,00*61
$GPRMC,090421.00,A,4611.956432,N,01258.229538,E,002.5,329.4,091011,0.2,E,A*3E
$GPGGA,090422.00,4611.956980,N,01258.229103,E,1,05,3.4,141.15,M,46.25,M,,*6A
$GPGLL,4611.956980,N,01258.229103,E,090422.00,A,A*68
$GPVTG,329.6,T,329.8,M,002.1,N,003.9,K,A*24
$GPGSV,2,1,08,02,38,073,44,09,15,153,,12,53,082,44,14,25,249,37*73
$GPGSV,2,2,08,25,78,355,45,29,56,226,45,30,37,293,39,31,29,312,36*7D
$GPGSA,M,3,02,12,14,25,29,,,,,,,,4.2,3.4,2.5*30
Trace #40 at position 9.750000
$GPZDA,090422.03,09,10,2011,00,00*62
$GPRMC,090422.00,A,4611.956980,N,01258.229103,E,002.1,329.6,091011,0.2,E,A*33
$GPGGA,090423.00,4611.957702,N,01258.228691,E,1,06,1.8,141.01,M,46.25,M,,*6B
$GPGLL,4611.957702,N,01258.228691,E,090423.00,A,A*61
$GPVTG,344.8,T,345.0,M,001.8,N,003.4,K,A*24
$GPGSV,2,1,08,02,38,073,45,09,15,153,,12,53,082,44,14,25,249,37*72
$GPGSV,2,2,08,25,78,355,44,29,56,226,46,30,37,293,37,31,29,312,35*72
$GPGSA,M,3,02,12,14,25,29,30,,,,,,,3.1,1.8,2.5*39
Trace #41 at position 10.000000
$GPZDA,090422.03,09,10,2011,00,00*62
$GPRMC,090422.00,A,4611.956980,N,01258.229103,E,002.1,329.6,091011,0.2,E,A*33
$GPGGA,090423.00,4611.957702,N,01258.228691,E,1,06,1.8,141.01,M,46.25,M,,*6B
$GPGLL,4611.957702,N,01258.228691,E,090423.00,A,A*61
$GPVTG,344.8,T,345.0,M,001.8,N,003.4,K,A*24
$GPGSV,2,1,08,02,38,073,45,09,15,153,,12,53,082,44,14,25,249,37*72
$GPGSV,2,2,08,25,78,355,44,29,56,226,46,30,37,293,37,31,29,312,35*72
$GPGSA,M,3,02,12,14,25,29,30,,,,,,,3.1,1.8,2.5*39
Trace #42 at position 10.250000
$GPZDA,090422.03,09,10,2011,00,00*62
$GPRMC,090422.00,A,4611.956980,N,01258.229103,E,002.1,329.6,091011,0.2,E,A*33
$GPGGA,090423.00,4611.957702,N,01258.228691,E,1,06,1.8,141.01,M,46.25,M,,*6B
$GPGLL,4611.957702,N,01258.228691,E,090423.00,A,A*61
$GPVTG,344.8,T,345.0,M,001.8,N,003.4,K,A*24
$GPGSV,2,1,08,02,38,073,45,09,15,153,,12,53,082,44,14,25,249,37*72
$GPGSV,2,2,08,25,78,355,44,29,56,226,46,30,37,293,37,31,29,312,35*72
$GPGSA,M,3,02,12,14,25,29,30,,,,,,,3.1,1.8,2.5*39
Trace #43 at position 10.500000
$GPZDA,090422.03,09,10,2011,00,00*62
$GPRMC,090422.00,A,4611.956980,N,01258.229103,E,002.1,329.6,091011,0.2,E,A*33
$GPGGA,090423.00,4611.957702,N,01258.228691,E,1,06,1.8,141.01,M,46.25,M,,*6B
$GPGLL,4611.957702,N,01258.228691,E,090423.00,A,A*61
$GPVTG,344.8,T,345.0,M,001.8,N,003.4,K,A*24
$GPGSV,2,1,08,02,38,073,45,09,15,153,,12,53,082,44,14,25,249,37*72
$GPGSV,2,2,08,25,78,355,44,29,56,226,46,30,37,293,37,31,29,312,35*72
$GPGSA,M,3,02,12,14,25,29,30,,,,,,,3.1,1.8,2.5*39
Trace #44 at position 10.750000
$GPZDA,090423.04,09,10,2011,00,00*64
$GPRMC,090423.00,A,4611.957702,N,01258.228691,E,001.8,344.8,091011,0.2,E,A*35
$GPGGA,090424.00,4611.958252,N,01258.228484,E,1,06,1.8,141.05,M,46.25,M,,*61
$GPGLL,4611.958252,N,01258.228484,E,090424.00,A,A*6F
$GPVTG,357.8,T,358.0,M,000.6,N,001.1,K,A*22
$GPGSV,2,1,08,02,38,073,44,09,15,153,,12,53,082,44,14,25,249,37*73
$GPGSV,2,2,08,25,78,355,44,29,56,226,46,30,37,293,39,31,29,312,36*7F
$GPGSA,M,3,02,12,14,25,29,30,,,,,,,3.1,1.8,2.5*39
Trace #45 at position 11.000000
$GPZDA,090423.04,09,10,2011,00,00*64
$GPRMC,090423.00,A,4611.957702,N,01258.228691,E,001.8,344.8,091011,0.2,E,A*35
$GPGGA,090424.00,4611.958252,N,01258.228484,E,1,06,1.8,141.05,M,46.25,M,,*61
$GPGLL,4611.958252,N,01258.228484,E,090424.00,A,A*6F
$GPVTG,357.8,T,358.0,M,000.6,N,001.1,K,A*22
$GPGSV,2,1,08,02,38,073,44,09,15,153,,12,53,082,44,14,25,249,37*73
$GPGSV,2,2,08,25,78,355,44,29,56,226,46,30,37,293,39,31,29,312,36*7F
$GPGSA,M,3,02,12,14,25,29,30,,,,,,,3.1,1.8,2.5*39
Trace #46 at position 11.250000
$GPZDA,090423.04,09,10,2011,00,00*64
$GPRMC,090423.00,A,4611.957702,N,01258.228691,E,001.8,344.8,091011,0.2,E,A*35
$GPGGA,090424.00,4611.958252,N,01258.228484,E,1,06,1.8,141.05,M,46.25,M,,*61
$GPGLL,4611.958252,N,01258.228484,E,090424.00,A,A*6F
$GPVTG,357.8,T,358.0,M,000.6,N,001.1,K,A*22
$GPGSV,2,1,08,02,38,073,44,09,15,153,,12,53,082,44,14,25,249,37*73
$GPGSV,2,2,08,25,78,355,44,29,56,226,46,30,37,293,39,31,29,312,36*7F
$GPGSA,M,3,02,12,14,25,29,30,,,,,,,3.1,1.8,2.5*39
Trace #47 at position 11.500000
$GPZDA,090423.04,09,10,2011,00,00*64
$GPRMC,090423.00,A,4611.957702,N,01258.228691,E,001.8,344.8,091011,0.2,E,A*35
$GPGGA,090424.00,4611.958252,N,01258.228484,E,1,06,1.8,141.05,M,46.25,M,,*61
$GPGLL,4611.958252,N,01258.228484,E,090424.00,A,A*6F
$GPVTG,357.8,T,358.0,M,000.6,N,001.1,K,A*22
$GPGSV,2,1,08,02,38,073,44,09,15,153,,12,53,082,44,14,25,249,37*73
$GPGSV,2,2,08,25,78,355,44,29,56,226,46,30,37,293,39,31,29,312,36*7F
$GPGSA,M,3,02,12,14,25,29,30,,,,,,,3.1,1.8,2.5*39
Trace #48 at position 11.750000
$GPZDA,090424.03,09,10,2011,00,00*64
$GPRMC,090424.00,A,4611.958252,N,01258.228484,E,000.6,357.8,091011,0.2,E,A*36
$GPGGA,090425.00,4611.958738,N,01258.228140,E,1,06,1.8,141.06,M,46.25,M,,*67
$GPGLL,4611.958738,N,01258.228140,E,090425.00,A,A*6A
$GPVTG,316.6,T,316.7,M,001.8,N,003.3,K,A*2B
$GPGSV,2,1,08,02,38,073,44,09,15,153,,12,53,082,45,14,25,249,37*72
$GPGSV,2,2,08,25,78,355,45,29,56,226,45,30,37,293,39,31,29,312,34*7F
$GPGSA,M,3,02,12,14,25,29,30,,,,,,,3.1,1.8,2.5*39
Trace #49 at position 12.000000
$GPZDA,090424.03,09,10,2011,00,00*64
$GPRMC,090424.00,A,4611.958252,N,01258.228484,E,000.6,357.8,091011,0.2,E,A*36
$GPGGA,090425.00,4611.958738,N,01258.228140,E,1,06,1.8,141.06,M,46.25,M,,*67
$GPGLL,4611.958738,N,01258.228140,E,090425.00,A,A*6A
$GPVTG,316.6,T,316.7,M,001.8,N,003.3,K,A*2B
$GPGSV,2,1,08,02,38,073,44,09,15,153,,12,53,082,45,14,25,249,37*72
$GPGSV,2,2,08,25,78,355,45,29,56,226,45,30,37,293,39,31,29,312,34*7F
$GPGSA,M,3,02,12,14,25,29,30,,,,,,,3.1,1.8,2.5*39
Trace #50 at position 12.250000
$GPZDA,090424.03,09,10,2011,00,00*64
$GPRMC,090424.00,A,4611.958252,N,01258.228484,E,000.6,357.8,091011,0.2,E,A*36
$GPGGA,090425.00,4611.958738,N,01258.228140,E,1,06,1.8,141.06,M,46.25,M,,*67
$GPGLL,4611.958738,N,01258.228140,E,090425.00,A,A*6A
$GPVTG,316.6,T,316.7,M,001.8,N,003.3,K,A*2B
$GPGSV,2,1,08,02,38,073,44,09,15,153,,12,53,082,45,14,25,249,37*72
$GPGSV,2,2,08,25,78,355,45,29,56,226,45,30,37,293,39,31,29,312,34*7F
$GPGSA,M,3,02,12,14,25,29,30,,,,,,,3.1,1.8,2.5*39
Trace #51 at position 12.500000
$GPZDA,090424.03,09,10,2011,00,00*64
$GPRMC,090424.00,A,4611.958252,N,01258.228484,E,000.6,357.8,091011,0.2,E,A*36
$GPGGA,090425.00,4611.958738,N,01258.228140,E,1,06,1.8,141.06,M,46.25,M,,*67
$GPGLL,4611.958738,N,01258.228140,E,090425.00,A,A*6A
$GPVTG,316.6,T,316.7,M,001.8,N,003.3,K,A*2B
$GPGSV,2,1,08,02,38,073,44,09,15,153,,12,53,082,45,14,25,249,37*72
$GPGSV,2,2,08,25,78,355,45,29,56,226,45,30,37,293,39,31,29,312,34*7F
$GPGSA,M,3,02,12,14,25,29,30,,,,,,,3.1,1.8,2.5*39
Trace #52 at position 12.750000
$GPZDA,090425.03,09,10,2011,00,00*65
$GPRMC,090425.00,A,4611.958738,N,01258.228140,E,001.8,316.6,091011,0.2,E,A*37
$GPGGA,090426.00,4611.959380,N,01258.227709,E,1,06,1.8,140.90,M,46.25,M,,*68
$GPGLL,4611.959380,N,01258.227709,E,090426.00,A,A*6B
$GPVTG,342.5,T,342.7,M,001.9,N,003.6,K,A*2C
$GPGSV,2,1,08,02,38,073,45,09,15,153,,12,53,082,44,14,25,249,36*73
$GPGSV,2,2,08,25,78,355,46,29,56,226,45,30,37,293,37,31,29,312,36*70
$GPGSA,M,3,02,12,14,25,29,30,,,,,,,3.1,1.8,2.5*39
Trace #53 at position 13.000000
$GPZDA,090425.03,09,10,2011,00,00*65
$GPRMC,090425.00,A,4611.958738,N,01258.228140,E,001.8,316.6,091011,0.2,E,A*37
$GPGGA,090426.00,4611.959380,N,01258.227709,E,1,06,1.8,140.90,M,46.25,M,,*68
$GPGLL,4611.959380,N,01258.227709,E,090426.00,A,A*6B
$GPVTG,342.5,T,342.7,M,001.9,N,003.6,K,A*2C
$GPGSV,2,1,08,02,38,073,45,09,15,153,,12,53,082,44,14,25,249,36*73
$GPGSV,2,2,08,25,78,355,46,29,56,226,45,30,37,293,37,31,29,312,36*70
$GPGSA,M,3,02,12,14,25,29,30,,,,,,,3.1,1.8,2.5*39
Trace #54 at position 13.250000
$GPZDA,090425.03,09,10,2011,00,00*65
$GPRMC,090425.00,A,4611.958738,N,01258.228140,E,001.8,316.6,091011,0.2,E,A*37
$GPGGA,090426.00,4611.959380,N,01258.227709,E,1,06,1.8,140.90,M,46.25,M,,*68
$GPGLL,4611.959380,N,01258.227709,E,090426.00,A,A*6B
$GPVTG,342.5,T,342.7,M,001.9,N,003.6,K,A*2C
$GPGSV,2,1,08,02,38,073,45,09,15,153,,12,53,082,44,14,25,249,36*73
$GPGSV,2,2,08,25,78,355,46,29,56,226,45,30,37,293,37,31,29,312,36*70
$GPGSA,M,3,02,12,14,25,29,30,,,,,,,3.1,1.8,2.5*39
Trace #55 at position 13.500000
$GPZDA,090425.03,09,10,2011,00,00*65
$GPRMC,090425.00,A,4611.958738,N,01258.228140,E,001.8,316.6,091011,0.2,E,A*37
$GPGGA,090426.00,4611.959380,N,01258.227709,E,1,06,1.8,140.90,M,46.25,M,,*68
$GPGLL,4611.959380,N,01258.227709,E,090426.00,A,A*6B
$GPVTG,342.5,T,342.7,M,001.9,N,003.6,K,A*2C
$GPGSV,2,1,08,02,38,073,45,09,15,153,,12,53,082,44,14,25,249,36*73
$GPGSV,2,2,08,25,78,355,46,29,56,226,45,30,37,293,37,31,29,312,36*70
$GPGSA,M,3,02,12,14,25,29,30,,,,,,,3.1,1.8,2.5*39
Trace #56 at position 13.750000
$GPZDA,090425.03,09,10,2011,00,00*65
$GPRMC,090425.00,A,4611.958738,N,01258.228140,E,001.8,316.6,091011,0.2,E,A*37
$GPGGA,090426.00,4611.959380,N,01258.227709,E,1,06,1.8,140.90,M,46.25,M,,*68
$GPGLL,4611.959380,N,01258.227709,E,090426.00,A,A*6B
$GPVTG,342.5,T,342.7,M,001.9,N,003.6,K,A*2C
$GPGSV,2,1,08,02,38,073,45,09,15,153,,12,53,082,44,14,25,249,36*73
$GPGSV,2,2,08,25,78,355,46,29,56,226,45,30,37,293,37,31,29,312,36*70
$GPGSA,M,3,02,12,14,25,29,30,,,,,,,3.1,1.8,2.5*39
Trace #57 at position 14.000000
$GPZDA,090426.03,09,10,2011,00,00*66
$GPRMC,090426.00,A,4611.959380,N,01258.227709,E,001.9,342.5,091011,0.2,E,A*35
$GPGGA,090427.00,4611.960065,N,01258.227319,E,1,06,1.8,140.76,M,46.25,M,,*66
$GPGLL,4611.960065,N,01258.227319,E,090427.00,A,A*6D
$GPVTG,326.8,T,327.0,M,002.1,N,003.9,K,A*23
$GPGSV,2,1,08,02,38,073,45,09,15,153,,12,53,082,44,14,25,249,38*7D
$GPGSV,2,2,08,25,78,355,45,29,56,226,45,30,37,293,37,31,29,312,35*70
$GPGSA,M,3,02,12,14,25,29,30,,,,,,,3.1,1.8,2.5*39
Trace #58 at position 14.250000
$GPZDA,090426.03,09,10,2011,00,00*66
$GPRMC,090426.00,A,4611.959380,N,01258.227709,E,001.9,342.5,091011,0.2,E,A*35
$GPGGA,090427.00,4611.960065,N,01258.227319,E,1,06,1.8,140.76,M,46.25,M,,*66
$GPGLL,4611.960065,N,01258.227319,E,090427.00,A,A*6D
$GPVTG,326.8,T,327.0,M,002.1,N,003.9,K,A*23
$GPGSV,2,1,08,02,38,073,45,09,15,153,,12,53,082,44,14,25,249,38*7D
$GPGSV,2,2,08,25,78,355,45,29,56,226,45,30,37,293,37,31,29,312,35*70
$GPGSA,M,3,02,12,14,25,29,30,,,,,,,3.1,1.8,2.5*39
Trace #59 at position 14.500000
$GPZDA,090426.03,09,10,2011,00,00*66
$GPRMC,090426.00,A,4611.959380,N,01258.227709,E,001.9,342.5,091011,0.2,E,A*35
$GPGGA,090427.00,4611.960065,N,01258.227319,E,1,06,1.8,140.76,M,46.25,M,,*66
$GPGLL,4611.960065,N,01258.227319,E,090427.00,A,A*6D
$GPVTG,326.8,T,327.0,M,002.1,N,003.9,K,A*23
$GPGSV,2,1,08,02,38,073,45,09,15,153,,12,53,082,44,14,25,249,38*7D
$GPGSV,2,2,08,25,78,355,45,29,56,226,45,30,37,293,37,31,29,312,35*70
$GPGSA,M,3,02,12,14,25,29,30,,,,,,,3.1,1.8,2.5*39
Trace #60 at position 14.750000
$GPZDA,090427.03,09,10,2011,00,00*67
$GPRMC,090427.00,A,4611.960065,N,01258.227319,E,002.1,326.8,091011,0.2,E,A*37
$GPGGA,090428.00,4611.960631,N,01258.227019,E,1,05,3.4,140.67,M,46.25,M,,*60
$GPGLL,4611.960631,N,01258.227019,E,090428.00,A,A*66
$GPVTG,340.8,T,341.0,M,002.8,N,005.2,K,A*27
$GPGSV,2,1,08,02,38,073,44,09,15,153,,12,53,082,43,14,25,249,40*74
$GPGSV,2,2,08,25,78,355,46,29,56,226,47,30,37,293,31,31,29,312,28*7B
$GPGSA,M,3,02,12,14,25,29,,,,,,,,4.2,3.4,2.5*30
Trace #61 at position 15.000000
$GPZDA,090427.03,09,10,2011,00,00*67
$GPRMC,090427.00,A,4611.960065,N,01258.227319,E,002.1,326.8,091011,0.2,E,A*37
$GPGGA,090428.00,4611.960631,N,01258.227019,E,1,05,3.4,140.67,M,46.25,M,,*60
$GPGLL,4611.960631,N,01258.227019,E,090428.00,A,A*66
$GPVTG,340.8,T,341.0,M,002.8,N,005.2,K,A*27
$GPGSV,2,1,08,02,38,073,44,09,15,153,,12,53,082,43,14,25,249,40*74
$GPGSV,2,2,08,25,78,355,46,29,56,226,47,30,37,293,31,31,29,312,28*7B
$GPGSA,M,3,02,12,14,25,29,,,,,,,,4.2,3.4,2.5*30
Trace #62 at position 15.250000
$GPZDA,090427.03,09,10,2011,00,00*67
$GPRMC,090427.00,A,4611.960065,N,01258.227319,E,002.1,326.8,091011,0.2,E,A*37
$GPGGA,090428.00,4611.960631,N,01258.227019,E,1,05,3.4,140.67,M,46.25,M,,*60
$GPGLL,4611.960631,N,01258.227019,E,090428.00,A,A*66
$GPVTG,340.8,T,341.0,M,002.8,N,005.2,K,A*27
$GPGSV,2,1,08,02,38,073,44,09,15,153,,12,53,082,43,14,25,249,40*74
$GPGSV,2,2,08,25,78,355,46,29,56,226,47,30,37,293,31,31,29,312,28*7B
$GPGSA,M,3,02,12,14,25,29,,,,,,,,4.2,3.4,2.5*30
Trace #63 at position 15.500000
$GPZDA,090428.04,09,10,2011,00,00*6F
$GPRMC,090428.00,A,4611.960631,N,01258.227019,E,002.8,340.8,091011,0.2,E,A*35
$GPGGA,090429.00,4611.961158,N,01258.226867,E,1,05,3.4,140.63,M,46.25,M,,*6C
$GPGLL,4611.961158,N,01258.226867,E,090429.00,A,A*6E
$GPVTG,346.6,T,346.7,M,001.6,N,002.9,K,A*2E
$GPGSV,2,1,08,02,38,073,43,09,15,153,,12,53,082,43,14,25,249,41*72
$GPGSV,2,2,08,25,78,356,46,29,56,226,46,30,37,293,33,31,29,312,32*70
$GPGSA,M,3,02,12,14,25,29,,,,,,,,4.3,3.4,2.5*31
Trace #64 at position 15.750000
$GPZDA,090428.04,09,10,2011,00,00*6F
$GPRMC,090428.00,A,4611.960631,N,01258.227019,E,002.8,340.8,091011,0.2,E,A*35
$GPGGA,090429.00,4611.961158,N,01258.226867,E,1,05,3.4,140.63,M,46.25,M,,*6C
$GPGLL,4611.961158,N,01258.226867,E,090429.00,A,A*6E
$GPVTG,346.6,T,346.7,M,001.6,N,002.9,K,A*2E
$GPGSV,2,1,08,02,38,073,43,09,15,153,,12,53,082,43,14,25,249,41*72
$GPGSV,2,2,08,25,78,356,46,29,56,226,46,30,37,293,33,31,29,312,32*70
$GPGSA,M,3,02,12,14,25,29,,,,,,,,4.3,3.4,2.5*31
Trace #65 at position 16.000000
$GPZDA,090428.04,09,10,2011,00,00*6F
$GPRMC,090428.00,A,4611.960631,N,01258.227019,E,002.8,340.8,091011,0.2,E,A*35
$GPGGA,090429.00,4611.961158,N,01258.226867,E,1,05,3.4,140.63,M,46.25,M,,*6C
$GPGLL,4611.961158,N,01258.226867,E,090429.00,A,A*6E
$GPVTG,346.6,T,346.7,M,001.6,N,002.9,K,A*2E
$GPGSV,2,1,08,02,38,073,43,09,15,153,,12,53,082,43,14,25,249,41*72
$GPGSV,2,2,08,25,78,356,46,29,56,226,46,30,37,293,33,31,29,312,32*70
$GPGSA,M,3,02,12,14,25,29,,,,,,,,4.3,3.4,2.5*31
Trace #66 at position 16.250000
$GPZDA,090429.04,09,10,2011,00,00*6E
$GPRMC,090429.00,A,4611.961158,N,01258.226867,E,001.6,346.6,091011,0.2,E,A*38
$GPGGA,090430.00,4611.961589,N,01258.226768,E,1,05,3.4,140.58,M,46.25,M,,*64
$GPGLL,4611.961589,N,01258.226768,E,090430.00,A,A*6E
$GPVTG,342.4,T,342.5,M,002.0,N,003.8,K,A*2B
$GPGSV,2,1,08,02,38,073,44,09,15,153,,12,53,082,43,14,25,249,41*75
$GPGSV,2,2,08,25,78,356,46,29,56,226,46,30,37,293,33,31,29,312,32*70
$GPGSA,M,3,02,12,14,25,29,,,,,,,,4.3,3.4,2.5*31
Trace #67 at position 16.500000
$GPZDA,090429.04,09,10,2011,00,00*6E
$GPRMC,090429.00,A,4611.961158,N,01258.226867,E,001.6,346.6,091011,0.2,E,A*38
$GPGGA,090430.00,4611.961589,N,01258.226768,E,1,05,3.4,140.58,M,46.25,M,,*64
$GPGLL,4611.961589,N,01258.226768,E,090430.00,A,A*6E
$GPVTG,342.4,T,342.5,M,002.0,N,003.8,K,A*2B
$GPGSV,2,1,08,02,38,073,44,09,15,153,,12,53,082,43,14,25,249,41*75
$GPGSV,2,2,08,25,78,356,46,29,56,226,46,30,37,293,33,31,29,312,32*70
$GPGSA,M,3,02,12,14,25,29,,,,,,,,4.3,3.4,2.5*31
Trace #68 at position 16.750000
$GPZDA,090429.04,09,10,2011,00,00*6E
$GPRMC,090429.00,A,4611.961158,N,01258.226867,E,001.6,346.6,091011,0.2,E,A*38
$GPGGA,090430.00,4611.961589,N,01258.226768,E,1,05,3.4,140.58,M,46.25,M,,*64
$GPGLL,4611.961589,N,01258.226768,E,090430.00,A,A*6E
$GPVTG,342.4,T,342.5,M,002.0,N,003.8,K,A*2B
$GPGSV,2,1,08,02,38,073,44,09,15,153,,12,53,082,43,14,25,249,41*75
$GPGSV,2,2,08,25,78,356,46,29,56,226,46,30,37,293,33,31,29,312,32*70
$GPGSA,M,3,02,12,14,25,29,,,,,,,,4.3,3.4,2.5*31
Trace #69 at position 17.000000
$GPZDA,090429.04,09,10,2011,00,00*6E
$GPRMC,090429.00,A,4611.961158,N,01258.226867,E,001.6,346.6,091011,0.2,E,A*38
$GPGGA,090430.00,4611.961589,N,01258.226768,E,1,05,3.4,140.58,M,46.25,M,,*64
$GPGLL,4611.961589,N,01258.226768,E,090430.00,A,A*6E
$GPVTG,342.4,T,342.5,M,002.0,N,003.8,K,A*2B
$GPGSV,2,1,08,02,38,073,44,09,15,153,,12,53,082,43,14,25,249,41*75
$GPGSV,2,2,08,25,78,356,46,29,56,226,46,30,37,293,33,31,29,312,32*70
$GPGSA,M,3,02,12,14,25,29,,,,,,,,4.3,3.4,2.5*31
Trace #70 at position 17.250000
$GPZDA,090430.03,09,10,2011,00,00*61
$GPRMC,090430.00,A,4611.961589,N,01258.226768,E,002.0,342.4,091011,0.2,E,A*3B
$GPGGA,090431.00,4611.962026,N,01258.226722,E,1,05,3.4,140.47,M,46.25,M,,*66
$GPGLL,4611.962026,N,01258.226722,E,090431.00,A,A*62
$GPVTG,0.2,T,0.3,M,001.6,N,003.0,K,A*26
$GPGSV,2,1,08,02,38,073,44,09,15,153,,12,53,082,44,14,25,249,40*73
$GPGSV,2,2,08,25,78,356,46,29,56,226,46,30,37,293,30,31,29,312,34*75
$GPGSA,M,3,02,12,14,25,29,,,,,,,,4.3,3.4,2.5*31
Trace #71 at position 17.500000
$GPZDA,090430.03,09,10,2011,00,00*61
$GPRMC,090430.00,A,4611.961589,N,01258.226768,E,002.0,342.4,091011,0.2,E,A*3B
$GPGGA,090431.00,4611.962026,N,01258.226722,E,1,05,3.4,140.47,M,46.25,M,,*66
$GPGLL,4611.962026,N,01258.226722,E,090431.00,A,A*62
$GPVTG,0.2,T,0.3,M,001.6,N,003.0,K,A*26
$GPGSV,2,1,08,02,38,073,44,09,15,153,,12,53,082,44,14,25,249,40*73
$GPGSV,2,2,08,25,78,356,46,29,56,226,46,30,37,293,30,31,29,312,34*75
$GPGSA,M,3,02,12,14,25,29,,,,,,,,4.3,3.4,2.5*31
Trace #72 at position 17.750000
$GPZDA,090430.03,09,10,2011,00,00*61
$GPRMC,090430.00,A,4611.961589,N,01258.226768,E,002.0,342.4,091011,0.2,E,A*3B
$GPGGA,090431.00,4611.962026,N,01258.226722,E,1,05,3.4,140.47,M,46.25,M,,*66
$GPGLL,4611.962026,N,01258.226722,E,090431.00,A,A*62
$GPVTG,0.2,T,0.3,M,001.6,N,003.0,K,A*26
$GPGSV,2,1,08,02,38,073,44,09,15,153,,12,53,082,44,14,25,249,40*73
$GPGSV,2,2,08,25,78,356,46,29,56,226,46,30,37,293,30,31,29,312,34*75
$GPGSA,M,3,02,12,14,25,29,,,,,,,,4.3,3.4,2.5*31
Trace #73 at position 18.000000
$GPZDA,090431.03,09,10,2011,00,00*60
$GPRMC,090431.00,A,4611.962026,N,01258.226722,E,001.6,0.2,091011,0.2,E,A*31
$GPGGA,090432.00,4611.962402,N,01258.226751,E,1,05,3.4,140.47,M,46.25,M,,*63
$GPGLL,4611.962402,N,01258.226751,E,090432.00,A,A*67
$GPVTG,355.6,T,355.8,M,001.5,N,002.7,K,A*2C
$GPGSV,2,1,08,02,38,073,44,09,15,153,,12,53,082,44,14,25,249,40*73
$GPGSV,2,2,08,25,78,356,46,29,56,226,46,30,37,293,34,31,29,312,34*71
$GPGSA,M,3,02,12,14,25,29,,,,,,,,4.3,3.4,2.5*31
Trace #74 at position 18.250000
$GPZDA,090431.03,09,10,2011,00,00*60
$GPRMC,090431.00,A,4611.962026,N,01258.226722,E,001.6,0.2,091011,0.2,E,A*31
$GPGGA,090432.00,4611.962402,N,01258.226751,E,1,05,3.4,140.47,M,46.25,M,,*63
$GPGLL,4611.962402,N,01258.226751,E,090432.00,A,A*67
$GPVTG,355.6,T,355.8,M,001.5,N,002.7,K,A*2C
$GPGSV,2,1,08,02,38,073,44,09,15,153,,12,53,082,44,14,25,249,40*73
$GPGSV,2,2,08,25,78,356,46,29,56,226,46,30,37,293,34,31,29,312,34*71
$GPGSA,M,3,02,12,14,25,29,,,,,,,,4.3,3.4,2.5*31
Trace #75 at position 18.500000
$GPZDA,090431.03,09,10,2011,00,00*60
$GPRMC,090431.00,A,4611.962026,N,01258.226722,E,001.6,0.2,091011,0.2,E,A*31
$GPGGA,090432.00,4611.962402,N,01258.226751,E,1,05,3.4,140.47,M,46.25,M,,*63
$GPGLL,4611.962402,N,01258.226751,E,090432.00,A,A*67
$GPVTG,355.6,T,355.8,M,001.5,N,002.7,K,A*2C
$GPGSV,2,1,08,02,38,073,44,09,15,153,,12,53,082,44,14,25,249,40*73
$GPGSV,2,2,08,25,78,356,46,29,56,226,46,30,37,293,34,31,29,312,34*71
$GPGSA,M,3,02,12,14,25,29,,,,,,,,4.3,3.4,2.5*31
Trace #76 at position 18.750000
$GPZDA,090432.03,09,10,2011,00,00*63
$GPRMC,090432.00,A,4611.962402,N,01258.226751,E,001.5,355.6,091011,0.2,E,A*30
$GPGGA,090433.00,4611.962759,N,01258.226681,E,1,05,3.4,140.53,M,46.25,M,,*66
$GPGLL,4611.962759,N,01258.226681,E,090433.00,A,A*67
$GPVTG,344.0,T,344.2,M,001.5,N,002.7,K,A*20
$GPGSV,2,1,08,02,38,073,44,09,15,153,,12,53,082,43,14,25,249,39*7A
$GPGSV,2,2,08,25,78,356,46,29,56,226,46,30,37,293,31,31,29,312,31*71
$GPGSA,M,3,02,12,14,25,29,,,,,,,,4.3,3.4,2.5*31
Trace #77 at position 19.000000
$GPZDA,090432.03,09,10,2011,00,00*63
$GPRMC,090432.00,A,4611.962402,N,01258.226751,E,001.5,355.6,091011,0.2,E,A*30
$GPGGA,090433.00,4611.962759,N,01258.226681,E,1,05,3.4,140.53,M,46.25,M,,*66
$GPGLL,4611.962759,N,01258.226681,E,090433.00,A,A*67
$GPVTG,344.0,T,344.2,M,001.5,N,002.7,K,A*20
$GPGSV,2,1,08,02,38,073,44,09,15,153,,12,53,082,43,14,25,249,39*7A
$GPGSV,2,2,08,25,78,356,46,29,56,226,46,30,37,293,31,31,29,312,31*71
$GPGSA,M,3,02,12,14,25,29,,,,,,,,4.3,3.4,2.5*31
Trace #78 at position 19.250000
$GPZDA,090432.03,09,10,2011,00,00*63
$GPRMC,090432.00,A,4611.962402,N,01258.226751,E,001.5,355.6,091011,0.2,E,A*30
$GPGGA,090433.00,4611.962759,N,01258.226681,E,1,05,3.4,140.53,M,46.25,M,,*66
$GPGLL,4611.962759,N,01258.226681,E,090433.00,A,A*67
$GPVTG,344.0,T,344.2,M,001.5,N,002.7,K,A*20
$GPGSV,2,1,08,02,38,073,44,09,15,153,,12,53,082,43,14,25,249,39*7A
$GPGSV,2,2,08,25,78,356,46,29,56,226,46,30,37,293,31,31,29,312,31*71
$GPGSA,M,3,02,12,14,25,29,,,,,,,,4.3,3.4,2.5*31
Trace #79 at position 19.500000
$GPZDA,090433.04,09,10,2011,00,00*65
$GPRMC,090433.00,A,4611.962759,N,01258.226681,E,001.5,344.0,091011,0.2,E,A*36
$GPGGA,090434.00,4611.963141,N,01258.226463,E,1,05,3.4,140.53,M,46.25,M,,*61
$GPGLL,4611.963141,N,01258.226463,E,090434.00,A,A*60
$GPVTG,332.4,T,332.6,M,001.8,N,003.3,K,A*28
$GPGSV,2,1,08,02,38,073,44,09,15,153,,12,53,082,43,14,25,249,39*7A
$GPGSV,2,2,08,25,78,356,45,29,56,226,45,30,37,293,29,31,29,312,31*78
$GPGSA,M,3,02,12,14,25,29,,,,,,,,4.3,3.4,2.5*31
Trace #80 at position 19.750000
$GPZDA,090433.04,09,10,2011,00,00*65
$GPRMC,090433.00,A,4611.962759,N,01258.226681,E,001.5,344.0,091011,0.2,E,A*36
$GPGGA,090434.00,4611.963141,N,01258.226463,E,1,05,3.4,140.53,M,46.25,M,,*61
$GPGLL,4611.963141,N,01258.226463,E,090434.00,A,A*60
$GPVTG,332.4,T,332.6,M,001.8,N,003.3,K,A*28
$GPGSV,2,1,08,02,38,073,44,09,15,153,,12,53,082,43,14,25,249,39*7A
$GPGSV,2,2,08,25,78,356,45,29,56,226,45,30,37,293,29,31,29,312,31*78
$GPGSA,M,3,02,12,14,25,29,,,,,,,,4.3,3.4,2.5*31
Trace #81 at position 20.000000
$GPZDA,090433.04,09,10,2011,00,00*65
$GPRMC,090433.00,A,4611.962759,N,01258.226681,E,001.5,344.0,091011,0.2,E,A*36
$GPGGA,090434.00,4611.963141,N,01258.226463,E,1,05,3.4,140.53,M,46.25,M,,*61
$GPGLL,4611.963141,N,01258.226463,E,090434.00,A,A*60
$GPVTG,332.4,T,332.6,M,001.8,N,003.3,K,A*28
$GPGSV,2,1,08,02,38,073,44,09,15,153,,12,53,082,43,14,25,249,39*7A
$GPGSV,2,2,08,25,78,356,45,29,56,226,45,30,37,293,29,31,29,312,31*78
$GPGSA,M,3,02,12,14,25,29,,,,,,,,4.3,3.4,2.5*31
Trace #82 at position 20.250000
$GPZDA,090434.03,09,10,2011,00,00*65
$GPRMC,090434.00,A,4611.963141,N,01258.226463,E,001.8,332.4,091011,0.2,E,A*39
$GPGGA,090435.00,4611.963480,N,01258.226287,E,1,05,3.4,140.58,M,46.25,M,,*6F
$GPGLL,4611.963480,N,01258.226287,E,090435.00,A,A*65
$GPVTG,348.8,T,348.9,M,001.1,N,002.0,K,A*20
$GPGSV,2,1,08,02,38,073,44,09,15,153,,12,53,082,42,14,25,249,39*7B
$GPGSV,2,2,08,25,78,356,44,29,56,226,46,30,37,293,32,31,29,312,32*73
$GPGSA,M,3,02,12,14,25,29,,,,,,,,4.3,3.4,2.5*31
Trace #83 at position 20.500000
$GPZDA,090434.03,09,10,2011,00,00*65
$GPRMC,090434.00,A,4611.963141,N,01258.226463,E,001.8,332.4,091011,0.2,E,A*39
$GPGGA,090435.00,4611.963480,N,01258.226287,E,1,05,3.4,140.58,M,46.25,M,,*6F
$GPGLL,4611.963480,N,01258.226287,E,090435.00,A,A*65
$GPVTG,348.8,T,348.9,M,001.1,N,002.0,K,A*20
$GPGSV,2,1,08,02,38,073,44,09,15,153,,12,53,082,42,14,25,249,39*7B
$GPGSV,2,2,08,25,78,356,44,29,56,226,46,30,37,293,32,31,29,312,32*73
$GPGSA,M,3,02,12,14,25,29,,,,,,,,4.3,3.4,2.5*31
Trace #84 at position 20.750000
$GPZDA,090434.03,09,10,2011,00,00*65
$GPRMC,090434.00,A,4611.963141,N,01258.226463,E,001.8,332.4,091011,0.2,E,A*39
$GPGGA,090435.00,4611.963480,N,01258.226287,E,1,05,3.4,140.58,M,46.25,M,,*6F
$GPGLL,4611.963480,N,01258.226287,E,090435.00,A,A*65
$GPVTG,348.8,T,348.9,M,001.1,N,002.0,K,A*20
$GPGSV,2,1,08,02,38,073,44,09,15,153,,12,53,082,42,14,25,249,39*7B
$GPGSV,2,2,08,25,78,356,44,29,56,226,46,30,37,293,32,31,29,312,32*73
$GPGSA,M,3,02,12,14,25,29,,,,,,,,4.3,3.4,2.5*31
Trace #85 at position 21.000000
$GPZDA,090435.03,09,10,2011,00,00*64
$GPRMC,090435.00,A,4611.963480,N,01258.226287,E,001.1,348.8,091011,0.2,E,A*34
$GPGGA,090436.00,4611.963828,N,01258.226102,E,1,05,3.4,140.65,M,46.25,M,,*62
$GPGLL,4611.963828,N,01258.226102,E,090436.00,A,A*66
$GPVTG,331.6,T,331.8,M,001.8,N,003.4,K,A*23
$GPGSV,2,1,08,02,38,073,43,09,15,153,,12,53,082,43,14,25,249,39*7D
$GPGSV,2,2,08,25,78,356,46,29,56,226,46,30,37,293,32,31,29,312,34*77
$GPGSA,M,3,02,12,14,25,29,,,,,,,,4.3,3.4,2.5*31
Trace #86 at position 21.250000
$GPZDA,090435.03,09,10,2011,00,00*64
$GPRMC,090435.00,A,4611.963480,N,01258.226287,E,001.1,348.8,091011,0.2,E,A*34
$GPGGA,090436.00,4611.963828,N,01258.226102,E,1,05,3.4,140.65,M,46.25,M,,*62
$GPGLL,4611.963828,N,01258.226102,E,090436.00,A,A*66
$GPVTG,331.6,T,331.8,M,001.8,N,003.4,K,A*23
$GPGSV,2,1,08,02,38,073,43,09,15,153,,12,53,082,43,14,25,249,39*7D
$GPGSV,2,2,08,25,78,356,46,29,56,226,46,30,37,293,32,31,29,312,34*77
$GPGSA,M,3,02,12,14,25,29,,,,,,,,4.3,3.4,2.5*31
Trace #87 at position 21.500000
$GPZDA,090435.03,09,10,2011,00,00*64
$GPRMC,090435.00,A,4611.963480,N,01258.226287,E,001.1,348.8,091011,0.2,E,A*34
$GPGGA,090436.00,4611.963828,N,01258.226102,E,1,05,3.4,140.65,M,46.25,M,,*62
$GPGLL,4611.963828,N,01258.226102,E,090436.00,A,A*66
$GPVTG,331.6,T,331.8,M,001.8,N,003.4,K,A*23
$GPGSV,2,1,08,02,38,073,43,09,15,153,,12,53,082,43,14,25,249,39*7D
$GPGSV,2,2,08,25,78,356,46,29,56,226,46,30,37,293,32,31,29,312,34*77
$GPGSA,M,3,02,12,14,25,29,,,,,,,,4.3,3.4,2.5*31
Trace #88 at position 21.750000
$GPZDA,090436.03,09,10,2011,00,00*67
$GPRMC,090436.00,A,4611.963828,N,01258.226102,E,001.8,331.6,091011,0.2,E,A*3E
$GPGGA,090437.00,4611.964173,N,01258.225959,E,1,05,3.4,140.74,M,46.25,M,,*66
$GPGLL,4611.964173,N,01258.225959,E,090437.00,A,A*62
$GPVTG,359.3,T,359.5,M,001.0,N,001.9,K,A*2C
$GPGSV,2,1,08,02,38,073,43,09,15,153,,12,53,082,43,14,25,249,40*73
$GPGSV,2,2,08,25,78,356,46,29,56,226,45,30,37,293,34,31,29,312,31*77
$GPGSA,M,3,02,12,14,25,29,,,,,,,,4.3,3.4,2.5*31
Trace #89 at position 22.000000
$GPZDA,090436.03,09,10,2011,00,00*67
$GPRMC,090436.00,A,4611.963828,N,01258.226102,E,001.8,331.6,091011,0.2,E,A*3E
$GPGGA,090437.00,4611.964173,N,01258.225959,E,1,05,3.4,140.74,M,46.25,M,,*66
$GPGLL,4611.964173,N,01258.225959,E,090437.00,A,A*62
$GPVTG,359.3,T,359.5,M,001.0,N,001.9,K,A*2C
$GPGSV,2,1,08,02,38,073,43,09,15,153,,12,53,082,43,14,25,249,40*73
$GPGSV,2,2,08,25,78,356,46,29,56,226,45,30,37,293,34,31,29,312,31*77
$GPGSA,M,3,02,12,14,25,29,,,,,,,,4.3,3.4,2.5*31
Trace #90 at position 22.250000
$GPZDA,090436.03,09,10,2011,00,00*67
$GPRMC,090436.00,A,4611.963828,N,01258.226102,E,001.8,331.6,091011,0.2,E,A*3E
$GPGGA,090437.00,4611.964173,N,01258.225959,E,1,05,3.4,140.74,M,46.25,M,,*66
$GPGLL,4611.964173,N,01258.225959,E,090437.00,A,A*62
$GPVTG,359.3,T,359.5,M,001.0,N,001.9,K,A*2C
$GPGSV,2,1,08,02,38,073,43,09,15,153,,12,53,082,43,14,25,249,40*73
$GPGSV,2,2,08,25,78,356,46,29,56,226,45,30,37,293,34,31,29,312,31*77
$GPGSA,M,3,02,12,14,25,29,,,,,,,,4.3,3.4,2.5*31
Trace #91 at position 22.500000
$GPZDA,090437.03,09,10,2011,00,00*66
$GPRMC,090437.00,A,4611.964173,N,01258.225959,E,001.0,359.3,091011,0.2,E,A*39
$GPGGA,090438.00,4611.964504,N,01258.225770,E,1,05,3.4,140.81,M,46.25,M,,*62
$GPGLL,4611.964504,N,01258.225770,E,090438.00,A,A*6C
$GPVTG,323.1,T,323.2,M,001.8,N,003.3,K,A*29
$GPGSV,2,1,08,02,38,073,43,09,15,153,,12,53,082,44,14,25,249,41*75
$GPGSV,2,2,08,25,78,356,45,29,56,226,46,30,37,293,34,31,29,312,31*77
$GPGSA,M,3,02,12,14,25,29,,,,,,,,4.3,3.4,2.5*31
Trace #92 at position 22.750000
$GPZDA,090437.03,09,10,2011,00,00*66
$GPRMC,090437.00,A,4611.964173,N,01258.225959,E,001.0,359.3,091011,0.2,E,A*39
$GPGGA,090438.00,4611.964504,N,01258.225770,E,1,05,3.4,140.81,M,46.25,M,,*62
$GPGLL,4611.964504,N,01258.225770,E,090438.00,A,A*6C
$GPVTG,323.1,T,323.2,M,001.8,N,003.3,K,A*29
$GPGSV,2,1,08,02,38,073,43,09,15,153,,12,53,082,44,14,25,249,41*75
$GPGSV,2,2,08,25,78,356,45,29,56,226,46,30,37,293,34,31,29,312,31*77
$GPGSA,M,3,02,12,14,25,29,,,,,,,,4.3,3.4,2.5*31
Trace #93 at position 23.000000
$GPZDA,090438.04,09,10,2011,00,00*6E
$GPRMC,090438.00,A,4611.964504,N,01258.225770,E,001.8,323.1,091011,0.2,E,A*30
$GPGGA,090439.00,4611.964889,N,01258.225447,E,1,05,3.4,140.76,M,46.25,M,,*64
$GPGLL,4611.964889,N,01258.225447,E,090439.00,A,A*62
$GPVTG,330.2,T,330.4,M,001.6,N,003.0,K,A*21
$GPGSV,2,1,08,02,38,073,44,09,15,153,,12,53,082,43,14,25,249,40*74
$GPGSV,2,2,08,25,78,356,45,29,56,226,46,30,37,293,31,31,29,312,32*71
$GPGSA,M,3,02,12,14,25,29,,,,,,,,4.3,3.4,2.5*31
Trace #94 at position 23.250000
$GPZDA,090438.04,09,10,2011,00,00*6E
$GPRMC,090438.00,A,4611.964504,N,01258.225770,E,001.8,323.1,091011,0.2,E,A*30
$GPGGA,090439.00,4611.964889,N,01258.225447,E,1,05,3.4,140.76,M,46.25,M,,*64
$GPGLL,4611.964889,N,01258.225447,E,090439.00,A,A*62
$GPVTG,330.2,T,330.4,M,001.6,N,003.0,K,A*21
$GPGSV,2,1,08,02,38,073,44,09,15,153,,12,53,082,43,14,25,249,40*74
$GPGSV,2,2,08,25,78,356,45,29,56,226,46,30,37,293,31,31,29,312,32*71
$GPGSA,M,3,02,12,14,25,29,,,,,,,,4.3,3.4,2.5*31
Trace #95 at position 23.500000
$GPZDA,090439.03,09,10,2011,00,00*68
$GPRMC,090439.00,A,4611.964889,N,01258.225447,E,001.6,330.2,091011,0.2,E,A*31
$GPGGA,090440.00,4611.965294,N,01258.225357,E,1,05,3.4,140.70,M,46.25,M,,*6D
$GPGLL,4611.965294,N,01258.225357,E,090440.00,A,A*6D
$GPVTG,4.0,T,4.1,M,001.7,N,003.1,K,A*26
$GPGSV,2,1,08,02,38,073,44,09,15,153,,12,53,082,43,14,25,249,38*7B
$GPGSV,2,2,08,25,78,356,45,29,56,226,46,30,37,293,28,31,29,312,33*78
$GPGSA,M,3,02,12,14,25,29,,,,,,,,4.3,3.4,2.5*31
Trace #96 at position 23.750000
$GPZDA,090439.03,09,10,2011,00,00*68
$GPRMC,090439.00,A,4611.964889,N,01258.225447,E,001.6,330.2,091011,0.2,E,A*31
$GPGGA,090440.00,4611.965294,N,01258.225357,E,1,05,3.4,140.70,M,46.25,M,,*6D
$GPGLL,4611.965294,N,01258.225357,E,090440.00,A,A*6D
$GPVTG,4.0,T,4.1,M,001.7,N,003.1,K,A*26
$GPGSV,2,1,08,02,38,073,44,09,15,153,,12,53,082,43,14,25,249,38*7B
$GPGSV,2,2,08,25,78,356,45,29,56,226,46,30,37,293,28,31,29,312,33*78
$GPGSA,M,3,02,12,14,25,29,,,,,,,,4.3,3.4,2.5*31
Trace #97 at position 24.000000
$GPZDA,090440.03,09,10,2011,00,00*66
$GPRMC,090440.00,A,4611.965294,N,01258.225357,E,001.7,4.0,091011,0.2,E,A*39
$GPGGA,090441.00,4611.965625,N,01258.225467,E,1,05,3.4,140.68,M,46.25,M,,*6F
$GPGLL,4611.965625,N,01258.225467,E,090441.00,A,A*66
$GPVTG,21.4,T,21.6,M,001.0,N,001.8,K,A*29
$GPGSV,2,1,08,02,38,073,44,09,15,153,,12,53,082,43,14,25,249,40*74
$GPGSV,2,2,08,25,78,356,46,29,56,226,46,30,37,293,,31,29,312,31*73
$GPGSA,M,3,02,12,14,25,29,,,,,,,,4.3,3.4,2.5*31
Trace #98 at position 24.250000
$GPZDA,090440.03,09,10,2011,00,00*66
$GPRMC,090440.00,A,4611.965294,N,01258.225357,E,001.7,4.0,091011,0.2,E,A*39
$GPGGA,090441.00,4611.965625,N,01258.225467,E,1,05,3.4,140.68,M,46.25,M,,*6F
$GPGLL,4611.965625,N,01258.225467,E,090441.00,A,A*66
$GPVTG,21.4,T,21.6,M,001.0,N,001.8,K,A*29
$GPGSV,2,1,08,02,38,073,44,09,15,153,,12,53,082,43,14,25,249,40*74
$GPGSV,2,2,08,25,78,356,46,29,56,226,46,30,37,293,,31,29,312,31*73
$GPGSA,M,3,02,12,14,25,29,,,,,,,,4.3,3.4,2.5*31
Trace #99 at position 24.500000
$GPZDA,090443.04,09,10,2011,00,00*62
$GPRMC,090443.00,A,4611.966247,N,01258.225605,E,000.7,20.8,091011,0.2,E,A*0A
$GPGGA,090444.00,4611.966258,N,01258.225599,E,1,05,3.4,140.79,M,46.25,M,,*67
$GPGLL,4611.966258,N,01258.225599,E,090444.00,A,A*6E
$GPVTG,184.2,T,184.4,M,000.4,N,000.7,K,A*26
$GPGSV,2,1,08,02,38,073,44,09,15,153,,12,53,082,43,14,25,249,39*7A
$GPGSV,2,2,08,25,78,356,44,29,57,226,46,30,37,293,31,31,29,312,33*70
$GPGSA,M,3,02,12,14,25,29,,,,,,,,4.3,3.4,2.5*31
Trace #100 at position 24.750000
$GPZDA,090443.04,09,10,2011,00,00*62
$GPRMC,090443.00,A,4611.966247,N,01258.225605,E,000.7,20.8,091011,0.2,E,A*0A
$GPGGA,090444.00,4611.966258,N,01258.225599,E,1,05,3.4,140.79,M,46.25,M,,*67
$GPGLL,4611.966258,N,01258.225599,E,090444.00,A,A*6E
$GPVTG,184.2,T,184.4,M,000.4,N,000.7,K,A*26
$GPGSV,2,1,08,02,38,073,44,09,15,153,,12,53,082,43,14,25,249,39*7A
$GPGSV,2,2,08,25,78,356,44,29,57,226,46,30,37,293,31,31,29,312,33*70
$GPGSA,M,3,02,12,14,25,29,,,,,,,,4.3,3.4,2.5*31
Trace #101 at position 25.000000
$GPZDA,090443.04,09,10,2011,00,00*62
$GPRMC,090443.00,A,4611.966247,N,01258.225605,E,000.7,20.8,091011,0.2,E,A*0A
$GPGGA,090444.00,4611.966258,N,01258.225599,E,1,05,3.4,140.79,M,46.25,M,,*67
$GPGLL,4611.966258,N,01258.225599,E,090444.00,A,A*6E
$GPVTG,184.2,T,184.4,M,000.4,N,000.7,K,A*26
$GPGSV,2,1,08,02,38,073,44,09,15,153,,12,53,082,43,14,25,249,39*7A
$GPGSV,2,2,08,25,78,356,44,29,57,226,46,30,37,293,31,31,29,312,33*70
$GPGSA,M,3,02,12,14,25,29,,,,,,,,4.3,3.4,2.5*31
Trace #102 at position 25.250000
$GPZDA,090444.04,09,10,2011,00,00*65
$GPRMC,090444.00,A,4611.966258,N,01258.225599,E,000.4,184.2,091011,0.2,E,A*33
$GPGGA,090445.00,4611.966180,N,01258.225562,E,1,05,3.4,140.82,M,46.25,M,,*60
$GPGLL,4611.966180,N,01258.225562,E,090445.00,A,A*6D
$GPVTG,153.5,T,153.6,M,000.1,N,000.2,K,A*23
$GPGSV,2,1,08,02,38,073,43,09,15,153,,12,53,082,43,14,25,249,38*7C
$GPGSV,2,2,08,25,78,356,43,29,57,226,45,30,37,293,34,31,29,312,31*73
$GPGSA,M,3,02,12,14,25,29,,,,,,,,4.3,3.4,2.5*31
Trace #103 at position 25.500000
$GPZDA,090444.04,09,10,2011,00,00*65
$GPRMC,090444.00,A,4611.966258,N,01258.225599,E,000.4,184.2,091011,0.2,E,A*33
$GPGGA,090445.00,4611.966180,N,01258.225562,E,1,05,3.4,140.82,M,46.25,M,,*60
$GPGLL,4611.966180,N,01258.225562,E,090445.00,A,A*6D
$GPVTG,153.5,T,153.6,M,000.1,N,000.2,K,A*23
$GPGSV,2,1,08,02,38,073,43,09,15,153,,12,53,082,43,14,25,249,38*7C
$GPGSV,2,2,08,25,78,356,43,29,57,226,45,30,37,293,34,31,29,312,31*73
$GPGSA,M,3,02,12,14,25,29,,,,,,,,4.3,3.4,2.5*31
Trace #104 at position 25.750000
$GPZDA,090444.04,09,10,2011,00,00*65
$GPRMC,090444.00,A,4611.966258,N,01258.225599,E,000.4,184.2,091011,0.2,E,A*33
$GPGGA,090445.00,4611.966180,N,01258.225562,E,1,05,3.4,140.82,M,46.25,M,,*60
$GPGLL,4611.966180,N,01258.225562,E,090445.00,A,A*6D
$GPVTG,153.5,T,153.6,M,000.1,N,000.2,K,A*23
$GPGSV,2,1,08,02,38,073,43,09,15,153,,12,53,082,43,14,25,249,38*7C
$GPGSV,2,2,08,25,78,356,43,29,57,226,45,30,37,293,34,31,29,312,31*73
$GPGSA,M,3,02,12,14,25,29,,,,,,,,4.3,3.4,2.5*31
Trace #105 at position 26.000000
$GPZDA,090444.04,09,10,2011,00,00*65
$GPRMC,090444.00,A,4611.966258,N,01258.225599,E,000.4,184.2,091011,0.2,E,A*33
$GPGGA,090445.00,4611.966180,N,01258.225562,E,1,05,3.4,140.82,M,46.25,M,,*60
$GPGLL,4611.966180,N,01258.225562,E,090445.00,A,A*6D
$GPVTG,153.5,T,153.6,M,000.1,N,000.2,K,A*23
$GPGSV,2,1,08,02,38,073,43,09,15,153,,12,53,082,43,14,25,249,38*7C
$GPGSV,2,2,08,25,78,356,43,29,57,226,45,30,37,293,34,31,29,312,31*73
$GPGSA,M,3,02,12,14,25,29,,,,,,,,4.3,3.4,2.5*31
Trace #106 at position 26.250000
$GPZDA,090445.03,09,10,2011,00,00*63
$GPRMC,090445.00,A,4611.966180,N,01258.225562,E,000.1,153.5,091011,0.2,E,A*38
$GPGGA,090446.00,4611.966365,N,01258.225382,E,1,05,3.4,140.87,M,46.25,M,,*67
$GPGLL,4611.966365,N,01258.225382,E,090446.00,A,A*6F
$GPVTG,332.7,T,332.9,M,001.8,N,003.3,K,A*24
$GPGSV,2,1,08,02,38,073,44,09,15,153,,12,53,082,44,14,25,249,41*72
$GPGSV,2,2,08,25,78,356,46,29,57,226,45,30,37,293,37,31,29,312,32*76
$GPGSA,M,3,02,12,14,25,29,,,,,,,,4.3,3.4,2.5*31
Trace #107 at position 26.500000
$GPZDA,090445.03,09,10,2011,00,00*63
$GPRMC,090445.00,A,4611.966180,N,01258.225562,E,000.1,153.5,091011,0.2,E,A*38
$GPGGA,090446.00,4611.966365,N,01258.225382,E,1,05,3.4,140.87,M,46.25,M,,*67
$GPGLL,4611.966365,N,01258.225382,E,090446.00,A,A*6F
$GPVTG,332.7,T,332.9,M,001.8,N,003.3,K,A*24
$GPGSV,2,1,08,02,38,073,44,09,15,153,,12,53,082,44,14,25,249,41*72
$GPGSV,2,2,08,25,78,356,46,29,57,226,45,30,37,293,37,31,29,312,32*76
$GPGSA,M,3,02,12,14,25,29,,,,,,,,4.3,3.4,2.5*31
Trace #108 at position 26.750000
$GPZDA,090445.03,09,10,2011,00,00*63
$GPRMC,090445.00,A,4611.966180,N,01258.225562,E,000.1,153.5,091011,0.2,E,A*38
$GPGGA,090446.00,4611.966365,N,01258.225382,E,1,05,3.4,140.87,M,46.25,M,,*67
$GPGLL,4611.966365,N,01258.225382,E,090446.00,A,A*6F
$GPVTG,332.7,T,332.9,M,001.8,N,003.3,K,A*24
$GPGSV,2,1,08,02,38,073,44,09,15,153,,12,53,082,44,14,25,249,41*72
$GPGSV,2,2,08,25,78,356,46,29,57,226,45,30,37,293,37,31,29,312,32*76
$GPGSA,M,3,02,12,14,25,29,,,,,,,,4.3,3.4,2.5*31
Trace #109 at position 27.000000
$GPZDA,090445.03,09,10,2011,00,00*63
$GPRMC,090445.00,A,4611.966180,N,01258.225562,E,000.1,153.5,091011,0.2,E,A*38
$GPGGA,090446.00,4611.966365,N,01258.225382,E,1,05,3.4,140.87,M,46.25,M,,*67
$GPGLL,4611.966365,N,01258.225382,E,090446.00,A,A*6F
$GPVTG,332.7,T,332.9,M,001.8,N,003.3,K,A*24
$GPGSV,2,1,08,02,38,073,44,09,15,153,,12,53,082,44,14,25,249,41*72
$GPGSV,2,2,08,25,78,356,46,29,57,226,45,30,37,293,37,31,29,312,32*76
$GPGSA,M,3,02,12,14,25,29,,,,,,,,4.3,3.4,2.5*31
Trace #110 at position 27.250000
$GPZDA,090446.03,09,10,2011,00,00*60
$GPRMC,090446.00,A,4611.966365,N,01258.225382,E,001.8,332.7,091011,0.2,E,A*35
$GPGGA,090447.00,4611.966740,N,01258.225149,E,1,05,3.4,140.92,M,46.25,M,,*64
$GPGLL,4611.966740,N,01258.225149,E,090447.00,A,A*68
$GPVTG,348.3,T,348.4,M,001.2,N,002.2,K,A*27
$GPGSV,2,1,08,02,38,073,46,09,15,153,,12,53,082,43,14,25,249,37*76
$GPGSV,2,2,08,25,78,356,46,29,57,226,45,30,37,293,36,31,29,312,34*71
$GPGSA,M,3,02,12,14,25,29,,,,,,,,4.3,3.4,2.5*31
Trace #111 at position 27.500000
$GPZDA,090446.03,09,10,2011,00,00*60
$GPRMC,090446.00,A,4611.966365,N,01258.225382,E,001.8,332.7,091011,0.2,E,A*35
$GPGGA,090447.00,4611.966740,N,01258.225149,E,1,05,3.4,140.92,M,46.25,M,,*64
$GPGLL,4611.966740,N,01258.225149,E,090447.00,A,A*68
$GPVTG,348.3,T,348.4,M,001.2,N,002.2,K,A*27
$GPGSV,2,1,08,02,38,073,46,09,15,153,,12,53,082,43,14,25,249,37*76
$GPGSV,2,2,08,25,78,356,46,29,57,226,45,30,37,293,36,31,29,312,34*71
$GPGSA,M,3,02,12,14,25,29,,,,,,,,4.3,3.4,2.5*31
Trace #112 at position 27.750000
$GPZDA,090446.03,09,10,2011,00,00*60
$GPRMC,090446.00,A,4611.966365,N,01258.225382,E,001.8,332.7,091011,0.2,E,A*35
$GPGGA,090447.00,4611.966740,N,01258.225149,E,1,05,3.4,140.92,M,46.25,M,,*64
$GPGLL,4611.966740,N,01258.225149,E,090447.00,A,A*68
$GPVTG,348.3,T,348.4,M,001.2,N,002.2,K,A*27
$GPGSV,2,1,08,02,38,073,46,09,15,153,,12,53,082,43,14,25,249,37*76
$GPGSV,2,2,08,25,78,356,46,29,57,226,45,30,37,293,36,31,29,312,34*71
$GPGSA,M,3,02,12,14,25,29,,,,,,,,4.3,3.4,2.5*31
Trace #113 at position 28.000000
$GPZDA,090446.03,09,10,2011,00,00*60
$GPRMC,090446.00,A,4611.966365,N,01258.225382,E,001.8,332.7,091011,0.2,E,A*35
$GPGGA,090447.00,4611.966740,N,01258.225149,E,1,05,3.4,140.92,M,46.25,M,,*64
$GPGLL,4611.966740,N,01258.225149,E,090447.00,A,A*68
$GPVTG,348.3,T,348.4,M,001.2,N,002.2,K,A*27
$GPGSV,2,1,08,02,38,073,46,09,15,153,,12,53,082,43,14,25,249,37*76
$GPGSV,2,2,08,25,78,356,46,29,57,226,45,30,37,293,36,31,29,312,34*71
$GPGSA,M,3,02,12,14,25,29,,,,,,,,4.3,3.4,2.5*31
Trace #114 at position 28.250000
$GPZDA,090447.04,09,10,2011,00,00*66
$GPRMC,090447.00,A,4611.966740,N,01258.225149,E,001.2,348.3,091011,0.2,E,A*31
$GPGGA,090448.00,4611.967129,N,01258.224981,E,1,05,3.4,141.03,M,46.25,M,,*67
$GPGLL,4611.967129,N,01258.224981,E,090448.00,A,A*62
$GPVTG,343.9,T,344.0,M,001.6,N,003.0,K,A*29
$GPGSV,2,1,08,02,38,073,44,09,15,153,,12,53,082,44,14,25,249,38*7C
$GPGSV,2,2,08,25,78,356,45,29,57,226,45,30,37,293,36,31,29,312,35*73
$GPGSA,M,3,02,12,14,25,29,,,,,,,,4.3,3.4,2.5*31
Trace #115 at position 28.500000
$GPZDA,090447.04,09,10,2011,00,00*66
$GPRMC,090447.00,A,4611.966740,N,01258.225149,E,001.2,348.3,091011,0.2,E,A*31
$GPGGA,090448.00,4611.967129,N,01258.224981,E,1,05,3.4,141.03,M,46.25,M,,*67
$GPGLL,4611.967129,N,01258.224981,E,090448.00,A,A*62
$GPVTG,343.9,T,344.0,M,001.6,N,003.0,K,A*29
$GPGSV,2,1,08,02,38,073,44,09,15,153,,12,53,082,44,14,25,249,38*7C
$GPGSV,2,2,08,25,78,356,45,29,57,226,45,30,37,293,36,31,29,312,35*73
$GPGSA,M,3,02,12,14,25,29,,,,,,,,4.3,3.4,2.5*31
Trace #116 at position 28.750000
$GPZDA,090447.04,09,10,2011,00,00*66
$GPRMC,090447.00,A,4611.966740,N,01258.225149,E,001.2,348.3,091011,0.2,E,A*31
