Trace #1 at position 0.000000
$GPZDA,095019.03,08,10,2011,00,00*6A
$GPRMC,095019.00,A,4611.951987,N,01258.219669,E,000.1,207.1,081011,0.2,E,A*3B
$GPGGA,095020.00,4611.951983,N,01258.219661,E,1,04,3.7,139.26,M,46.25,M,,*60
$GPGLL,4611.951983,N,01258.219661,E,095020.00,A,A*6F
$GPVTG,191.2,T,191.4,M,000.0,N,000.0,K,A*25
$GPGSV,2,1,06,02,31,054,42,12,38,099,45,25,72,081,47,29,76,247,43*76
$GPGSV,2,2,06,30,56,302,,31,44,301,,,,,,,,,*7E
$GPGSA,M,3,02,12,25,29,,,,,,,,,6.9,3.7,5.9*34
Trace #2 at position 0.250000
$GPZDA,095021.03,08,10,2011,00,00*61
$GPRMC,095021.00,A,4611.951984,N,01258.219670,E,000.1,100.6,081011,0.2,E,A*38
$GPGGA,095022.00,4611.951976,N,01258.219676,E,1,04,3.7,139.27,M,46.25,M,,*6F
$GPGLL,4611.951976,N,01258.219676,E,095022.00,A,A*61
$GPVTG,190.3,T,190.5,M,000.1,N,000.1,K,A*25
$GPGSV,2,1,06,02,31,054,43,12,38,099,45,25,72,081,48,29,76,247,42*79
$GPGSV,2,2,06,30,56,302,,31,44,301,,,,,,,,,*7E
$GPGSA,M,3,02,12,25,29,,,,,,,,,6.9,3.7,5.9*34
Trace #3 at position 0.500000
$GPZDA,095022.03,08,10,2011,00,00*62
$GPRMC,095022.00,A,4611.951976,N,01258.219676,E,000.1,190.3,081011,0.2,E,A*3C
$GPGGA,095023.00,4611.952051,N,01258.219684,E,1,04,3.7,139.31,M,46.25,M,,*6B
$GPGLL,4611.952051,N,01258.219684,E,095023.00,A,A*62
$GPVTG,14.3,T,14.4,M,000.6,N,001.1,K,A*22
$GPGSV,2,1,06,02,31,054,42,12,38,099,46,25,72,081,49,29,76,247,44*7C
$GPGSV,2,2,06,30,56,302,,31,44,301,,,,,,,,,*7E
$GPGSA,M,3,02,12,25,29,,,,,,,,,6.9,3.7,5.9*34
Trace #4 at position 0.750000
$GPZDA,095023.03,08,10,2011,00,00*63
$GPRMC,095023.00,A,4611.952051,N,01258.219684,E,000.6,14.3,081011,0.2,E,A*05
$GPGGA,095024.00,4611.952169,N,01258.219706,E,1,04,3.7,139.38,M,46.25,M,,*64
$GPGLL,4611.952169,N,01258.219706,E,095024.00,A,A*64
$GPVTG,25.2,T,25.4,M,000.3,N,000.5,K,A*23
$GPGSV,2,1,06,02,31,054,42,12,38,099,44,25,72,081,47,29,76,247,45*71
$GPGSV,2,2,06,30,56,302,,31,44,301,,,,,,,,,*7E
$GPGSA,M,3,02,12,25,29,,,,,,,,,6.9,3.7,5.9*34
Trace #5 at position 1.000000
$GPZDA,095023.03,08,10,2011,00,00*63
$GPRMC,095023.00,A,4611.952051,N,01258.219684,E,000.6,14.3,081011,0.2,E,A*05
$GPGGA,095024.00,4611.952169,N,01258.219706,E,1,04,3.7,139.38,M,46.25,M,,*64
$GPGLL,4611.952169,N,01258.219706,E,095024.00,A,A*64
$GPVTG,25.2,T,25.4,M,000.3,N,000.5,K,A*23
$GPGSV,2,1,06,02,31,054,42,12,38,099,44,25,72,081,47,29,76,247,45*71
$GPGSV,2,2,06,30,56,302,,31,44,301,,,,,,,,,*7E
$GPGSA,M,3,02,12,25,29,,,,,,,,,6.9,3.7,5.9*34
Trace #6 at position 1.250000
$GPZDA,095024.03,08,10,2011,00,00*64
$GPRMC,095024.00,A,4611.952169,N,01258.219706,E,000.3,25.2,081011,0.2,E,A*05
$GPGGA,095025.00,4611.952322,N,01258.219612,E,1,04,3.7,139.34,M,46.25,M,,*60
$GPGLL,4611.952322,N,01258.219612,E,095025.00,A,A*6C
$GPVTG,331.6,T,331.8,M,000.9,N,001.7,K,A*22
$GPGSV,2,1,06,02,31,054,41,12,38,099,44,25,72,081,48,29,76,247,45*7D
$GPGSV,2,2,06,30,56,302,,31,44,301,,,,,,,,,*7E
$GPGSA,M,3,02,12,25,29,,,,,,,,,6.9,3.7,5.9*34
Trace #7 at position 1.500000
$GPZDA,095025.03,08,10,2011,00,00*65
$GPRMC,095025.00,A,4611.952322,N,01258.219612,E,000.9,331.6,081011,0.2,E,A*35
$GPGGA,095026.00,4611.952613,N,01258.219484,E,1,04,3.7,139.18,M,46.25,M,,*67
$GPGLL,4611.952613,N,01258.219484,E,095026.00,A,A*65
$GPVTG,358.1,T,358.2,M,001.3,N,002.5,K,A*25
$GPGSV,2,1,06,02,31,054,42,12,38,099,44,25,72,081,47,29,76,247,43*77
$GPGSV,2,2,06,30,56,302,,31,44,301,,,,,,,,,*7E
$GPGSA,M,3,02,12,25,29,,,,,,,,,6.9,3.7,5.9*34
Trace #8 at position 1.750000
$GPZDA,095026.03,08,10,2011,00,00*66
$GPRMC,095026.00,A,4611.952613,N,01258.219484,E,001.3,358.1,081011,0.2,E,A*3F
$GPGGA,095027.00,4611.952840,N,01258.219376,E,1,04,3.7,138.95,M,46.25,M,,*60
$GPGLL,4611.952840,N,01258.219376,E,095027.00,A,A*66
$GPVTG,318.8,T,319.0,M,000.5,N,001.0,K,A*2E
$GPGSV,2,1,06,02,31,054,41,12,38,099,43,25,72,081,46,29,76,247,42*73
$GPGSV,2,2,06,30,56,302,,31,44,301,,,,,,,,,*7E
$GPGSA,M,3,02,12,25,29,,,,,,,,,6.9,3.7,5.9*34
Trace #9 at position 2.000000
$GPZDA,095026.03,08,10,2011,00,00*66
$GPRMC,095026.00,A,4611.952613,N,01258.219484,E,001.3,358.1,081011,0.2,E,A*3F
$GPGGA,095027.00,4611.952840,N,01258.219376,E,1,04,3.7,138.95,M,46.25,M,,*60
$GPGLL,4611.952840,N,01258.219376,E,095027.00,A,A*66
$GPVTG,318.8,T,319.0,M,000.5,N,001.0,K,A*2E
$GPGSV,2,1,06,02,31,054,41,12,38,099,43,25,72,081,46,29,76,247,42*73
$GPGSV,2,2,06,30,56,302,,31,44,301,,,,,,,,,*7E
$GPGSA,M,3,02,12,25,29,,,,,,,,,6.9,3.7,5.9*34
Trace #10 at position 2.250000
$GPZDA,095027.03,08,10,2011,00,00*67
$GPRMC,095027.00,A,4611.952840,N,01258.219376,E,000.5,318.8,081011,0.2,E,A*36
$GPGGA,095028.00,4611.952956,N,01258.219261,E,1,04,3.7,138.95,M,46.25,M,,*6E
$GPGLL,4611.952956,N,01258.219261,E,095028.00,A,A*68
$GPVTG,347.3,T,347.5,M,000.5,N,000.9,K,A*29
$GPGSV,2,1,06,02,31,054,42,12,38,099,44,25,72,081,45,29,76,247,42*74
$GPGSV,2,2,06,30,56,302,37,31,44,301,,,,,,,,,*7A
$GPGSA,M,3,02,12,25,29,,,,,,,,,6.9,3.7,5.9*34
Trace #11 at position 2.500000
$GPZDA,095028.03,08,10,2011,00,00*68
$GPRMC,095028.00,A,4611.952956,N,01258.219261,E,000.5,347.3,081011,0.2,E,A*39
$GPGGA,095029.00,4611.953138,N,01258.219157,E,1,04,3.7,139.00,M,46.25,M,,*65
$GPGLL,4611.953138,N,01258.219157,E,095029.00,A,A*6E
$GPVTG,340.0,T,340.1,M,000.9,N,001.7,K,A*2D
$GPGSV,2,1,06,02,31,054,43,12,38,099,44,25,72,081,46,29,76,247,43*77
$GPGSV,2,2,06,30,56,302,36,31,44,301,,,,,,,,,*7B
$GPGSA,M,3,02,12,25,29,,,,,,,,,6.9,3.7,5.9*34
Trace #12 at position 2.750000
$GPZDA,095028.03,08,10,2011,00,00*68
$GPRMC,095028.00,A,4611.952956,N,01258.219261,E,000.5,347.3,081011,0.2,E,A*39
$GPGGA,095029.00,4611.953138,N,01258.219157,E,1,04,3.7,139.00,M,46.25,M,,*65
$GPGLL,4611.953138,N,01258.219157,E,095029.00,A,A*6E
$GPVTG,340.0,T,340.1,M,000.9,N,001.7,K,A*2D
$GPGSV,2,1,06,02,31,054,43,12,38,099,44,25,72,081,46,29,76,247,43*77
$GPGSV,2,2,06,30,56,302,36,31,44,301,,,,,,,,,*7B
$GPGSA,M,3,02,12,25,29,,,,,,,,,6.9,3.7,5.9*34
Trace #13 at position 3.000000
$GPZDA,095029.03,08,10,2011,00,00*69
$GPRMC,095029.00,A,4611.953138,N,01258.219157,E,000.9,340.0,081011,0.2,E,A*37
$GPGGA,095030.00,4611.953358,N,01258.219082,E,1,04,3.7,139.10,M,46.25,M,,*61
$GPGLL,4611.953358,N,01258.219082,E,095030.00,A,A*6B
$GPVTG,3.8,T,3.9,M,000.8,N,001.5,K,A*2E
$GPGSV,2,1,06,02,31,054,43,12,38,099,44,25,72,081,43,29,76,248,42*7C
$GPGSV,2,2,06,30,56,302,37,31,44,301,,,,,,,,,*7A
$GPGSA,M,3,02,12,25,29,,,,,,,,,6.9,3.7,5.9*34
Trace #14 at position 3.250000
$GPZDA,095030.03,08,10,2011,00,00*61
$GPRMC,095030.00,A,4611.953358,N,01258.219082,E,000.8,3.8,081011,0.2,E,A*3F
$GPGGA,095031.00,4611.953412,N,01258.218989,E,1,04,3.7,139.27,M,46.25,M,,*6E
$GPGLL,4611.953412,N,01258.218989,E,095031.00,A,A*60
$GPVTG,221.2,T,221.3,M,000.6,N,001.1,K,A*24
$GPGSV,2,1,06,02,31,054,41,12,38,099,42,25,72,081,45,29,76,248,42*7E
$GPGSV,2,2,06,30,56,302,38,31,44,301,,,,,,,,,*75
$GPGSA,M,3,02,12,25,29,,,,,,,,,6.9,3.7,5.9*34
Trace #15 at position 3.500000
$GPZDA,095030.03,08,10,2011,00,00*61
$GPRMC,095030.00,A,4611.953358,N,01258.219082,E,000.8,3.8,081011,0.2,E,A*3F
$GPGGA,095031.00,4611.953412,N,01258.218989,E,1,04,3.7,139.27,M,46.25,M,,*6E
$GPGLL,4611.953412,N,01258.218989,E,095031.00,A,A*60
$GPVTG,221.2,T,221.3,M,000.6,N,001.1,K,A*24
$GPGSV,2,1,06,02,31,054,41,12,38,099,42,25,72,081,45,29,76,248,42*7E
$GPGSV,2,2,06,30,56,302,38,31,44,301,,,,,,,,,*75
$GPGSA,M,3,02,12,25,29,,,,,,,,,6.9,3.7,5.9*34
Trace #16 at position 3.750000
$GPZDA,095031.03,08,10,2011,00,00*60
$GPRMC,095031.00,A,4611.953412,N,01258.218989,E,000.6,221.2,081011,0.2,E,A*32
$GPGGA,095032.00,4611.953621,N,01258.218788,E,1,04,3.7,139.18,M,46.25,M,,*6C
$GPGLL,4611.953621,N,01258.218788,E,095032.00,A,A*6E
$GPVTG,342.7,T,342.9,M,002.0,N,003.8,K,A*24
$GPGSV,2,1,06,02,31,054,42,12,38,099,44,25,72,081,45,29,76,248,42*7B
$GPGSV,2,2,06,30,56,302,39,31,44,301,,,,,,,,,*74
$GPGSA,M,3,02,12,25,29,,,,,,,,,6.9,3.7,5.9*34
Trace #17 at position 4.000000
$GPZDA,095031.03,08,10,2011,00,00*60
$GPRMC,095031.00,A,4611.953412,N,01258.218989,E,000.6,221.2,081011,0.2,E,A*32
$GPGGA,095032.00,4611.953621,N,01258.218788,E,1,04,3.7,139.18,M,46.25,M,,*6C
$GPGLL,4611.953621,N,01258.218788,E,095032.00,A,A*6E
$GPVTG,342.7,T,342.9,M,002.0,N,003.8,K,A*24
$GPGSV,2,1,06,02,31,054,42,12,38,099,44,25,72,081,45,29,76,248,42*7B
$GPGSV,2,2,06,30,56,302,39,31,44,301,,,,,,,,,*74
$GPGSA,M,3,02,12,25,29,,,,,,,,,6.9,3.7,5.9*34
Trace #18 at position 4.250000
$GPZDA,095031.03,08,10,2011,00,00*60
$GPRMC,095031.00,A,4611.953412,N,01258.218989,E,000.6,221.2,081011,0.2,E,A*32
$GPGGA,095032.00,4611.953621,N,01258.218788,E,1,04,3.7,139.18,M,46.25,M,,*6C
$GPGLL,4611.953621,N,01258.218788,E,095032.00,A,A*6E
$GPVTG,342.7,T,342.9,M,002.0,N,003.8,K,A*24
$GPGSV,2,1,06,02,31,054,42,12,38,099,44,25,72,081,45,29,76,248,42*7B
$GPGSV,2,2,06,30,56,302,39,31,44,301,,,,,,,,,*74
$GPGSA,M,3,02,12,25,29,,,,,,,,,6.9,3.7,5.9*34
Trace #19 at position 4.500000
$GPZDA,095032.03,08,10,2011,00,00*63
$GPRMC,095032.00,A,4611.953621,N,01258.218788,E,002.0,342.7,081011,0.2,E,A*39
$GPGGA,095033.00,4611.954038,N,01258.218670,E,1,04,3.7,139.10,M,46.25,M,,*6A
$GPGLL,4611.954038,N,01258.218670,E,095033.00,A,A*60
$GPVTG,0.1,T,0.3,M,001.2,N,002.2,K,A*22
$GPGSV,2,1,06,02,31,054,42,12,38,099,43,25,72,081,45,29,76,248,42*7C
$GPGSV,2,2,06,30,56,302,37,31,44,301,,,,,,,,,*7A
$GPGSA,M,3,02,12,25,29,,,,,,,,,6.9,3.7,5.9*34
Trace #20 at position 4.750000
$GPZDA,095032.03,08,10,2011,00,00*63
$GPRMC,095032.00,A,4611.953621,N,01258.218788,E,002.0,342.7,081011,0.2,E,A*39
$GPGGA,095033.00,4611.954038,N,01258.218670,E,1,04,3.7,139.10,M,46.25,M,,*6A
$GPGLL,4611.954038,N,01258.218670,E,095033.00,A,A*60
$GPVTG,0.1,T,0.3,M,001.2,N,002.2,K,A*22
$GPGSV,2,1,06,02,31,054,42,12,38,099,43,25,72,081,45,29,76,248,42*7C
$GPGSV,2,2,06,30,56,302,37,31,44,301,,,,,,,,,*7A
$GPGSA,M,3,02,12,25,29,,,,,,,,,6.9,3.7,5.9*34
Trace #21 at position 5.000000
$GPZDA,095033.03,08,10,2011,00,00*62
$GPRMC,095033.00,A,4611.954038,N,01258.218670,E,001.2,0.1,081011,0.2,E,A*35
$GPGGA,095034.00,4611.954353,N,01258.218585,E,1,04,3.7,139.28,M,46.25,M,,*61
$GPGLL,4611.954353,N,01258.218585,E,095034.00,A,A*60
$GPVTG,341.9,T,342.1,M,001.3,N,002.4,K,A*2C
$GPGSV,2,1,06,02,31,054,42,12,38,099,43,25,72,081,44,29,76,248,43*7C
$GPGSV,2,2,06,30,56,302,38,31,44,301,,,,,,,,,*75
$GPGSA,M,3,02,12,25,29,,,,,,,,,6.9,3.7,5.9*34
Trace #22 at position 5.250000
$GPZDA,095033.03,08,10,2011,00,00*62
$GPRMC,095033.00,A,4611.954038,N,01258.218670,E,001.2,0.1,081011,0.2,E,A*35
$GPGGA,095034.00,4611.954353,N,01258.218585,E,1,04,3.7,139.28,M,46.25,M,,*61
$GPGLL,4611.954353,N,01258.218585,E,095034.00,A,A*60
$GPVTG,341.9,T,342.1,M,001.3,N,002.4,K,A*2C
$GPGSV,2,1,06,02,31,054,42,12,38,099,43,25,72,081,44,29,76,248,43*7C
$GPGSV,2,2,06,30,56,302,38,31,44,301,,,,,,,,,*75
$GPGSA,M,3,02,12,25,29,,,,,,,,,6.9,3.7,5.9*34
Trace #23 at position 5.500000
$GPZDA,095033.03,08,10,2011,00,00*62
$GPRMC,095033.00,A,4611.954038,N,01258.218670,E,001.2,0.1,081011,0.2,E,A*35
$GPGGA,095034.00,4611.954353,N,01258.218585,E,1,04,3.7,139.28,M,46.25,M,,*61
$GPGLL,4611.954353,N,01258.218585,E,095034.00,A,A*60
$GPVTG,341.9,T,342.1,M,001.3,N,002.4,K,A*2C
$GPGSV,2,1,06,02,31,054,42,12,38,099,43,25,72,081,44,29,76,248,43*7C
$GPGSV,2,2,06,30,56,302,38,31,44,301,,,,,,,,,*75
$GPGSA,M,3,02,12,25,29,,,,,,,,,6.9,3.7,5.9*34
Trace #24 at position 5.750000
$GPZDA,095034.03,08,10,2011,00,00*65
$GPRMC,095034.00,A,4611.954353,N,01258.218585,E,001.3,341.9,081011,0.2,E,A*3A
$GPGGA,095035.00,4611.954642,N,01258.218327,E,1,04,3.7,139.40,M,46.25,M,,*65
$GPGLL,4611.954642,N,01258.218327,E,095035.00,A,A*6A
$GPVTG,314.7,T,314.9,M,001.3,N,002.5,K,A*28
$GPGSV,2,1,06,02,31,054,41,12,38,099,42,25,72,081,46,29,76,248,43*7C
$GPGSV,2,2,06,30,56,302,37,31,44,301,,,,,,,,,*7A
$GPGSA,M,3,02,12,25,29,,,,,,,,,6.9,3.7,5.9*34
Trace #25 at position 6.000000
$GPZDA,095034.03,08,10,2011,00,00*65
$GPRMC,095034.00,A,4611.954353,N,01258.218585,E,001.3,341.9,081011,0.2,E,A*3A
$GPGGA,095035.00,4611.954642,N,01258.218327,E,1,04,3.7,139.40,M,46.25,M,,*65
$GPGLL,4611.954642,N,01258.218327,E,095035.00,A,A*6A
$GPVTG,314.7,T,314.9,M,001.3,N,002.5,K,A*28
$GPGSV,2,1,06,02,31,054,41,12,38,099,42,25,72,081,46,29,76,248,43*7C
$GPGSV,2,2,06,30,56,302,37,31,44,301,,,,,,,,,*7A
$GPGSA,M,3,02,12,25,29,,,,,,,,,6.9,3.7,5.9*34
Trace #26 at position 6.250000
$GPZDA,095034.03,08,10,2011,00,00*65
$GPRMC,095034.00,A,4611.954353,N,01258.218585,E,001.3,341.9,081011,0.2,E,A*3A
$GPGGA,095035.00,4611.954642,N,01258.218327,E,1,04,3.7,139.40,M,46.25,M,,*65
$GPGLL,4611.954642,N,01258.218327,E,095035.00,A,A*6A
$GPVTG,314.7,T,314.9,M,001.3,N,002.5,K,A*28
$GPGSV,2,1,06,02,31,054,41,12,38,099,42,25,72,081,46,29,76,248,43*7C
$GPGSV,2,2,06,30,56,302,37,31,44,301,,,,,,,,,*7A
$GPGSA,M,3,02,12,25,29,,,,,,,,,6.9,3.7,5.9*34
Trace #27 at position 6.500000
$GPZDA,095035.03,08,10,2011,00,00*64
$GPRMC,095035.00,A,4611.954642,N,01258.218327,E,001.3,314.7,081011,0.2,E,A*3E
$GPGGA,095036.00,4611.954898,N,01258.218053,E,1,04,3.7,139.46,M,46.25,M,,*69
$GPGLL,4611.954898,N,01258.218053,E,095036.00,A,A*60
$GPVTG,327.9,T,328.0,M,001.1,N,002.0,K,A*27
$GPGSV,2,1,06,02,31,054,42,12,38,099,43,25,72,081,46,29,76,248,43*7E
$GPGSV,2,2,06,30,56,302,35,31,44,301,,,,,,,,,*78
$GPGSA,M,3,02,12,25,29,,,,,,,,,6.9,3.7,5.9*34
Trace #28 at position 6.750000
$GPZDA,095035.03,08,10,2011,00,00*64
$GPRMC,095035.00,A,4611.954642,N,01258.218327,E,001.3,314.7,081011,0.2,E,A*3E
$GPGGA,095036.00,4611.954898,N,01258.218053,E,1,04,3.7,139.46,M,46.25,M,,*69
$GPGLL,4611.954898,N,01258.218053,E,095036.00,A,A*60
$GPVTG,327.9,T,328.0,M,001.1,N,002.0,K,A*27
$GPGSV,2,1,06,02,31,054,42,12,38,099,43,25,72,081,46,29,76,248,43*7E
$GPGSV,2,2,06,30,56,302,35,31,44,301,,,,,,,,,*78
$GPGSA,M,3,02,12,25,29,,,,,,,,,6.9,3.7,5.9*34
Trace #29 at position 7.000000
$GPZDA,095035.03,08,10,2011,00,00*64
$GPRMC,095035.00,A,4611.954642,N,01258.218327,E,001.3,314.7,081011,0.2,E,A*3E
$GPGGA,095036.00,4611.954898,N,01258.218053,E,1,04,3.7,139.46,M,46.25,M,,*69
$GPGLL,4611.954898,N,01258.218053,E,095036.00,A,A*60
$GPVTG,327.9,T,328.0,M,001.1,N,002.0,K,A*27
$GPGSV,2,1,06,02,31,054,42,12,38,099,43,25,72,081,46,29,76,248,43*7E
$GPGSV,2,2,06,30,56,302,35,31,44,301,,,,,,,,,*78
$GPGSA,M,3,02,12,25,29,,,,,,,,,6.9,3.7,5.9*34
Trace #30 at position 7.250000
$GPZDA,095036.03,08,10,2011,00,00*67
$GPRMC,095036.00,A,4611.954898,N,01258.218053,E,001.1,327.9,081011,0.2,E,A*38
$GPGGA,095037.00,4611.955339,N,01258.217820,E,1,04,3.7,139.38,M,46.25,M,,*63
$GPGLL,4611.955339,N,01258.217820,E,095037.00,A,A*63
$GPVTG,340.8,T,340.9,M,002.4,N,004.5,K,A*25
$GPGSV,2,1,06,02,31,054,42,12,38,099,43,25,72,081,47,29,76,248,44*78
$GPGSV,2,2,06,30,56,302,37,31,44,301,,,,,,,,,*7A
$GPGSA,M,3,02,12,25,29,,,,,,,,,6.9,3.7,5.9*34
Trace #31 at position 7.500000
$GPZDA,095036.03,08,10,2011,00,00*67
$GPRMC,095036.00,A,4611.954898,N,01258.218053,E,001.1,327.9,081011,0.2,E,A*38
$GPGGA,095037.00,4611.955339,N,01258.217820,E,1,04,3.7,139.38,M,46.25,M,,*63
$GPGLL,4611.955339,N,01258.217820,E,095037.00,A,A*63
$GPVTG,340.8,T,340.9,M,002.4,N,004.5,K,A*25
$GPGSV,2,1,06,02,31,054,42,12,38,099,43,25,72,081,47,29,76,248,44*78
$GPGSV,2,2,06,30,56,302,37,31,44,301,,,,,,,,,*7A
$GPGSA,M,3,02,12,25,29,,,,,,,,,6.9,3.7,5.9*34
Trace #32 at position 7.750000
$GPZDA,095036.03,08,10,2011,00,00*67
$GPRMC,095036.00,A,4611.954898,N,01258.218053,E,001.1,327.9,081011,0.2,E,A*38
$GPGGA,095037.00,4611.955339,N,01258.217820,E,1,04,3.7,139.38,M,46.25,M,,*63
$GPGLL,4611.955339,N,01258.217820,E,095037.00,A,A*63
$GPVTG,340.8,T,340.9,M,002.4,N,004.5,K,A*25
$GPGSV,2,1,06,02,31,054,42,12,38,099,43,25,72,081,47,29,76,248,44*78
$GPGSV,2,2,06,30,56,302,37,31,44,301,,,,,,,,,*7A
$GPGSA,M,3,02,12,25,29,,,,,,,,,6.9,3.7,5.9*34
Trace #33 at position 8.000000
$GPZDA,095037.03,08,10,2011,00,00*66
$GPRMC,095037.00,A,4611.955339,N,01258.217820,E,002.4,340.8,081011,0.2,E,A*3D
$GPGGA,095038.00,4611.955844,N,01258.217567,E,1,04,3.7,139.09,M,46.25,M,,*61
$GPGLL,4611.955844,N,01258.217567,E,095038.00,A,A*63
$GPVTG,334.7,T,334.8,M,001.6,N,003.0,K,A*28
$GPGSV,2,1,06,02,31,054,41,12,38,099,43,25,72,081,46,29,76,248,43*7D
$GPGSV,2,2,06,30,56,302,35,31,44,301,,,,,,,,,*78
$GPGSA,M,3,02,12,25,29,,,,,,,,,6.9,3.7,5.9*34
Trace #34 at position 8.250000
$GPZDA,095037.03,08,10,2011,00,00*66
$GPRMC,095037.00,A,4611.955339,N,01258.217820,E,002.4,340.8,081011,0.2,E,A*3D
$GPGGA,095038.00,4611.955844,N,01258.217567,E,1,04,3.7,139.09,M,46.25,M,,*61
$GPGLL,4611.955844,N,01258.217567,E,095038.00,A,A*63
$GPVTG,334.7,T,334.8,M,001.6,N,003.0,K,A*28
$GPGSV,2,1,06,02,31,054,41,12,38,099,43,25,72,081,46,29,76,248,43*7D
$GPGSV,2,2,06,30,56,302,35,31,44,301,,,,,,,,,*78
$GPGSA,M,3,02,12,25,29,,,,,,,,,6.9,3.7,5.9*34
Trace #35 at position 8.500000
$GPZDA,095037.03,08,10,2011,00,00*66
$GPRMC,095037.00,A,4611.955339,N,01258.217820,E,002.4,340.8,081011,0.2,E,A*3D
$GPGGA,095038.00,4611.955844,N,01258.217567,E,1,04,3.7,139.09,M,46.25,M,,*61
$GPGLL,4611.955844,N,01258.217567,E,095038.00,A,A*63
$GPVTG,334.7,T,334.8,M,001.6,N,003.0,K,A*28
$GPGSV,2,1,06,02,31,054,41,12,38,099,43,25,72,081,46,29,76,248,43*7D
$GPGSV,2,2,06,30,56,302,35,31,44,301,,,,,,,,,*78
$GPGSA,M,3,02,12,25,29,,,,,,,,,6.9,3.7,5.9*34
Trace #36 at position 8.750000
$GPZDA,095038.03,08,10,2011,00,00*69
$GPRMC,095038.00,A,4611.955844,N,01258.217567,E,001.6,334.7,081011,0.2,E,A*30
$GPGGA,095039.00,4611.956251,N,01258.217406,E,1,04,3.7,138.90,M,46.25,M,,*6A
$GPGLL,4611.956251,N,01258.217406,E,095039.00,A,A*69
$GPVTG,349.4,T,349.6,M,001.7,N,003.1,K,A*25
$GPGSV,2,1,06,02,31,054,41,12,38,099,44,25,72,081,46,29,76,248,43*7A
$GPGSV,2,2,06,30,56,302,36,31,44,301,,,,,,,,,*7B
$GPGSA,M,3,02,12,25,29,,,,,,,,,6.9,3.7,5.9*34
Trace #37 at position 9.000000
$GPZDA,095038.03,08,10,2011,00,00*69
$GPRMC,095038.00,A,4611.955844,N,01258.217567,E,001.6,334.7,081011,0.2,E,A*30
$GPGGA,095039.00,4611.956251,N,01258.217406,E,1,04,3.7,138.90,M,46.25,M,,*6A
$GPGLL,4611.956251,N,01258.217406,E,095039.00,A,A*69
$GPVTG,349.4,T,349.6,M,001.7,N,003.1,K,A*25
$GPGSV,2,1,06,02,31,054,41,12,38,099,44,25,72,081,46,29,76,248,43*7A
$GPGSV,2,2,06,30,56,302,36,31,44,301,,,,,,,,,*7B
$GPGSA,M,3,02,12,25,29,,,,,,,,,6.9,3.7,5.9*34
Trace #38 at position 9.250000
$GPZDA,095038.03,08,10,2011,00,00*69
$GPRMC,095038.00,A,4611.955844,N,01258.217567,E,001.6,334.7,081011,0.2,E,A*30
$GPGGA,095039.00,4611.956251,N,01258.217406,E,1,04,3.7,138.90,M,46.25,M,,*6A
$GPGLL,4611.956251,N,01258.217406,E,095039.00,A,A*69
$GPVTG,349.4,T,349.6,M,001.7,N,003.1,K,A*25
$GPGSV,2,1,06,02,31,054,41,12,38,099,44,25,72,081,46,29,76,248,43*7A
$GPGSV,2,2,06,30,56,302,36,31,44,301,,,,,,,,,*7B
$GPGSA,M,3,02,12,25,29,,,,,,,,,6.9,3.7,5.9*34
Trace #39 at position 9.500000
$GPZDA,095039.03,08,10,2011,00,00*68
$GPRMC,095039.00,A,4611.956251,N,01258.217406,E,001.7,349.4,081011,0.2,E,A*32
$GPGGA,095040.00,4611.956688,N,01258.217379,E,1,04,3.7,138.84,M,46.25,M,,*6E
$GPGLL,4611.956688,N,01258.217379,E,095040.00,A,A*68
$GPVTG,1.4,T,1.6,M,001.7,N,003.2,K,A*26
$GPGSV,2,1,06,02,30,054,41,12,38,099,44,25,72,081,43,29,76,248,41*7C
$GPGSV,2,2,06,30,56,302,38,31,44,301,,,,,,,,,*75
$GPGSA,M,3,02,12,25,29,,,,,,,,,6.9,3.7,5.9*34
Trace #40 at position 9.750000
$GPZDA,095039.03,08,10,2011,00,00*68
$GPRMC,095039.00,A,4611.956251,N,01258.217406,E,001.7,349.4,081011,0.2,E,A*32
$GPGGA,095040.00,4611.956688,N,01258.217379,E,1,04,3.7,138.84,M,46.25,M,,*6E
$GPGLL,4611.956688,N,01258.217379,E,095040.00,A,A*68
$GPVTG,1.4,T,1.6,M,001.7,N,003.2,K,A*26
$GPGSV,2,1,06,02,30,054,41,12,38,099,44,25,72,081,43,29,76,248,41*7C
$GPGSV,2,2,06,30,56,302,38,31,44,301,,,,,,,,,*75
$GPGSA,M,3,02,12,25,29,,,,,,,,,6.9,3.7,5.9*34
Trace #41 at position 10.000000
$GPZDA,095039.03,08,10,2011,00,00*68
$GPRMC,095039.00,A,4611.956251,N,01258.217406,E,001.7,349.4,081011,0.2,E,A*32
$GPGGA,095040.00,4611.956688,N,01258.217379,E,1,04,3.7,138.84,M,46.25,M,,*6E
$GPGLL,4611.956688,N,01258.217379,E,095040.00,A,A*68
$GPVTG,1.4,T,1.6,M,001.7,N,003.2,K,A*26
$GPGSV,2,1,06,02,30,054,41,12,38,099,44,25,72,081,43,29,76,248,41*7C
$GPGSV,2,2,06,30,56,302,38,31,44,301,,,,,,,,,*75
$GPGSA,M,3,02,12,25,29,,,,,,,,,6.9,3.7,5.9*34
Trace #42 at position 10.250000
$GPZDA,095040.03,08,10,2011,00,00*66
$GPRMC,095040.00,A,4611.956688,N,01258.217379,E,001.7,1.4,081011,0.2,E,A*3C
$GPGGA,095041.00,4611.957052,N,01258.217355,E,1,04,3.7,138.74,M,46.25,M,,*6E
$GPGLL,4611.957052,N,01258.217355,E,095041.00,A,A*67
$GPVTG,351.3,T,351.4,M,001.1,N,002.1,K,A*27
$GPGSV,2,1,06,02,30,054,42,12,38,099,42,25,72,081,46,29,76,248,43*7E
$GPGSV,2,2,06,30,56,302,37,31,44,301,29,,,,,,,,*71
$GPGSA,M,3,02,12,25,29,,,,,,,,,6.9,3.7,5.9*34
Trace #43 at position 10.500000
$GPZDA,095040.03,08,10,2011,00,00*66
$GPRMC,095040.00,A,4611.956688,N,01258.217379,E,001.7,1.4,081011,0.2,E,A*3C
$GPGGA,095041.00,4611.957052,N,01258.217355,E,1,04,3.7,138.74,M,46.25,M,,*6E
$GPGLL,4611.957052,N,01258.217355,E,095041.00,A,A*67
$GPVTG,351.3,T,351.4,M,001.1,N,002.1,K,A*27
$GPGSV,2,1,06,02,30,054,42,12,38,099,42,25,72,081,46,29,76,248,43*7E
$GPGSV,2,2,06,30,56,302,37,31,44,301,29,,,,,,,,*71
$GPGSA,M,3,02,12,25,29,,,,,,,,,6.9,3.7,5.9*34
Trace #44 at position 10.750000
$GPZDA,095040.03,08,10,2011,00,00*66
$GPRMC,095040.00,A,4611.956688,N,01258.217379,E,001.7,1.4,081011,0.2,E,A*3C
$GPGGA,095041.00,4611.957052,N,01258.217355,E,1,04,3.7,138.74,M,46.25,M,,*6E
$GPGLL,4611.957052,N,01258.217355,E,095041.00,A,A*67
$GPVTG,351.3,T,351.4,M,001.1,N,002.1,K,A*27
$GPGSV,2,1,06,02,30,054,42,12,38,099,42,25,72,081,46,29,76,248,43*7E
$GPGSV,2,2,06,30,56,302,37,31,44,301,29,,,,,,,,*71
$GPGSA,M,3,02,12,25,29,,,,,,,,,6.9,3.7,5.9*34
Trace #45 at position 11.000000
$GPZDA,095041.03,08,10,2011,00,00*67
$GPRMC,095041.00,A,4611.957052,N,01258.217355,E,001.1,351.3,081011,0.2,E,A*34
$GPGGA,095042.00,4611.957398,N,01258.217257,E,1,04,3.7,138.69,M,46.25,M,,*67
$GPGLL,4611.957398,N,01258.217257,E,095042.00,A,A*62
$GPVTG,349.7,T,349.9,M,001.6,N,002.9,K,A*21
$GPGSV,2,1,06,02,30,054,42,12,38,099,44,25,72,082,46,29,76,248,43*7B
$GPGSV,2,2,06,30,56,302,36,31,44,301,,,,,,,,,*7B
$GPGSA,M,3,02,12,25,29,,,,,,,,,6.9,3.7,5.9*34
Trace #46 at position 11.250000
$GPZDA,095041.03,08,10,2011,00,00*67
$GPRMC,095041.00,A,4611.957052,N,01258.217355,E,001.1,351.3,081011,0.2,E,A*34
$GPGGA,095042.00,4611.957398,N,01258.217257,E,1,04,3.7,138.69,M,46.25,M,,*67
$GPGLL,4611.957398,N,01258.217257,E,095042.00,A,A*62
$GPVTG,349.7,T,349.9,M,001.6,N,002.9,K,A*21
$GPGSV,2,1,06,02,30,054,42,12,38,099,44,25,72,082,46,29,76,248,43*7B
$GPGSV,2,2,06,30,56,302,36,31,44,301,,,,,,,,,*7B
$GPGSA,M,3,02,12,25,29,,,,,,,,,6.9,3.7,5.9*34
Trace #47 at position 11.500000
$GPZDA,095041.03,08,10,2011,00,00*67
$GPRMC,095041.00,A,4611.957052,N,01258.217355,E,001.1,351.3,081011,0.2,E,A*34
$GPGGA,095042.00,4611.957398,N,01258.217257,E,1,04,3.7,138.69,M,46.25,M,,*67
$GPGLL,4611.957398,N,01258.217257,E,095042.00,A,A*62
$GPVTG,349.7,T,349.9,M,001.6,N,002.9,K,A*21
$GPGSV,2,1,06,02,30,054,42,12,38,099,44,25,72,082,46,29,76,248,43*7B
$GPGSV,2,2,06,30,56,302,36,31,44,301,,,,,,,,,*7B
$GPGSA,M,3,02,12,25,29,,,,,,,,,6.9,3.7,5.9*34
Trace #48 at position 11.750000
$GPZDA,095042.03,08,10,2011,00,00*64
$GPRMC,095042.00,A,4611.957398,N,01258.217257,E,001.6,349.7,081011,0.2,E,A*3B
$GPGGA,095043.00,4611.957776,N,01258.217127,E,1,04,3.7,138.92,M,46.25,M,,*62
$GPGLL,4611.957776,N,01258.217127,E,095043.00,A,A*63
$GPVTG,346.4,T,346.6,M,001.4,N,002.6,K,A*20
$GPGSV,2,1,06,02,30,054,42,12,38,099,44,25,72,082,46,29,76,248,44*7C
$GPGSV,2,2,06,30,56,302,38,31,44,301,,,,,,,,,*75
$GPGSA,M,3,02,12,25,29,,,,,,,,,6.9,3.7,5.9*34
Trace #49 at position 12.000000
$GPZDA,095042.03,08,10,2011,00,00*64
$GPRMC,095042.00,A,4611.957398,N,01258.217257,E,001.6,349.7,081011,0.2,E,A*3B
$GPGGA,095043.00,4611.957776,N,01258.217127,E,1,04,3.7,138.92,M,46.25,M,,*62
$GPGLL,4611.957776,N,01258.217127,E,095043.00,A,A*63
$GPVTG,346.4,T,346.6,M,001.4,N,002.6,K,A*20
$GPGSV,2,1,06,02,30,054,42,12,38,099,44,25,72,082,46,29,76,248,44*7C
$GPGSV,2,2,06,30,56,302,38,31,44,301,,,,,,,,,*75
$GPGSA,M,3,02,12,25,29,,,,,,,,,6.9,3.7,5.9*34
Trace #50 at position 12.250000
$GPZDA,095042.03,08,10,2011,00,00*64
$GPRMC,095042.00,A,4611.957398,N,01258.217257,E,001.6,349.7,081011,0.2,E,A*3B
$GPGGA,095043.00,4611.957776,N,01258.217127,E,1,04,3.7,138.92,M,46.25,M,,*62
$GPGLL,4611.957776,N,01258.217127,E,095043.00,A,A*63
$GPVTG,346.4,T,346.6,M,001.4,N,002.6,K,A*20
$GPGSV,2,1,06,02,30,054,42,12,38,099,44,25,72,082,46,29,76,248,44*7C
$GPGSV,2,2,06,30,56,302,38,31,44,301,,,,,,,,,*75
$GPGSA,M,3,02,12,25,29,,,,,,,,,6.9,3.7,5.9*34
Trace #51 at position 12.500000
$GPZDA,095043.03,08,10,2011,00,00*65
$GPRMC,095043.00,A,4611.957776,N,01258.217127,E,001.4,346.4,081011,0.2,E,A*34
$GPGGA,095044.00,4611.958137,N,01258.217009,E,1,04,3.7,138.92,M,46.25,M,,*64
$GPGLL,4611.958137,N,01258.217009,E,095044.00,A,A*65
$GPVTG,353.0,T,353.2,M,001.4,N,002.5,K,A*23
$GPGSV,2,1,06,02,30,054,42,12,38,099,43,25,72,082,47,29,76,248,42*7C
$GPGSV,2,2,06,30,56,302,35,31,44,301,,,,,,,,,*78
$GPGSA,M,3,02,12,25,29,,,,,,,,,6.9,3.7,5.9*34
Trace #52 at position 12.750000
$GPZDA,095043.03,08,10,2011,00,00*65
$GPRMC,095043.00,A,4611.957776,N,01258.217127,E,001.4,346.4,081011,0.2,E,A*34
$GPGGA,095044.00,4611.958137,N,01258.217009,E,1,04,3.7,138.92,M,46.25,M,,*64
$GPGLL,4611.958137,N,01258.217009,E,095044.00,A,A*65
$GPVTG,353.0,T,353.2,M,001.4,N,002.5,K,A*23
$GPGSV,2,1,06,02,30,054,42,12,38,099,43,25,72,082,47,29,76,248,42*7C
$GPGSV,2,2,06,30,56,302,35,31,44,301,,,,,,,,,*78
$GPGSA,M,3,02,12,25,29,,,,,,,,,6.9,3.7,5.9*34
Trace #53 at position 13.000000
$GPZDA,095043.03,08,10,2011,00,00*65
$GPRMC,095043.00,A,4611.957776,N,01258.217127,E,001.4,346.4,081011,0.2,E,A*34
$GPGGA,095044.00,4611.958137,N,01258.217009,E,1,04,3.7,138.92,M,46.25,M,,*64
$GPGLL,4611.958137,N,01258.217009,E,095044.00,A,A*65
$GPVTG,353.0,T,353.2,M,001.4,N,002.5,K,A*23
$GPGSV,2,1,06,02,30,054,42,12,38,099,43,25,72,082,47,29,76,248,42*7C
$GPGSV,2,2,06,30,56,302,35,31,44,301,,,,,,,,,*78
$GPGSA,M,3,02,12,25,29,,,,,,,,,6.9,3.7,5.9*34
Trace #54 at position 13.250000
$GPZDA,095044.03,08,10,2011,00,00*62
$GPRMC,095044.00,A,4611.958137,N,01258.217009,E,001.4,353.0,081011,0.2,E,A*32
$GPGGA,095045.00,4611.958529,N,01258.216883,E,1,04,3.7,138.76,M,46.25,M,,*6F
$GPGLL,4611.958529,N,01258.216883,E,095045.00,A,A*64
$GPVTG,347.6,T,347.7,M,001.7,N,003.1,K,A*26
$GPGSV,2,1,06,02,30,054,42,12,38,099,44,25,72,082,45,29,76,248,42*79
$GPGSV,2,2,06,30,56,302,33,31,44,301,,,,,,,,,*7E
$GPGSA,M,3,02,12,25,29,,,,,,,,,6.9,3.7,5.9*34
Trace #55 at position 13.500000
$GPZDA,095044.03,08,10,2011,00,00*62
$GPRMC,095044.00,A,4611.958137,N,01258.217009,E,001.4,353.0,081011,0.2,E,A*32
$GPGGA,095045.00,4611.958529,N,01258.216883,E,1,04,3.7,138.76,M,46.25,M,,*6F
$GPGLL,4611.958529,N,01258.216883,E,095045.00,A,A*64
$GPVTG,347.6,T,347.7,M,001.7,N,003.1,K,A*26
$GPGSV,2,1,06,02,30,054,42,12,38,099,44,25,72,082,45,29,76,248,42*79
$GPGSV,2,2,06,30,56,302,33,31,44,301,,,,,,,,,*7E
$GPGSA,M,3,02,12,25,29,,,,,,,,,6.9,3.7,5.9*34
Trace #56 at position 13.750000
$GPZDA,095044.03,08,10,2011,00,00*62
$GPRMC,095044.00,A,4611.958137,N,01258.217009,E,001.4,353.0,081011,0.2,E,A*32
$GPGGA,095045.00,4611.958529,N,01258.216883,E,1,04,3.7,138.76,M,46.25,M,,*6F
$GPGLL,4611.958529,N,01258.216883,E,095045.00,A,A*64
$GPVTG,347.6,T,347.7,M,001.7,N,003.1,K,A*26
$GPGSV,2,1,06,02,30,054,42,12,38,099,44,25,72,082,45,29,76,248,42*79
$GPGSV,2,2,06,30,56,302,33,31,44,301,,,,,,,,,*7E
$GPGSA,M,3,02,12,25,29,,,,,,,,,6.9,3.7,5.9*34
Trace #57 at position 14.000000
$GPZDA,095045.03,08,10,2011,00,00*63
$GPRMC,095045.00,A,4611.958529,N,01258.216883,E,001.7,347.6,081011,0.2,E,A*33
$GPGGA,095046.00,4611.958858,N,01258.216707,E,1,04,3.7,138.95,M,46.25,M,,*69
$GPGLL,4611.958858,N,01258.216707,E,095046.00,A,A*6F
$GPVTG,334.4,T,334.6,M,001.0,N,001.9,K,A*28
$GPGSV,2,1,06,02,30,054,42,12,38,099,43,25,72,082,45,29,76,248,42*7E
$GPGSV,2,2,06,30,56,302,35,31,44,301,,,,,,,,,*78
$GPGSA,M,3,02,12,25,29,,,,,,,,,6.9,3.7,5.9*34
Trace #58 at position 14.250000
$GPZDA,095045.03,08,10,2011,00,00*63
$GPRMC,095045.00,A,4611.958529,N,01258.216883,E,001.7,347.6,081011,0.2,E,A*33
$GPGGA,095046.00,4611.958858,N,01258.216707,E,1,04,3.7,138.95,M,46.25,M,,*69
$GPGLL,4611.958858,N,01258.216707,E,095046.00,A,A*6F
$GPVTG,334.4,T,334.6,M,001.0,N,001.9,K,A*28
$GPGSV,2,1,06,02,30,054,42,12,38,099,43,25,72,082,45,29,76,248,42*7E
$GPGSV,2,2,06,30,56,302,35,31,44,301,,,,,,,,,*78
$GPGSA,M,3,02,12,25,29,,,,,,,,,6.9,3.7,5.9*34
Trace #59 at position 14.500000
$GPZDA,095045.03,08,10,2011,00,00*63
$GPRMC,095045.00,A,4611.958529,N,01258.216883,E,001.7,347.6,081011,0.2,E,A*33
$GPGGA,095046.00,4611.958858,N,01258.216707,E,1,04,3.7,138.95,M,46.25,M,,*69
$GPGLL,4611.958858,N,01258.216707,E,095046.00,A,A*6F
$GPVTG,334.4,T,334.6,M,001.0,N,001.9,K,A*28
$GPGSV,2,1,06,02,30,054,42,12,38,099,43,25,72,082,45,29,76,248,42*7E
$GPGSV,2,2,06,30,56,302,35,31,44,301,,,,,,,,,*78
$GPGSA,M,3,02,12,25,29,,,,,,,,,6.9,3.7,5.9*34
Trace #60 at position 14.750000
$GPZDA,095046.03,08,10,2011,00,00*60
$GPRMC,095046.00,A,4611.958858,N,01258.216707,E,001.0,334.4,081011,0.2,E,A*39
$GPGGA,095047.00,4611.959244,N,01258.216465,E,1,04,3.7,139.05,M,46.25,M,,*61
$GPGLL,4611.959244,N,01258.216465,E,095047.00,A,A*6F
$GPVTG,339.7,T,339.9,M,002.2,N,004.1,K,A*28
$GPGSV,2,1,06,02,30,054,41,12,38,099,44,25,72,082,46,29,76,248,42*79
$GPGSV,2,2,06,30,56,302,35,31,44,301,,,,,,,,,*78
$GPGSA,M,3,02,12,25,29,,,,,,,,,6.9,3.7,5.9*34
Trace #61 at position 15.000000
$GPZDA,095046.03,08,10,2011,00,00*60
$GPRMC,095046.00,A,4611.958858,N,01258.216707,E,001.0,334.4,081011,0.2,E,A*39
$GPGGA,095047.00,4611.959244,N,01258.216465,E,1,04,3.7,139.05,M,46.25,M,,*61
$GPGLL,4611.959244,N,01258.216465,E,095047.00,A,A*6F
$GPVTG,339.7,T,339.9,M,002.2,N,004.1,K,A*28
$GPGSV,2,1,06,02,30,054,41,12,38,099,44,25,72,082,46,29,76,248,42*79
$GPGSV,2,2,06,30,56,302,35,31,44,301,,,,,,,,,*78
$GPGSA,M,3,02,12,25,29,,,,,,,,,6.9,3.7,5.9*34
Trace #62 at position 15.250000
$GPZDA,095046.03,08,10,2011,00,00*60
$GPRMC,095046.00,A,4611.958858,N,01258.216707,E,001.0,334.4,081011,0.2,E,A*39
$GPGGA,095047.00,4611.959244,N,01258.216465,E,1,04,3.7,139.05,M,46.25,M,,*61
$GPGLL,4611.959244,N,01258.216465,E,095047.00,A,A*6F
$GPVTG,339.7,T,339.9,M,002.2,N,004.1,K,A*28
$GPGSV,2,1,06,02,30,054,41,12,38,099,44,25,72,082,46,29,76,248,42*79
$GPGSV,2,2,06,30,56,302,35,31,44,301,,,,,,,,,*78
$GPGSA,M,3,02,12,25,29,,,,,,,,,6.9,3.7,5.9*34
Trace #63 at position 15.500000
$GPZDA,095046.03,08,10,2011,00,00*60
$GPRMC,095046.00,A,4611.958858,N,01258.216707,E,001.0,334.4,081011,0.2,E,A*39
$GPGGA,095047.00,4611.959244,N,01258.216465,E,1,04,3.7,139.05,M,46.25,M,,*61
$GPGLL,4611.959244,N,01258.216465,E,095047.00,A,A*6F
$GPVTG,339.7,T,339.9,M,002.2,N,004.1,K,A*28
$GPGSV,2,1,06,02,30,054,41,12,38,099,44,25,72,082,46,29,76,248,42*79
$GPGSV,2,2,06,30,56,302,35,31,44,301,,,,,,,,,*78
$GPGSA,M,3,02,12,25,29,,,,,,,,,6.9,3.7,5.9*34
Trace #64 at position 15.750000
$GPZDA,095047.03,08,10,2011,00,00*61
$GPRMC,095047.00,A,4611.959244,N,01258.216465,E,002.2,339.7,081011,0.2,E,A*36
$GPGGA,095048.00,4611.959703,N,01258.216319,E,1,04,3.7,138.96,M,46.25,M,,*6F
$GPGLL,4611.959703,N,01258.216319,E,095048.00,A,A*6A
$GPVTG,2.6,T,2.8,M,001.5,N,002.7,K,A*2C
$GPGSV,2,1,06,02,30,054,42,12,38,099,44,25,72,082,45,29,76,248,44*7F
$GPGSV,2,2,06,30,56,302,37,31,44,301,,,,,,,,,*7A
$GPGSA,M,3,02,12,25,29,,,,,,,,,6.9,3.7,5.9*34
Trace #65 at position 16.000000
$GPZDA,095047.03,08,10,2011,00,00*61
$GPRMC,095047.00,A,4611.959244,N,01258.216465,E,002.2,339.7,081011,0.2,E,A*36
$GPGGA,095048.00,4611.959703,N,01258.216319,E,1,04,3.7,138.96,M,46.25,M,,*6F
$GPGLL,4611.959703,N,01258.216319,E,095048.00,A,A*6A
$GPVTG,2.6,T,2.8,M,001.5,N,002.7,K,A*2C
$GPGSV,2,1,06,02,30,054,42,12,38,099,44,25,72,082,45,29,76,248,44*7F
$GPGSV,2,2,06,30,56,302,37,31,44,301,,,,,,,,,*7A
$GPGSA,M,3,02,12,25,29,,,,,,,,,6.9,3.7,5.9*34
Trace #66 at position 16.250000
$GPZDA,095047.03,08,10,2011,00,00*61
$GPRMC,095047.00,A,4611.959244,N,01258.216465,E,002.2,339.7,081011,0.2,E,A*36
$GPGGA,095048.00,4611.959703,N,01258.216319,E,1,04,3.7,138.96,M,46.25,M,,*6F
$GPGLL,4611.959703,N,01258.216319,E,095048.00,A,A*6A
$GPVTG,2.6,T,2.8,M,001.5,N,002.7,K,A*2C
$GPGSV,2,1,06,02,30,054,42,12,38,099,44,25,72,082,45,29,76,248,44*7F
$GPGSV,2,2,06,30,56,302,37,31,44,301,,,,,,,,,*7A
$GPGSA,M,3,02,12,25,29,,,,,,,,,6.9,3.7,5.9*34
Trace #67 at position 16.500000
$GPZDA,095048.03,08,10,2011,00,00*6E
$GPRMC,095048.00,A,4611.959703,N,01258.216319,E,001.5,2.6,081011,0.2,E,A*3D
$GPGGA,095049.00,4611.960058,N,01258.216293,E,1,04,3.7,139.16,M,46.25,M,,*67
$GPGLL,4611.960058,N,01258.216293,E,095049.00,A,A*6B
$GPVTG,356.6,T,356.7,M,001.3,N,002.3,K,A*21
$GPGSV,2,1,06,02,30,054,42,12,38,099,44,25,72,082,46,29,76,248,42*7A
$GPGSV,2,2,06,30,56,302,37,31,44,301,,,,,,,,,*7A
$GPGSA,M,3,02,12,25,29,,,,,,,,,6.9,3.7,5.9*34
Trace #68 at position 16.750000
$GPZDA,095048.03,08,10,2011,00,00*6E
$GPRMC,095048.00,A,4611.959703,N,01258.216319,E,001.5,2.6,081011,0.2,E,A*3D
$GPGGA,095049.00,4611.960058,N,01258.216293,E,1,04,3.7,139.16,M,46.25,M,,*67
$GPGLL,4611.960058,N,01258.216293,E,095049.00,A,A*6B
$GPVTG,356.6,T,356.7,M,001.3,N,002.3,K,A*21
$GPGSV,2,1,06,02,30,054,42,12,38,099,44,25,72,082,46,29,76,248,42*7A
$GPGSV,2,2,06,30,56,302,37,31,44,301,,,,,,,,,*7A
$GPGSA,M,3,02,12,25,29,,,,,,,,,6.9,3.7,5.9*34
Trace #69 at position 17.000000
$GPZDA,095048.03,08,10,2011,00,00*6E
$GPRMC,095048.00,A,4611.959703,N,01258.216319,E,001.5,2.6,081011,0.2,E,A*3D
$GPGGA,095049.00,4611.960058,N,01258.216293,E,1,04,3.7,139.16,M,46.25,M,,*67
$GPGLL,4611.960058,N,01258.216293,E,095049.00,A,A*6B
$GPVTG,356.6,T,356.7,M,001.3,N,002.3,K,A*21
$GPGSV,2,1,06,02,30,054,42,12,38,099,44,25,72,082,46,29,76,248,42*7A
$GPGSV,2,2,06,30,56,302,37,31,44,301,,,,,,,,,*7A
$GPGSA,M,3,02,12,25,29,,,,,,,,,6.9,3.7,5.9*34
Trace #70 at position 17.250000
$GPZDA,095048.03,08,10,2011,00,00*6E
$GPRMC,095048.00,A,4611.959703,N,01258.216319,E,001.5,2.6,081011,0.2,E,A*3D
$GPGGA,095049.00,4611.960058,N,01258.216293,E,1,04,3.7,139.16,M,46.25,M,,*67
$GPGLL,4611.960058,N,01258.216293,E,095049.00,A,A*6B
$GPVTG,356.6,T,356.7,M,001.3,N,002.3,K,A*21
$GPGSV,2,1,06,02,30,054,42,12,38,099,44,25,72,082,46,29,76,248,42*7A
$GPGSV,2,2,06,30,56,302,37,31,44,301,,,,,,,,,*7A
$GPGSA,M,3,02,12,25,29,,,,,,,,,6.9,3.7,5.9*34
Trace #71 at position 17.500000
$GPZDA,095049.03,08,10,2011,00,00*6F
$GPRMC,095049.00,A,4611.960058,N,01258.216293,E,001.3,356.6,081011,0.2,E,A*38
$GPGGA,095050.00,4611.960465,N,01258.216185,E,1,04,3.7,139.57,M,46.25,M,,*64
$GPGLL,4611.960465,N,01258.216185,E,095050.00,A,A*6D
$GPVTG,351.5,T,351.7,M,001.8,N,003.3,K,A*28
$GPGSV,2,1,06,02,30,054,41,12,38,100,43,25,72,082,47,29,76,248,43*7F
$GPGSV,2,2,06,30,56,302,37,31,44,301,,,,,,,,,*7A
$GPGSA,M,3,02,12,25,29,,,,,,,,,6.9,3.7,5.9*34
Trace #72 at position 17.750000
$GPZDA,095049.03,08,10,2011,00,00*6F
$GPRMC,095049.00,A,4611.960058,N,01258.216293,E,001.3,356.6,081011,0.2,E,A*38
$GPGGA,095050.00,4611.960465,N,01258.216185,E,1,04,3.7,139.57,M,46.25,M,,*64
$GPGLL,4611.960465,N,01258.216185,E,095050.00,A,A*6D
$GPVTG,351.5,T,351.7,M,001.8,N,003.3,K,A*28
$GPGSV,2,1,06,02,30,054,41,12,38,100,43,25,72,082,47,29,76,248,43*7F
$GPGSV,2,2,06,30,56,302,37,31,44,301,,,,,,,,,*7A
$GPGSA,M,3,02,12,25,29,,,,,,,,,6.9,3.7,5.9*34
Trace #73 at position 18.000000
$GPZDA,095049.03,08,10,2011,00,00*6F
$GPRMC,095049.00,A,4611.960058,N,01258.216293,E,001.3,356.6,081011,0.2,E,A*38
$GPGGA,095050.00,4611.960465,N,01258.216185,E,1,04,3.7,139.57,M,46.25,M,,*64
$GPGLL,4611.960465,N,01258.216185,E,095050.00,A,A*6D
$GPVTG,351.5,T,351.7,M,001.8,N,003.3,K,A*28
$GPGSV,2,1,06,02,30,054,41,12,38,100,43,25,72,082,47,29,76,248,43*7F
$GPGSV,2,2,06,30,56,302,37,31,44,301,,,,,,,,,*7A
$GPGSA,M,3,02,12,25,29,,,,,,,,,6.9,3.7,5.9*34
Trace #74 at position 18.250000
$GPZDA,095050.03,08,10,2011,00,00*67
$GPRMC,095050.00,A,4611.960465,N,01258.216185,E,001.8,351.5,081011,0.2,E,A*31
$GPGGA,095051.00,4611.960855,N,01258.215975,E,1,04,3.7,139.96,M,46.25,M,,*63
$GPGLL,4611.960855,N,01258.215975,E,095051.00,A,A*67
$GPVTG,331.9,T,332.1,M,001.3,N,002.4,K,A*2C
$GPGSV,2,1,06,02,30,054,42,12,38,100,44,25,72,082,46,29,76,248,43*7A
$GPGSV,2,2,06,30,56,302,38,31,44,301,,,,,,,,,*75
$GPGSA,M,3,02,12,25,29,,,,,,,,,6.9,3.7,5.9*34
Trace #75 at position 18.500000
$GPZDA,095050.03,08,10,2011,00,00*67
$GPRMC,095050.00,A,4611.960465,N,01258.216185,E,001.8,351.5,081011,0.2,E,A*31
$GPGGA,095051.00,4611.960855,N,01258.215975,E,1,04,3.7,139.96,M,46.25,M,,*63
$GPGLL,4611.960855,N,01258.215975,E,095051.00,A,A*67
$GPVTG,331.9,T,332.1,M,001.3,N,002.4,K,A*2C
$GPGSV,2,1,06,02,30,054,42,12,38,100,44,25,72,082,46,29,76,248,43*7A
$GPGSV,2,2,06,30,56,302,38,31,44,301,,,,,,,,,*75
$GPGSA,M,3,02,12,25,29,,,,,,,,,6.9,3.7,5.9*34
Trace #76 at position 18.750000
$GPZDA,095050.03,08,10,2011,00,00*67
$GPRMC,095050.00,A,4611.960465,N,01258.216185,E,001.8,351.5,081011,0.2,E,A*31
$GPGGA,095051.00,4611.960855,N,01258.215975,E,1,04,3.7,139.96,M,46.25,M,,*63
$GPGLL,4611.960855,N,01258.215975,E,095051.00,A,A*67
$GPVTG,331.9,T,332.1,M,001.3,N,002.4,K,A*2C
$GPGSV,2,1,06,02,30,054,42,12,38,100,44,25,72,082,46,29,76,248,43*7A
$GPGSV,2,2,06,30,56,302,38,31,44,301,,,,,,,,,*75
$GPGSA,M,3,02,12,25,29,,,,,,,,,6.9,3.7,5.9*34
Trace #77 at position 19.000000
$GPZDA,095051.03,08,10,2011,00,00*66
$GPRMC,095051.00,A,4611.960855,N,01258.215975,E,001.3,331.9,081011,0.2,E,A*3A
$GPGGA,095052.00,4611.961199,N,01258.215771,E,1,04,3.7,140.09,M,46.25,M,,*6A
$GPGLL,4611.961199,N,01258.215771,E,095052.00,A,A*66
$GPVTG,349.8,T,349.9,M,001.4,N,002.6,K,A*23
$GPGSV,2,1,06,02,30,054,41,12,38,100,43,25,72,082,45,29,76,248,42*7C
$GPGSV,2,2,06,30,56,302,38,31,44,301,,,,,,,,,*75
$GPGSA,M,3,02,12,25,29,,,,,,,,,6.9,3.7,5.9*34
Trace #78 at position 19.250000
$GPZDA,095051.03,08,10,2011,00,00*66
$GPRMC,095051.00,A,4611.960855,N,01258.215975,E,001.3,331.9,081011,0.2,E,A*3A
$GPGGA,095052.00,4611.961199,N,01258.215771,E,1,04,3.7,140.09,M,46.25,M,,*6A
$GPGLL,4611.961199,N,01258.215771,E,095052.00,A,A*66
$GPVTG,349.8,T,349.9,M,001.4,N,002.6,K,A*23
$GPGSV,2,1,06,02,30,054,41,12,38,100,43,25,72,082,45,29,76,248,42*7C
$GPGSV,2,2,06,30,56,302,38,31,44,301,,,,,,,,,*75
$GPGSA,M,3,02,12,25,29,,,,,,,,,6.9,3.7,5.9*34
Trace #79 at position 19.500000
$GPZDA,095051.03,08,10,2011,00,00*66
$GPRMC,095051.00,A,4611.960855,N,01258.215975,E,001.3,331.9,081011,0.2,E,A*3A
$GPGGA,095052.00,4611.961199,N,01258.215771,E,1,04,3.7,140.09,M,46.25,M,,*6A
$GPGLL,4611.961199,N,01258.215771,E,095052.00,A,A*66
$GPVTG,349.8,T,349.9,M,001.4,N,002.6,K,A*23
$GPGSV,2,1,06,02,30,054,41,12,38,100,43,25,72,082,45,29,76,248,42*7C
$GPGSV,2,2,06,30,56,302,38,31,44,301,,,,,,,,,*75
$GPGSA,M,3,02,12,25,29,,,,,,,,,6.9,3.7,5.9*34
Trace #80 at position 19.750000
$GPZDA,095052.03,08,10,2011,00,00*65
$GPRMC,095052.00,A,4611.961199,N,01258.215771,E,001.4,349.8,081011,0.2,E,A*32
$GPGGA,095053.00,4611.961583,N,01258.215702,E,1,04,3.7,140.03,M,46.25,M,,*6A
$GPGLL,4611.961583,N,01258.215702,E,095053.00,A,A*6C
$GPVTG,4.9,T,5.1,M,001.4,N,002.7,K,A*2A
$GPGSV,2,1,06,02,30,054,41,12,38,100,44,25,72,082,47,29,76,248,42*79
$GPGSV,2,2,06,30,56,302,36,31,44,301,,,,,,,,,*7B
$GPGSA,M,3,02,12,25,29,,,,,,,,,6.9,3.7,5.9*34
Trace #81 at position 20.000000
$GPZDA,095052.03,08,10,2011,00,00*65
$GPRMC,095052.00,A,4611.961199,N,01258.215771,E,001.4,349.8,081011,0.2,E,A*32
$GPGGA,095053.00,4611.961583,N,01258.215702,E,1,04,3.7,140.03,M,46.25,M,,*6A
$GPGLL,4611.961583,N,01258.215702,E,095053.00,A,A*6C
$GPVTG,4.9,T,5.1,M,001.4,N,002.7,K,A*2A
$GPGSV,2,1,06,02,30,054,41,12,38,100,44,25,72,082,47,29,76,248,42*79
$GPGSV,2,2,06,30,56,302,36,31,44,301,,,,,,,,,*7B
$GPGSA,M,3,02,12,25,29,,,,,,,,,6.9,3.7,5.9*34
Trace #82 at position 20.250000
$GPZDA,095052.03,08,10,2011,00,00*65
$GPRMC,095052.00,A,4611.961199,N,01258.215771,E,001.4,349.8,081011,0.2,E,A*32
$GPGGA,095053.00,4611.961583,N,01258.215702,E,1,04,3.7,140.03,M,46.25,M,,*6A
$GPGLL,4611.961583,N,01258.215702,E,095053.00,A,A*6C
$GPVTG,4.9,T,5.1,M,001.4,N,002.7,K,A*2A
$GPGSV,2,1,06,02,30,054,41,12,38,100,44,25,72,082,47,29,76,248,42*79
$GPGSV,2,2,06,30,56,302,36,31,44,301,,,,,,,,,*7B
$GPGSA,M,3,02,12,25,29,,,,,,,,,6.9,3.7,5.9*34
Trace #83 at position 20.500000
$GPZDA,095053.03,08,10,2011,00,00*64
$GPRMC,095053.00,A,4611.961583,N,01258.215702,E,001.4,4.9,081011,0.2,E,A*33
$GPGGA,095054.00,4611.961935,N,01258.215592,E,1,04,3.7,139.97,M,46.25,M,,*64
$GPGLL,4611.961935,N,01258.215592,E,095054.00,A,A*61
$GPVTG,339.7,T,339.8,M,001.2,N,002.2,K,A*2F
$GPGSV,2,1,06,02,30,054,42,12,38,100,44,25,72,082,47,29,76,248,43*7B
$GPGSV,2,2,06,30,56,302,35,31,44,301,28,,,,,,,,*72
$GPGSA,M,3,02,12,25,29,,,,,,,,,6.9,3.7,5.9*34
Trace #84 at position 20.750000
$GPZDA,095053.03,08,10,2011,00,00*64
$GPRMC,095053.00,A,4611.961583,N,01258.215702,E,001.4,4.9,081011,0.2,E,A*33
$GPGGA,095054.00,4611.961935,N,01258.215592,E,1,04,3.7,139.97,M,46.25,M,,*64
$GPGLL,4611.961935,N,01258.215592,E,095054.00,A,A*61
$GPVTG,339.7,T,339.8,M,001.2,N,002.2,K,A*2F
$GPGSV,2,1,06,02,30,054,42,12,38,100,44,25,72,082,47,29,76,248,43*7B
$GPGSV,2,2,06,30,56,302,35,31,44,301,28,,,,,,,,*72
$GPGSA,M,3,02,12,25,29,,,,,,,,,6.9,3.7,5.9*34
Trace #85 at position 21.000000
$GPZDA,095054.03,08,10,2011,00,00*63
$GPRMC,095054.00,A,4611.961935,N,01258.215592,E,001.2,339.7,081011,0.2,E,A*3B
$GPGGA,095055.00,4611.962310,N,01258.215383,E,1,04,3.7,139.92,M,46.25,M,,*68
$GPGLL,4611.962310,N,01258.215383,E,095055.00,A,A*68
$GPVTG,345.9,T,346.0,M,001.6,N,003.0,K,A*2D
$GPGSV,2,1,06,02,30,054,42,12,38,100,44,25,72,082,48,29,76,248,42*75
$GPGSV,2,2,06,30,56,302,34,31,44,301,,,,,,,,,*79
$GPGSA,M,3,02,12,25,29,,,,,,,,,6.9,3.7,5.9*34
Trace #86 at position 21.250000
$GPZDA,095054.03,08,10,2011,00,00*63
$GPRMC,095054.00,A,4611.961935,N,01258.215592,E,001.2,339.7,081011,0.2,E,A*3B
$GPGGA,095055.00,4611.962310,N,01258.215383,E,1,04,3.7,139.92,M,46.25,M,,*68
$GPGLL,4611.962310,N,01258.215383,E,095055.00,A,A*68
$GPVTG,345.9,T,346.0,M,001.6,N,003.0,K,A*2D
$GPGSV,2,1,06,02,30,054,42,12,38,100,44,25,72,082,48,29,76,248,42*75
$GPGSV,2,2,06,30,56,302,34,31,44,301,,,,,,,,,*79
$GPGSA,M,3,02,12,25,29,,,,,,,,,6.9,3.7,5.9*34
Trace #87 at position 21.500000
$GPZDA,095054.03,08,10,2011,00,00*63
$GPRMC,095054.00,A,4611.961935,N,01258.215592,E,001.2,339.7,081011,0.2,E,A*3B
$GPGGA,095055.00,4611.962310,N,01258.215383,E,1,04,3.7,139.92,M,46.25,M,,*68
$GPGLL,4611.962310,N,01258.215383,E,095055.00,A,A*68
$GPVTG,345.9,T,346.0,M,001.6,N,003.0,K,A*2D
$GPGSV,2,1,06,02,30,054,42,12,38,100,44,25,72,082,48,29,76,248,42*75
$GPGSV,2,2,06,30,56,302,34,31,44,301,,,,,,,,,*79
$GPGSA,M,3,02,12,25,29,,,,,,,,,6.9,3.7,5.9*34
Trace #88 at position 21.750000
$GPZDA,095055.03,08,10,2011,00,00*62
$GPRMC,095055.00,A,4611.962310,N,01258.215383,E,001.6,345.9,081011,0.2,E,A*33
$GPGGA,095056.00,4611.962705,N,01258.215243,E,1,04,3.7,139.92,M,46.25,M,,*66
$GPGLL,4611.962705,N,01258.215243,E,095056.00,A,A*66
$GPVTG,358.0,T,358.1,M,001.4,N,002.5,K,A*20
$GPGSV,2,1,06,02,30,054,42,12,38,100,44,25,72,082,46,29,76,248,42*7B
$GPGSV,2,2,06,30,56,302,37,31,44,301,,,,,,,,,*7A
$GPGSA,M,3,02,12,25,29,,,,,,,,,6.9,3.7,5.9*34
Trace #89 at position 22.000000
$GPZDA,095055.03,08,10,2011,00,00*62
$GPRMC,095055.00,A,4611.962310,N,01258.215383,E,001.6,345.9,081011,0.2,E,A*33
$GPGGA,095056.00,4611.962705,N,01258.215243,E,1,04,3.7,139.92,M,46.25,M,,*66
$GPGLL,4611.962705,N,01258.215243,E,095056.00,A,A*66
$GPVTG,358.0,T,358.1,M,001.4,N,002.5,K,A*20
$GPGSV,2,1,06,02,30,054,42,12,38,100,44,25,72,082,46,29,76,248,42*7B
$GPGSV,2,2,06,30,56,302,37,31,44,301,,,,,,,,,*7A
$GPGSA,M,3,02,12,25,29,,,,,,,,,6.9,3.7,5.9*34
Trace #90 at position 22.250000
$GPZDA,095055.03,08,10,2011,00,00*62
$GPRMC,095055.00,A,4611.962310,N,01258.215383,E,001.6,345.9,081011,0.2,E,A*33
$GPGGA,095056.00,4611.962705,N,01258.215243,E,1,04,3.7,139.92,M,46.25,M,,*66
$GPGLL,4611.962705,N,01258.215243,E,095056.00,A,A*66
$GPVTG,358.0,T,358.1,M,001.4,N,002.5,K,A*20
$GPGSV,2,1,06,02,30,054,42,12,38,100,44,25,72,082,46,29,76,248,42*7B
$GPGSV,2,2,06,30,56,302,37,31,44,301,,,,,,,,,*7A
$GPGSA,M,3,02,12,25,29,,,,,,,,,6.9,3.7,5.9*34
Trace #91 at position 22.500000
$GPZDA,095056.03,08,10,2011,00,00*61
$GPRMC,095056.00,A,4611.962705,N,01258.215243,E,001.4,358.0,081011,0.2,E,A*3A
$GPGGA,095057.00,4611.963060,N,01258.215154,E,1,04,3.7,140.00,M,46.25,M,,*62
$GPGLL,4611.963060,N,01258.215154,E,095057.00,A,A*67
$GPVTG,354.9,T,355.1,M,001.3,N,002.4,K,A*2E
$GPGSV,2,1,06,02,30,054,41,12,38,100,45,25,72,082,45,29,76,248,43*7B
$GPGSV,2,2,06,30,56,302,37,31,44,301,,,,,,,,,*7A
$GPGSA,M,3,02,12,25,29,,,,,,,,,6.9,3.7,5.9*34
Trace #92 at position 22.750000
$GPZDA,095056.03,08,10,2011,00,00*61
$GPRMC,095056.00,A,4611.962705,N,01258.215243,E,001.4,358.0,081011,0.2,E,A*3A
$GPGGA,095057.00,4611.963060,N,01258.215154,E,1,04,3.7,140.00,M,46.25,M,,*62
$GPGLL,4611.963060,N,01258.215154,E,095057.00,A,A*67
$GPVTG,354.9,T,355.1,M,001.3,N,002.4,K,A*2E
$GPGSV,2,1,06,02,30,054,41,12,38,100,45,25,72,082,45,29,76,248,43*7B
$GPGSV,2,2,06,30,56,302,37,31,44,301,,,,,,,,,*7A
$GPGSA,M,3,02,12,25,29,,,,,,,,,6.9,3.7,5.9*34
Trace #93 at position 23.000000
$GPZDA,095056.03,08,10,2011,00,00*61
$GPRMC,095056.00,A,4611.962705,N,01258.215243,E,001.4,358.0,081011,0.2,E,A*3A
$GPGGA,095057.00,4611.963060,N,01258.215154,E,1,04,3.7,140.00,M,46.25,M,,*62
$GPGLL,4611.963060,N,01258.215154,E,095057.00,A,A*67
$GPVTG,354.9,T,355.1,M,001.3,N,002.4,K,A*2E
$GPGSV,2,1,06,02,30,054,41,12,38,100,45,25,72,082,45,29,76,248,43*7B
$GPGSV,2,2,06,30,56,302,37,31,44,301,,,,,,,,,*7A
$GPGSA,M,3,02,12,25,29,,,,,,,,,6.9,3.7,5.9*34
Trace #94 at position 23.250000
$GPZDA,095056.03,08,10,2011,00,00*61
$GPRMC,095056.00,A,4611.962705,N,01258.215243,E,001.4,358.0,081011,0.2,E,A*3A
$GPGGA,095057.00,4611.963060,N,01258.215154,E,1,04,3.7,140.00,M,46.25,M,,*62
$GPGLL,4611.963060,N,01258.215154,E,095057.00,A,A*67
$GPVTG,354.9,T,355.1,M,001.3,N,002.4,K,A*2E
$GPGSV,2,1,06,02,30,054,41,12,38,100,45,25,72,082,45,29,76,248,43*7B
$GPGSV,2,2,06,30,56,302,37,31,44,301,,,,,,,,,*7A
$GPGSA,M,3,02,12,25,29,,,,,,,,,6.9,3.7,5.9*34
Trace #95 at position 23.500000
$GPZDA,095057.03,08,10,2011,00,00*60
$GPRMC,095057.00,A,4611.963060,N,01258.215154,E,001.3,354.9,081011,0.2,E,A*39
$GPGGA,095058.00,4611.963415,N,01258.214900,E,1,04,3.7,140.06,M,46.25,M,,*65
$GPGLL,4611.963415,N,01258.214900,E,095058.00,A,A*66
$GPVTG,325.6,T,325.8,M,001.6,N,002.9,K,A*21
$GPGSV,2,1,06,02,30,054,41,12,38,100,44,25,72,082,46,29,76,248,42*78
$GPGSV,2,2,06,30,56,302,37,31,44,301,,,,,,,,,*7A
$GPGSA,M,3,02,12,25,29,,,,,,,,,6.9,3.7,5.9*34
Trace #96 at position 23.750000
$GPZDA,095057.03,08,10,2011,00,00*60
$GPRMC,095057.00,A,4611.963060,N,01258.215154,E,001.3,354.9,081011,0.2,E,A*39
$GPGGA,095058.00,4611.963415,N,01258.214900,E,1,04,3.7,140.06,M,46.25,M,,*65
$GPGLL,4611.963415,N,01258.214900,E,095058.00,A,A*66
$GPVTG,325.6,T,325.8,M,001.6,N,002.9,K,A*21
$GPGSV,2,1,06,02,30,054,41,12,38,100,44,25,72,082,46,29,76,248,42*78
$GPGSV,2,2,06,30,56,302,37,31,44,301,,,,,,,,,*7A
$GPGSA,M,3,02,12,25,29,,,,,,,,,6.9,3.7,5.9*34
Trace #97 at position 24.000000
$GPZDA,095057.03,08,10,2011,00,00*60
$GPRMC,095057.00,A,4611.963060,N,01258.215154,E,001.3,354.9,081011,0.2,E,A*39
$GPGGA,095058.00,4611.963415,N,01258.214900,E,1,04,3.7,140.06,M,46.25,M,,*65
$GPGLL,4611.963415,N,01258.214900,E,095058.00,A,A*66
$GPVTG,325.6,T,325.8,M,001.6,N,002.9,K,A*21
$GPGSV,2,1,06,02,30,054,41,12,38,100,44,25,72,082,46,29,76,248,42*78
$GPGSV,2,2,06,30,56,302,37,31,44,301,,,,,,,,,*7A
$GPGSA,M,3,02,12,25,29,,,,,,,,,6.9,3.7,5.9*34
Trace #98 at position 24.250000
$GPZDA,095058.03,08,10,2011,00,00*6F
$GPRMC,095058.00,A,4611.963415,N,01258.214900,E,001.6,325.6,081011,0.2,E,A*34
$GPGGA,095059.00,4611.963839,N,01258.214596,E,1,04,3.7,140.09,M,46.25,M,,*6A
$GPGLL,4611.963839,N,01258.214596,E,095059.00,A,A*66
$GPVTG,345.3,T,345.5,M,001.8,N,003.4,K,A*2B
$GPGSV,2,1,06,02,30,054,43,12,38,100,43,25,72,082,45,29,76,248,41*7D
$GPGSV,2,2,06,30,56,302,36,31,44,301,,,,,,,,,*7B
$GPGSA,M,3,02,12,25,29,,,,,,,,,6.9,3.7,5.9*34
Trace #99 at position 24.500000
$GPZDA,095058.03,08,10,2011,00,00*6F
$GPRMC,095058.00,A,4611.963415,N,01258.214900,E,001.6,325.6,081011,0.2,E,A*34
$GPGGA,095059.00,4611.963839,N,01258.214596,E,1,04,3.7,140.09,M,46.25,M,,*6A
$GPGLL,4611.963839,N,01258.214596,E,095059.00,A,A*66
$GPVTG,345.3,T,345.5,M,001.8,N,003.4,K,A*2B
$GPGSV,2,1,06,02,30,054,43,12,38,100,43,25,72,082,45,29,76,248,41*7D
$GPGSV,2,2,06,30,56,302,36,31,44,301,,,,,,,,,*7B
$GPGSA,M,3,02,12,25,29,,,,,,,,,6.9,3.7,5.9*34
Trace #100 at position 24.750000
$GPZDA,095058.03,08,10,2011,00,00*6F
$GPRMC,095058.00,A,4611.963415,N,01258.214900,E,001.6,325.6,081011,0.2,E,A*34
$GPGGA,095059.00,4611.963839,N,01258.214596,E,1,04,3.7,140.09,M,46.25,M,,*6A
$GPGLL,4611.963839,N,01258.214596,E,095059.00,A,A*66
$GPVTG,345.3,T,345.5,M,001.8,N,003.4,K,A*2B
$GPGSV,2,1,06,02,30,054,43,12,38,100,43,25,72,082,45,29,76,248,41*7D
$GPGSV,2,2,06,30,56,302,36,31,44,301,,,,,,,,,*7B
$GPGSA,M,3,02,12,25,29,,,,,,,,,6.9,3.7,5.9*34
Trace #101 at position 25.000000
$GPZDA,095059.03,08,10,2011,00,00*6E
$GPRMC,095059.00,A,4611.963839,N,01258.214596,E,001.8,345.3,081011,0.2,E,A*39
$GPGGA,095100.00,4611.964320,N,01258.214392,E,1,04,3.7,139.99,M,46.25,M,,*66
$GPGLL,4611.964320,N,01258.214392,E,095100.00,A,A*6D
$GPVTG,346.1,T,346.3,M,001.8,N,003.4,K,A*2F
$GPGSV,2,1,06,02,30,054,41,12,38,100,43,25,72,082,45,29,76,248,41*7F
$GPGSV,2,2,06,30,56,302,36,31,44,301,,,,,,,,,*7B
$GPGSA,M,3,02,12,25,29,,,,,,,,,6.9,3.7,5.9*34
Trace #102 at position 25.250000
$GPZDA,095102.03,08,10,2011,00,00*61
$GPRMC,095102.00,A,4611.964870,N,01258.214381,E,000.2,181.7,081011,0.2,E,A*39
$GPGGA,095103.00,4611.964769,N,01258.214506,E,1,05,3.0,140.55,M,46.25,M,,*6F
$GPGLL,4611.964769,N,01258.214506,E,095103.00,A,A*6C
$GPVTG,227.6,T,227.8,M,000.0,N,000.1,K,A*2C
$GPGSV,2,1,06,02,30,053,38,12,38,100,43,25,72,082,47,29,76,248,41*74
$GPGSV,2,2,06,30,56,302,39,31,44,301,,,,,,,,,*74
$GPGSA,M,3,02,12,25,29,30,,,,,,,,5.6,3.0,4.8*3C
Trace #103 at position 25.500000
$GPZDA,095102.03,08,10,2011,00,00*61
$GPRMC,095102.00,A,4611.964870,N,01258.214381,E,000.2,181.7,081011,0.2,E,A*39
$GPGGA,095103.00,4611.964769,N,01258.214506,E,1,05,3.0,140.55,M,46.25,M,,*6F
$GPGLL,4611.964769,N,01258.214506,E,095103.00,A,A*6C
$GPVTG,227.6,T,227.8,M,000.0,N,000.1,K,A*2C
$GPGSV,2,1,06,02,30,053,38,12,38,100,43,25,72,082,47,29,76,248,41*74
$GPGSV,2,2,06,30,56,302,39,31,44,301,,,,,,,,,*74
$GPGSA,M,3,02,12,25,29,30,,,,,,,,5.6,3.0,4.8*3C
Trace #104 at position 25.750000
$GPZDA,095102.03,08,10,2011,00,00*61
$GPRMC,095102.00,A,4611.964870,N,01258.214381,E,000.2,181.7,081011,0.2,E,A*39
$GPGGA,095103.00,4611.964769,N,01258.214506,E,1,05,3.0,140.55,M,46.25,M,,*6F
$GPGLL,4611.964769,N,01258.214506,E,095103.00,A,A*6C
$GPVTG,227.6,T,227.8,M,000.0,N,000.1,K,A*2C
$GPGSV,2,1,06,02,30,053,38,12,38,100,43,25,72,082,47,29,76,248,41*74
$GPGSV,2,2,06,30,56,302,39,31,44,301,,,,,,,,,*74
$GPGSA,M,3,02,12,25,29,30,,,,,,,,5.6,3.0,4.8*3C
Trace #105 at position 26.000000
$GPZDA,095102.03,08,10,2011,00,00*61
$GPRMC,095102.00,A,4611.964870,N,01258.214381,E,000.2,181.7,081011,0.2,E,A*39
$GPGGA,095103.00,4611.964769,N,01258.214506,E,1,05,3.0,140.55,M,46.25,M,,*6F
$GPGLL,4611.964769,N,01258.214506,E,095103.00,A,A*6C
$GPVTG,227.6,T,227.8,M,000.0,N,000.1,K,A*2C
$GPGSV,2,1,06,02,30,053,38,12,38,100,43,25,72,082,47,29,76,248,41*74
$GPGSV,2,2,06,30,56,302,39,31,44,301,,,,,,,,,*74
$GPGSA,M,3,02,12,25,29,30,,,,,,,,5.6,3.0,4.8*3C
Trace #106 at position 26.250000
$GPZDA,095103.03,08,10,2011,00,00*60
$GPRMC,095103.00,A,4611.964769,N,01258.214506,E,000.0,227.6,081011,0.2,E,A*3A
$GPGGA,095104.00,4611.964772,N,01258.214616,E,1,05,3.0,140.79,M,46.25,M,,*6E
$GPGLL,4611.964772,N,01258.214616,E,095104.00,A,A*63
$GPVTG,0.3,T,0.5,M,000.5,N,001.0,K,A*21
$GPGSV,2,1,06,02,30,053,38,12,38,100,44,25,72,082,47,29,76,248,42*70
$GPGSV,2,2,06,30,56,302,40,31,44,301,,,,,,,,,*7A
$GPGSA,M,3,02,12,25,29,30,,,,,,,,5.6,3.0,4.8*3C
Trace #107 at position 26.500000
$GPZDA,095103.03,08,10,2011,00,00*60
$GPRMC,095103.00,A,4611.964769,N,01258.214506,E,000.0,227.6,081011,0.2,E,A*3A
$GPGGA,095104.00,4611.964772,N,01258.214616,E,1,05,3.0,140.79,M,46.25,M,,*6E
$GPGLL,4611.964772,N,01258.214616,E,095104.00,A,A*63
$GPVTG,0.3,T,0.5,M,000.5,N,001.0,K,A*21
$GPGSV,2,1,06,02,30,053,38,12,38,100,44,25,72,082,47,29,76,248,42*70
$GPGSV,2,2,06,30,56,302,40,31,44,301,,,,,,,,,*7A
$GPGSA,M,3,02,12,25,29,30,,,,,,,,5.6,3.0,4.8*3C
Trace #108 at position 26.750000
$GPZDA,095104.03,08,10,2011,00,00*67
$GPRMC,095104.00,A,4611.964772,N,01258.214616,E,000.5,0.3,081011,0.2,E,A*32
$GPGGA,095105.00,4611.964997,N,01258.214622,E,1,05,3.0,141.08,M,46.25,M,,*6A
$GPGLL,4611.964997,N,01258.214622,E,095105.00,A,A*60
$GPVTG,343.8,T,344.0,M,001.5,N,002.8,K,A*22
$GPGSV,2,1,06,02,30,053,40,12,38,100,43,25,72,082,46,29,76,248,44*7F
$GPGSV,2,2,06,30,56,302,39,31,44,301,,,,,,,,,*74
$GPGSA,M,3,02,12,25,29,30,,,,,,,,5.6,3.0,4.8*3C
Trace #109 at position 27.000000
$GPZDA,095104.03,08,10,2011,00,00*67
$GPRMC,095104.00,A,4611.964772,N,01258.214616,E,000.5,0.3,081011,0.2,E,A*32
$GPGGA,095105.00,4611.964997,N,01258.214622,E,1,05,3.0,141.08,M,46.25,M,,*6A
$GPGLL,4611.964997,N,01258.214622,E,095105.00,A,A*60
$GPVTG,343.8,T,344.0,M,001.5,N,002.8,K,A*22
$GPGSV,2,1,06,02,30,053,40,12,38,100,43,25,72,082,46,29,76,248,44*7F
$GPGSV,2,2,06,30,56,302,39,31,44,301,,,,,,,,,*74
$GPGSA,M,3,02,12,25,29,30,,,,,,,,5.6,3.0,4.8*3C
Trace #110 at position 27.250000
$GPZDA,095104.03,08,10,2011,00,00*67
$GPRMC,095104.00,A,4611.964772,N,01258.214616,E,000.5,0.3,081011,0.2,E,A*32
$GPGGA,095105.00,4611.964997,N,01258.214622,E,1,05,3.0,141.08,M,46.25,M,,*6A
$GPGLL,4611.964997,N,01258.214622,E,095105.00,A,A*60
$GPVTG,343.8,T,344.0,M,001.5,N,002.8,K,A*22
$GPGSV,2,1,06,02,30,053,40,12,38,100,43,25,72,082,46,29,76,248,44*7F
$GPGSV,2,2,06,30,56,302,39,31,44,301,,,,,,,,,*74
$GPGSA,M,3,02,12,25,29,30,,,,,,,,5.6,3.0,4.8*3C
Trace #111 at position 27.500000
$GPZDA,095105.03,08,10,2011,00,00*66
$GPRMC,095105.00,A,4611.964997,N,01258.214622,E,001.5,343.8,081011,0.2,E,A*3F
$GPGGA,095106.00,4611.965414,N,01258.214609,E,1,05,3.0,141.37,M,46.25,M,,*6B
$GPGLL,4611.965414,N,01258.214609,E,095106.00,A,A*6D
$GPVTG,0.0,T,0.2,M,001.9,N,003.5,K,A*2F
$GPGSV,2,1,06,02,30,053,42,12,38,100,43,25,72,082,46,29,76,248,42*7B
$GPGSV,2,2,06,30,56,302,37,31,44,301,,,,,,,,,*7A
$GPGSA,M,3,02,12,25,29,30,,,,,,,,5.6,3.0,4.8*3C
Trace #112 at position 27.750000
$GPZDA,095105.03,08,10,2011,00,00*66
$GPRMC,095105.00,A,4611.964997,N,01258.214622,E,001.5,343.8,081011,0.2,E,A*3F
$GPGGA,095106.00,4611.965414,N,01258.214609,E,1,05,3.0,141.37,M,46.25,M,,*6B
$GPGLL,4611.965414,N,01258.214609,E,095106.00,A,A*6D
$GPVTG,0.0,T,0.2,M,001.9,N,003.5,K,A*2F
$GPGSV,2,1,06,02,30,053,42,12,38,100,43,25,72,082,46,29,76,248,42*7B
$GPGSV,2,2,06,30,56,302,37,31,44,301,,,,,,,,,*7A
$GPGSA,M,3,02,12,25,29,30,,,,,,,,5.6,3.0,4.8*3C
Trace #113 at position 28.000000
$GPZDA,095106.03,08,10,2011,00,00*65
$GPRMC,095106.00,A,4611.965414,N,01258.214609,E,001.9,0.0,081011,0.2,E,A*32
$GPGGA,095107.00,4611.965877,N,01258.214611,E,1,05,3.0,141.55,M,46.25,M,,*6E
$GPGLL,4611.965877,N,01258.214611,E,095107.00,A,A*6C
$GPVTG,353.3,T,353.5,M,001.9,N,003.5,K,A*2B
$GPGSV,2,1,06,02,30,053,42,12,38,100,44,25,72,082,46,29,76,248,43*7D
$GPGSV,2,2,06,30,56,302,38,31,44,301,,,,,,,,,*75
$GPGSA,M,3,02,12,25,29,30,,,,,,,,5.6,3.0,4.8*3C
Trace #114 at position 28.250000
$GPZDA,095106.03,08,10,2011,00,00*65
$GPRMC,095106.00,A,4611.965414,N,01258.214609,E,001.9,0.0,081011,0.2,E,A*32
$GPGGA,095107.00,4611.965877,N,01258.214611,E,1,05,3.0,141.55,M,46.25,M,,*6E
$GPGLL,4611.965877,N,01258.214611,E,095107.00,A,A*6C
$GPVTG,353.3,T,353.5,M,001.9,N,003.5,K,A*2B
$GPGSV,2,1,06,02,30,053,42,12,38,100,44,25,72,082,46,29,76,248,43*7D
$GPGSV,2,2,06,30,56,302,38,31,44,301,,,,,,,,,*75
$GPGSA,M,3,02,12,25,29,30,,,,,,,,5.6,3.0,4.8*3C
Trace #115 at position 28.500000
$GPZDA,095106.03,08,10,2011,00,00*65
$GPRMC,095106.00,A,4611.965414,N,01258.214609,E,001.9,0.0,081011,0.2,E,A*32
$GPGGA,095107.00,4611.965877,N,01258.214611,E,1,05,3.0,141.55,M,46.25,M,,*6E
$GPGLL,4611.965877,N,01258.214611,E,095107.00,A,A*6C
$GPVTG,353.3,T,353.5,M,001.9,N,003.5,K,A*2B
$GPGSV,2,1,06,02,30,053,42,12,38,100,44,25,72,082,46,29,76,248,43*7D
$GPGSV,2,2,06,30,56,302,38,31,44,301,,,,,,,,,*75
$GPGSA,M,3,02,12,25,29,30,,,,,,,,5.6,3.0,4.8*3C
Trace #116 at position 28.750000
$GPZDA,095107.03,08,10,2011,00,00*64
$GPRMC,095107.00,A,4611.965877,N,01258.214611,E,001.9,353.3,081011,0.2,E,A*35
$GPGGA,095108.00,4611.966247,N,01258.214603,E,1,05,3.0,141.63,M,46.25,M,,*6D
$GPGLL,4611.966247,N,01258.214603,E,095108.00,A,A*6A
$GPVTG,4.2,T,4.4,M,001.3,N,002.3,K,A*26
$GPGSV,2,1,06,02,30,053,41,12,38,100,44,25,72,082,47,29,76,248,43*7F
$GPGSV,2,2,06,30,56,302,38,31,44,301,,,,,,,,,*75
$GPGSA,M,3,02,12,25,29,30,,,,,,,,5.6,3.0,4.8*3C
Trace #117 at position 29.000000
$GPZDA,095107.03,08,10,2011,00,00*64
$GPRMC,095107.00,A,4611.965877,N,01258.214611,E,001.9,353.3,081011,0.2,E,A*35
$GPGGA,095108.00,4611.966247,N,01258.214603,E,1,05,3.0,141.63,M,46.25,M,,*6D
$GPGLL,4611.966247,N,01258.214603,E,095108.00,A,A*6A
$GPVTG,4.2,T,4.4,M,001.3,N,002.3,K,A*26
$GPGSV,2,1,06,02,30,053,41,12,38,100,44,25,72,082,47,29,76,248,43*7F
$GPGSV,2,2,06,30,56,302,38,31,44,301,,,,,,,,,*75
$GPGSA,M,3,02,12,25,29,30,,,,,,,,5.6,3.0,4.8*3C
Trace #118 at position 29.250000
$GPZDA,095107.03,08,10,2011,00,00*64
$GPRMC,095107.00,A,4611.965877,N,01258.214611,E,001.9,353.3,081011,0.2,E,A*35
$GPGGA,095108.00,4611.966247,N,01258.214603,E,1,05,3.0,141.63,M,46.25,M,,*6D
$GPGLL,4611.966247,N,01258.214603,E,095108.00,A,A*6A
$GPVTG,4.2,T,4.4,M,001.3,N,002.3,K,A*26
$GPGSV,2,1,06,02,30,053,41,12,38,100,44,25,72,082,47,29,76,248,43*7F
$GPGSV,2,2,06,30,56,302,38,31,44,301,,,,,,,,,*75
$GPGSA,M,3,02,12,25,29,30,,,,,,,,5.6,3.0,4.8*3C
Trace #119 at position 29.500000
$GPZDA,095108.03,08,10,2011,00,00*6B
$GPRMC,095108.00,A,4611.966247,N,01258.214603,E,001.3,4.2,081011,0.2,E,A*39
$GPGGA,095109.00,4611.966580,N,01258.214642,E,1,05,3.0,141.68,M,46.25,M,,*6E
$GPGLL,4611.966580,N,01258.214642,E,095109.00,A,A*62
$GPVTG,5.3,T,5.5,M,001.6,N,003.0,K,A*21
$GPGSV,2,1,06,02,30,053,41,12,38,100,44,25,72,082,46,29,76,248,42*7F
$GPGSV,2,2,06,30,56,302,38,31,44,301,,,,,,,,,*75
$GPGSA,M,3,02,12,25,29,30,,,,,,,,5.6,3.0,4.8*3C
Trace #120 at position 29.750000
$GPZDA,095108.03,08,10,2011,00,00*6B
$GPRMC,095108.00,A,4611.966247,N,01258.214603,E,001.3,4.2,081011,0.2,E,A*39
$GPGGA,095109.00,4611.966580,N,01258.214642,E,1,05,3.0,141.68,M,46.25,M,,*6E
$GPGLL,4611.966580,N,01258.214642,E,095109.00,A,A*62
$GPVTG,5.3,T,5.5,M,001.6,N,003.0,K,A*21
