Trace #1 at position 0.000000
$GPZDA,085551.03,09,10,2011,00,00*63
$GPRMC,085551.00,A,4611.954062,N,01258.229278,E,000.1,174.3,091011,0.2,E,A*37
$GPGGA,085552.00,4611.954088,N,01258.229264,E,1,04,2.8,142.39,M,46.25,M,,*68
$GPGLL,4611.954088,N,01258.229264,E,085552.00,A,A*6B
$GPVTG,355.9,T,356.1,M,000.1,N,000.2,K,A*2B
$GPGSV,2,1,08,02,38,078,43,09,18,152,,12,57,077,44,14,28,253,37*7B
$GPGSV,2,2,08,25,77,338,46,29,52,223,46,30,33,291,39,31,25,313,*76
$GPGSA,M,3,02,12,29,30,,,,,,,,,7.0,2.8,6.4*38
Trace #2 at position 0.250000
$GPZDA,085551.03,09,10,2011,00,00*63
$GPRMC,085551.00,A,4611.954062,N,01258.229278,E,000.1,174.3,091011,0.2,E,A*37
$GPGGA,085552.00,4611.954088,N,01258.229264,E,1,04,2.8,142.39,M,46.25,M,,*68
$GPGLL,4611.954088,N,01258.229264,E,085552.00,A,A*6B
$GPVTG,355.9,T,356.1,M,000.1,N,000.2,K,A*2B
$GPGSV,2,1,08,02,38,078,43,09,18,152,,12,57,077,44,14,28,253,37*7B
$GPGSV,2,2,08,25,77,338,46,29,52,223,46,30,33,291,39,31,25,313,*76
$GPGSA,M,3,02,12,29,30,,,,,,,,,7.0,2.8,6.4*38
Trace #3 at position 0.500000
$GPZDA,085552.03,09,10,2011,00,00*60
$GPRMC,085552.00,A,4611.954088,N,01258.229264,E,000.1,355.9,091011,0.2,E,A*36
$GPGGA,085553.00,4611.954170,N,01258.229236,E,1,05,2.0,142.62,M,46.25,M,,*6F
$GPGLL,4611.954170,N,01258.229236,E,085553.00,A,A*6B
$GPVTG,2.1,T,2.3,M,000.1,N,000.2,K,A*22
$GPGSV,2,1,08,02,38,078,42,09,18,152,,12,57,077,44,14,28,253,36*7B
$GPGSV,2,2,08,25,77,338,45,29,52,223,48,30,33,291,40,31,25,313,*75
$GPGSA,M,3,02,12,25,29,30,,,,,,,,3.7,2.0,3.1*34
Trace #4 at position 0.750000
$GPZDA,085552.03,09,10,2011,00,00*60
$GPRMC,085552.00,A,4611.954088,N,01258.229264,E,000.1,355.9,091011,0.2,E,A*36
$GPGGA,085553.00,4611.954170,N,01258.229236,E,1,05,2.0,142.62,M,46.25,M,,*6F
$GPGLL,4611.954170,N,01258.229236,E,085553.00,A,A*6B
$GPVTG,2.1,T,2.3,M,000.1,N,000.2,K,A*22
$GPGSV,2,1,08,02,38,078,42,09,18,152,,12,57,077,44,14,28,253,36*7B
$GPGSV,2,2,08,25,77,338,45,29,52,223,48,30,33,291,40,31,25,313,*75
$GPGSA,M,3,02,12,25,29,30,,,,,,,,3.7,2.0,3.1*34
Trace #5 at position 1.000000
$GPZDA,085553.04,09,10,2011,00,00*66
$GPRMC,085553.00,A,4611.954170,N,01258.229236,E,000.1,2.1,091011,0.2,E,A*3F
$GPGGA,085554.00,4611.954347,N,01258.229168,E,1,05,2.1,142.82,M,46.25,M,,*69
$GPGLL,4611.954347,N,01258.229168,E,085554.00,A,A*62
$GPVTG,340.8,T,341.0,M,001.0,N,001.9,K,A*23
$GPGSV,2,1,08,02,38,078,45,09,18,152,,12,57,077,43,14,28,253,39*74
$GPGSV,2,2,08,25,77,338,47,29,52,223,48,30,33,291,41,31,25,313,*76
$GPGSA,M,3,02,12,14,29,30,,,,,,,,4.7,2.1,4.2*34
Trace #6 at position 1.250000
$GPZDA,085553.04,09,10,2011,00,00*66
$GPRMC,085553.00,A,4611.954170,N,01258.229236,E,000.1,2.1,091011,0.2,E,A*3F
$GPGGA,085554.00,4611.954347,N,01258.229168,E,1,05,2.1,142.82,M,46.25,M,,*69
$GPGLL,4611.954347,N,01258.229168,E,085554.00,A,A*62
$GPVTG,340.8,T,341.0,M,001.0,N,001.9,K,A*23
$GPGSV,2,1,08,02,38,078,45,09,18,152,,12,57,077,43,14,28,253,39*74
$GPGSV,2,2,08,25,77,338,47,29,52,223,48,30,33,291,41,31,25,313,*76
$GPGSA,M,3,02,12,14,29,30,,,,,,,,4.7,2.1,4.2*34
Trace #7 at position 1.500000
$GPZDA,085554.03,09,10,2011,00,00*66
$GPRMC,085554.00,A,4611.954347,N,01258.229168,E,001.0,340.8,091011,0.2,E,A*3A
$GPGGA,085555.00,4611.954637,N,01258.228940,E,1,06,1.8,142.92,M,46.25,M,,*61
$GPGLL,4611.954637,N,01258.228940,E,085555.00,A,A*62
$GPVTG,321.2,T,321.4,M,001.5,N,002.7,K,A*24
$GPGSV,2,1,08,02,38,078,44,09,18,152,,12,57,077,44,14,28,253,38*73
$GPGSV,2,2,08,25,77,338,45,29,52,223,47,30,33,291,39,31,25,313,*74
$GPGSA,M,3,02,12,14,25,29,30,,,,,,,3.2,1.8,2.6*39
Trace #8 at position 1.750000
$GPZDA,085554.03,09,10,2011,00,00*66
$GPRMC,085554.00,A,4611.954347,N,01258.229168,E,001.0,340.8,091011,0.2,E,A*3A
$GPGGA,085555.00,4611.954637,N,01258.228940,E,1,06,1.8,142.92,M,46.25,M,,*61
$GPGLL,4611.954637,N,01258.228940,E,085555.00,A,A*62
$GPVTG,321.2,T,321.4,M,001.5,N,002.7,K,A*24
$GPGSV,2,1,08,02,38,078,44,09,18,152,,12,57,077,44,14,28,253,38*73
$GPGSV,2,2,08,25,77,338,45,29,52,223,47,30,33,291,39,31,25,313,*74
$GPGSA,M,3,02,12,14,25,29,30,,,,,,,3.2,1.8,2.6*39
Trace #9 at position 2.000000
$GPZDA,085555.04,09,10,2011,00,00*60
$GPRMC,085555.00,A,4611.954637,N,01258.228940,E,001.5,321.2,091011,0.2,E,A*32
$GPGGA,085556.00,4611.954933,N,01258.228798,E,1,05,2.0,142.86,M,46.25,M,,*6F
$GPGLL,4611.954933,N,01258.228798,E,085556.00,A,A*61
$GPVTG,7.2,T,7.4,M,001.1,N,002.0,K,A*27
$GPGSV,2,1,08,02,38,078,44,09,18,152,,12,57,077,45,14,28,253,34*7E
$GPGSV,2,2,08,25,77,338,41,29,52,223,47,30,33,291,37,31,25,313,*7E
$GPGSA,M,3,02,12,25,29,30,,,,,,,,3.7,2.0,3.1*34
Trace #10 at position 2.250000
$GPZDA,085555.04,09,10,2011,00,00*60
$GPRMC,085555.00,A,4611.954637,N,01258.228940,E,001.5,321.2,091011,0.2,E,A*32
$GPGGA,085556.00,4611.954933,N,01258.228798,E,1,05,2.0,142.86,M,46.25,M,,*6F
$GPGLL,4611.954933,N,01258.228798,E,085556.00,A,A*61
$GPVTG,7.2,T,7.4,M,001.1,N,002.0,K,A*27
$GPGSV,2,1,08,02,38,078,44,09,18,152,,12,57,077,45,14,28,253,34*7E
$GPGSV,2,2,08,25,77,338,41,29,52,223,47,30,33,291,37,31,25,313,*7E
$GPGSA,M,3,02,12,25,29,30,,,,,,,,3.7,2.0,3.1*34
Trace #11 at position 2.500000
$GPZDA,085555.04,09,10,2011,00,00*60
$GPRMC,085555.00,A,4611.954637,N,01258.228940,E,001.5,321.2,091011,0.2,E,A*32
$GPGGA,085556.00,4611.954933,N,01258.228798,E,1,05,2.0,142.86,M,46.25,M,,*6F
$GPGLL,4611.954933,N,01258.228798,E,085556.00,A,A*61
$GPVTG,7.2,T,7.4,M,001.1,N,002.0,K,A*27
$GPGSV,2,1,08,02,38,078,44,09,18,152,,12,57,077,45,14,28,253,34*7E
$GPGSV,2,2,08,25,77,338,41,29,52,223,47,30,33,291,37,31,25,313,*7E
$GPGSA,M,3,02,12,25,29,30,,,,,,,,3.7,2.0,3.1*34
Trace #12 at position 2.750000
$GPZDA,085556.03,09,10,2011,00,00*64
$GPRMC,085556.00,A,4611.954933,N,01258.228798,E,001.1,7.2,091011,0.2,E,A*32
$GPGGA,085557.00,4611.955184,N,01258.228799,E,1,04,5.7,142.86,M,46.25,M,,*6B
$GPGLL,4611.955184,N,01258.228799,E,085557.00,A,A*64
$GPVTG,345.3,T,345.4,M,001.0,N,001.8,K,A*2C
$GPGSV,2,1,08,02,38,078,43,09,18,152,,12,57,077,43,14,28,253,35*7E
$GPGSV,2,2,08,25,77,338,41,29,52,223,48,30,33,291,33,31,25,313,*75
$GPGSA,M,3,02,12,25,29,,,,,,,,,10.5,5.7,8.8*05
Trace #13 at position 3.000000
$GPZDA,085556.03,09,10,2011,00,00*64
$GPRMC,085556.00,A,4611.954933,N,01258.228798,E,001.1,7.2,091011,0.2,E,A*32
$GPGGA,085557.00,4611.955184,N,01258.228799,E,1,04,5.7,142.86,M,46.25,M,,*6B
$GPGLL,4611.955184,N,01258.228799,E,085557.00,A,A*64
$GPVTG,345.3,T,345.4,M,001.0,N,001.8,K,A*2C
$GPGSV,2,1,08,02,38,078,43,09,18,152,,12,57,077,43,14,28,253,35*7E
$GPGSV,2,2,08,25,77,338,41,29,52,223,48,30,33,291,33,31,25,313,*75
$GPGSA,M,3,02,12,25,29,,,,,,,,,10.5,5.7,8.8*05
Trace #14 at position 3.250000
$GPZDA,085601.03,09,10,2011,00,00*65
$GPRMC,085601.00,A,4611.955678,N,01258.228563,E,000.3,311.1,091011,0.2,E,A*30
$GPGGA,085602.00,4611.955690,N,01258.228544,E,1,05,2.0,142.27,M,46.25,M,,*62
$GPGLL,4611.955690,N,01258.228544,E,085602.00,A,A*67
$GPVTG,74.4,T,74.6,M,000.0,N,000.0,K,A*21
$GPGSV,2,1,08,02,38,078,45,09,18,152,,12,57,077,44,14,28,252,35*7E
$GPGSV,2,2,08,25,77,338,45,29,52,223,47,30,34,291,40,31,26,313,38*75
$GPGSA,M,3,02,12,25,29,30,,,,,,,,3.7,2.0,3.1*34
Trace #15 at position 3.500000
$GPZDA,085602.04,09,10,2011,00,00*61
$GPRMC,085602.00,A,4611.955690,N,01258.228544,E,000.0,74.4,091011,0.2,E,A*06
$GPGGA,085603.00,4611.955652,N,01258.228573,E,1,05,2.0,142.03,M,46.25,M,,*6F
$GPGLL,4611.955652,N,01258.228573,E,085603.00,A,A*6C
$GPVTG,165.5,T,165.7,M,000.2,N,000.5,K,A*26
$GPGSV,2,1,08,02,38,078,45,09,18,152,,12,57,077,45,14,28,252,32*78
$GPGSV,2,2,08,25,77,338,44,29,52,223,46,30,34,291,39,31,26,313,39*7A
$GPGSA,M,3,02,12,25,29,30,,,,,,,,3.7,2.0,3.1*34
Trace #16 at position 3.750000
$GPZDA,085602.04,09,10,2011,00,00*61
$GPRMC,085602.00,A,4611.955690,N,01258.228544,E,000.0,74.4,091011,0.2,E,A*06
$GPGGA,085603.00,4611.955652,N,01258.228573,E,1,05,2.0,142.03,M,46.25,M,,*6F
$GPGLL,4611.955652,N,01258.228573,E,085603.00,A,A*6C
$GPVTG,165.5,T,165.7,M,000.2,N,000.5,K,A*26
$GPGSV,2,1,08,02,38,078,45,09,18,152,,12,57,077,45,14,28,252,32*78
$GPGSV,2,2,08,25,77,338,44,29,52,223,46,30,34,291,39,31,26,313,39*7A
$GPGSA,M,3,02,12,25,29,30,,,,,,,,3.7,2.0,3.1*34
Trace #17 at position 4.000000
$GPZDA,085602.04,09,10,2011,00,00*61
$GPRMC,085602.00,A,4611.955690,N,01258.228544,E,000.0,74.4,091011,0.2,E,A*06
$GPGGA,085603.00,4611.955652,N,01258.228573,E,1,05,2.0,142.03,M,46.25,M,,*6F
$GPGLL,4611.955652,N,01258.228573,E,085603.00,A,A*6C
$GPVTG,165.5,T,165.7,M,000.2,N,000.5,K,A*26
$GPGSV,2,1,08,02,38,078,45,09,18,152,,12,57,077,45,14,28,252,32*78
$GPGSV,2,2,08,25,77,338,44,29,52,223,46,30,34,291,39,31,26,313,39*7A
$GPGSA,M,3,02,12,25,29,30,,,,,,,,3.7,2.0,3.1*34
Trace #18 at position 4.250000
$GPZDA,085603.04,09,10,2011,00,00*60
$GPRMC,085603.00,A,4611.955652,N,01258.228573,E,000.2,165.5,091011,0.2,E,A*3F
$GPGGA,085604.00,4611.955649,N,01258.228580,E,1,04,5.7,142.25,M,46.25,M,,*6B
$GPGLL,4611.955649,N,01258.228580,E,085604.00,A,A*6D
$GPVTG,330.5,T,330.6,M,000.8,N,001.6,K,A*2F
$GPGSV,2,1,08,02,38,078,45,09,18,152,,12,57,077,43,14,28,252,36*7A
$GPGSV,2,2,08,25,77,338,45,29,52,223,48,30,34,291,33,31,26,313,32*74
$GPGSA,M,3,02,12,25,29,,,,,,,,,10.5,5.7,8.8*05
Trace #19 at position 4.500000
$GPZDA,085603.04,09,10,2011,00,00*60
$GPRMC,085603.00,A,4611.955652,N,01258.228573,E,000.2,165.5,091011,0.2,E,A*3F
$GPGGA,085604.00,4611.955649,N,01258.228580,E,1,04,5.7,142.25,M,46.25,M,,*6B
$GPGLL,4611.955649,N,01258.228580,E,085604.00,A,A*6D
$GPVTG,330.5,T,330.6,M,000.8,N,001.6,K,A*2F
$GPGSV,2,1,08,02,38,078,45,09,18,152,,12,57,077,43,14,28,252,36*7A
$GPGSV,2,2,08,25,77,338,45,29,52,223,48,30,34,291,33,31,26,313,32*74
$GPGSA,M,3,02,12,25,29,,,,,,,,,10.5,5.7,8.8*05
Trace #20 at position 4.750000
$GPZDA,085603.04,09,10,2011,00,00*60
$GPRMC,085603.00,A,4611.955652,N,01258.228573,E,000.2,165.5,091011,0.2,E,A*3F
$GPGGA,085604.00,4611.955649,N,01258.228580,E,1,04,5.7,142.25,M,46.25,M,,*6B
$GPGLL,4611.955649,N,01258.228580,E,085604.00,A,A*6D
$GPVTG,330.5,T,330.6,M,000.8,N,001.6,K,A*2F
$GPGSV,2,1,08,02,38,078,45,09,18,152,,12,57,077,43,14,28,252,36*7A
$GPGSV,2,2,08,25,77,338,45,29,52,223,48,30,34,291,33,31,26,313,32*74
$GPGSA,M,3,02,12,25,29,,,,,,,,,10.5,5.7,8.8*05
Trace #21 at position 5.000000
$GPZDA,085604.03,09,10,2011,00,00*60
$GPRMC,085604.00,A,4611.955649,N,01258.228580,E,000.8,330.5,091011,0.2,E,A*36
$GPGGA,085605.00,4611.955916,N,01258.228472,E,1,04,5.7,142.51,M,46.25,M,,*60
$GPGLL,4611.955916,N,01258.228472,E,085605.00,A,A*65
$GPVTG,344.2,T,344.4,M,001.7,N,003.2,K,A*22
$GPGSV,2,1,08,02,38,078,46,09,18,152,,12,57,077,45,14,28,252,37*7E
$GPGSV,2,2,08,25,77,338,47,29,52,223,47,30,34,291,35,31,26,313,34*79
$GPGSA,M,3,02,12,25,29,,,,,,,,,10.5,5.7,8.8*05
Trace #22 at position 5.250000
$GPZDA,085604.03,09,10,2011,00,00*60
$GPRMC,085604.00,A,4611.955649,N,01258.228580,E,000.8,330.5,091011,0.2,E,A*36
$GPGGA,085605.00,4611.955916,N,01258.228472,E,1,04,5.7,142.51,M,46.25,M,,*60
$GPGLL,4611.955916,N,01258.228472,E,085605.00,A,A*65
$GPVTG,344.2,T,344.4,M,001.7,N,003.2,K,A*22
$GPGSV,2,1,08,02,38,078,46,09,18,152,,12,57,077,45,14,28,252,37*7E
$GPGSV,2,2,08,25,77,338,47,29,52,223,47,30,34,291,35,31,26,313,34*79
$GPGSA,M,3,02,12,25,29,,,,,,,,,10.5,5.7,8.8*05
Trace #23 at position 5.500000
$GPZDA,085604.03,09,10,2011,00,00*60
$GPRMC,085604.00,A,4611.955649,N,01258.228580,E,000.8,330.5,091011,0.2,E,A*36
$GPGGA,085605.00,4611.955916,N,01258.228472,E,1,04,5.7,142.51,M,46.25,M,,*60
$GPGLL,4611.955916,N,01258.228472,E,085605.00,A,A*65
$GPVTG,344.2,T,344.4,M,001.7,N,003.2,K,A*22
$GPGSV,2,1,08,02,38,078,46,09,18,152,,12,57,077,45,14,28,252,37*7E
$GPGSV,2,2,08,25,77,338,47,29,52,223,47,30,34,291,35,31,26,313,34*79
$GPGSA,M,3,02,12,25,29,,,,,,,,,10.5,5.7,8.8*05
Trace #24 at position 5.750000
$GPZDA,085604.03,09,10,2011,00,00*60
$GPRMC,085604.00,A,4611.955649,N,01258.228580,E,000.8,330.5,091011,0.2,E,A*36
$GPGGA,085605.00,4611.955916,N,01258.228472,E,1,04,5.7,142.51,M,46.25,M,,*60
$GPGLL,4611.955916,N,01258.228472,E,085605.00,A,A*65
$GPVTG,344.2,T,344.4,M,001.7,N,003.2,K,A*22
$GPGSV,2,1,08,02,38,078,46,09,18,152,,12,57,077,45,14,28,252,37*7E
$GPGSV,2,2,08,25,77,338,47,29,52,223,47,30,34,291,35,31,26,313,34*79
$GPGSA,M,3,02,12,25,29,,,,,,,,,10.5,5.7,8.8*05
Trace #25 at position 6.000000
$GPZDA,085605.03,09,10,2011,00,00*61
$GPRMC,085605.00,A,4611.955916,N,01258.228472,E,001.7,344.2,091011,0.2,E,A*34
$GPGGA,085606.00,4611.956268,N,01258.228411,E,1,04,5.7,142.48,M,46.25,M,,*6F
$GPGLL,4611.956268,N,01258.228411,E,085606.00,A,A*62
$GPVTG,353.6,T,353.8,M,001.4,N,002.5,K,A*2F
$GPGSV,2,1,08,02,38,078,44,09,18,152,,12,56,077,44,14,28,252,39*72
$GPGSV,2,2,08,25,77,338,47,29,52,223,47,30,34,291,37,31,26,313,24*7A
$GPGSA,M,3,02,12,25,29,,,,,,,,,10.5,5.7,8.8*05
Trace #26 at position 6.250000
$GPZDA,085605.03,09,10,2011,00,00*61
$GPRMC,085605.00,A,4611.955916,N,01258.228472,E,001.7,344.2,091011,0.2,E,A*34
$GPGGA,085606.00,4611.956268,N,01258.228411,E,1,04,5.7,142.48,M,46.25,M,,*6F
$GPGLL,4611.956268,N,01258.228411,E,085606.00,A,A*62
$GPVTG,353.6,T,353.8,M,001.4,N,002.5,K,A*2F
$GPGSV,2,1,08,02,38,078,44,09,18,152,,12,56,077,44,14,28,252,39*72
$GPGSV,2,2,08,25,77,338,47,29,52,223,47,30,34,291,37,31,26,313,24*7A
$GPGSA,M,3,02,12,25,29,,,,,,,,,10.5,5.7,8.8*05
Trace #27 at position 6.500000
$GPZDA,085605.03,09,10,2011,00,00*61
$GPRMC,085605.00,A,4611.955916,N,01258.228472,E,001.7,344.2,091011,0.2,E,A*34
$GPGGA,085606.00,4611.956268,N,01258.228411,E,1,04,5.7,142.48,M,46.25,M,,*6F
$GPGLL,4611.956268,N,01258.228411,E,085606.00,A,A*62
$GPVTG,353.6,T,353.8,M,001.4,N,002.5,K,A*2F
$GPGSV,2,1,08,02,38,078,44,09,18,152,,12,56,077,44,14,28,252,39*72
$GPGSV,2,2,08,25,77,338,47,29,52,223,47,30,34,291,37,31,26,313,24*7A
$GPGSA,M,3,02,12,25,29,,,,,,,,,10.5,5.7,8.8*05
Trace #28 at position 6.750000
$GPZDA,085605.03,09,10,2011,00,00*61
$GPRMC,085605.00,A,4611.955916,N,01258.228472,E,001.7,344.2,091011,0.2,E,A*34
$GPGGA,085606.00,4611.956268,N,01258.228411,E,1,04,5.7,142.48,M,46.25,M,,*6F
$GPGLL,4611.956268,N,01258.228411,E,085606.00,A,A*62
$GPVTG,353.6,T,353.8,M,001.4,N,002.5,K,A*2F
$GPGSV,2,1,08,02,38,078,44,09,18,152,,12,56,077,44,14,28,252,39*72
$GPGSV,2,2,08,25,77,338,47,29,52,223,47,30,34,291,37,31,26,313,24*7A
$GPGSA,M,3,02,12,25,29,,,,,,,,,10.5,5.7,8.8*05
Trace #29 at position 7.000000
$GPZDA,085606.03,09,10,2011,00,00*62
$GPRMC,085606.00,A,4611.956268,N,01258.228411,E,001.4,353.6,091011,0.2,E,A*32
$GPGGA,085607.00,4611.956702,N,01258.228465,E,1,05,2.9,142.27,M,46.25,M,,*65
$GPGLL,4611.956702,N,01258.228465,E,085607.00,A,A*69
$GPVTG,11.1,T,11.3,M,002.1,N,003.9,K,A*28
$GPGSV,2,1,08,02,38,078,45,09,18,152,,12,56,077,44,14,28,252,39*73
$GPGSV,2,2,08,25,77,338,47,29,52,223,46,30,34,291,36,31,26,313,*7C
$GPGSA,M,3,02,12,14,25,29,,,,,,,,4.0,2.9,2.8*33
Trace #30 at position 7.250000
$GPZDA,085606.03,09,10,2011,00,00*62
$GPRMC,085606.00,A,4611.956268,N,01258.228411,E,001.4,353.6,091011,0.2,E,A*32
$GPGGA,085607.00,4611.956702,N,01258.228465,E,1,05,2.9,142.27,M,46.25,M,,*65
$GPGLL,4611.956702,N,01258.228465,E,085607.00,A,A*69
$GPVTG,11.1,T,11.3,M,002.1,N,003.9,K,A*28
$GPGSV,2,1,08,02,38,078,45,09,18,152,,12,56,077,44,14,28,252,39*73
$GPGSV,2,2,08,25,77,338,47,29,52,223,46,30,34,291,36,31,26,313,*7C
$GPGSA,M,3,02,12,14,25,29,,,,,,,,4.0,2.9,2.8*33
Trace #31 at position 7.500000
$GPZDA,085606.03,09,10,2011,00,00*62
$GPRMC,085606.00,A,4611.956268,N,01258.228411,E,001.4,353.6,091011,0.2,E,A*32
$GPGGA,085607.00,4611.956702,N,01258.228465,E,1,05,2.9,142.27,M,46.25,M,,*65
$GPGLL,4611.956702,N,01258.228465,E,085607.00,A,A*69
$GPVTG,11.1,T,11.3,M,002.1,N,003.9,K,A*28
$GPGSV,2,1,08,02,38,078,45,09,18,152,,12,56,077,44,14,28,252,39*73
$GPGSV,2,2,08,25,77,338,47,29,52,223,46,30,34,291,36,31,26,313,*7C
$GPGSA,M,3,02,12,14,25,29,,,,,,,,4.0,2.9,2.8*33
Trace #32 at position 7.750000
$GPZDA,085606.03,09,10,2011,00,00*62
$GPRMC,085606.00,A,4611.956268,N,01258.228411,E,001.4,353.6,091011,0.2,E,A*32
$GPGGA,085607.00,4611.956702,N,01258.228465,E,1,05,2.9,142.27,M,46.25,M,,*65
$GPGLL,4611.956702,N,01258.228465,E,085607.00,A,A*69
$GPVTG,11.1,T,11.3,M,002.1,N,003.9,K,A*28
$GPGSV,2,1,08,02,38,078,45,09,18,152,,12,56,077,44,14,28,252,39*73
$GPGSV,2,2,08,25,77,338,47,29,52,223,46,30,34,291,36,31,26,313,*7C
$GPGSA,M,3,02,12,14,25,29,,,,,,,,4.0,2.9,2.8*33
Trace #33 at position 8.000000
$GPZDA,085607.04,09,10,2011,00,00*64
$GPRMC,085607.00,A,4611.956702,N,01258.228465,E,002.1,11.1,091011,0.2,E,A*0D
$GPGGA,085608.00,4611.957141,N,01258.228430,E,1,05,2.9,142.32,M,46.25,M,,*6E
$GPGLL,4611.957141,N,01258.228430,E,085608.00,A,A*66
$GPVTG,340.5,T,340.6,M,001.4,N,002.6,K,A*21
$GPGSV,2,1,08,02,38,078,46,09,18,152,,12,56,077,44,14,28,252,40*7E
$GPGSV,2,2,08,25,77,338,46,29,52,223,46,30,34,291,38,31,26,313,30*70
$GPGSA,M,3,02,12,14,25,29,,,,,,,,4.0,2.9,2.8*33
Trace #34 at position 8.250000
$GPZDA,085607.04,09,10,2011,00,00*64
$GPRMC,085607.00,A,4611.956702,N,01258.228465,E,002.1,11.1,091011,0.2,E,A*0D
$GPGGA,085608.00,4611.957141,N,01258.228430,E,1,05,2.9,142.32,M,46.25,M,,*6E
$GPGLL,4611.957141,N,01258.228430,E,085608.00,A,A*66
$GPVTG,340.5,T,340.6,M,001.4,N,002.6,K,A*21
$GPGSV,2,1,08,02,38,078,46,09,18,152,,12,56,077,44,14,28,252,40*7E
$GPGSV,2,2,08,25,77,338,46,29,52,223,46,30,34,291,38,31,26,313,30*70
$GPGSA,M,3,02,12,14,25,29,,,,,,,,4.0,2.9,2.8*33
Trace #35 at position 8.500000
$GPZDA,085607.04,09,10,2011,00,00*64
$GPRMC,085607.00,A,4611.956702,N,01258.228465,E,002.1,11.1,091011,0.2,E,A*0D
$GPGGA,085608.00,4611.957141,N,01258.228430,E,1,05,2.9,142.32,M,46.25,M,,*6E
$GPGLL,4611.957141,N,01258.228430,E,085608.00,A,A*66
$GPVTG,340.5,T,340.6,M,001.4,N,002.6,K,A*21
$GPGSV,2,1,08,02,38,078,46,09,18,152,,12,56,077,44,14,28,252,40*7E
$GPGSV,2,2,08,25,77,338,46,29,52,223,46,30,34,291,38,31,26,313,30*70
$GPGSA,M,3,02,12,14,25,29,,,,,,,,4.0,2.9,2.8*33
Trace #36 at position 8.750000
$GPZDA,085607.04,09,10,2011,00,00*64
$GPRMC,085607.00,A,4611.956702,N,01258.228465,E,002.1,11.1,091011,0.2,E,A*0D
$GPGGA,085608.00,4611.957141,N,01258.228430,E,1,05,2.9,142.32,M,46.25,M,,*6E
$GPGLL,4611.957141,N,01258.228430,E,085608.00,A,A*66
$GPVTG,340.5,T,340.6,M,001.4,N,002.6,K,A*21
$GPGSV,2,1,08,02,38,078,46,09,18,152,,12,56,077,44,14,28,252,40*7E
$GPGSV,2,2,08,25,77,338,46,29,52,223,46,30,34,291,38,31,26,313,30*70
$GPGSA,M,3,02,12,14,25,29,,,,,,,,4.0,2.9,2.8*33
Trace #37 at position 9.000000
$GPZDA,085608.04,09,10,2011,00,00*6B
$GPRMC,085608.00,A,4611.957141,N,01258.228430,E,001.4,340.5,091011,0.2,E,A*37
$GPGGA,085609.00,4611.957599,N,01258.228267,E,1,05,2.9,142.42,M,46.25,M,,*6D
$GPGLL,4611.957599,N,01258.228267,E,085609.00,A,A*62
$GPVTG,353.8,T,354.0,M,002.2,N,004.0,K,A*28
$GPGSV,2,1,08,02,38,078,45,09,18,152,,12,56,077,44,14,28,252,39*73
$GPGSV,2,2,08,25,77,338,47,29,52,223,47,30,34,291,38,31,26,313,30*70
$GPGSA,M,3,02,12,14,25,29,,,,,,,,4.0,2.9,2.8*33
Trace #38 at position 9.250000
$GPZDA,085608.04,09,10,2011,00,00*6B
$GPRMC,085608.00,A,4611.957141,N,01258.228430,E,001.4,340.5,091011,0.2,E,A*37
$GPGGA,085609.00,4611.957599,N,01258.228267,E,1,05,2.9,142.42,M,46.25,M,,*6D
$GPGLL,4611.957599,N,01258.228267,E,085609.00,A,A*62
$GPVTG,353.8,T,354.0,M,002.2,N,004.0,K,A*28
$GPGSV,2,1,08,02,38,078,45,09,18,152,,12,56,077,44,14,28,252,39*73
$GPGSV,2,2,08,25,77,338,47,29,52,223,47,30,34,291,38,31,26,313,30*70
$GPGSA,M,3,02,12,14,25,29,,,,,,,,4.0,2.9,2.8*33
Trace #39 at position 9.500000
$GPZDA,085608.04,09,10,2011,00,00*6B
$GPRMC,085608.00,A,4611.957141,N,01258.228430,E,001.4,340.5,091011,0.2,E,A*37
$GPGGA,085609.00,4611.957599,N,01258.228267,E,1,05,2.9,142.42,M,46.25,M,,*6D
$GPGLL,4611.957599,N,01258.228267,E,085609.00,A,A*62
$GPVTG,353.8,T,354.0,M,002.2,N,004.0,K,A*28
$GPGSV,2,1,08,02,38,078,45,09,18,152,,12,56,077,44,14,28,252,39*73
$GPGSV,2,2,08,25,77,338,47,29,52,223,47,30,34,291,38,31,26,313,30*70
$GPGSA,M,3,02,12,14,25,29,,,,,,,,4.0,2.9,2.8*33
Trace #40 at position 9.750000
$GPZDA,085608.04,09,10,2011,00,00*6B
$GPRMC,085608.00,A,4611.957141,N,01258.228430,E,001.4,340.5,091011,0.2,E,A*37
$GPGGA,085609.00,4611.957599,N,01258.228267,E,1,05,2.9,142.42,M,46.25,M,,*6D
$GPGLL,4611.957599,N,01258.228267,E,085609.00,A,A*62
$GPVTG,353.8,T,354.0,M,002.2,N,004.0,K,A*28
$GPGSV,2,1,08,02,38,078,45,09,18,152,,12,56,077,44,14,28,252,39*73
$GPGSV,2,2,08,25,77,338,47,29,52,223,47,30,34,291,38,31,26,313,30*70
$GPGSA,M,3,02,12,14,25,29,,,,,,,,4.0,2.9,2.8*33
Trace #41 at position 10.000000
$GPZDA,085609.03,09,10,2011,00,00*6D
$GPRMC,085609.00,A,4611.957599,N,01258.228267,E,002.2,353.8,091011,0.2,E,A*39
$GPGGA,085610.00,4611.958151,N,01258.228213,E,1,05,2.9,142.27,M,46.25,M,,*6A
$GPGLL,4611.958151,N,01258.228213,E,085610.00,A,A*66
$GPVTG,5.1,T,5.2,M,002.0,N,003.7,K,A*26
$GPGSV,2,1,08,02,38,078,44,09,18,152,,12,56,077,45,14,28,252,39*73
$GPGSV,2,2,08,25,77,339,47,29,53,223,47,30,34,291,36,31,26,313,28*77
$GPGSA,M,3,02,12,14,25,29,,,,,,,,4.0,2.9,2.8*33
Trace #42 at position 10.250000
$GPZDA,085609.03,09,10,2011,00,00*6D
$GPRMC,085609.00,A,4611.957599,N,01258.228267,E,002.2,353.8,091011,0.2,E,A*39
$GPGGA,085610.00,4611.958151,N,01258.228213,E,1,05,2.9,142.27,M,46.25,M,,*6A
$GPGLL,4611.958151,N,01258.228213,E,085610.00,A,A*66
$GPVTG,5.1,T,5.2,M,002.0,N,003.7,K,A*26
$GPGSV,2,1,08,02,38,078,44,09,18,152,,12,56,077,45,14,28,252,39*73
$GPGSV,2,2,08,25,77,339,47,29,53,223,47,30,34,291,36,31,26,313,28*77
$GPGSA,M,3,02,12,14,25,29,,,,,,,,4.0,2.9,2.8*33
Trace #43 at position 10.500000
$GPZDA,085609.03,09,10,2011,00,00*6D
$GPRMC,085609.00,A,4611.957599,N,01258.228267,E,002.2,353.8,091011,0.2,E,A*39
$GPGGA,085610.00,4611.958151,N,01258.228213,E,1,05,2.9,142.27,M,46.25,M,,*6A
$GPGLL,4611.958151,N,01258.228213,E,085610.00,A,A*66
$GPVTG,5.1,T,5.2,M,002.0,N,003.7,K,A*26
$GPGSV,2,1,08,02,38,078,44,09,18,152,,12,56,077,45,14,28,252,39*73
$GPGSV,2,2,08,25,77,339,47,29,53,223,47,30,34,291,36,31,26,313,28*77
$GPGSA,M,3,02,12,14,25,29,,,,,,,,4.0,2.9,2.8*33
Trace #44 at position 10.750000
$GPZDA,085609.03,09,10,2011,00,00*6D
$GPRMC,085609.00,A,4611.957599,N,01258.228267,E,002.2,353.8,091011,0.2,E,A*39
$GPGGA,085610.00,4611.958151,N,01258.228213,E,1,05,2.9,142.27,M,46.25,M,,*6A
$GPGLL,4611.958151,N,01258.228213,E,085610.00,A,A*66
$GPVTG,5.1,T,5.2,M,002.0,N,003.7,K,A*26
$GPGSV,2,1,08,02,38,078,44,09,18,152,,12,56,077,45,14,28,252,39*73
$GPGSV,2,2,08,25,77,339,47,29,53,223,47,30,34,291,36,31,26,313,28*77
$GPGSA,M,3,02,12,14,25,29,,,,,,,,4.0,2.9,2.8*33
Trace #45 at position 11.000000
$GPZDA,085610.03,09,10,2011,00,00*65
$GPRMC,085610.00,A,4611.958151,N,01258.228213,E,002.0,5.1,091011,0.2,E,A*36
$GPGGA,085611.00,4611.958655,N,01258.228191,E,1,05,2.9,142.13,M,46.25,M,,*66
$GPGLL,4611.958655,N,01258.228191,E,085611.00,A,A*6D
$GPVTG,2.4,T,2.5,M,001.8,N,003.3,K,A*2B
$GPGSV,2,1,08,02,38,078,45,09,18,152,,12,56,077,44,14,28,252,38*72
$GPGSV,2,2,08,25,77,339,47,29,53,223,47,30,34,291,37,31,26,313,*7C
$GPGSA,M,3,02,12,14,25,29,,,,,,,,4.0,2.9,2.8*33
Trace #46 at position 11.250000
$GPZDA,085610.03,09,10,2011,00,00*65
$GPRMC,085610.00,A,4611.958151,N,01258.228213,E,002.0,5.1,091011,0.2,E,A*36
$GPGGA,085611.00,4611.958655,N,01258.228191,E,1,05,2.9,142.13,M,46.25,M,,*66
$GPGLL,4611.958655,N,01258.228191,E,085611.00,A,A*6D
$GPVTG,2.4,T,2.5,M,001.8,N,003.3,K,A*2B
$GPGSV,2,1,08,02,38,078,45,09,18,152,,12,56,077,44,14,28,252,38*72
$GPGSV,2,2,08,25,77,339,47,29,53,223,47,30,34,291,37,31,26,313,*7C
$GPGSA,M,3,02,12,14,25,29,,,,,,,,4.0,2.9,2.8*33
Trace #47 at position 11.500000
$GPZDA,085610.03,09,10,2011,00,00*65
$GPRMC,085610.00,A,4611.958151,N,01258.228213,E,002.0,5.1,091011,0.2,E,A*36
$GPGGA,085611.00,4611.958655,N,01258.228191,E,1,05,2.9,142.13,M,46.25,M,,*66
$GPGLL,4611.958655,N,01258.228191,E,085611.00,A,A*6D
$GPVTG,2.4,T,2.5,M,001.8,N,003.3,K,A*2B
$GPGSV,2,1,08,02,38,078,45,09,18,152,,12,56,077,44,14,28,252,38*72
$GPGSV,2,2,08,25,77,339,47,29,53,223,47,30,34,291,37,31,26,313,*7C
$GPGSA,M,3,02,12,14,25,29,,,,,,,,4.0,2.9,2.8*33
Trace #48 at position 11.750000
$GPZDA,085610.03,09,10,2011,00,00*65
$GPRMC,085610.00,A,4611.958151,N,01258.228213,E,002.0,5.1,091011,0.2,E,A*36
$GPGGA,085611.00,4611.958655,N,01258.228191,E,1,05,2.9,142.13,M,46.25,M,,*66
$GPGLL,4611.958655,N,01258.228191,E,085611.00,A,A*6D
$GPVTG,2.4,T,2.5,M,001.8,N,003.3,K,A*2B
$GPGSV,2,1,08,02,38,078,45,09,18,152,,12,56,077,44,14,28,252,38*72
$GPGSV,2,2,08,25,77,339,47,29,53,223,47,30,34,291,37,31,26,313,*7C
$GPGSA,M,3,02,12,14,25,29,,,,,,,,4.0,2.9,2.8*33
Trace #49 at position 12.000000
$GPZDA,085611.03,09,10,2011,00,00*64
$GPRMC,085611.00,A,4611.958655,N,01258.228191,E,001.8,2.4,091011,0.2,E,A*34
$GPGGA,085612.00,4611.959148,N,01258.227933,E,1,05,2.9,142.11,M,46.25,M,,*62
$GPGLL,4611.959148,N,01258.227933,E,085612.00,A,A*6B
$GPVTG,332.5,T,332.6,M,002.1,N,003.9,K,A*29
$GPGSV,2,1,08,02,38,078,45,09,18,152,,12,56,077,44,14,28,252,39*73
$GPGSV,2,2,08,25,77,339,46,29,53,223,46,30,34,291,36,31,26,313,26*79
$GPGSA,M,3,02,12,14,25,29,,,,,,,,4.0,2.9,2.8*33
Trace #50 at position 12.250000
$GPZDA,085611.03,09,10,2011,00,00*64
$GPRMC,085611.00,A,4611.958655,N,01258.228191,E,001.8,2.4,091011,0.2,E,A*34
$GPGGA,085612.00,4611.959148,N,01258.227933,E,1,05,2.9,142.11,M,46.25,M,,*62
$GPGLL,4611.959148,N,01258.227933,E,085612.00,A,A*6B
$GPVTG,332.5,T,332.6,M,002.1,N,003.9,K,A*29
$GPGSV,2,1,08,02,38,078,45,09,18,152,,12,56,077,44,14,28,252,39*73
$GPGSV,2,2,08,25,77,339,46,29,53,223,46,30,34,291,36,31,26,313,26*79
$GPGSA,M,3,02,12,14,25,29,,,,,,,,4.0,2.9,2.8*33
Trace #51 at position 12.500000
$GPZDA,085611.03,09,10,2011,00,00*64
$GPRMC,085611.00,A,4611.958655,N,01258.228191,E,001.8,2.4,091011,0.2,E,A*34
$GPGGA,085612.00,4611.959148,N,01258.227933,E,1,05,2.9,142.11,M,46.25,M,,*62
$GPGLL,4611.959148,N,01258.227933,E,085612.00,A,A*6B
$GPVTG,332.5,T,332.6,M,002.1,N,003.9,K,A*29
$GPGSV,2,1,08,02,38,078,45,09,18,152,,12,56,077,44,14,28,252,39*73
$GPGSV,2,2,08,25,77,339,46,29,53,223,46,30,34,291,36,31,26,313,26*79
$GPGSA,M,3,02,12,14,25,29,,,,,,,,4.0,2.9,2.8*33
Trace #52 at position 12.750000
$GPZDA,085611.03,09,10,2011,00,00*64
$GPRMC,085611.00,A,4611.958655,N,01258.228191,E,001.8,2.4,091011,0.2,E,A*34
$GPGGA,085612.00,4611.959148,N,01258.227933,E,1,05,2.9,142.11,M,46.25,M,,*62
$GPGLL,4611.959148,N,01258.227933,E,085612.00,A,A*6B
$GPVTG,332.5,T,332.6,M,002.1,N,003.9,K,A*29
$GPGSV,2,1,08,02,38,078,45,09,18,152,,12,56,077,44,14,28,252,39*73
$GPGSV,2,2,08,25,77,339,46,29,53,223,46,30,34,291,36,31,26,313,26*79
$GPGSA,M,3,02,12,14,25,29,,,,,,,,4.0,2.9,2.8*33
Trace #53 at position 13.000000
$GPZDA,085612.03,09,10,2011,00,00*67
$GPRMC,085612.00,A,4611.959148,N,01258.227933,E,002.1,332.5,091011,0.2,E,A*39
$GPGGA,085613.00,4611.959661,N,01258.227556,E,1,05,2.9,142.06,M,46.25,M,,*66
$GPGLL,4611.959661,N,01258.227556,E,085613.00,A,A*69
$GPVTG,342.0,T,342.2,M,002.0,N,003.7,K,A*27
$GPGSV,2,1,08,02,38,078,45,09,18,152,,12,56,077,45,14,28,252,38*73
$GPGSV,2,2,08,25,77,339,46,29,53,223,47,30,34,291,35,31,26,313,*7F
$GPGSA,M,3,02,12,14,25,29,,,,,,,,4.0,2.9,2.8*33
Trace #54 at position 13.250000
$GPZDA,085612.03,09,10,2011,00,00*67
$GPRMC,085612.00,A,4611.959148,N,01258.227933,E,002.1,332.5,091011,0.2,E,A*39
$GPGGA,085613.00,4611.959661,N,01258.227556,E,1,05,2.9,142.06,M,46.25,M,,*66
$GPGLL,4611.959661,N,01258.227556,E,085613.00,A,A*69
$GPVTG,342.0,T,342.2,M,002.0,N,003.7,K,A*27
$GPGSV,2,1,08,02,38,078,45,09,18,152,,12,56,077,45,14,28,252,38*73
$GPGSV,2,2,08,25,77,339,46,29,53,223,47,30,34,291,35,31,26,313,*7F
$GPGSA,M,3,02,12,14,25,29,,,,,,,,4.0,2.9,2.8*33
Trace #55 at position 13.500000
$GPZDA,085612.03,09,10,2011,00,00*67
$GPRMC,085612.00,A,4611.959148,N,01258.227933,E,002.1,332.5,091011,0.2,E,A*39
$GPGGA,085613.00,4611.959661,N,01258.227556,E,1,05,2.9,142.06,M,46.25,M,,*66
$GPGLL,4611.959661,N,01258.227556,E,085613.00,A,A*69
$GPVTG,342.0,T,342.2,M,002.0,N,003.7,K,A*27
$GPGSV,2,1,08,02,38,078,45,09,18,152,,12,56,077,45,14,28,252,38*73
$GPGSV,2,2,08,25,77,339,46,29,53,223,47,30,34,291,35,31,26,313,*7F
$GPGSA,M,3,02,12,14,25,29,,,,,,,,4.0,2.9,2.8*33
Trace #56 at position 13.750000
$GPZDA,085612.03,09,10,2011,00,00*67
$GPRMC,085612.00,A,4611.959148,N,01258.227933,E,002.1,332.5,091011,0.2,E,A*39
$GPGGA,085613.00,4611.959661,N,01258.227556,E,1,05,2.9,142.06,M,46.25,M,,*66
$GPGLL,4611.959661,N,01258.227556,E,085613.00,A,A*69
$GPVTG,342.0,T,342.2,M,002.0,N,003.7,K,A*27
$GPGSV,2,1,08,02,38,078,45,09,18,152,,12,56,077,45,14,28,252,38*73
$GPGSV,2,2,08,25,77,339,46,29,53,223,47,30,34,291,35,31,26,313,*7F
$GPGSA,M,3,02,12,14,25,29,,,,,,,,4.0,2.9,2.8*33
Trace #57 at position 14.000000
$GPZDA,085612.03,09,10,2011,00,00*67
$GPRMC,085612.00,A,4611.959148,N,01258.227933,E,002.1,332.5,091011,0.2,E,A*39
$GPGGA,085613.00,4611.959661,N,01258.227556,E,1,05,2.9,142.06,M,46.25,M,,*66
$GPGLL,4611.959661,N,01258.227556,E,085613.00,A,A*69
$GPVTG,342.0,T,342.2,M,002.0,N,003.7,K,A*27
$GPGSV,2,1,08,02,38,078,45,09,18,152,,12,56,077,45,14,28,252,38*73
$GPGSV,2,2,08,25,77,339,46,29,53,223,47,30,34,291,35,31,26,313,*7F
$GPGSA,M,3,02,12,14,25,29,,,,,,,,4.0,2.9,2.8*33
Trace #58 at position 14.250000
$GPZDA,085613.04,09,10,2011,00,00*61
$GPRMC,085613.00,A,4611.959661,N,01258.227556,E,002.0,342.0,091011,0.2,E,A*38
$GPGGA,085614.00,4611.960199,N,01258.227291,E,1,05,2.9,141.99,M,46.25,M,,*62
$GPGLL,4611.960199,N,01258.227291,E,085614.00,A,A*68
$GPVTG,347.9,T,348.0,M,002.2,N,004.0,K,A*21
$GPGSV,2,1,08,02,38,078,46,09,18,152,,12,56,078,44,14,28,252,39*7F
$GPGSV,2,2,08,25,77,339,46,29,53,223,47,30,34,291,35,31,26,313,30*7C
$GPGSA,M,3,02,12,14,25,29,,,,,,,,4.0,2.9,2.8*33
Trace #59 at position 14.500000
$GPZDA,085613.04,09,10,2011,00,00*61
$GPRMC,085613.00,A,4611.959661,N,01258.227556,E,002.0,342.0,091011,0.2,E,A*38
$GPGGA,085614.00,4611.960199,N,01258.227291,E,1,05,2.9,141.99,M,46.25,M,,*62
$GPGLL,4611.960199,N,01258.227291,E,085614.00,A,A*68
$GPVTG,347.9,T,348.0,M,002.2,N,004.0,K,A*21
$GPGSV,2,1,08,02,38,078,46,09,18,152,,12,56,078,44,14,28,252,39*7F
$GPGSV,2,2,08,25,77,339,46,29,53,223,47,30,34,291,35,31,26,313,30*7C
$GPGSA,M,3,02,12,14,25,29,,,,,,,,4.0,2.9,2.8*33
Trace #60 at position 14.750000
$GPZDA,085613.04,09,10,2011,00,00*61
$GPRMC,085613.00,A,4611.959661,N,01258.227556,E,002.0,342.0,091011,0.2,E,A*38
$GPGGA,085614.00,4611.960199,N,01258.227291,E,1,05,2.9,141.99,M,46.25,M,,*62
$GPGLL,4611.960199,N,01258.227291,E,085614.00,A,A*68
$GPVTG,347.9,T,348.0,M,002.2,N,004.0,K,A*21
$GPGSV,2,1,08,02,38,078,46,09,18,152,,12,56,078,44,14,28,252,39*7F
$GPGSV,2,2,08,25,77,339,46,29,53,223,47,30,34,291,35,31,26,313,30*7C
$GPGSA,M,3,02,12,14,25,29,,,,,,,,4.0,2.9,2.8*33
Trace #61 at position 15.000000
$GPZDA,085613.04,09,10,2011,00,00*61
$GPRMC,085613.00,A,4611.959661,N,01258.227556,E,002.0,342.0,091011,0.2,E,A*38
$GPGGA,085614.00,4611.960199,N,01258.227291,E,1,05,2.9,141.99,M,46.25,M,,*62
$GPGLL,4611.960199,N,01258.227291,E,085614.00,A,A*68
$GPVTG,347.9,T,348.0,M,002.2,N,004.0,K,A*21
$GPGSV,2,1,08,02,38,078,46,09,18,152,,12,56,078,44,14,28,252,39*7F
$GPGSV,2,2,08,25,77,339,46,29,53,223,47,30,34,291,35,31,26,313,30*7C
$GPGSA,M,3,02,12,14,25,29,,,,,,,,4.0,2.9,2.8*33
Trace #62 at position 15.250000
$GPZDA,085614.04,09,10,2011,00,00*66
$GPRMC,085614.00,A,4611.960199,N,01258.227291,E,002.2,347.9,091011,0.2,E,A*37
$GPGGA,085615.00,4611.960822,N,01258.226995,E,1,05,2.9,141.94,M,46.25,M,,*69
$GPGLL,4611.960822,N,01258.226995,E,085615.00,A,A*6E
$GPVTG,343.1,T,343.2,M,002.7,N,005.0,K,A*20
$GPGSV,2,1,08,02,38,078,45,09,18,152,,12,56,078,44,14,28,252,39*7C
$GPGSV,2,2,08,25,77,339,46,29,53,223,46,30,34,291,38,31,26,313,32*72
$GPGSA,M,3,02,12,14,25,29,,,,,,,,4.0,2.9,2.8*33
Trace #63 at position 15.500000
$GPZDA,085614.04,09,10,2011,00,00*66
$GPRMC,085614.00,A,4611.960199,N,01258.227291,E,002.2,347.9,091011,0.2,E,A*37
$GPGGA,085615.00,4611.960822,N,01258.226995,E,1,05,2.9,141.94,M,46.25,M,,*69
$GPGLL,4611.960822,N,01258.226995,E,085615.00,A,A*6E
$GPVTG,343.1,T,343.2,M,002.7,N,005.0,K,A*20
$GPGSV,2,1,08,02,38,078,45,09,18,152,,12,56,078,44,14,28,252,39*7C
$GPGSV,2,2,08,25,77,339,46,29,53,223,46,30,34,291,38,31,26,313,32*72
$GPGSA,M,3,02,12,14,25,29,,,,,,,,4.0,2.9,2.8*33
Trace #64 at position 15.750000
$GPZDA,085614.04,09,10,2011,00,00*66
$GPRMC,085614.00,A,4611.960199,N,01258.227291,E,002.2,347.9,091011,0.2,E,A*37
$GPGGA,085615.00,4611.960822,N,01258.226995,E,1,05,2.9,141.94,M,46.25,M,,*69
$GPGLL,4611.960822,N,01258.226995,E,085615.00,A,A*6E
$GPVTG,343.1,T,343.2,M,002.7,N,005.0,K,A*20
$GPGSV,2,1,08,02,38,078,45,09,18,152,,12,56,078,44,14,28,252,39*7C
$GPGSV,2,2,08,25,77,339,46,29,53,223,46,30,34,291,38,31,26,313,32*72
$GPGSA,M,3,02,12,14,25,29,,,,,,,,4.0,2.9,2.8*33
Trace #65 at position 16.000000
$GPZDA,085614.04,09,10,2011,00,00*66
$GPRMC,085614.00,A,4611.960199,N,01258.227291,E,002.2,347.9,091011,0.2,E,A*37
$GPGGA,085615.00,4611.960822,N,01258.226995,E,1,05,2.9,141.94,M,46.25,M,,*69
$GPGLL,4611.960822,N,01258.226995,E,085615.00,A,A*6E
$GPVTG,343.1,T,343.2,M,002.7,N,005.0,K,A*20
$GPGSV,2,1,08,02,38,078,45,09,18,152,,12,56,078,44,14,28,252,39*7C
$GPGSV,2,2,08,25,77,339,46,29,53,223,46,30,34,291,38,31,26,313,32*72
$GPGSA,M,3,02,12,14,25,29,,,,,,,,4.0,2.9,2.8*33
Trace #66 at position 16.250000
$GPZDA,085615.03,09,10,2011,00,00*60
$GPRMC,085615.00,A,4611.960822,N,01258.226995,E,002.7,343.1,091011,0.2,E,A*38
$GPGGA,085616.00,4611.961334,N,01258.226670,E,1,05,2.9,141.98,M,46.25,M,,*6F
$GPGLL,4611.961334,N,01258.226670,E,085616.00,A,A*64
$GPVTG,334.0,T,334.1,M,001.4,N,002.6,K,A*23
$GPGSV,2,1,08,02,38,078,44,09,18,152,,12,56,078,44,14,28,252,38*7C
$GPGSV,2,2,08,25,77,339,46,29,53,223,47,30,34,291,37,31,26,313,25*7A
$GPGSA,M,3,02,12,14,25,29,,,,,,,,4.0,2.9,2.8*33
Trace #67 at position 16.500000
$GPZDA,085615.03,09,10,2011,00,00*60
$GPRMC,085615.00,A,4611.960822,N,01258.226995,E,002.7,343.1,091011,0.2,E,A*38
$GPGGA,085616.00,4611.961334,N,01258.226670,E,1,05,2.9,141.98,M,46.25,M,,*6F
$GPGLL,4611.961334,N,01258.226670,E,085616.00,A,A*64
$GPVTG,334.0,T,334.1,M,001.4,N,002.6,K,A*23
$GPGSV,2,1,08,02,38,078,44,09,18,152,,12,56,078,44,14,28,252,38*7C
$GPGSV,2,2,08,25,77,339,46,29,53,223,47,30,34,291,37,31,26,313,25*7A
$GPGSA,M,3,02,12,14,25,29,,,,,,,,4.0,2.9,2.8*33
Trace #68 at position 16.750000
$GPZDA,085615.03,09,10,2011,00,00*60
$GPRMC,085615.00,A,4611.960822,N,01258.226995,E,002.7,343.1,091011,0.2,E,A*38
$GPGGA,085616.00,4611.961334,N,01258.226670,E,1,05,2.9,141.98,M,46.25,M,,*6F
$GPGLL,4611.961334,N,01258.226670,E,085616.00,A,A*64
$GPVTG,334.0,T,334.1,M,001.4,N,002.6,K,A*23
$GPGSV,2,1,08,02,38,078,44,09,18,152,,12,56,078,44,14,28,252,38*7C
$GPGSV,2,2,08,25,77,339,46,29,53,223,47,30,34,291,37,31,26,313,25*7A
$GPGSA,M,3,02,12,14,25,29,,,,,,,,4.0,2.9,2.8*33
Trace #69 at position 17.000000
$GPZDA,085615.03,09,10,2011,00,00*60
$GPRMC,085615.00,A,4611.960822,N,01258.226995,E,002.7,343.1,091011,0.2,E,A*38
$GPGGA,085616.00,4611.961334,N,01258.226670,E,1,05,2.9,141.98,M,46.25,M,,*6F
$GPGLL,4611.961334,N,01258.226670,E,085616.00,A,A*64
$GPVTG,334.0,T,334.1,M,001.4,N,002.6,K,A*23
$GPGSV,2,1,08,02,38,078,44,09,18,152,,12,56,078,44,14,28,252,38*7C
$GPGSV,2,2,08,25,77,339,46,29,53,223,47,30,34,291,37,31,26,313,25*7A
$GPGSA,M,3,02,12,14,25,29,,,,,,,,4.0,2.9,2.8*33
Trace #70 at position 17.250000
$GPZDA,085616.03,09,10,2011,00,00*63
$GPRMC,085616.00,A,4611.961334,N,01258.226670,E,001.4,334.0,091011,0.2,E,A*33
$GPGGA,085617.00,4611.961826,N,01258.226291,E,1,05,2.9,142.02,M,46.25,M,,*6D
$GPGLL,4611.961826,N,01258.226291,E,085617.00,A,A*66
$GPVTG,334.0,T,334.1,M,002.6,N,004.9,K,A*2B
$GPGSV,2,1,08,02,38,078,44,09,18,152,,12,56,078,44,14,28,252,39*7D
$GPGSV,2,2,08,25,77,339,45,29,53,223,47,30,34,291,36,31,26,313,26*7B
$GPGSA,M,3,02,12,14,25,29,,,,,,,,4.0,2.9,2.8*33
Trace #71 at position 17.500000
$GPZDA,085616.03,09,10,2011,00,00*63
$GPRMC,085616.00,A,4611.961334,N,01258.226670,E,001.4,334.0,091011,0.2,E,A*33
$GPGGA,085617.00,4611.961826,N,01258.226291,E,1,05,2.9,142.02,M,46.25,M,,*6D
$GPGLL,4611.961826,N,01258.226291,E,085617.00,A,A*66
$GPVTG,334.0,T,334.1,M,002.6,N,004.9,K,A*2B
$GPGSV,2,1,08,02,38,078,44,09,18,152,,12,56,078,44,14,28,252,39*7D
$GPGSV,2,2,08,25,77,339,45,29,53,223,47,30,34,291,36,31,26,313,26*7B
$GPGSA,M,3,02,12,14,25,29,,,,,,,,4.0,2.9,2.8*33
Trace #72 at position 17.750000
$GPZDA,085616.03,09,10,2011,00,00*63
$GPRMC,085616.00,A,4611.961334,N,01258.226670,E,001.4,334.0,091011,0.2,E,A*33
$GPGGA,085617.00,4611.961826,N,01258.226291,E,1,05,2.9,142.02,M,46.25,M,,*6D
$GPGLL,4611.961826,N,01258.226291,E,085617.00,A,A*66
$GPVTG,334.0,T,334.1,M,002.6,N,004.9,K,A*2B
$GPGSV,2,1,08,02,38,078,44,09,18,152,,12,56,078,44,14,28,252,39*7D
$GPGSV,2,2,08,25,77,339,45,29,53,223,47,30,34,291,36,31,26,313,26*7B
$GPGSA,M,3,02,12,14,25,29,,,,,,,,4.0,2.9,2.8*33
Trace #73 at position 18.000000
$GPZDA,085616.03,09,10,2011,00,00*63
$GPRMC,085616.00,A,4611.961334,N,01258.226670,E,001.4,334.0,091011,0.2,E,A*33
$GPGGA,085617.00,4611.961826,N,01258.226291,E,1,05,2.9,142.02,M,46.25,M,,*6D
$GPGLL,4611.961826,N,01258.226291,E,085617.00,A,A*66
$GPVTG,334.0,T,334.1,M,002.6,N,004.9,K,A*2B
$GPGSV,2,1,08,02,38,078,44,09,18,152,,12,56,078,44,14,28,252,39*7D
$GPGSV,2,2,08,25,77,339,45,29,53,223,47,30,34,291,36,31,26,313,26*7B
$GPGSA,M,3,02,12,14,25,29,,,,,,,,4.0,2.9,2.8*33
Trace #74 at position 18.250000
$GPZDA,085616.03,09,10,2011,00,00*63
$GPRMC,085616.00,A,4611.961334,N,01258.226670,E,001.4,334.0,091011,0.2,E,A*33
$GPGGA,085617.00,4611.961826,N,01258.226291,E,1,05,2.9,142.02,M,46.25,M,,*6D
$GPGLL,4611.961826,N,01258.226291,E,085617.00,A,A*66
$GPVTG,334.0,T,334.1,M,002.6,N,004.9,K,A*2B
$GPGSV,2,1,08,02,38,078,44,09,18,152,,12,56,078,44,14,28,252,39*7D
$GPGSV,2,2,08,25,77,339,45,29,53,223,47,30,34,291,36,31,26,313,26*7B
$GPGSA,M,3,02,12,14,25,29,,,,,,,,4.0,2.9,2.8*33
Trace #75 at position 18.500000
$GPZDA,085617.03,09,10,2011,00,00*62
$GPRMC,085617.00,A,4611.961826,N,01258.226291,E,002.6,334.0,091011,0.2,E,A*30
$GPGGA,085618.00,4611.962430,N,01258.226083,E,1,05,2.9,141.95,M,46.25,M,,*66
$GPGLL,4611.962430,N,01258.226083,E,085618.00,A,A*60
$GPVTG,4.5,T,4.6,M,002.1,N,004.0,K,A*27
$GPGSV,2,1,08,02,38,078,44,09,18,152,,12,56,078,43,14,28,252,39*7A
$GPGSV,2,2,08,25,77,339,46,29,53,223,47,30,34,291,37,31,26,313,31*7F
$GPGSA,M,3,02,12,14,25,29,,,,,,,,4.0,2.9,2.8*33
Trace #76 at position 18.750000
$GPZDA,085617.03,09,10,2011,00,00*62
$GPRMC,085617.00,A,4611.961826,N,01258.226291,E,002.6,334.0,091011,0.2,E,A*30
$GPGGA,085618.00,4611.962430,N,01258.226083,E,1,05,2.9,141.95,M,46.25,M,,*66
$GPGLL,4611.962430,N,01258.226083,E,085618.00,A,A*60
$GPVTG,4.5,T,4.6,M,002.1,N,004.0,K,A*27
$GPGSV,2,1,08,02,38,078,44,09,18,152,,12,56,078,43,14,28,252,39*7A
$GPGSV,2,2,08,25,77,339,46,29,53,223,47,30,34,291,37,31,26,313,31*7F
$GPGSA,M,3,02,12,14,25,29,,,,,,,,4.0,2.9,2.8*33
Trace #77 at position 19.000000
$GPZDA,085617.03,09,10,2011,00,00*62
$GPRMC,085617.00,A,4611.961826,N,01258.226291,E,002.6,334.0,091011,0.2,E,A*30
$GPGGA,085618.00,4611.962430,N,01258.226083,E,1,05,2.9,141.95,M,46.25,M,,*66
$GPGLL,4611.962430,N,01258.226083,E,085618.00,A,A*60
$GPVTG,4.5,T,4.6,M,002.1,N,004.0,K,A*27
$GPGSV,2,1,08,02,38,078,44,09,18,152,,12,56,078,43,14,28,252,39*7A
$GPGSV,2,2,08,25,77,339,46,29,53,223,47,30,34,291,37,31,26,313,31*7F
$GPGSA,M,3,02,12,14,25,29,,,,,,,,4.0,2.9,2.8*33
Trace #78 at position 19.250000
$GPZDA,085617.03,09,10,2011,00,00*62
$GPRMC,085617.00,A,4611.961826,N,01258.226291,E,002.6,334.0,091011,0.2,E,A*30
$GPGGA,085618.00,4611.962430,N,01258.226083,E,1,05,2.9,141.95,M,46.25,M,,*66
$GPGLL,4611.962430,N,01258.226083,E,085618.00,A,A*60
$GPVTG,4.5,T,4.6,M,002.1,N,004.0,K,A*27
$GPGSV,2,1,08,02,38,078,44,09,18,152,,12,56,078,43,14,28,252,39*7A
$GPGSV,2,2,08,25,77,339,46,29,53,223,47,30,34,291,37,31,26,313,31*7F
$GPGSA,M,3,02,12,14,25,29,,,,,,,,4.0,2.9,2.8*33
Trace #79 at position 19.500000
$GPZDA,085618.04,09,10,2011,00,00*6A
$GPRMC,085618.00,A,4611.962430,N,01258.226083,E,002.1,4.5,091011,0.2,E,A*34
$GPGGA,085619.00,4611.963066,N,01258.225975,E,1,05,2.9,141.75,M,46.25,M,,*6C
$GPGLL,4611.963066,N,01258.225975,E,085619.00,A,A*64
$GPVTG,348.6,T,348.8,M,002.7,N,005.1,K,A*2C
$GPGSV,2,1,08,02,38,078,46,09,18,152,,12,56,078,43,14,28,252,38*79
$GPGSV,2,2,08,25,77,339,46,29,53,223,47,30,34,291,37,31,26,313,30*7E
$GPGSA,M,3,02,12,14,25,29,,,,,,,,4.0,2.9,2.8*33
Trace #80 at position 19.750000
$GPZDA,085618.04,09,10,2011,00,00*6A
$GPRMC,085618.00,A,4611.962430,N,01258.226083,E,002.1,4.5,091011,0.2,E,A*34
$GPGGA,085619.00,4611.963066,N,01258.225975,E,1,05,2.9,141.75,M,46.25,M,,*6C
$GPGLL,4611.963066,N,01258.225975,E,085619.00,A,A*64
$GPVTG,348.6,T,348.8,M,002.7,N,005.1,K,A*2C
$GPGSV,2,1,08,02,38,078,46,09,18,152,,12,56,078,43,14,28,252,38*79
$GPGSV,2,2,08,25,77,339,46,29,53,223,47,30,34,291,37,31,26,313,30*7E
$GPGSA,M,3,02,12,14,25,29,,,,,,,,4.0,2.9,2.8*33
Trace #81 at position 20.000000
$GPZDA,085618.04,09,10,2011,00,00*6A
$GPRMC,085618.00,A,4611.962430,N,01258.226083,E,002.1,4.5,091011,0.2,E,A*34
$GPGGA,085619.00,4611.963066,N,01258.225975,E,1,05,2.9,141.75,M,46.25,M,,*6C
$GPGLL,4611.963066,N,01258.225975,E,085619.00,A,A*64
$GPVTG,348.6,T,348.8,M,002.7,N,005.1,K,A*2C
$GPGSV,2,1,08,02,38,078,46,09,18,152,,12,56,078,43,14,28,252,38*79
$GPGSV,2,2,08,25,77,339,46,29,53,223,47,30,34,291,37,31,26,313,30*7E
$GPGSA,M,3,02,12,14,25,29,,,,,,,,4.0,2.9,2.8*33
Trace #82 at position 20.250000
$GPZDA,085618.04,09,10,2011,00,00*6A
$GPRMC,085618.00,A,4611.962430,N,01258.226083,E,002.1,4.5,091011,0.2,E,A*34
$GPGGA,085619.00,4611.963066,N,01258.225975,E,1,05,2.9,141.75,M,46.25,M,,*6C
$GPGLL,4611.963066,N,01258.225975,E,085619.00,A,A*64
$GPVTG,348.6,T,348.8,M,002.7,N,005.1,K,A*2C
$GPGSV,2,1,08,02,38,078,46,09,18,152,,12,56,078,43,14,28,252,38*79
$GPGSV,2,2,08,25,77,339,46,29,53,223,47,30,34,291,37,31,26,313,30*7E
$GPGSA,M,3,02,12,14,25,29,,,,,,,,4.0,2.9,2.8*33
Trace #83 at position 20.500000
$GPZDA,085619.03,09,10,2011,00,00*6C
$GPRMC,085619.00,A,4611.963066,N,01258.225975,E,002.7,348.6,091011,0.2,E,A*3E
$GPGGA,085620.00,4611.963771,N,01258.225772,E,1,06,1.8,141.51,M,46.25,M,,*69
$GPGLL,4611.963771,N,01258.225772,E,085620.00,A,A*66
$GPVTG,1.5,T,1.7,M,001.8,N,003.4,K,A*2F
$GPGSV,2,1,08,02,38,078,44,09,18,152,,12,56,078,44,14,28,252,38*7C
$GPGSV,2,2,08,25,77,339,46,29,53,223,47,30,34,291,39,31,26,313,31*71
$GPGSA,M,3,02,12,14,25,29,30,,,,,,,3.2,1.8,2.6*39
Trace #84 at position 20.750000
$GPZDA,085619.03,09,10,2011,00,00*6C
$GPRMC,085619.00,A,4611.963066,N,01258.225975,E,002.7,348.6,091011,0.2,E,A*3E
$GPGGA,085620.00,4611.963771,N,01258.225772,E,1,06,1.8,141.51,M,46.25,M,,*69
$GPGLL,4611.963771,N,01258.225772,E,085620.00,A,A*66
$GPVTG,1.5,T,1.7,M,001.8,N,003.4,K,A*2F
$GPGSV,2,1,08,02,38,078,44,09,18,152,,12,56,078,44,14,28,252,38*7C
$GPGSV,2,2,08,25,77,339,46,29,53,223,47,30,34,291,39,31,26,313,31*71
$GPGSA,M,3,02,12,14,25,29,30,,,,,,,3.2,1.8,2.6*39
Trace #85 at position 21.000000
$GPZDA,085619.03,09,10,2011,00,00*6C
$GPRMC,085619.00,A,4611.963066,N,01258.225975,E,002.7,348.6,091011,0.2,E,A*3E
$GPGGA,085620.00,4611.963771,N,01258.225772,E,1,06,1.8,141.51,M,46.25,M,,*69
$GPGLL,4611.963771,N,01258.225772,E,085620.00,A,A*66
$GPVTG,1.5,T,1.7,M,001.8,N,003.4,K,A*2F
$GPGSV,2,1,08,02,38,078,44,09,18,152,,12,56,078,44,14,28,252,38*7C
$GPGSV,2,2,08,25,77,339,46,29,53,223,47,30,34,291,39,31,26,313,31*71
$GPGSA,M,3,02,12,14,25,29,30,,,,,,,3.2,1.8,2.6*39
Trace #86 at position 21.250000
$GPZDA,085619.03,09,10,2011,00,00*6C
$GPRMC,085619.00,A,4611.963066,N,01258.225975,E,002.7,348.6,091011,0.2,E,A*3E
$GPGGA,085620.00,4611.963771,N,01258.225772,E,1,06,1.8,141.51,M,46.25,M,,*69
$GPGLL,4611.963771,N,01258.225772,E,085620.00,A,A*66
$GPVTG,1.5,T,1.7,M,001.8,N,003.4,K,A*2F
$GPGSV,2,1,08,02,38,078,44,09,18,152,,12,56,078,44,14,28,252,38*7C
$GPGSV,2,2,08,25,77,339,46,29,53,223,47,30,34,291,39,31,26,313,31*71
$GPGSA,M,3,02,12,14,25,29,30,,,,,,,3.2,1.8,2.6*39
Trace #87 at position 21.500000
$GPZDA,085620.04,09,10,2011,00,00*61
$GPRMC,085620.00,A,4611.963771,N,01258.225772,E,001.8,1.5,091011,0.2,E,A*3D
$GPGGA,085621.00,4611.964424,N,01258.225485,E,1,06,1.8,141.37,M,46.25,M,,*67
$GPGLL,4611.964424,N,01258.225485,E,085621.00,A,A*68
$GPVTG,338.4,T,338.5,M,002.6,N,004.8,K,A*2A
$GPGSV,2,1,08,02,38,078,45,09,18,152,,12,56,078,43,14,28,252,38*7A
$GPGSV,2,2,08,25,77,339,47,29,53,223,47,30,34,291,37,31,26,313,30*7F
$GPGSA,M,3,02,12,14,25,29,30,,,,,,,3.2,1.8,2.6*39
Trace #88 at position 21.750000
$GPZDA,085620.04,09,10,2011,00,00*61
$GPRMC,085620.00,A,4611.963771,N,01258.225772,E,001.8,1.5,091011,0.2,E,A*3D
$GPGGA,085621.00,4611.964424,N,01258.225485,E,1,06,1.8,141.37,M,46.25,M,,*67
$GPGLL,4611.964424,N,01258.225485,E,085621.00,A,A*68
$GPVTG,338.4,T,338.5,M,002.6,N,004.8,K,A*2A
$GPGSV,2,1,08,02,38,078,45,09,18,152,,12,56,078,43,14,28,252,38*7A
$GPGSV,2,2,08,25,77,339,47,29,53,223,47,30,34,291,37,31,26,313,30*7F
$GPGSA,M,3,02,12,14,25,29,30,,,,,,,3.2,1.8,2.6*39
Trace #89 at position 22.000000
$GPZDA,085620.04,09,10,2011,00,00*61
$GPRMC,085620.00,A,4611.963771,N,01258.225772,E,001.8,1.5,091011,0.2,E,A*3D
$GPGGA,085621.00,4611.964424,N,01258.225485,E,1,06,1.8,141.37,M,46.25,M,,*67
$GPGLL,4611.964424,N,01258.225485,E,085621.00,A,A*68
$GPVTG,338.4,T,338.5,M,002.6,N,004.8,K,A*2A
$GPGSV,2,1,08,02,38,078,45,09,18,152,,12,56,078,43,14,28,252,38*7A
$GPGSV,2,2,08,25,77,339,47,29,53,223,47,30,34,291,37,31,26,313,30*7F
$GPGSA,M,3,02,12,14,25,29,30,,,,,,,3.2,1.8,2.6*39
Trace #90 at position 22.250000
$GPZDA,085620.04,09,10,2011,00,00*61
$GPRMC,085620.00,A,4611.963771,N,01258.225772,E,001.8,1.5,091011,0.2,E,A*3D
$GPGGA,085621.00,4611.964424,N,01258.225485,E,1,06,1.8,141.37,M,46.25,M,,*67
$GPGLL,4611.964424,N,01258.225485,E,085621.00,A,A*68
$GPVTG,338.4,T,338.5,M,002.6,N,004.8,K,A*2A
$GPGSV,2,1,08,02,38,078,45,09,18,152,,12,56,078,43,14,28,252,38*7A
$GPGSV,2,2,08,25,77,339,47,29,53,223,47,30,34,291,37,31,26,313,30*7F
$GPGSA,M,3,02,12,14,25,29,30,,,,,,,3.2,1.8,2.6*39
Trace #91 at position 22.500000
$GPZDA,085620.04,09,10,2011,00,00*61
$GPRMC,085620.00,A,4611.963771,N,01258.225772,E,001.8,1.5,091011,0.2,E,A*3D
$GPGGA,085621.00,4611.964424,N,01258.225485,E,1,06,1.8,141.37,M,46.25,M,,*67
$GPGLL,4611.964424,N,01258.225485,E,085621.00,A,A*68
$GPVTG,338.4,T,338.5,M,002.6,N,004.8,K,A*2A
$GPGSV,2,1,08,02,38,078,45,09,18,152,,12,56,078,43,14,28,252,38*7A
$GPGSV,2,2,08,25,77,339,47,29,53,223,47,30,34,291,37,31,26,313,30*7F
$GPGSA,M,3,02,12,14,25,29,30,,,,,,,3.2,1.8,2.6*39
Trace #92 at position 22.750000
$GPZDA,085621.03,09,10,2011,00,00*67
$GPRMC,085621.00,A,4611.964424,N,01258.225485,E,002.6,338.4,091011,0.2,E,A*36
$GPGGA,085622.00,4611.965013,N,01258.225085,E,1,06,1.8,141.19,M,46.25,M,,*6D
$GPGLL,4611.965013,N,01258.225085,E,085622.00,A,A*6E
$GPVTG,336.8,T,336.9,M,001.6,N,002.9,K,A*2E
$GPGSV,2,1,08,02,38,078,45,09,18,152,,12,56,078,44,14,28,252,40*72
$GPGSV,2,2,08,25,77,339,46,29,53,223,47,30,34,291,36,31,26,313,28*76
$GPGSA,M,3,02,12,14,25,29,30,,,,,,,3.2,1.8,2.6*39
Trace #93 at position 23.000000
$GPZDA,085621.03,09,10,2011,00,00*67
$GPRMC,085621.00,A,4611.964424,N,01258.225485,E,002.6,338.4,091011,0.2,E,A*36
$GPGGA,085622.00,4611.965013,N,01258.225085,E,1,06,1.8,141.19,M,46.25,M,,*6D
$GPGLL,4611.965013,N,01258.225085,E,085622.00,A,A*6E
$GPVTG,336.8,T,336.9,M,001.6,N,002.9,K,A*2E
$GPGSV,2,1,08,02,38,078,45,09,18,152,,12,56,078,44,14,28,252,40*72
$GPGSV,2,2,08,25,77,339,46,29,53,223,47,30,34,291,36,31,26,313,28*76
$GPGSA,M,3,02,12,14,25,29,30,,,,,,,3.2,1.8,2.6*39
Trace #94 at position 23.250000
$GPZDA,085621.03,09,10,2011,00,00*67
$GPRMC,085621.00,A,4611.964424,N,01258.225485,E,002.6,338.4,091011,0.2,E,A*36
$GPGGA,085622.00,4611.965013,N,01258.225085,E,1,06,1.8,141.19,M,46.25,M,,*6D
$GPGLL,4611.965013,N,01258.225085,E,085622.00,A,A*6E
$GPVTG,336.8,T,336.9,M,001.6,N,002.9,K,A*2E
$GPGSV,2,1,08,02,38,078,45,09,18,152,,12,56,078,44,14,28,252,40*72
$GPGSV,2,2,08,25,77,339,46,29,53,223,47,30,34,291,36,31,26,313,28*76
$GPGSA,M,3,02,12,14,25,29,30,,,,,,,3.2,1.8,2.6*39
Trace #95 at position 23.500000
$GPZDA,085621.03,09,10,2011,00,00*67
$GPRMC,085621.00,A,4611.964424,N,01258.225485,E,002.6,338.4,091011,0.2,E,A*36
$GPGGA,085622.00,4611.965013,N,01258.225085,E,1,06,1.8,141.19,M,46.25,M,,*6D
$GPGLL,4611.965013,N,01258.225085,E,085622.00,A,A*6E
$GPVTG,336.8,T,336.9,M,001.6,N,002.9,K,A*2E
$GPGSV,2,1,08,02,38,078,45,09,18,152,,12,56,078,44,14,28,252,40*72
$GPGSV,2,2,08,25,77,339,46,29,53,223,47,30,34,291,36,31,26,313,28*76
$GPGSA,M,3,02,12,14,25,29,30,,,,,,,3.2,1.8,2.6*39
Trace #96 at position 23.750000
$GPZDA,085622.03,09,10,2011,00,00*64
$GPRMC,085622.00,A,4611.965013,N,01258.225085,E,001.6,336.8,091011,0.2,E,A*31
$GPGGA,085623.00,4611.965528,N,01258.224679,E,1,06,1.8,141.17,M,46.25,M,,*6B
$GPGLL,4611.965528,N,01258.224679,E,085623.00,A,A*66
$GPVTG,329.9,T,330.1,M,002.1,N,004.0,K,A*24
$GPGSV,2,1,08,02,38,078,45,09,18,152,,12,56,078,43,14,28,252,39*7B
$GPGSV,2,2,08,25,77,339,46,29,53,223,47,30,34,291,36,31,26,313,28*76
$GPGSA,M,3,02,12,14,25,29,30,,,,,,,3.2,1.8,2.6*39
Trace #97 at position 24.000000
$GPZDA,085622.03,09,10,2011,00,00*64
$GPRMC,085622.00,A,4611.965013,N,01258.225085,E,001.6,336.8,091011,0.2,E,A*31
$GPGGA,085623.00,4611.965528,N,01258.224679,E,1,06,1.8,141.17,M,46.25,M,,*6B
$GPGLL,4611.965528,N,01258.224679,E,085623.00,A,A*66
$GPVTG,329.9,T,330.1,M,002.1,N,004.0,K,A*24
$GPGSV,2,1,08,02,38,078,45,09,18,152,,12,56,078,43,14,28,252,39*7B
$GPGSV,2,2,08,25,77,339,46,29,53,223,47,30,34,291,36,31,26,313,28*76
$GPGSA,M,3,02,12,14,25,29,30,,,,,,,3.2,1.8,2.6*39
Trace #98 at position 24.250000
$GPZDA,085623.04,09,10,2011,00,00*62
$GPRMC,085623.00,A,4611.965528,N,01258.224679,E,002.1,329.9,091011,0.2,E,A*32
$GPGGA,085624.00,4611.966051,N,01258.224248,E,1,06,1.8,141.19,M,46.25,M,,*6C
$GPGLL,4611.966051,N,01258.224248,E,085624.00,A,A*6F
$GPVTG,328.4,T,328.6,M,001.6,N,003.0,K,A*25
$GPGSV,2,1,08,02,38,078,45,09,18,152,,12,56,078,43,14,28,252,38*7A
$GPGSV,2,2,08,25,77,339,46,29,53,223,47,30,34,291,36,31,26,313,27*79
$GPGSA,M,3,02,12,14,25,29,30,,,,,,,3.2,1.8,2.6*39
Trace #99 at position 24.500000
$GPZDA,085623.04,09,10,2011,00,00*62
$GPRMC,085623.00,A,4611.965528,N,01258.224679,E,002.1,329.9,091011,0.2,E,A*32
$GPGGA,085624.00,4611.966051,N,01258.224248,E,1,06,1.8,141.19,M,46.25,M,,*6C
$GPGLL,4611.966051,N,01258.224248,E,085624.00,A,A*6F
$GPVTG,328.4,T,328.6,M,001.6,N,003.0,K,A*25
$GPGSV,2,1,08,02,38,078,45,09,18,152,,12,56,078,43,14,28,252,38*7A
$GPGSV,2,2,08,25,77,339,46,29,53,223,47,30,34,291,36,31,26,313,27*79
$GPGSA,M,3,02,12,14,25,29,30,,,,,,,3.2,1.8,2.6*39
Trace #100 at position 24.750000
$GPZDA,085626.03,09,10,2011,00,00*60
$GPRMC,085626.00,A,4611.966663,N,01258.224041,E,000.6,358.7,091011,0.2,E,A*38
$GPGGA,085627.00,4611.966617,N,01258.224186,E,1,04,5.7,141.50,M,46.25,M,,*6E
$GPGLL,4611.966617,N,01258.224186,E,085627.00,A,A*69
$GPVTG,123.6,T,123.8,M,000.6,N,001.2,K,A*28
$GPGSV,2,1,08,02,38,078,44,09,18,152,,12,56,078,44,14,28,252,35*71
$GPGSV,2,2,08,25,77,339,41,29,53,223,47,30,34,291,26,31,26,313,*7A
$GPGSA,M,3,02,12,25,29,,,,,,,,,10.5,5.7,8.8*05
Trace #101 at position 25.000000
$GPZDA,085626.03,09,10,2011,00,00*60
$GPRMC,085626.00,A,4611.966663,N,01258.224041,E,000.6,358.7,091011,0.2,E,A*38
$GPGGA,085627.00,4611.966617,N,01258.224186,E,1,04,5.7,141.50,M,46.25,M,,*6E
$GPGLL,4611.966617,N,01258.224186,E,085627.00,A,A*69
$GPVTG,123.6,T,123.8,M,000.6,N,001.2,K,A*28
$GPGSV,2,1,08,02,38,078,44,09,18,152,,12,56,078,44,14,28,252,35*71
$GPGSV,2,2,08,25,77,339,41,29,53,223,47,30,34,291,26,31,26,313,*7A
$GPGSA,M,3,02,12,25,29,,,,,,,,,10.5,5.7,8.8*05
Trace #102 at position 25.250000
$GPZDA,085626.03,09,10,2011,00,00*60
$GPRMC,085626.00,A,4611.966663,N,01258.224041,E,000.6,358.7,091011,0.2,E,A*38
$GPGGA,085627.00,4611.966617,N,01258.224186,E,1,04,5.7,141.50,M,46.25,M,,*6E
$GPGLL,4611.966617,N,01258.224186,E,085627.00,A,A*69
$GPVTG,123.6,T,123.8,M,000.6,N,001.2,K,A*28
$GPGSV,2,1,08,02,38,078,44,09,18,152,,12,56,078,44,14,28,252,35*71
$GPGSV,2,2,08,25,77,339,41,29,53,223,47,30,34,291,26,31,26,313,*7A
$GPGSA,M,3,02,12,25,29,,,,,,,,,10.5,5.7,8.8*05
Trace #103 at position 25.500000
$GPZDA,085627.03,09,10,2011,00,00*61
$GPRMC,085627.00,A,4611.966617,N,01258.224186,E,000.6,123.6,091011,0.2,E,A*3F
$GPGGA,085628.00,4611.966485,N,01258.224345,E,1,04,5.7,141.81,M,46.25,M,,*69
$GPGLL,4611.966485,N,01258.224345,E,085628.00,A,A*62
$GPVTG,129.9,T,130.1,M,000.2,N,000.4,K,A*25
$GPGSV,2,1,08,02,38,078,44,09,18,152,,12,56,078,44,14,28,252,36*72
$GPGSV,2,2,08,25,77,339,43,29,53,223,47,30,34,291,25,31,26,313,*7B
$GPGSA,M,3,02,12,25,29,,,,,,,,,10.4,5.7,8.7*0B
Trace #104 at position 25.750000
$GPZDA,085627.03,09,10,2011,00,00*61
$GPRMC,085627.00,A,4611.966617,N,01258.224186,E,000.6,123.6,091011,0.2,E,A*3F
$GPGGA,085628.00,4611.966485,N,01258.224345,E,1,04,5.7,141.81,M,46.25,M,,*69
$GPGLL,4611.966485,N,01258.224345,E,085628.00,A,A*62
$GPVTG,129.9,T,130.1,M,000.2,N,000.4,K,A*25
$GPGSV,2,1,08,02,38,078,44,09,18,152,,12,56,078,44,14,28,252,36*72
$GPGSV,2,2,08,25,77,339,43,29,53,223,47,30,34,291,25,31,26,313,*7B
$GPGSA,M,3,02,12,25,29,,,,,,,,,10.4,5.7,8.7*0B
Trace #105 at position 26.000000
$GPZDA,085627.03,09,10,2011,00,00*61
$GPRMC,085627.00,A,4611.966617,N,01258.224186,E,000.6,123.6,091011,0.2,E,A*3F
$GPGGA,085628.00,4611.966485,N,01258.224345,E,1,04,5.7,141.81,M,46.25,M,,*69
$GPGLL,4611.966485,N,01258.224345,E,085628.00,A,A*62
$GPVTG,129.9,T,130.1,M,000.2,N,000.4,K,A*25
$GPGSV,2,1,08,02,38,078,44,09,18,152,,12,56,078,44,14,28,252,36*72
$GPGSV,2,2,08,25,77,339,43,29,53,223,47,30,34,291,25,31,26,313,*7B
$GPGSA,M,3,02,12,25,29,,,,,,,,,10.4,5.7,8.7*0B
Trace #106 at position 26.250000
$GPZDA,085627.03,09,10,2011,00,00*61
$GPRMC,085627.00,A,4611.966617,N,01258.224186,E,000.6,123.6,091011,0.2,E,A*3F
$GPGGA,085628.00,4611.966485,N,01258.224345,E,1,04,5.7,141.81,M,46.25,M,,*69
$GPGLL,4611.966485,N,01258.224345,E,085628.00,A,A*62
$GPVTG,129.9,T,130.1,M,000.2,N,000.4,K,A*25
$GPGSV,2,1,08,02,38,078,44,09,18,152,,12,56,078,44,14,28,252,36*72
$GPGSV,2,2,08,25,77,339,43,29,53,223,47,30,34,291,25,31,26,313,*7B
$GPGSA,M,3,02,12,25,29,,,,,,,,,10.4,5.7,8.7*0B
Trace #107 at position 26.500000
$GPZDA,085628.03,09,10,2011,00,00*6E
$GPRMC,085628.00,A,4611.966485,N,01258.224345,E,000.2,129.9,091011,0.2,E,A*35
$GPGGA,085629.00,4611.966612,N,01258.224308,E,1,04,5.7,141.90,M,46.25,M,,*6D
$GPGLL,4611.966612,N,01258.224308,E,085629.00,A,A*66
$GPVTG,344.1,T,344.3,M,001.6,N,002.9,K,A*2D
$GPGSV,2,1,08,02,38,078,45,09,18,152,,12,56,078,44,14,28,252,39*7C
$GPGSV,2,2,08,25,77,339,46,29,53,223,47,30,34,291,37,31,26,313,*7D
$GPGSA,M,3,02,12,25,29,,,,,,,,,10.4,5.7,8.7*0B
Trace #108 at position 26.750000
$GPZDA,085628.03,09,10,2011,00,00*6E
$GPRMC,085628.00,A,4611.966485,N,01258.224345,E,000.2,129.9,091011,0.2,E,A*35
$GPGGA,085629.00,4611.966612,N,01258.224308,E,1,04,5.7,141.90,M,46.25,M,,*6D
$GPGLL,4611.966612,N,01258.224308,E,085629.00,A,A*66
$GPVTG,344.1,T,344.3,M,001.6,N,002.9,K,A*2D
$GPGSV,2,1,08,02,38,078,45,09,18,152,,12,56,078,44,14,28,252,39*7C
$GPGSV,2,2,08,25,77,339,46,29,53,223,47,30,34,291,37,31,26,313,*7D
$GPGSA,M,3,02,12,25,29,,,,,,,,,10.4,5.7,8.7*0B
Trace #109 at position 27.000000
$GPZDA,085628.03,09,10,2011,00,00*6E
$GPRMC,085628.00,A,4611.966485,N,01258.224345,E,000.2,129.9,091011,0.2,E,A*35
$GPGGA,085629.00,4611.966612,N,01258.224308,E,1,04,5.7,141.90,M,46.25,M,,*6D
$GPGLL,4611.966612,N,01258.224308,E,085629.00,A,A*66
$GPVTG,344.1,T,344.3,M,001.6,N,002.9,K,A*2D
$GPGSV,2,1,08,02,38,078,45,09,18,152,,12,56,078,44,14,28,252,39*7C
$GPGSV,2,2,08,25,77,339,46,29,53,223,47,30,34,291,37,31,26,313,*7D
$GPGSA,M,3,02,12,25,29,,,,,,,,,10.4,5.7,8.7*0B
Trace #110 at position 27.250000
$GPZDA,085628.03,09,10,2011,00,00*6E
$GPRMC,085628.00,A,4611.966485,N,01258.224345,E,000.2,129.9,091011,0.2,E,A*35
$GPGGA,085629.00,4611.966612,N,01258.224308,E,1,04,5.7,141.90,M,46.25,M,,*6D
$GPGLL,4611.966612,N,01258.224308,E,085629.00,A,A*66
$GPVTG,344.1,T,344.3,M,001.6,N,002.9,K,A*2D
$GPGSV,2,1,08,02,38,078,45,09,18,152,,12,56,078,44,14,28,252,39*7C
$GPGSV,2,2,08,25,77,339,46,29,53,223,47,30,34,291,37,31,26,313,*7D
$GPGSA,M,3,02,12,25,29,,,,,,,,,10.4,5.7,8.7*0B
Trace #111 at position 27.500000
$GPZDA,085629.03,09,10,2011,00,00*6F
$GPRMC,085629.00,A,4611.966612,N,01258.224308,E,001.6,344.1,091011,0.2,E,A*35
$GPGGA,085630.00,4611.967026,N,01258.224061,E,1,04,5.7,141.94,M,46.25,M,,*6D
$GPGLL,4611.967026,N,01258.224061,E,085630.00,A,A*62
$GPVTG,333.8,T,333.9,M,002.2,N,004.0,K,A*26
$GPGSV,2,1,08,02,38,078,45,09,18,152,,12,56,078,44,14,28,252,39*7C
$GPGSV,2,2,08,25,77,339,45,29,53,223,47,30,34,291,37,31,26,313,*7E
$GPGSA,M,3,02,12,25,29,,,,,,,,,10.4,5.7,8.7*0B
Trace #112 at position 27.750000
$GPZDA,085629.03,09,10,2011,00,00*6F
$GPRMC,085629.00,A,4611.966612,N,01258.224308,E,001.6,344.1,091011,0.2,E,A*35
$GPGGA,085630.00,4611.967026,N,01258.224061,E,1,04,5.7,141.94,M,46.25,M,,*6D
$GPGLL,4611.967026,N,01258.224061,E,085630.00,A,A*62
$GPVTG,333.8,T,333.9,M,002.2,N,004.0,K,A*26
$GPGSV,2,1,08,02,38,078,45,09,18,152,,12,56,078,44,14,28,252,39*7C
$GPGSV,2,2,08,25,77,339,45,29,53,223,47,30,34,291,37,31,26,313,*7E
$GPGSA,M,3,02,12,25,29,,,,,,,,,10.4,5.7,8.7*0B
Trace #113 at position 28.000000
$GPZDA,085629.03,09,10,2011,00,00*6F
$GPRMC,085629.00,A,4611.966612,N,01258.224308,E,001.6,344.1,091011,0.2,E,A*35
$GPGGA,085630.00,4611.967026,N,01258.224061,E,1,04,5.7,141.94,M,46.25,M,,*6D
$GPGLL,4611.967026,N,01258.224061,E,085630.00,A,A*62
$GPVTG,333.8,T,333.9,M,002.2,N,004.0,K,A*26
$GPGSV,2,1,08,02,38,078,45,09,18,152,,12,56,078,44,14,28,252,39*7C
$GPGSV,2,2,08,25,77,339,45,29,53,223,47,30,34,291,37,31,26,313,*7E
$GPGSA,M,3,02,12,25,29,,,,,,,,,10.4,5.7,8.7*0B
Trace #114 at position 28.250000
$GPZDA,085630.03,09,10,2011,00,00*67
$GPRMC,085630.00,A,4611.967026,N,01258.224061,E,002.2,333.8,091011,0.2,E,A*3F
$GPGGA,085631.00,4611.967530,N,01258.223789,E,1,04,5.7,142.13,M,46.25,M,,*64
$GPGLL,4611.967530,N,01258.223789,E,085631.00,A,A*67
$GPVTG,344.6,T,344.8,M,002.2,N,004.1,K,A*28
$GPGSV,2,1,08,02,38,078,44,09,18,152,,12,56,078,44,14,28,252,38*7C
$GPGSV,2,2,08,25,77,339,46,29,53,223,47,30,34,291,38,31,26,313,*72
$GPGSA,M,3,02,12,25,29,,,,,,,,,10.4,5.7,8.7*0B
Trace #115 at position 28.500000
$GPZDA,085630.03,09,10,2011,00,00*67
$GPRMC,085630.00,A,4611.967026,N,01258.224061,E,002.2,333.8,091011,0.2,E,A*3F
$GPGGA,085631.00,4611.967530,N,01258.223789,E,1,04,5.7,142.13,M,46.25,M,,*64
$GPGLL,4611.967530,N,01258.223789,E,085631.00,A,A*67
$GPVTG,344.6,T,344.8,M,002.2,N,004.1,K,A*28
$GPGSV,2,1,08,02,38,078,44,09,18,152,,12,56,078,44,14,28,252,38*7C
$GPGSV,2,2,08,25,77,339,46,29,53,223,47,30,34,291,38,31,26,313,*72
$GPGSA,M,3,02,12,25,29,,,,,,,,,10.4,5.7,8.7*0B
Trace #116 at position 28.750000
$GPZDA,085630.03,09,10,2011,00,00*67
$GPRMC,085630.00,A,4611.967026,N,01258.224061,E,002.2,333.8,091011,0.2,E,A*3F
