Trace #1 at position 0.000000
$GPZDA,092744.03,09,10,2011,00,00*63
$GPRMC,092744.00,A,4611.954507,N,01258.233477,E,000.3,357.0,091011,0.2,E,A*31
$GPGGA,,,,,,0,03,,,M,,M,,*65
$GPGLL,,,,,,V,N*64
$GPVTG,,T,,,,N,,K,N*61
$GPGSV,2,1,07,02,35,061,43,12,45,092,42,14,18,241,36,25,78,053,45*77
$GPGSV,2,2,07,29,67,235,,30,47,298,,31,38,308,20,,,,*43
$GPGSA,M,1,,,,,,,,,,,,,4.3,3.5,2.6*39
Trace #2 at position 0.250000
$GPZDA,092746.02,09,10,2011,00,00*60
$GPRMC,092744.00,V,,,,,,,,,,N*71
$GPGGA,,,,,,0,03,,,M,,M,,*65
$GPGLL,,,,,,V,N*64
$GPVTG,,T,,,,N,,K,N*61
$GPGSV,2,1,07,02,35,061,45,12,45,092,44,14,18,241,38,25,78,053,46*7A
$GPGSV,2,2,07,29,67,235,,30,47,298,,31,38,308,,,,,*41
$GPGSA,M,1,,,,,,,,,,,,,4.3,3.5,2.6*39
Trace #3 at position 0.500000
$GPZDA,092747.02,09,10,2011,00,00*61
$GPRMC,092744.00,V,,,,,,,,,,N*71
$GPGGA,,,,,,0,03,,,M,,M,,*65
$GPGLL,,,,,,V,N*64
$GPVTG,,T,,,,N,,K,N*61
$GPGSV,2,1,07,02,35,061,44,12,45,092,44,14,18,241,38,25,78,053,47*7A
$GPGSV,2,2,07,29,67,235,,30,47,298,,31,38,308,,,,,*41
$GPGSA,M,1,,,,,,,,,,,,,4.3,3.5,2.6*39
Trace #4 at position 0.750000
$GPZDA,092747.02,09,10,2011,00,00*61
$GPRMC,092744.00,V,,,,,,,,,,N*71
$GPGGA,,,,,,0,03,,,M,,M,,*65
$GPGLL,,,,,,V,N*64
$GPVTG,,T,,,,N,,K,N*61
$GPGSV,2,1,07,02,35,061,44,12,45,092,44,14,18,241,38,25,78,053,47*7A
$GPGSV,2,2,07,29,67,235,,30,47,298,,31,38,308,,,,,*41
$GPGSA,M,1,,,,,,,,,,,,,4.3,3.5,2.6*39
Trace #5 at position 1.000000
$GPZDA,092748.02,09,10,2011,00,00*6E
$GPRMC,092744.00,V,,,,,,,,,,N*71
$GPGGA,,,,,,0,03,,,M,,M,,*65
$GPGLL,,,,,,V,N*64
$GPVTG,,T,,,,N,,K,N*61
$GPGSV,2,1,07,02,35,061,44,12,45,092,44,14,18,241,38,25,78,053,46*7B
$GPGSV,2,2,07,29,67,235,,30,47,298,,31,38,308,,,,,*41
$GPGSA,M,1,,,,,,,,,,,,,4.3,3.5,2.6*39
Trace #6 at position 1.250000
$GPZDA,092748.02,09,10,2011,00,00*6E
$GPRMC,092744.00,V,,,,,,,,,,N*71
$GPGGA,,,,,,0,03,,,M,,M,,*65
$GPGLL,,,,,,V,N*64
$GPVTG,,T,,,,N,,K,N*61
$GPGSV,2,1,07,02,35,061,44,12,45,092,44,14,18,241,38,25,78,053,46*7B
$GPGSV,2,2,07,29,67,235,,30,47,298,,31,38,308,,,,,*41
$GPGSA,M,1,,,,,,,,,,,,,4.3,3.5,2.6*39
Trace #7 at position 1.500000
$GPZDA,092748.02,09,10,2011,00,00*6E
$GPRMC,092744.00,V,,,,,,,,,,N*71
$GPGGA,,,,,,0,03,,,M,,M,,*65
$GPGLL,,,,,,V,N*64
$GPVTG,,T,,,,N,,K,N*61
$GPGSV,2,1,07,02,35,061,44,12,45,092,44,14,18,241,38,25,78,053,46*7B
$GPGSV,2,2,07,29,67,235,,30,47,298,,31,38,308,,,,,*41
$GPGSA,M,1,,,,,,,,,,,,,4.3,3.5,2.6*39
Trace #8 at position 1.750000
$GPZDA,092749.02,09,10,2011,00,00*6F
$GPRMC,092744.00,V,,,,,,,,,,N*71
$GPGGA,,,,,,0,03,,,M,,M,,*65
$GPGLL,,,,,,V,N*64
$GPVTG,,T,,,,N,,K,N*61
$GPGSV,2,1,07,02,35,061,44,12,45,092,43,14,18,241,38,25,77,053,47*72
$GPGSV,2,2,07,29,67,235,,30,47,298,,31,38,308,,,,,*41
$GPGSA,M,1,,,,,,,,,,,,,4.3,3.5,2.6*39
Trace #9 at position 2.000000
$GPZDA,092749.02,09,10,2011,00,00*6F
$GPRMC,092744.00,V,,,,,,,,,,N*71
$GPGGA,,,,,,0,03,,,M,,M,,*65
$GPGLL,,,,,,V,N*64
$GPVTG,,T,,,,N,,K,N*61
$GPGSV,2,1,07,02,35,061,44,12,45,092,43,14,18,241,38,25,77,053,47*72
$GPGSV,2,2,07,29,67,235,,30,47,298,,31,38,308,,,,,*41
$GPGSA,M,1,,,,,,,,,,,,,4.3,3.5,2.6*39
Trace #10 at position 2.250000
$GPZDA,092750.02,09,10,2011,00,00*67
$GPRMC,092744.00,V,,,,,,,,,,N*71
$GPGGA,,,,,,0,03,,,M,,M,,*65
$GPGLL,,,,,,V,N*64
$GPVTG,,T,,,,N,,K,N*61
$GPGSV,2,1,07,02,35,061,42,12,45,092,43,14,18,241,38,25,77,053,46*75
$GPGSV,2,2,07,29,67,235,42,30,47,298,,31,38,308,,,,,*47
$GPGSA,M,1,,,,,,,,,,,,,4.3,3.5,2.6*39
Trace #11 at position 2.500000
$GPZDA,092750.02,09,10,2011,00,00*67
$GPRMC,092744.00,V,,,,,,,,,,N*71
$GPGGA,,,,,,0,03,,,M,,M,,*65
$GPGLL,,,,,,V,N*64
$GPVTG,,T,,,,N,,K,N*61
$GPGSV,2,1,07,02,35,061,42,12,45,092,43,14,18,241,38,25,77,053,46*75
$GPGSV,2,2,07,29,67,235,42,30,47,298,,31,38,308,,,,,*47
$GPGSA,M,1,,,,,,,,,,,,,4.3,3.5,2.6*39
Trace #12 at position 2.750000
$GPZDA,092750.02,09,10,2011,00,00*67
$GPRMC,092744.00,V,,,,,,,,,,N*71
$GPGGA,,,,,,0,03,,,M,,M,,*65
$GPGLL,,,,,,V,N*64
$GPVTG,,T,,,,N,,K,N*61
$GPGSV,2,1,07,02,35,061,42,12,45,092,43,14,18,241,38,25,77,053,46*75
$GPGSV,2,2,07,29,67,235,42,30,47,298,,31,38,308,,,,,*47
$GPGSA,M,1,,,,,,,,,,,,,4.3,3.5,2.6*39
Trace #13 at position 3.000000
$GPZDA,092750.02,09,10,2011,00,00*67
$GPRMC,092744.00,V,,,,,,,,,,N*71
$GPGGA,,,,,,0,03,,,M,,M,,*65
$GPGLL,,,,,,V,N*64
$GPVTG,,T,,,,N,,K,N*61
$GPGSV,2,1,07,02,35,061,42,12,45,092,43,14,18,241,38,25,77,053,46*75
$GPGSV,2,2,07,29,67,235,42,30,47,298,,31,38,308,,,,,*47
$GPGSA,M,1,,,,,,,,,,,,,4.3,3.5,2.6*39
Trace #14 at position 3.250000
$GPZDA,092751.02,09,10,2011,00,00*66
$GPRMC,092744.00,V,,,,,,,,,,N*71
$GPGGA,092752.00,4611.954854,N,01258.229833,E,1,04,3.9,131.50,M,46.25,M,,*66
$GPGLL,4611.954854,N,01258.229833,E,092752.00,A,A*6E
$GPVTG,334.8,T,334.9,M,001.6,N,002.9,K,A*2E
$GPGSV,2,1,07,02,35,061,43,12,45,092,43,14,18,241,39,25,77,053,47*74
$GPGSV,2,2,07,29,67,235,40,30,47,298,,31,38,308,,,,,*45
$GPGSA,M,3,02,12,25,29,,,,,,,,,6.8,3.9,5.6*34
Trace #15 at position 3.500000
$GPZDA,092751.02,09,10,2011,00,00*66
$GPRMC,092744.00,V,,,,,,,,,,N*71
$GPGGA,092752.00,4611.954854,N,01258.229833,E,1,04,3.9,131.50,M,46.25,M,,*66
$GPGLL,4611.954854,N,01258.229833,E,092752.00,A,A*6E
$GPVTG,334.8,T,334.9,M,001.6,N,002.9,K,A*2E
$GPGSV,2,1,07,02,35,061,43,12,45,092,43,14,18,241,39,25,77,053,47*74
$GPGSV,2,2,07,29,67,235,40,30,47,298,,31,38,308,,,,,*45
$GPGSA,M,3,02,12,25,29,,,,,,,,,6.8,3.9,5.6*34
Trace #16 at position 3.750000
$GPZDA,092751.02,09,10,2011,00,00*66
$GPRMC,092744.00,V,,,,,,,,,,N*71
$GPGGA,092752.00,4611.954854,N,01258.229833,E,1,04,3.9,131.50,M,46.25,M,,*66
$GPGLL,4611.954854,N,01258.229833,E,092752.00,A,A*6E
$GPVTG,334.8,T,334.9,M,001.6,N,002.9,K,A*2E
$GPGSV,2,1,07,02,35,061,43,12,45,092,43,14,18,241,39,25,77,053,47*74
$GPGSV,2,2,07,29,67,235,40,30,47,298,,31,38,308,,,,,*45
$GPGSA,M,3,02,12,25,29,,,,,,,,,6.8,3.9,5.6*34
Trace #17 at position 4.000000
$GPZDA,092752.03,09,10,2011,00,00*64
$GPRMC,092752.00,A,4611.954854,N,01258.229833,E,001.6,334.8,091011,0.2,E,A*33
$GPGGA,092753.00,4611.955275,N,01258.229699,E,1,04,3.9,131.78,M,46.25,M,,*6B
$GPGLL,4611.955275,N,01258.229699,E,092753.00,A,A*69
$GPVTG,342.9,T,343.1,M,001.5,N,002.7,K,A*2B
$GPGSV,2,1,07,02,35,061,43,12,45,092,43,14,18,241,39,25,77,053,47*74
$GPGSV,2,2,07,29,67,235,40,30,47,298,,31,38,308,,,,,*45
$GPGSA,M,3,02,12,25,29,,,,,,,,,6.8,3.9,5.6*34
Trace #18 at position 4.250000
$GPZDA,092752.03,09,10,2011,00,00*64
$GPRMC,092752.00,A,4611.954854,N,01258.229833,E,001.6,334.8,091011,0.2,E,A*33
$GPGGA,092753.00,4611.955275,N,01258.229699,E,1,04,3.9,131.78,M,46.25,M,,*6B
$GPGLL,4611.955275,N,01258.229699,E,092753.00,A,A*69
$GPVTG,342.9,T,343.1,M,001.5,N,002.7,K,A*2B
$GPGSV,2,1,07,02,35,061,43,12,45,092,43,14,18,241,39,25,77,053,47*74
$GPGSV,2,2,07,29,67,235,40,30,47,298,,31,38,308,,,,,*45
$GPGSA,M,3,02,12,25,29,,,,,,,,,6.8,3.9,5.6*34
Trace #19 at position 4.500000
$GPZDA,092752.03,09,10,2011,00,00*64
$GPRMC,092752.00,A,4611.954854,N,01258.229833,E,001.6,334.8,091011,0.2,E,A*33
$GPGGA,092753.00,4611.955275,N,01258.229699,E,1,04,3.9,131.78,M,46.25,M,,*6B
$GPGLL,4611.955275,N,01258.229699,E,092753.00,A,A*69
$GPVTG,342.9,T,343.1,M,001.5,N,002.7,K,A*2B
$GPGSV,2,1,07,02,35,061,43,12,45,092,43,14,18,241,39,25,77,053,47*74
$GPGSV,2,2,07,29,67,235,40,30,47,298,,31,38,308,,,,,*45
$GPGSA,M,3,02,12,25,29,,,,,,,,,6.8,3.9,5.6*34
Trace #20 at position 4.750000
$GPZDA,092752.03,09,10,2011,00,00*64
$GPRMC,092752.00,A,4611.954854,N,01258.229833,E,001.6,334.8,091011,0.2,E,A*33
$GPGGA,092753.00,4611.955275,N,01258.229699,E,1,04,3.9,131.78,M,46.25,M,,*6B
$GPGLL,4611.955275,N,01258.229699,E,092753.00,A,A*69
$GPVTG,342.9,T,343.1,M,001.5,N,002.7,K,A*2B
$GPGSV,2,1,07,02,35,061,43,12,45,092,43,14,18,241,39,25,77,053,47*74
$GPGSV,2,2,07,29,67,235,40,30,47,298,,31,38,308,,,,,*45
$GPGSA,M,3,02,12,25,29,,,,,,,,,6.8,3.9,5.6*34
Trace #21 at position 5.000000
$GPZDA,092753.03,09,10,2011,00,00*65
$GPRMC,092753.00,A,4611.955275,N,01258.229699,E,001.5,342.9,091011,0.2,E,A*37
$GPGGA,092754.00,4611.955752,N,01258.229532,E,1,04,3.9,131.98,M,46.25,M,,*60
$GPGLL,4611.955752,N,01258.229532,E,092754.00,A,A*6C
$GPVTG,345.4,T,345.6,M,002.1,N,003.9,K,A*28
$GPGSV,2,1,07,02,35,061,43,12,45,092,42,14,18,241,38,25,77,053,47*74
$GPGSV,2,2,07,29,67,235,40,30,47,298,,31,38,308,,,,,*45
$GPGSA,M,3,02,12,25,29,,,,,,,,,6.8,3.9,5.6*34
Trace #22 at position 5.250000
$GPZDA,092753.03,09,10,2011,00,00*65
$GPRMC,092753.00,A,4611.955275,N,01258.229699,E,001.5,342.9,091011,0.2,E,A*37
$GPGGA,092754.00,4611.955752,N,01258.229532,E,1,04,3.9,131.98,M,46.25,M,,*60
$GPGLL,4611.955752,N,01258.229532,E,092754.00,A,A*6C
$GPVTG,345.4,T,345.6,M,002.1,N,003.9,K,A*28
$GPGSV,2,1,07,02,35,061,43,12,45,092,42,14,18,241,38,25,77,053,47*74
$GPGSV,2,2,07,29,67,235,40,30,47,298,,31,38,308,,,,,*45
$GPGSA,M,3,02,12,25,29,,,,,,,,,6.8,3.9,5.6*34
Trace #23 at position 5.500000
$GPZDA,092753.03,09,10,2011,00,00*65
$GPRMC,092753.00,A,4611.955275,N,01258.229699,E,001.5,342.9,091011,0.2,E,A*37
$GPGGA,092754.00,4611.955752,N,01258.229532,E,1,04,3.9,131.98,M,46.25,M,,*60
$GPGLL,4611.955752,N,01258.229532,E,092754.00,A,A*6C
$GPVTG,345.4,T,345.6,M,002.1,N,003.9,K,A*28
$GPGSV,2,1,07,02,35,061,43,12,45,092,42,14,18,241,38,25,77,053,47*74
$GPGSV,2,2,07,29,67,235,40,30,47,298,,31,38,308,,,,,*45
$GPGSA,M,3,02,12,25,29,,,,,,,,,6.8,3.9,5.6*34
Trace #24 at position 5.750000
$GPZDA,092754.03,09,10,2011,00,00*62
$GPRMC,092754.00,A,4611.955752,N,01258.229532,E,002.1,345.4,091011,0.2,E,A*3F
$GPGGA,092755.00,4611.956212,N,01258.229254,E,1,04,3.9,132.19,M,46.25,M,,*6E
$GPGLL,4611.956212,N,01258.229254,E,092755.00,A,A*68
$GPVTG,319.7,T,319.8,M,001.6,N,003.0,K,A*28
$GPGSV,2,1,07,02,35,061,43,12,45,092,42,14,18,241,39,25,77,053,47*75
$GPGSV,2,2,07,29,67,235,41,30,47,298,,31,38,308,,,,,*44
$GPGSA,M,3,02,12,25,29,,,,,,,,,6.8,3.9,5.6*34
Trace #25 at position 6.000000
$GPZDA,092754.03,09,10,2011,00,00*62
$GPRMC,092754.00,A,4611.955752,N,01258.229532,E,002.1,345.4,091011,0.2,E,A*3F
$GPGGA,092755.00,4611.956212,N,01258.229254,E,1,04,3.9,132.19,M,46.25,M,,*6E
$GPGLL,4611.956212,N,01258.229254,E,092755.00,A,A*68
$GPVTG,319.7,T,319.8,M,001.6,N,003.0,K,A*28
$GPGSV,2,1,07,02,35,061,43,12,45,092,42,14,18,241,39,25,77,053,47*75
$GPGSV,2,2,07,29,67,235,41,30,47,298,,31,38,308,,,,,*44
$GPGSA,M,3,02,12,25,29,,,,,,,,,6.8,3.9,5.6*34
Trace #26 at position 6.250000
$GPZDA,092754.03,09,10,2011,00,00*62
$GPRMC,092754.00,A,4611.955752,N,01258.229532,E,002.1,345.4,091011,0.2,E,A*3F
$GPGGA,092755.00,4611.956212,N,01258.229254,E,1,04,3.9,132.19,M,46.25,M,,*6E
$GPGLL,4611.956212,N,01258.229254,E,092755.00,A,A*68
$GPVTG,319.7,T,319.8,M,001.6,N,003.0,K,A*28
$GPGSV,2,1,07,02,35,061,43,12,45,092,42,14,18,241,39,25,77,053,47*75
$GPGSV,2,2,07,29,67,235,41,30,47,298,,31,38,308,,,,,*44
$GPGSA,M,3,02,12,25,29,,,,,,,,,6.8,3.9,5.6*34
Trace #27 at position 6.500000
$GPZDA,092754.03,09,10,2011,00,00*62
$GPRMC,092754.00,A,4611.955752,N,01258.229532,E,002.1,345.4,091011,0.2,E,A*3F
$GPGGA,092755.00,4611.956212,N,01258.229254,E,1,04,3.9,132.19,M,46.25,M,,*6E
$GPGLL,4611.956212,N,01258.229254,E,092755.00,A,A*68
$GPVTG,319.7,T,319.8,M,001.6,N,003.0,K,A*28
$GPGSV,2,1,07,02,35,061,43,12,45,092,42,14,18,241,39,25,77,053,47*75
$GPGSV,2,2,07,29,67,235,41,30,47,298,,31,38,308,,,,,*44
$GPGSA,M,3,02,12,25,29,,,,,,,,,6.8,3.9,5.6*34
Trace #28 at position 6.750000
$GPZDA,092755.03,09,10,2011,00,00*63
$GPRMC,092755.00,A,4611.956212,N,01258.229254,E,001.6,319.7,091011,0.2,E,A*35
$GPGGA,092756.00,4611.956670,N,01258.228971,E,1,04,3.9,132.53,M,46.25,M,,*6E
$GPGLL,4611.956670,N,01258.228971,E,092756.00,A,A*66
$GPVTG,344.9,T,345.1,M,002.1,N,003.9,K,A*23
$GPGSV,2,1,07,02,35,061,43,12,45,092,44,14,18,241,38,25,77,053,46*73
$GPGSV,2,2,07,29,67,235,42,30,47,298,,31,38,308,,,,,*47
$GPGSA,M,3,02,12,25,29,,,,,,,,,6.8,3.9,5.6*34
Trace #29 at position 7.000000
$GPZDA,092755.03,09,10,2011,00,00*63
$GPRMC,092755.00,A,4611.956212,N,01258.229254,E,001.6,319.7,091011,0.2,E,A*35
$GPGGA,092756.00,4611.956670,N,01258.228971,E,1,04,3.9,132.53,M,46.25,M,,*6E
$GPGLL,4611.956670,N,01258.228971,E,092756.00,A,A*66
$GPVTG,344.9,T,345.1,M,002.1,N,003.9,K,A*23
$GPGSV,2,1,07,02,35,061,43,12,45,092,44,14,18,241,38,25,77,053,46*73
$GPGSV,2,2,07,29,67,235,42,30,47,298,,31,38,308,,,,,*47
$GPGSA,M,3,02,12,25,29,,,,,,,,,6.8,3.9,5.6*34
Trace #30 at position 7.250000
$GPZDA,092755.03,09,10,2011,00,00*63
$GPRMC,092755.00,A,4611.956212,N,01258.229254,E,001.6,319.7,091011,0.2,E,A*35
$GPGGA,092756.00,4611.956670,N,01258.228971,E,1,04,3.9,132.53,M,46.25,M,,*6E
$GPGLL,4611.956670,N,01258.228971,E,092756.00,A,A*66
$GPVTG,344.9,T,345.1,M,002.1,N,003.9,K,A*23
$GPGSV,2,1,07,02,35,061,43,12,45,092,44,14,18,241,38,25,77,053,46*73
$GPGSV,2,2,07,29,67,235,42,30,47,298,,31,38,308,,,,,*47
$GPGSA,M,3,02,12,25,29,,,,,,,,,6.8,3.9,5.6*34
Trace #31 at position 7.500000
$GPZDA,092755.03,09,10,2011,00,00*63
$GPRMC,092755.00,A,4611.956212,N,01258.229254,E,001.6,319.7,091011,0.2,E,A*35
$GPGGA,092756.00,4611.956670,N,01258.228971,E,1,04,3.9,132.53,M,46.25,M,,*6E
$GPGLL,4611.956670,N,01258.228971,E,092756.00,A,A*66
$GPVTG,344.9,T,345.1,M,002.1,N,003.9,K,A*23
$GPGSV,2,1,07,02,35,061,43,12,45,092,44,14,18,241,38,25,77,053,46*73
$GPGSV,2,2,07,29,67,235,42,30,47,298,,31,38,308,,,,,*47
$GPGSA,M,3,02,12,25,29,,,,,,,,,6.8,3.9,5.6*34
Trace #32 at position 7.750000
$GPZDA,092756.03,09,10,2011,00,00*60
$GPRMC,092756.00,A,4611.956670,N,01258.228971,E,002.1,344.9,091011,0.2,E,A*39
$GPGGA,092757.00,4611.957090,N,01258.228765,E,1,04,3.9,132.84,M,46.25,M,,*67
$GPGLL,4611.957090,N,01258.228765,E,092757.00,A,A*65
$GPVTG,325.1,T,325.2,M,001.2,N,002.2,K,A*23
$GPGSV,2,1,07,02,35,061,43,12,45,092,43,14,18,241,38,25,77,053,45*77
$GPGSV,2,2,07,29,67,235,41,30,47,298,,31,38,308,,,,,*44
$GPGSA,M,3,02,12,25,29,,,,,,,,,6.8,3.9,5.6*34
Trace #33 at position 8.000000
$GPZDA,092756.03,09,10,2011,00,00*60
$GPRMC,092756.00,A,4611.956670,N,01258.228971,E,002.1,344.9,091011,0.2,E,A*39
$GPGGA,092757.00,4611.957090,N,01258.228765,E,1,04,3.9,132.84,M,46.25,M,,*67
$GPGLL,4611.957090,N,01258.228765,E,092757.00,A,A*65
$GPVTG,325.1,T,325.2,M,001.2,N,002.2,K,A*23
$GPGSV,2,1,07,02,35,061,43,12,45,092,43,14,18,241,38,25,77,053,45*77
$GPGSV,2,2,07,29,67,235,41,30,47,298,,31,38,308,,,,,*44
$GPGSA,M,3,02,12,25,29,,,,,,,,,6.8,3.9,5.6*34
Trace #34 at position 8.250000
$GPZDA,092756.03,09,10,2011,00,00*60
$GPRMC,092756.00,A,4611.956670,N,01258.228971,E,002.1,344.9,091011,0.2,E,A*39
$GPGGA,092757.00,4611.957090,N,01258.228765,E,1,04,3.9,132.84,M,46.25,M,,*67
$GPGLL,4611.957090,N,01258.228765,E,092757.00,A,A*65
$GPVTG,325.1,T,325.2,M,001.2,N,002.2,K,A*23
$GPGSV,2,1,07,02,35,061,43,12,45,092,43,14,18,241,38,25,77,053,45*77
$GPGSV,2,2,07,29,67,235,41,30,47,298,,31,38,308,,,,,*44
$GPGSA,M,3,02,12,25,29,,,,,,,,,6.8,3.9,5.6*34
Trace #35 at position 8.500000
$GPZDA,092757.03,09,10,2011,00,00*61
$GPRMC,092757.00,A,4611.957090,N,01258.228765,E,001.2,325.1,091011,0.2,E,A*35
$GPGGA,092758.00,4611.957556,N,01258.228621,E,1,04,3.9,132.98,M,46.25,M,,*6B
$GPGLL,4611.957556,N,01258.228621,E,092758.00,A,A*64
$GPVTG,353.8,T,354.0,M,002.4,N,004.4,K,A*2A
$GPGSV,2,1,07,02,35,061,44,12,45,092,44,14,18,241,36,25,77,053,46*7A
$GPGSV,2,2,07,29,67,235,41,30,47,298,,31,38,308,,,,,*44
$GPGSA,M,3,02,12,25,29,,,,,,,,,6.8,3.9,5.6*34
Trace #36 at position 8.750000
$GPZDA,092757.03,09,10,2011,00,00*61
$GPRMC,092757.00,A,4611.957090,N,01258.228765,E,001.2,325.1,091011,0.2,E,A*35
$GPGGA,092758.00,4611.957556,N,01258.228621,E,1,04,3.9,132.98,M,46.25,M,,*6B
$GPGLL,4611.957556,N,01258.228621,E,092758.00,A,A*64
$GPVTG,353.8,T,354.0,M,002.4,N,004.4,K,A*2A
$GPGSV,2,1,07,02,35,061,44,12,45,092,44,14,18,241,36,25,77,053,46*7A
$GPGSV,2,2,07,29,67,235,41,30,47,298,,31,38,308,,,,,*44
$GPGSA,M,3,02,12,25,29,,,,,,,,,6.8,3.9,5.6*34
Trace #37 at position 9.000000
$GPZDA,092757.03,09,10,2011,00,00*61
$GPRMC,092757.00,A,4611.957090,N,01258.228765,E,001.2,325.1,091011,0.2,E,A*35
$GPGGA,092758.00,4611.957556,N,01258.228621,E,1,04,3.9,132.98,M,46.25,M,,*6B
$GPGLL,4611.957556,N,01258.228621,E,092758.00,A,A*64
$GPVTG,353.8,T,354.0,M,002.4,N,004.4,K,A*2A
$GPGSV,2,1,07,02,35,061,44,12,45,092,44,14,18,241,36,25,77,053,46*7A
$GPGSV,2,2,07,29,67,235,41,30,47,298,,31,38,308,,,,,*44
$GPGSA,M,3,02,12,25,29,,,,,,,,,6.8,3.9,5.6*34
Trace #38 at position 9.250000
$GPZDA,092757.03,09,10,2011,00,00*61
$GPRMC,092757.00,A,4611.957090,N,01258.228765,E,001.2,325.1,091011,0.2,E,A*35
$GPGGA,092758.00,4611.957556,N,01258.228621,E,1,04,3.9,132.98,M,46.25,M,,*6B
$GPGLL,4611.957556,N,01258.228621,E,092758.00,A,A*64
$GPVTG,353.8,T,354.0,M,002.4,N,004.4,K,A*2A
$GPGSV,2,1,07,02,35,061,44,12,45,092,44,14,18,241,36,25,77,053,46*7A
$GPGSV,2,2,07,29,67,235,41,30,47,298,,31,38,308,,,,,*44
$GPGSA,M,3,02,12,25,29,,,,,,,,,6.8,3.9,5.6*34
Trace #39 at position 9.500000
$GPZDA,092758.03,09,10,2011,00,00*6E
$GPRMC,092758.00,A,4611.957556,N,01258.228621,E,002.4,353.8,091011,0.2,E,A*39
$GPGGA,092759.00,4611.958103,N,01258.228472,E,1,04,3.9,133.07,M,46.25,M,,*62
$GPGLL,4611.958103,N,01258.228472,E,092759.00,A,A*6A
$GPVTG,335.5,T,335.6,M,001.7,N,003.2,K,A*27
$GPGSV,2,1,07,02,35,061,43,12,45,092,43,14,18,241,38,25,77,053,46*74
$GPGSV,2,2,07,29,67,235,41,30,47,298,32,31,38,308,,,,,*45
$GPGSA,M,3,02,12,25,29,,,,,,,,,6.8,3.9,5.6*34
Trace #40 at position 9.750000
$GPZDA,092758.03,09,10,2011,00,00*6E
$GPRMC,092758.00,A,4611.957556,N,01258.228621,E,002.4,353.8,091011,0.2,E,A*39
$GPGGA,092759.00,4611.958103,N,01258.228472,E,1,04,3.9,133.07,M,46.25,M,,*62
$GPGLL,4611.958103,N,01258.228472,E,092759.00,A,A*6A
$GPVTG,335.5,T,335.6,M,001.7,N,003.2,K,A*27
$GPGSV,2,1,07,02,35,061,43,12,45,092,43,14,18,241,38,25,77,053,46*74
$GPGSV,2,2,07,29,67,235,41,30,47,298,32,31,38,308,,,,,*45
$GPGSA,M,3,02,12,25,29,,,,,,,,,6.8,3.9,5.6*34
Trace #41 at position 10.000000
$GPZDA,092758.03,09,10,2011,00,00*6E
$GPRMC,092758.00,A,4611.957556,N,01258.228621,E,002.4,353.8,091011,0.2,E,A*39
$GPGGA,092759.00,4611.958103,N,01258.228472,E,1,04,3.9,133.07,M,46.25,M,,*62
$GPGLL,4611.958103,N,01258.228472,E,092759.00,A,A*6A
$GPVTG,335.5,T,335.6,M,001.7,N,003.2,K,A*27
$GPGSV,2,1,07,02,35,061,43,12,45,092,43,14,18,241,38,25,77,053,46*74
$GPGSV,2,2,07,29,67,235,41,30,47,298,32,31,38,308,,,,,*45
$GPGSA,M,3,02,12,25,29,,,,,,,,,6.8,3.9,5.6*34
Trace #42 at position 10.250000
$GPZDA,092758.03,09,10,2011,00,00*6E
$GPRMC,092758.00,A,4611.957556,N,01258.228621,E,002.4,353.8,091011,0.2,E,A*39
$GPGGA,092759.00,4611.958103,N,01258.228472,E,1,04,3.9,133.07,M,46.25,M,,*62
$GPGLL,4611.958103,N,01258.228472,E,092759.00,A,A*6A
$GPVTG,335.5,T,335.6,M,001.7,N,003.2,K,A*27
$GPGSV,2,1,07,02,35,061,43,12,45,092,43,14,18,241,38,25,77,053,46*74
$GPGSV,2,2,07,29,67,235,41,30,47,298,32,31,38,308,,,,,*45
$GPGSA,M,3,02,12,25,29,,,,,,,,,6.8,3.9,5.6*34
Trace #43 at position 10.500000
$GPZDA,092759.03,09,10,2011,00,00*6F
$GPRMC,092759.00,A,4611.958103,N,01258.228472,E,001.7,335.5,091011,0.2,E,A*3A
$GPGGA,092800.00,4611.958672,N,01258.228335,E,1,04,3.9,133.14,M,46.25,M,,*66
$GPGLL,4611.958672,N,01258.228335,E,092800.00,A,A*6C
$GPVTG,355.2,T,355.4,M,002.6,N,004.8,K,A*2D
$GPGSV,2,1,07,02,35,061,43,12,45,092,44,14,18,241,36,25,77,053,47*7C
$GPGSV,2,2,07,29,67,235,40,30,47,298,32,31,38,308,,,,,*44
$GPGSA,M,3,02,12,25,29,,,,,,,,,6.8,3.9,5.6*34
Trace #44 at position 10.750000
$GPZDA,092759.03,09,10,2011,00,00*6F
$GPRMC,092759.00,A,4611.958103,N,01258.228472,E,001.7,335.5,091011,0.2,E,A*3A
$GPGGA,092800.00,4611.958672,N,01258.228335,E,1,04,3.9,133.14,M,46.25,M,,*66
$GPGLL,4611.958672,N,01258.228335,E,092800.00,A,A*6C
$GPVTG,355.2,T,355.4,M,002.6,N,004.8,K,A*2D
$GPGSV,2,1,07,02,35,061,43,12,45,092,44,14,18,241,36,25,77,053,47*7C
$GPGSV,2,2,07,29,67,235,40,30,47,298,32,31,38,308,,,,,*44
$GPGSA,M,3,02,12,25,29,,,,,,,,,6.8,3.9,5.6*34
Trace #45 at position 11.000000
$GPZDA,092759.03,09,10,2011,00,00*6F
$GPRMC,092759.00,A,4611.958103,N,01258.228472,E,001.7,335.5,091011,0.2,E,A*3A
$GPGGA,092800.00,4611.958672,N,01258.228335,E,1,04,3.9,133.14,M,46.25,M,,*66
$GPGLL,4611.958672,N,01258.228335,E,092800.00,A,A*6C
$GPVTG,355.2,T,355.4,M,002.6,N,004.8,K,A*2D
$GPGSV,2,1,07,02,35,061,43,12,45,092,44,14,18,241,36,25,77,053,47*7C
$GPGSV,2,2,07,29,67,235,40,30,47,298,32,31,38,308,,,,,*44
$GPGSA,M,3,02,12,25,29,,,,,,,,,6.8,3.9,5.6*34
Trace #46 at position 11.250000
$GPZDA,092759.03,09,10,2011,00,00*6F
$GPRMC,092759.00,A,4611.958103,N,01258.228472,E,001.7,335.5,091011,0.2,E,A*3A
$GPGGA,092800.00,4611.958672,N,01258.228335,E,1,04,3.9,133.14,M,46.25,M,,*66
$GPGLL,4611.958672,N,01258.228335,E,092800.00,A,A*6C
$GPVTG,355.2,T,355.4,M,002.6,N,004.8,K,A*2D
$GPGSV,2,1,07,02,35,061,43,12,45,092,44,14,18,241,36,25,77,053,47*7C
$GPGSV,2,2,07,29,67,235,40,30,47,298,32,31,38,308,,,,,*44
$GPGSA,M,3,02,12,25,29,,,,,,,,,6.8,3.9,5.6*34
Trace #47 at position 11.500000
$GPZDA,092800.03,09,10,2011,00,00*6C
$GPRMC,092800.00,A,4611.958672,N,01258.228335,E,002.6,355.2,091011,0.2,E,A*3F
$GPGGA,092801.00,4611.959174,N,01258.228291,E,1,04,3.9,133.32,M,46.25,M,,*6C
$GPGLL,4611.959174,N,01258.228291,E,092801.00,A,A*62
$GPVTG,351.7,T,351.8,M,001.1,N,002.0,K,A*2E
$GPGSV,2,1,07,02,35,061,43,12,45,092,43,14,18,241,37,25,77,053,47*7A
$GPGSV,2,2,07,29,67,235,41,30,47,298,31,31,38,308,,,,,*46
$GPGSA,M,3,02,12,25,29,,,,,,,,,6.8,3.9,5.6*34
Trace #48 at position 11.750000
$GPZDA,092800.03,09,10,2011,00,00*6C
$GPRMC,092800.00,A,4611.958672,N,01258.228335,E,002.6,355.2,091011,0.2,E,A*3F
$GPGGA,092801.00,4611.959174,N,01258.228291,E,1,04,3.9,133.32,M,46.25,M,,*6C
$GPGLL,4611.959174,N,01258.228291,E,092801.00,A,A*62
$GPVTG,351.7,T,351.8,M,001.1,N,002.0,K,A*2E
$GPGSV,2,1,07,02,35,061,43,12,45,092,43,14,18,241,37,25,77,053,47*7A
$GPGSV,2,2,07,29,67,235,41,30,47,298,31,31,38,308,,,,,*46
$GPGSA,M,3,02,12,25,29,,,,,,,,,6.8,3.9,5.6*34
Trace #49 at position 12.000000
$GPZDA,092800.03,09,10,2011,00,00*6C
$GPRMC,092800.00,A,4611.958672,N,01258.228335,E,002.6,355.2,091011,0.2,E,A*3F
$GPGGA,092801.00,4611.959174,N,01258.228291,E,1,04,3.9,133.32,M,46.25,M,,*6C
$GPGLL,4611.959174,N,01258.228291,E,092801.00,A,A*62
$GPVTG,351.7,T,351.8,M,001.1,N,002.0,K,A*2E
$GPGSV,2,1,07,02,35,061,43,12,45,092,43,14,18,241,37,25,77,053,47*7A
$GPGSV,2,2,07,29,67,235,41,30,47,298,31,31,38,308,,,,,*46
$GPGSA,M,3,02,12,25,29,,,,,,,,,6.8,3.9,5.6*34
Trace #50 at position 12.250000
$GPZDA,092800.03,09,10,2011,00,00*6C
$GPRMC,092800.00,A,4611.958672,N,01258.228335,E,002.6,355.2,091011,0.2,E,A*3F
$GPGGA,092801.00,4611.959174,N,01258.228291,E,1,04,3.9,133.32,M,46.25,M,,*6C
$GPGLL,4611.959174,N,01258.228291,E,092801.00,A,A*62
$GPVTG,351.7,T,351.8,M,001.1,N,002.0,K,A*2E
$GPGSV,2,1,07,02,35,061,43,12,45,092,43,14,18,241,37,25,77,053,47*7A
$GPGSV,2,2,07,29,67,235,41,30,47,298,31,31,38,308,,,,,*46
$GPGSA,M,3,02,12,25,29,,,,,,,,,6.8,3.9,5.6*34
Trace #51 at position 12.500000
$GPZDA,092801.03,09,10,2011,00,00*6D
$GPRMC,092801.00,A,4611.959174,N,01258.228291,E,001.1,351.7,091011,0.2,E,A*34
$GPGGA,092802.00,4611.959526,N,01258.228247,E,1,04,3.9,133.59,M,46.25,M,,*6A
$GPGLL,4611.959526,N,01258.228247,E,092802.00,A,A*69
$GPVTG,355.2,T,355.4,M,001.3,N,002.4,K,A*21
$GPGSV,2,1,07,02,35,061,43,12,45,092,43,14,18,241,38,25,77,053,46*74
$GPGSV,2,2,07,29,67,235,41,30,47,298,30,31,38,308,,,,,*47
$GPGSA,M,3,02,12,25,29,,,,,,,,,6.8,3.9,5.6*34
Trace #52 at position 12.750000
$GPZDA,092801.03,09,10,2011,00,00*6D
$GPRMC,092801.00,A,4611.959174,N,01258.228291,E,001.1,351.7,091011,0.2,E,A*34
$GPGGA,092802.00,4611.959526,N,01258.228247,E,1,04,3.9,133.59,M,46.25,M,,*6A
$GPGLL,4611.959526,N,01258.228247,E,092802.00,A,A*69
$GPVTG,355.2,T,355.4,M,001.3,N,002.4,K,A*21
$GPGSV,2,1,07,02,35,061,43,12,45,092,43,14,18,241,38,25,77,053,46*74
$GPGSV,2,2,07,29,67,235,41,30,47,298,30,31,38,308,,,,,*47
$GPGSA,M,3,02,12,25,29,,,,,,,,,6.8,3.9,5.6*34
Trace #53 at position 13.000000
$GPZDA,092801.03,09,10,2011,00,00*6D
$GPRMC,092801.00,A,4611.959174,N,01258.228291,E,001.1,351.7,091011,0.2,E,A*34
$GPGGA,092802.00,4611.959526,N,01258.228247,E,1,04,3.9,133.59,M,46.25,M,,*6A
$GPGLL,4611.959526,N,01258.228247,E,092802.00,A,A*69
$GPVTG,355.2,T,355.4,M,001.3,N,002.4,K,A*21
$GPGSV,2,1,07,02,35,061,43,12,45,092,43,14,18,241,38,25,77,053,46*74
$GPGSV,2,2,07,29,67,235,41,30,47,298,30,31,38,308,,,,,*47
$GPGSA,M,3,02,12,25,29,,,,,,,,,6.8,3.9,5.6*34
Trace #54 at position 13.250000
$GPZDA,092802.03,09,10,2011,00,00*6E
$GPRMC,092802.00,A,4611.959526,N,01258.228247,E,001.3,355.2,091011,0.2,E,A*3C
$GPGGA,092803.00,4611.959916,N,01258.228076,E,1,04,3.9,133.69,M,46.25,M,,*67
$GPGLL,4611.959916,N,01258.228076,E,092803.00,A,A*67
$GPVTG,327.9,T,328.1,M,001.5,N,002.7,K,A*25
$GPGSV,2,1,07,02,35,061,43,12,45,092,44,14,18,241,38,25,77,053,47*72
$GPGSV,2,2,07,29,67,235,41,30,47,298,32,31,38,308,,,,,*45
$GPGSA,M,3,02,12,25,29,,,,,,,,,6.8,3.9,5.6*34
Trace #55 at position 13.500000
$GPZDA,092802.03,09,10,2011,00,00*6E
$GPRMC,092802.00,A,4611.959526,N,01258.228247,E,001.3,355.2,091011,0.2,E,A*3C
$GPGGA,092803.00,4611.959916,N,01258.228076,E,1,04,3.9,133.69,M,46.25,M,,*67
$GPGLL,4611.959916,N,01258.228076,E,092803.00,A,A*67
$GPVTG,327.9,T,328.1,M,001.5,N,002.7,K,A*25
$GPGSV,2,1,07,02,35,061,43,12,45,092,44,14,18,241,38,25,77,053,47*72
$GPGSV,2,2,07,29,67,235,41,30,47,298,32,31,38,308,,,,,*45
$GPGSA,M,3,02,12,25,29,,,,,,,,,6.8,3.9,5.6*34
Trace #56 at position 13.750000
$GPZDA,092802.03,09,10,2011,00,00*6E
$GPRMC,092802.00,A,4611.959526,N,01258.228247,E,001.3,355.2,091011,0.2,E,A*3C
$GPGGA,092803.00,4611.959916,N,01258.228076,E,1,04,3.9,133.69,M,46.25,M,,*67
$GPGLL,4611.959916,N,01258.228076,E,092803.00,A,A*67
$GPVTG,327.9,T,328.1,M,001.5,N,002.7,K,A*25
$GPGSV,2,1,07,02,35,061,43,12,45,092,44,14,18,241,38,25,77,053,47*72
$GPGSV,2,2,07,29,67,235,41,30,47,298,32,31,38,308,,,,,*45
$GPGSA,M,3,02,12,25,29,,,,,,,,,6.8,3.9,5.6*34
Trace #57 at position 14.000000
$GPZDA,092802.03,09,10,2011,00,00*6E
$GPRMC,092802.00,A,4611.959526,N,01258.228247,E,001.3,355.2,091011,0.2,E,A*3C
$GPGGA,092803.00,4611.959916,N,01258.228076,E,1,04,3.9,133.69,M,46.25,M,,*67
$GPGLL,4611.959916,N,01258.228076,E,092803.00,A,A*67
$GPVTG,327.9,T,328.1,M,001.5,N,002.7,K,A*25
$GPGSV,2,1,07,02,35,061,43,12,45,092,44,14,18,241,38,25,77,053,47*72
$GPGSV,2,2,07,29,67,235,41,30,47,298,32,31,38,308,,,,,*45
$GPGSA,M,3,02,12,25,29,,,,,,,,,6.8,3.9,5.6*34
Trace #58 at position 14.250000
$GPZDA,092803.03,09,10,2011,00,00*6F
$GPRMC,092803.00,A,4611.959916,N,01258.228076,E,001.5,327.9,091011,0.2,E,A*3A
$GPGGA,092804.00,4611.960277,N,01258.227833,E,1,04,3.9,133.76,M,46.25,M,,*6E
$GPGLL,4611.960277,N,01258.227833,E,092804.00,A,A*60
$GPVTG,333.1,T,333.2,M,001.1,N,002.0,K,A*22
$GPGSV,2,1,07,02,35,061,43,12,45,092,43,14,18,241,38,25,77,053,48*7A
$GPGSV,2,2,07,29,67,235,41,30,47,298,32,31,38,308,,,,,*45
$GPGSA,M,3,02,12,25,29,,,,,,,,,6.8,3.9,5.6*34
Trace #59 at position 14.500000
$GPZDA,092803.03,09,10,2011,00,00*6F
$GPRMC,092803.00,A,4611.959916,N,01258.228076,E,001.5,327.9,091011,0.2,E,A*3A
$GPGGA,092804.00,4611.960277,N,01258.227833,E,1,04,3.9,133.76,M,46.25,M,,*6E
$GPGLL,4611.960277,N,01258.227833,E,092804.00,A,A*60
$GPVTG,333.1,T,333.2,M,001.1,N,002.0,K,A*22
$GPGSV,2,1,07,02,35,061,43,12,45,092,43,14,18,241,38,25,77,053,48*7A
$GPGSV,2,2,07,29,67,235,41,30,47,298,32,31,38,308,,,,,*45
$GPGSA,M,3,02,12,25,29,,,,,,,,,6.8,3.9,5.6*34
Trace #60 at position 14.750000
$GPZDA,092803.03,09,10,2011,00,00*6F
$GPRMC,092803.00,A,4611.959916,N,01258.228076,E,001.5,327.9,091011,0.2,E,A*3A
$GPGGA,092804.00,4611.960277,N,01258.227833,E,1,04,3.9,133.76,M,46.25,M,,*6E
$GPGLL,4611.960277,N,01258.227833,E,092804.00,A,A*60
$GPVTG,333.1,T,333.2,M,001.1,N,002.0,K,A*22
$GPGSV,2,1,07,02,35,061,43,12,45,092,43,14,18,241,38,25,77,053,48*7A
$GPGSV,2,2,07,29,67,235,41,30,47,298,32,31,38,308,,,,,*45
$GPGSA,M,3,02,12,25,29,,,,,,,,,6.8,3.9,5.6*34
Trace #61 at position 15.000000
$GPZDA,092803.03,09,10,2011,00,00*6F
$GPRMC,092803.00,A,4611.959916,N,01258.228076,E,001.5,327.9,091011,0.2,E,A*3A
$GPGGA,092804.00,4611.960277,N,01258.227833,E,1,04,3.9,133.76,M,46.25,M,,*6E
$GPGLL,4611.960277,N,01258.227833,E,092804.00,A,A*60
$GPVTG,333.1,T,333.2,M,001.1,N,002.0,K,A*22
$GPGSV,2,1,07,02,35,061,43,12,45,092,43,14,18,241,38,25,77,053,48*7A
$GPGSV,2,2,07,29,67,235,41,30,47,298,32,31,38,308,,,,,*45
$GPGSA,M,3,02,12,25,29,,,,,,,,,6.8,3.9,5.6*34
Trace #62 at position 15.250000
$GPZDA,092804.03,09,10,2011,00,00*68
$GPRMC,092804.00,A,4611.960277,N,01258.227833,E,001.1,333.1,091011,0.2,E,A*34
$GPGGA,092805.00,4611.960701,N,01258.227813,E,1,05,3.4,134.64,M,46.25,M,,*61
$GPGLL,4611.960701,N,01258.227813,E,092805.00,A,A*67
$GPVTG,333.9,T,334.1,M,001.8,N,003.4,K,A*22
$GPGSV,2,1,07,02,35,061,43,12,45,092,43,14,18,241,39,25,77,053,47*74
$GPGSV,2,2,07,29,67,235,42,30,47,298,34,31,38,308,,,,,*40
$GPGSA,M,3,02,12,14,25,29,,,,,,,,3.9,3.4,2.0*39
Trace #63 at position 15.500000
$GPZDA,092804.03,09,10,2011,00,00*68
$GPRMC,092804.00,A,4611.960277,N,01258.227833,E,001.1,333.1,091011,0.2,E,A*34
$GPGGA,092805.00,4611.960701,N,01258.227813,E,1,05,3.4,134.64,M,46.25,M,,*61
$GPGLL,4611.960701,N,01258.227813,E,092805.00,A,A*67
$GPVTG,333.9,T,334.1,M,001.8,N,003.4,K,A*22
$GPGSV,2,1,07,02,35,061,43,12,45,092,43,14,18,241,39,25,77,053,47*74
$GPGSV,2,2,07,29,67,235,42,30,47,298,34,31,38,308,,,,,*40
$GPGSA,M,3,02,12,14,25,29,,,,,,,,3.9,3.4,2.0*39
Trace #64 at position 15.750000
$GPZDA,092804.03,09,10,2011,00,00*68
$GPRMC,092804.00,A,4611.960277,N,01258.227833,E,001.1,333.1,091011,0.2,E,A*34
$GPGGA,092805.00,4611.960701,N,01258.227813,E,1,05,3.4,134.64,M,46.25,M,,*61
$GPGLL,4611.960701,N,01258.227813,E,092805.00,A,A*67
$GPVTG,333.9,T,334.1,M,001.8,N,003.4,K,A*22
$GPGSV,2,1,07,02,35,061,43,12,45,092,43,14,18,241,39,25,77,053,47*74
$GPGSV,2,2,07,29,67,235,42,30,47,298,34,31,38,308,,,,,*40
$GPGSA,M,3,02,12,14,25,29,,,,,,,,3.9,3.4,2.0*39
Trace #65 at position 16.000000
$GPZDA,092805.03,09,10,2011,00,00*69
$GPRMC,092805.00,A,4611.960701,N,01258.227813,E,001.8,333.9,091011,0.2,E,A*32
$GPGGA,092806.00,4611.961227,N,01258.227800,E,1,05,3.4,135.43,M,46.25,M,,*64
$GPGLL,4611.961227,N,01258.227800,E,092806.00,A,A*66
$GPVTG,347.6,T,347.7,M,001.8,N,003.3,K,A*2B
$GPGSV,2,1,07,02,35,061,43,12,45,092,44,14,18,241,38,25,77,053,47*72
$GPGSV,2,2,07,29,67,235,40,30,47,298,31,31,38,308,,,,,*47
$GPGSA,M,3,02,12,14,25,29,,,,,,,,3.9,3.4,2.0*39
Trace #66 at position 16.250000
$GPZDA,092805.03,09,10,2011,00,00*69
$GPRMC,092805.00,A,4611.960701,N,01258.227813,E,001.8,333.9,091011,0.2,E,A*32
$GPGGA,092806.00,4611.961227,N,01258.227800,E,1,05,3.4,135.43,M,46.25,M,,*64
$GPGLL,4611.961227,N,01258.227800,E,092806.00,A,A*66
$GPVTG,347.6,T,347.7,M,001.8,N,003.3,K,A*2B
$GPGSV,2,1,07,02,35,061,43,12,45,092,44,14,18,241,38,25,77,053,47*72
$GPGSV,2,2,07,29,67,235,40,30,47,298,31,31,38,308,,,,,*47
$GPGSA,M,3,02,12,14,25,29,,,,,,,,3.9,3.4,2.0*39
Trace #67 at position 16.500000
$GPZDA,092805.03,09,10,2011,00,00*69
$GPRMC,092805.00,A,4611.960701,N,01258.227813,E,001.8,333.9,091011,0.2,E,A*32
$GPGGA,092806.00,4611.961227,N,01258.227800,E,1,05,3.4,135.43,M,46.25,M,,*64
$GPGLL,4611.961227,N,01258.227800,E,092806.00,A,A*66
$GPVTG,347.6,T,347.7,M,001.8,N,003.3,K,A*2B
$GPGSV,2,1,07,02,35,061,43,12,45,092,44,14,18,241,38,25,77,053,47*72
$GPGSV,2,2,07,29,67,235,40,30,47,298,31,31,38,308,,,,,*47
$GPGSA,M,3,02,12,14,25,29,,,,,,,,3.9,3.4,2.0*39
Trace #68 at position 16.750000
$GPZDA,092806.03,09,10,2011,00,00*6A
$GPRMC,092806.00,A,4611.961227,N,01258.227800,E,001.8,347.6,091011,0.2,E,A*3F
$GPGGA,092807.00,4611.961676,N,01258.227854,E,1,05,3.4,136.13,M,46.25,M,,*62
$GPGLL,4611.961676,N,01258.227854,E,092807.00,A,A*66
$GPVTG,343.1,T,343.2,M,001.2,N,002.2,K,A*23
$GPGSV,2,1,07,02,35,061,43,12,45,092,44,14,18,241,39,25,77,053,46*72
$GPGSV,2,2,07,29,67,235,40,30,47,298,32,31,38,308,,,,,*44
$GPGSA,M,3,02,12,14,25,29,,,,,,,,3.9,3.4,2.0*39
Trace #69 at position 17.000000
$GPZDA,092806.03,09,10,2011,00,00*6A
$GPRMC,092806.00,A,4611.961227,N,01258.227800,E,001.8,347.6,091011,0.2,E,A*3F
$GPGGA,092807.00,4611.961676,N,01258.227854,E,1,05,3.4,136.13,M,46.25,M,,*62
$GPGLL,4611.961676,N,01258.227854,E,092807.00,A,A*66
$GPVTG,343.1,T,343.2,M,001.2,N,002.2,K,A*23
$GPGSV,2,1,07,02,35,061,43,12,45,092,44,14,18,241,39,25,77,053,46*72
$GPGSV,2,2,07,29,67,235,40,30,47,298,32,31,38,308,,,,,*44
$GPGSA,M,3,02,12,14,25,29,,,,,,,,3.9,3.4,2.0*39
Trace #70 at position 17.250000
$GPZDA,092806.03,09,10,2011,00,00*6A
$GPRMC,092806.00,A,4611.961227,N,01258.227800,E,001.8,347.6,091011,0.2,E,A*3F
$GPGGA,092807.00,4611.961676,N,01258.227854,E,1,05,3.4,136.13,M,46.25,M,,*62
$GPGLL,4611.961676,N,01258.227854,E,092807.00,A,A*66
$GPVTG,343.1,T,343.2,M,001.2,N,002.2,K,A*23
$GPGSV,2,1,07,02,35,061,43,12,45,092,44,14,18,241,39,25,77,053,46*72
$GPGSV,2,2,07,29,67,235,40,30,47,298,32,31,38,308,,,,,*44
$GPGSA,M,3,02,12,14,25,29,,,,,,,,3.9,3.4,2.0*39
Trace #71 at position 17.500000
$GPZDA,092806.03,09,10,2011,00,00*6A
$GPRMC,092806.00,A,4611.961227,N,01258.227800,E,001.8,347.6,091011,0.2,E,A*3F
$GPGGA,092807.00,4611.961676,N,01258.227854,E,1,05,3.4,136.13,M,46.25,M,,*62
$GPGLL,4611.961676,N,01258.227854,E,092807.00,A,A*66
$GPVTG,343.1,T,343.2,M,001.2,N,002.2,K,A*23
$GPGSV,2,1,07,02,35,061,43,12,45,092,44,14,18,241,39,25,77,053,46*72
$GPGSV,2,2,07,29,67,235,40,30,47,298,32,31,38,308,,,,,*44
$GPGSA,M,3,02,12,14,25,29,,,,,,,,3.9,3.4,2.0*39
Trace #72 at position 17.750000
$GPZDA,092807.03,09,10,2011,00,00*6B
$GPRMC,092807.00,A,4611.961676,N,01258.227854,E,001.2,343.1,091011,0.2,E,A*36
$GPGGA,092808.00,4611.961997,N,01258.227925,E,1,05,3.4,136.76,M,46.25,M,,*69
$GPGLL,4611.961997,N,01258.227925,E,092808.00,A,A*6E
$GPVTG,350.2,T,350.3,M,000.8,N,001.4,K,A*2F
$GPGSV,2,1,07,02,35,061,42,12,45,092,43,14,18,241,37,25,77,053,46*7A
$GPGSV,2,2,07,29,67,235,42,30,47,298,32,31,38,308,,,,,*46
$GPGSA,M,3,02,12,14,25,29,,,,,,,,3.9,3.4,2.0*39
Trace #73 at position 18.000000
$GPZDA,092807.03,09,10,2011,00,00*6B
$GPRMC,092807.00,A,4611.961676,N,01258.227854,E,001.2,343.1,091011,0.2,E,A*36
$GPGGA,092808.00,4611.961997,N,01258.227925,E,1,05,3.4,136.76,M,46.25,M,,*69
$GPGLL,4611.961997,N,01258.227925,E,092808.00,A,A*6E
$GPVTG,350.2,T,350.3,M,000.8,N,001.4,K,A*2F
$GPGSV,2,1,07,02,35,061,42,12,45,092,43,14,18,241,37,25,77,053,46*7A
$GPGSV,2,2,07,29,67,235,42,30,47,298,32,31,38,308,,,,,*46
$GPGSA,M,3,02,12,14,25,29,,,,,,,,3.9,3.4,2.0*39
Trace #74 at position 18.250000
$GPZDA,092807.03,09,10,2011,00,00*6B
$GPRMC,092807.00,A,4611.961676,N,01258.227854,E,001.2,343.1,091011,0.2,E,A*36
$GPGGA,092808.00,4611.961997,N,01258.227925,E,1,05,3.4,136.76,M,46.25,M,,*69
$GPGLL,4611.961997,N,01258.227925,E,092808.00,A,A*6E
$GPVTG,350.2,T,350.3,M,000.8,N,001.4,K,A*2F
$GPGSV,2,1,07,02,35,061,42,12,45,092,43,14,18,241,37,25,77,053,46*7A
$GPGSV,2,2,07,29,67,235,42,30,47,298,32,31,38,308,,,,,*46
$GPGSA,M,3,02,12,14,25,29,,,,,,,,3.9,3.4,2.0*39
Trace #75 at position 18.500000
$GPZDA,092808.03,09,10,2011,00,00*64
$GPRMC,092808.00,A,4611.961997,N,01258.227925,E,000.8,350.2,091011,0.2,E,A*34
$GPGGA,092809.00,4611.962475,N,01258.227858,E,1,05,3.4,137.26,M,46.25,M,,*65
$GPGLL,4611.962475,N,01258.227858,E,092809.00,A,A*66
$GPVTG,338.1,T,338.3,M,002.5,N,004.6,K,A*24
$GPGSV,2,1,07,02,35,061,43,12,45,092,43,14,18,241,39,25,77,053,47*74
$GPGSV,2,2,07,29,67,235,41,30,47,298,35,31,38,308,,,,,*42
$GPGSA,M,3,02,12,14,25,29,,,,,,,,3.9,3.4,2.0*39
Trace #76 at position 18.750000
$GPZDA,092808.03,09,10,2011,00,00*64
$GPRMC,092808.00,A,4611.961997,N,01258.227925,E,000.8,350.2,091011,0.2,E,A*34
$GPGGA,092809.00,4611.962475,N,01258.227858,E,1,05,3.4,137.26,M,46.25,M,,*65
$GPGLL,4611.962475,N,01258.227858,E,092809.00,A,A*66
$GPVTG,338.1,T,338.3,M,002.5,N,004.6,K,A*24
$GPGSV,2,1,07,02,35,061,43,12,45,092,43,14,18,241,39,25,77,053,47*74
$GPGSV,2,2,07,29,67,235,41,30,47,298,35,31,38,308,,,,,*42
$GPGSA,M,3,02,12,14,25,29,,,,,,,,3.9,3.4,2.0*39
Trace #77 at position 19.000000
$GPZDA,092808.03,09,10,2011,00,00*64
$GPRMC,092808.00,A,4611.961997,N,01258.227925,E,000.8,350.2,091011,0.2,E,A*34
$GPGGA,092809.00,4611.962475,N,01258.227858,E,1,05,3.4,137.26,M,46.25,M,,*65
$GPGLL,4611.962475,N,01258.227858,E,092809.00,A,A*66
$GPVTG,338.1,T,338.3,M,002.5,N,004.6,K,A*24
$GPGSV,2,1,07,02,35,061,43,12,45,092,43,14,18,241,39,25,77,053,47*74
$GPGSV,2,2,07,29,67,235,41,30,47,298,35,31,38,308,,,,,*42
$GPGSA,M,3,02,12,14,25,29,,,,,,,,3.9,3.4,2.0*39
Trace #78 at position 19.250000
$GPZDA,092808.03,09,10,2011,00,00*64
$GPRMC,092808.00,A,4611.961997,N,01258.227925,E,000.8,350.2,091011,0.2,E,A*34
$GPGGA,092809.00,4611.962475,N,01258.227858,E,1,05,3.4,137.26,M,46.25,M,,*65
$GPGLL,4611.962475,N,01258.227858,E,092809.00,A,A*66
$GPVTG,338.1,T,338.3,M,002.5,N,004.6,K,A*24
$GPGSV,2,1,07,02,35,061,43,12,45,092,43,14,18,241,39,25,77,053,47*74
$GPGSV,2,2,07,29,67,235,41,30,47,298,35,31,38,308,,,,,*42
$GPGSA,M,3,02,12,14,25,29,,,,,,,,3.9,3.4,2.0*39
Trace #79 at position 19.500000
$GPZDA,092809.03,09,10,2011,00,00*65
$GPRMC,092809.00,A,4611.962475,N,01258.227858,E,002.5,338.1,091011,0.2,E,A*3E
$GPGGA,092810.00,4611.963059,N,01258.227713,E,1,05,3.4,137.60,M,46.25,M,,*64
$GPGLL,4611.963059,N,01258.227713,E,092810.00,A,A*65
$GPVTG,343.4,T,343.6,M,001.7,N,003.1,K,A*25
$GPGSV,2,1,07,02,35,061,43,12,45,092,43,14,18,241,38,25,77,053,46*74
$GPGSV,2,2,07,29,67,235,40,30,47,298,34,31,38,308,,,,,*42
$GPGSA,M,3,02,12,14,25,29,,,,,,,,3.9,3.4,2.0*39
Trace #80 at position 19.750000
$GPZDA,092809.03,09,10,2011,00,00*65
$GPRMC,092809.00,A,4611.962475,N,01258.227858,E,002.5,338.1,091011,0.2,E,A*3E
$GPGGA,092810.00,4611.963059,N,01258.227713,E,1,05,3.4,137.60,M,46.25,M,,*64
$GPGLL,4611.963059,N,01258.227713,E,092810.00,A,A*65
$GPVTG,343.4,T,343.6,M,001.7,N,003.1,K,A*25
$GPGSV,2,1,07,02,35,061,43,12,45,092,43,14,18,241,38,25,77,053,46*74
$GPGSV,2,2,07,29,67,235,40,30,47,298,34,31,38,308,,,,,*42
$GPGSA,M,3,02,12,14,25,29,,,,,,,,3.9,3.4,2.0*39
Trace #81 at position 20.000000
$GPZDA,092809.03,09,10,2011,00,00*65
$GPRMC,092809.00,A,4611.962475,N,01258.227858,E,002.5,338.1,091011,0.2,E,A*3E
$GPGGA,092810.00,4611.963059,N,01258.227713,E,1,05,3.4,137.60,M,46.25,M,,*64
$GPGLL,4611.963059,N,01258.227713,E,092810.00,A,A*65
$GPVTG,343.4,T,343.6,M,001.7,N,003.1,K,A*25
$GPGSV,2,1,07,02,35,061,43,12,45,092,43,14,18,241,38,25,77,053,46*74
$GPGSV,2,2,07,29,67,235,40,30,47,298,34,31,38,308,,,,,*42
$GPGSA,M,3,02,12,14,25,29,,,,,,,,3.9,3.4,2.0*39
Trace #82 at position 20.250000
$GPZDA,092809.03,09,10,2011,00,00*65
$GPRMC,092809.00,A,4611.962475,N,01258.227858,E,002.5,338.1,091011,0.2,E,A*3E
$GPGGA,092810.00,4611.963059,N,01258.227713,E,1,05,3.4,137.60,M,46.25,M,,*64
$GPGLL,4611.963059,N,01258.227713,E,092810.00,A,A*65
$GPVTG,343.4,T,343.6,M,001.7,N,003.1,K,A*25
$GPGSV,2,1,07,02,35,061,43,12,45,092,43,14,18,241,38,25,77,053,46*74
$GPGSV,2,2,07,29,67,235,40,30,47,298,34,31,38,308,,,,,*42
$GPGSA,M,3,02,12,14,25,29,,,,,,,,3.9,3.4,2.0*39
Trace #83 at position 20.500000
$GPZDA,092810.03,09,10,2011,00,00*6D
$GPRMC,092810.00,A,4611.963059,N,01258.227713,E,001.7,343.4,091011,0.2,E,A*35
$GPGGA,092811.00,4611.963488,N,01258.227640,E,1,05,3.4,137.96,M,46.25,M,,*63
$GPGLL,4611.963488,N,01258.227640,E,092811.00,A,A*6B
$GPVTG,338.1,T,338.2,M,001.2,N,002.3,K,A*22
$GPGSV,2,1,07,02,35,061,43,12,45,092,44,14,18,241,40,25,77,053,47*7D
$GPGSV,2,2,07,29,67,235,41,30,47,298,34,31,38,308,,,,,*43
$GPGSA,M,3,02,12,14,25,29,,,,,,,,3.9,3.4,2.0*39
Trace #84 at position 20.750000
$GPZDA,092810.03,09,10,2011,00,00*6D
$GPRMC,092810.00,A,4611.963059,N,01258.227713,E,001.7,343.4,091011,0.2,E,A*35
$GPGGA,092811.00,4611.963488,N,01258.227640,E,1,05,3.4,137.96,M,46.25,M,,*63
$GPGLL,4611.963488,N,01258.227640,E,092811.00,A,A*6B
$GPVTG,338.1,T,338.2,M,001.2,N,002.3,K,A*22
$GPGSV,2,1,07,02,35,061,43,12,45,092,44,14,18,241,40,25,77,053,47*7D
$GPGSV,2,2,07,29,67,235,41,30,47,298,34,31,38,308,,,,,*43
$GPGSA,M,3,02,12,14,25,29,,,,,,,,3.9,3.4,2.0*39
Trace #85 at position 21.000000
$GPZDA,092811.03,09,10,2011,00,00*6C
$GPRMC,092811.00,A,4611.963488,N,01258.227640,E,001.2,338.1,091011,0.2,E,A*37
$GPGGA,092812.00,4611.963883,N,01258.227546,E,1,05,3.4,138.39,M,46.25,M,,*68
$GPGLL,4611.963883,N,01258.227546,E,092812.00,A,A*6A
$GPVTG,338.4,T,338.6,M,001.4,N,002.5,K,A*23
$GPGSV,2,1,07,02,35,061,43,12,45,092,44,14,17,241,38,25,77,053,47*7D
$GPGSV,2,2,07,29,67,235,42,30,47,298,32,31,38,308,30,,,,*45
$GPGSA,M,3,02,12,14,25,29,,,,,,,,3.9,3.4,2.0*39
Trace #86 at position 21.250000
$GPZDA,092811.03,09,10,2011,00,00*6C
$GPRMC,092811.00,A,4611.963488,N,01258.227640,E,001.2,338.1,091011,0.2,E,A*37
$GPGGA,092812.00,4611.963883,N,01258.227546,E,1,05,3.4,138.39,M,46.25,M,,*68
$GPGLL,4611.963883,N,01258.227546,E,092812.00,A,A*6A
$GPVTG,338.4,T,338.6,M,001.4,N,002.5,K,A*23
$GPGSV,2,1,07,02,35,061,43,12,45,092,44,14,17,241,38,25,77,053,47*7D
$GPGSV,2,2,07,29,67,235,42,30,47,298,32,31,38,308,30,,,,*45
$GPGSA,M,3,02,12,14,25,29,,,,,,,,3.9,3.4,2.0*39
Trace #87 at position 21.500000
$GPZDA,092813.03,09,10,2011,00,00*6E
$GPRMC,092813.00,A,4611.964429,N,01258.227429,E,002.4,347.3,091011,0.2,E,A*3B
$GPGGA,092814.00,4611.964810,N,01258.227405,E,1,05,3.4,138.83,M,46.25,M,,*64
$GPGLL,4611.964810,N,01258.227405,E,092814.00,A,A*67
$GPVTG,7.1,T,7.3,M,000.2,N,000.5,K,A*26
$GPGSV,2,1,07,02,35,061,43,12,45,092,43,14,17,240,40,25,77,054,46*72
$GPGSV,2,2,07,29,67,235,38,30,47,298,33,31,38,308,,,,,*4A
$GPGSA,M,3,02,12,14,25,29,,,,,,,,3.9,3.4,1.9*33
Trace #88 at position 21.750000
$GPZDA,092813.03,09,10,2011,00,00*6E
$GPRMC,092813.00,A,4611.964429,N,01258.227429,E,002.4,347.3,091011,0.2,E,A*3B
$GPGGA,092814.00,4611.964810,N,01258.227405,E,1,05,3.4,138.83,M,46.25,M,,*64
$GPGLL,4611.964810,N,01258.227405,E,092814.00,A,A*67
$GPVTG,7.1,T,7.3,M,000.2,N,000.5,K,A*26
$GPGSV,2,1,07,02,35,061,43,12,45,092,43,14,17,240,40,25,77,054,46*72
$GPGSV,2,2,07,29,67,235,38,30,47,298,33,31,38,308,,,,,*4A
$GPGSA,M,3,02,12,14,25,29,,,,,,,,3.9,3.4,1.9*33
Trace #89 at position 22.000000
$GPZDA,092813.03,09,10,2011,00,00*6E
$GPRMC,092813.00,A,4611.964429,N,01258.227429,E,002.4,347.3,091011,0.2,E,A*3B
$GPGGA,092814.00,4611.964810,N,01258.227405,E,1,05,3.4,138.83,M,46.25,M,,*64
$GPGLL,4611.964810,N,01258.227405,E,092814.00,A,A*67
$GPVTG,7.1,T,7.3,M,000.2,N,000.5,K,A*26
$GPGSV,2,1,07,02,35,061,43,12,45,092,43,14,17,240,40,25,77,054,46*72
$GPGSV,2,2,07,29,67,235,38,30,47,298,33,31,38,308,,,,,*4A
$GPGSA,M,3,02,12,14,25,29,,,,,,,,3.9,3.4,1.9*33
Trace #90 at position 22.250000
$GPZDA,092814.03,09,10,2011,00,00*69
$GPRMC,092814.00,A,4611.964810,N,01258.227405,E,000.2,7.1,091011,0.2,E,A*35
$GPGGA,092815.00,4611.964840,N,01258.227505,E,1,05,3.4,139.10,M,46.25,M,,*6A
$GPGLL,4611.964840,N,01258.227505,E,092815.00,A,A*62
$GPVTG,139.1,T,139.3,M,000.2,N,000.4,K,A*27
$GPGSV,2,1,07,02,35,061,42,12,45,092,44,14,17,240,40,25,77,054,46*74
$GPGSV,2,2,07,29,67,235,40,30,47,298,33,31,38,308,33,,,,*45
$GPGSA,M,3,02,12,14,25,29,,,,,,,,3.9,3.4,1.9*33
Trace #91 at position 22.500000
$GPZDA,092814.03,09,10,2011,00,00*69
$GPRMC,092814.00,A,4611.964810,N,01258.227405,E,000.2,7.1,091011,0.2,E,A*35
$GPGGA,092815.00,4611.964840,N,01258.227505,E,1,05,3.4,139.10,M,46.25,M,,*6A
$GPGLL,4611.964840,N,01258.227505,E,092815.00,A,A*62
$GPVTG,139.1,T,139.3,M,000.2,N,000.4,K,A*27
$GPGSV,2,1,07,02,35,061,42,12,45,092,44,14,17,240,40,25,77,054,46*74
$GPGSV,2,2,07,29,67,235,40,30,47,298,33,31,38,308,33,,,,*45
$GPGSA,M,3,02,12,14,25,29,,,,,,,,3.9,3.4,1.9*33
Trace #92 at position 22.750000
$GPZDA,092814.03,09,10,2011,00,00*69
$GPRMC,092814.00,A,4611.964810,N,01258.227405,E,000.2,7.1,091011,0.2,E,A*35
$GPGGA,092815.00,4611.964840,N,01258.227505,E,1,05,3.4,139.10,M,46.25,M,,*6A
$GPGLL,4611.964840,N,01258.227505,E,092815.00,A,A*62
$GPVTG,139.1,T,139.3,M,000.2,N,000.4,K,A*27
$GPGSV,2,1,07,02,35,061,42,12,45,092,44,14,17,240,40,25,77,054,46*74
$GPGSV,2,2,07,29,67,235,40,30,47,298,33,31,38,308,33,,,,*45
$GPGSA,M,3,02,12,14,25,29,,,,,,,,3.9,3.4,1.9*33
Trace #93 at position 23.000000
$GPZDA,092815.03,09,10,2011,00,00*68
$GPRMC,092815.00,A,4611.964840,N,01258.227505,E,000.2,139.1,091011,0.2,E,A*3C
$GPGGA,092816.00,4611.965070,N,01258.227358,E,1,04,3.9,138.52,M,46.25,M,,*66
$GPGLL,4611.965070,N,01258.227358,E,092816.00,A,A*65
$GPVTG,356.5,T,356.6,M,001.7,N,003.1,K,A*24
$GPGSV,2,1,07,02,35,061,42,12,45,092,43,14,17,240,36,25,77,054,47*73
$GPGSV,2,2,07,29,67,235,42,30,47,298,31,31,38,308,28,,,,*4F
$GPGSA,M,3,02,12,25,29,,,,,,,,,6.8,3.9,5.6*34
Trace #94 at position 23.250000
$GPZDA,092815.03,09,10,2011,00,00*68
$GPRMC,092815.00,A,4611.964840,N,01258.227505,E,000.2,139.1,091011,0.2,E,A*3C
$GPGGA,092816.00,4611.965070,N,01258.227358,E,1,04,3.9,138.52,M,46.25,M,,*66
$GPGLL,4611.965070,N,01258.227358,E,092816.00,A,A*65
$GPVTG,356.5,T,356.6,M,001.7,N,003.1,K,A*24
$GPGSV,2,1,07,02,35,061,42,12,45,092,43,14,17,240,36,25,77,054,47*73
$GPGSV,2,2,07,29,67,235,42,30,47,298,31,31,38,308,28,,,,*4F
$GPGSA,M,3,02,12,25,29,,,,,,,,,6.8,3.9,5.6*34
Trace #95 at position 23.500000
$GPZDA,092815.03,09,10,2011,00,00*68
$GPRMC,092815.00,A,4611.964840,N,01258.227505,E,000.2,139.1,091011,0.2,E,A*3C
$GPGGA,092816.00,4611.965070,N,01258.227358,E,1,04,3.9,138.52,M,46.25,M,,*66
$GPGLL,4611.965070,N,01258.227358,E,092816.00,A,A*65
$GPVTG,356.5,T,356.6,M,001.7,N,003.1,K,A*24
$GPGSV,2,1,07,02,35,061,42,12,45,092,43,14,17,240,36,25,77,054,47*73
$GPGSV,2,2,07,29,67,235,42,30,47,298,31,31,38,308,28,,,,*4F
$GPGSA,M,3,02,12,25,29,,,,,,,,,6.8,3.9,5.6*34
Trace #96 at position 23.750000
$GPZDA,092816.03,09,10,2011,00,00*6B
$GPRMC,092816.00,A,4611.965070,N,01258.227358,E,001.7,356.5,091011,0.2,E,A*30
$GPGGA,092817.00,4611.965558,N,01258.227023,E,1,04,3.9,138.02,M,46.25,M,,*62
$GPGLL,4611.965558,N,01258.227023,E,092817.00,A,A*64
$GPVTG,333.4,T,333.6,M,002.0,N,003.7,K,A*27
$GPGSV,2,1,07,02,35,061,42,12,45,092,42,14,17,240,,25,77,054,47*77
$GPGSV,2,2,07,29,67,235,41,30,47,298,32,31,38,308,27,,,,*40
$GPGSA,M,3,02,12,25,29,,,,,,,,,6.8,3.9,5.6*34
Trace #97 at position 24.000000
$GPZDA,092816.03,09,10,2011,00,00*6B
$GPRMC,092816.00,A,4611.965070,N,01258.227358,E,001.7,356.5,091011,0.2,E,A*30
$GPGGA,092817.00,4611.965558,N,01258.227023,E,1,04,3.9,138.02,M,46.25,M,,*62
$GPGLL,4611.965558,N,01258.227023,E,092817.00,A,A*64
$GPVTG,333.4,T,333.6,M,002.0,N,003.7,K,A*27
$GPGSV,2,1,07,02,35,061,42,12,45,092,42,14,17,240,,25,77,054,47*77
$GPGSV,2,2,07,29,67,235,41,30,47,298,32,31,38,308,27,,,,*40
$GPGSA,M,3,02,12,25,29,,,,,,,,,6.8,3.9,5.6*34
Trace #98 at position 24.250000
$GPZDA,092816.03,09,10,2011,00,00*6B
$GPRMC,092816.00,A,4611.965070,N,01258.227358,E,001.7,356.5,091011,0.2,E,A*30
$GPGGA,092817.00,4611.965558,N,01258.227023,E,1,04,3.9,138.02,M,46.25,M,,*62
$GPGLL,4611.965558,N,01258.227023,E,092817.00,A,A*64
$GPVTG,333.4,T,333.6,M,002.0,N,003.7,K,A*27
$GPGSV,2,1,07,02,35,061,42,12,45,092,42,14,17,240,,25,77,054,47*77
$GPGSV,2,2,07,29,67,235,41,30,47,298,32,31,38,308,27,,,,*40
$GPGSA,M,3,02,12,25,29,,,,,,,,,6.8,3.9,5.6*34
Trace #99 at position 24.500000
$GPZDA,092817.03,09,10,2011,00,00*6A
$GPRMC,092817.00,A,4611.965558,N,01258.227023,E,002.0,333.4,091011,0.2,E,A*37
$GPGGA,092818.00,4611.966046,N,01258.226649,E,1,04,3.9,137.78,M,46.25,M,,*6D
$GPGLL,4611.966046,N,01258.226649,E,092818.00,A,A*69
$GPVTG,344.7,T,344.9,M,001.8,N,003.3,K,A*24
$GPGSV,2,1,07,02,35,061,43,12,45,092,43,14,17,240,,25,77,054,46*76
$GPGSV,2,2,07,29,67,235,42,30,47,298,33,31,38,308,31,,,,*45
$GPGSA,M,3,02,12,25,29,,,,,,,,,6.8,3.9,5.6*34
Trace #100 at position 24.750000
$GPZDA,092817.03,09,10,2011,00,00*6A
$GPRMC,092817.00,A,4611.965558,N,01258.227023,E,002.0,333.4,091011,0.2,E,A*37
$GPGGA,092818.00,4611.966046,N,01258.226649,E,1,04,3.9,137.78,M,46.25,M,,*6D
$GPGLL,4611.966046,N,01258.226649,E,092818.00,A,A*69
$GPVTG,344.7,T,344.9,M,001.8,N,003.3,K,A*24
$GPGSV,2,1,07,02,35,061,43,12,45,092,43,14,17,240,,25,77,054,46*76
$GPGSV,2,2,07,29,67,235,42,30,47,298,33,31,38,308,31,,,,*45
$GPGSA,M,3,02,12,25,29,,,,,,,,,6.8,3.9,5.6*34
Trace #101 at position 25.000000
$GPZDA,092820.03,09,10,2011,00,00*6E
$GPRMC,092820.00,A,4611.966729,N,01258.226372,E,000.2,17.6,091011,0.2,E,A*05
$GPGGA,092821.00,4611.966758,N,01258.226293,E,1,04,3.9,137.00,M,46.25,M,,*63
$GPGLL,4611.966758,N,01258.226293,E,092821.00,A,A*68
$GPVTG,154.8,T,155.0,M,000.0,N,000.1,K,A*2B
$GPGSV,2,1,07,02,35,061,43,12,45,092,45,14,17,240,38,25,77,054,45*78
$GPGSV,2,2,07,29,67,235,43,30,47,298,24,31,38,308,28,,,,*4A
$GPGSA,M,3,02,12,25,29,,,,,,,,,6.8,3.9,5.6*34
Trace #102 at position 25.250000
$GPZDA,092820.03,09,10,2011,00,00*6E
$GPRMC,092820.00,A,4611.966729,N,01258.226372,E,000.2,17.6,091011,0.2,E,A*05
$GPGGA,092821.00,4611.966758,N,01258.226293,E,1,04,3.9,137.00,M,46.25,M,,*63
$GPGLL,4611.966758,N,01258.226293,E,092821.00,A,A*68
$GPVTG,154.8,T,155.0,M,000.0,N,000.1,K,A*2B
$GPGSV,2,1,07,02,35,061,43,12,45,092,45,14,17,240,38,25,77,054,45*78
$GPGSV,2,2,07,29,67,235,43,30,47,298,24,31,38,308,28,,,,*4A
$GPGSA,M,3,02,12,25,29,,,,,,,,,6.8,3.9,5.6*34
Trace #103 at position 25.500000
$GPZDA,092821.03,09,10,2011,00,00*6F
$GPRMC,092821.00,A,4611.966758,N,01258.226293,E,000.0,154.8,091011,0.2,E,A*36
$GPGGA,092822.00,4611.966713,N,01258.226224,E,1,04,3.9,136.76,M,46.25,M,,*63
$GPGLL,4611.966713,N,01258.226224,E,092822.00,A,A*68
$GPVTG,167.4,T,167.5,M,000.3,N,000.6,K,A*27
$GPGSV,2,1,07,02,35,061,42,12,45,092,44,14,17,240,38,25,77,054,45*78
$GPGSV,2,2,07,29,68,235,41,30,47,298,27,31,38,308,29,,,,*45
$GPGSA,M,3,02,12,25,29,,,,,,,,,6.8,3.9,5.6*34
Trace #104 at position 25.750000
$GPZDA,092821.03,09,10,2011,00,00*6F
$GPRMC,092821.00,A,4611.966758,N,01258.226293,E,000.0,154.8,091011,0.2,E,A*36
$GPGGA,092822.00,4611.966713,N,01258.226224,E,1,04,3.9,136.76,M,46.25,M,,*63
$GPGLL,4611.966713,N,01258.226224,E,092822.00,A,A*68
$GPVTG,167.4,T,167.5,M,000.3,N,000.6,K,A*27
$GPGSV,2,1,07,02,35,061,42,12,45,092,44,14,17,240,38,25,77,054,45*78
$GPGSV,2,2,07,29,68,235,41,30,47,298,27,31,38,308,29,,,,*45
$GPGSA,M,3,02,12,25,29,,,,,,,,,6.8,3.9,5.6*34
Trace #105 at position 26.000000
$GPZDA,092821.03,09,10,2011,00,00*6F
$GPRMC,092821.00,A,4611.966758,N,01258.226293,E,000.0,154.8,091011,0.2,E,A*36
$GPGGA,092822.00,4611.966713,N,01258.226224,E,1,04,3.9,136.76,M,46.25,M,,*63
$GPGLL,4611.966713,N,01258.226224,E,092822.00,A,A*68
$GPVTG,167.4,T,167.5,M,000.3,N,000.6,K,A*27
$GPGSV,2,1,07,02,35,061,42,12,45,092,44,14,17,240,38,25,77,054,45*78
$GPGSV,2,2,07,29,68,235,41,30,47,298,27,31,38,308,29,,,,*45
$GPGSA,M,3,02,12,25,29,,,,,,,,,6.8,3.9,5.6*34
Trace #106 at position 26.250000
$GPZDA,092821.03,09,10,2011,00,00*6F
$GPRMC,092821.00,A,4611.966758,N,01258.226293,E,000.0,154.8,091011,0.2,E,A*36
$GPGGA,092822.00,4611.966713,N,01258.226224,E,1,04,3.9,136.76,M,46.25,M,,*63
$GPGLL,4611.966713,N,01258.226224,E,092822.00,A,A*68
$GPVTG,167.4,T,167.5,M,000.3,N,000.6,K,A*27
$GPGSV,2,1,07,02,35,061,42,12,45,092,44,14,17,240,38,25,77,054,45*78
$GPGSV,2,2,07,29,68,235,41,30,47,298,27,31,38,308,29,,,,*45
$GPGSA,M,3,02,12,25,29,,,,,,,,,6.8,3.9,5.6*34
Trace #107 at position 26.500000
$GPZDA,092822.03,09,10,2011,00,00*6C
$GPRMC,092822.00,A,4611.966713,N,01258.226224,E,000.3,167.4,091011,0.2,E,A*39
$GPGGA,092823.00,4611.966881,N,01258.226119,E,1,04,3.9,136.59,M,46.25,M,,*66
$GPGLL,4611.966881,N,01258.226119,E,092823.00,A,A*60
$GPVTG,354.1,T,354.3,M,001.4,N,002.6,K,A*20
$GPGSV,2,1,07,02,35,061,43,12,45,092,44,14,17,240,38,25,77,054,46*7A
$GPGSV,2,2,07,29,68,235,42,30,47,298,36,31,38,308,32,,,,*4C
$GPGSA,M,3,02,12,25,29,,,,,,,,,6.8,3.9,5.6*34
Trace #108 at position 26.750000
$GPZDA,092822.03,09,10,2011,00,00*6C
$GPRMC,092822.00,A,4611.966713,N,01258.226224,E,000.3,167.4,091011,0.2,E,A*39
$GPGGA,092823.00,4611.966881,N,01258.226119,E,1,04,3.9,136.59,M,46.25,M,,*66
$GPGLL,4611.966881,N,01258.226119,E,092823.00,A,A*60
$GPVTG,354.1,T,354.3,M,001.4,N,002.6,K,A*20
$GPGSV,2,1,07,02,35,061,43,12,45,092,44,14,17,240,38,25,77,054,46*7A
$GPGSV,2,2,07,29,68,235,42,30,47,298,36,31,38,308,32,,,,*4C
$GPGSA,M,3,02,12,25,29,,,,,,,,,6.8,3.9,5.6*34
Trace #109 at position 27.000000
$GPZDA,092822.03,09,10,2011,00,00*6C
$GPRMC,092822.00,A,4611.966713,N,01258.226224,E,000.3,167.4,091011,0.2,E,A*39
$GPGGA,092823.00,4611.966881,N,01258.226119,E,1,04,3.9,136.59,M,46.25,M,,*66
$GPGLL,4611.966881,N,01258.226119,E,092823.00,A,A*60
$GPVTG,354.1,T,354.3,M,001.4,N,002.6,K,A*20
$GPGSV,2,1,07,02,35,061,43,12,45,092,44,14,17,240,38,25,77,054,46*7A
$GPGSV,2,2,07,29,68,235,42,30,47,298,36,31,38,308,32,,,,*4C
$GPGSA,M,3,02,12,25,29,,,,,,,,,6.8,3.9,5.6*34
Trace #110 at position 27.250000
$GPZDA,092823.03,09,10,2011,00,00*6D
$GPRMC,092823.00,A,4611.966881,N,01258.226119,E,001.4,354.1,091011,0.2,E,A*30
$GPGGA,092824.00,4611.967305,N,01258.225900,E,1,04,3.9,136.42,M,46.25,M,,*6E
$GPGLL,4611.967305,N,01258.225900,E,092824.00,A,A*62
$GPVTG,340.3,T,340.4,M,001.5,N,002.8,K,A*2A
$GPGSV,2,1,07,02,35,061,43,12,45,092,45,14,17,240,37,25,77,054,46*74
$GPGSV,2,2,07,29,68,235,42,30,47,298,33,31,38,308,30,,,,*4B
$GPGSA,M,3,02,12,25,29,,,,,,,,,6.8,3.9,5.6*34
Trace #111 at position 27.500000
$GPZDA,092823.03,09,10,2011,00,00*6D
$GPRMC,092823.00,A,4611.966881,N,01258.226119,E,001.4,354.1,091011,0.2,E,A*30
$GPGGA,092824.00,4611.967305,N,01258.225900,E,1,04,3.9,136.42,M,46.25,M,,*6E
$GPGLL,4611.967305,N,01258.225900,E,092824.00,A,A*62
$GPVTG,340.3,T,340.4,M,001.5,N,002.8,K,A*2A
$GPGSV,2,1,07,02,35,061,43,12,45,092,45,14,17,240,37,25,77,054,46*74
$GPGSV,2,2,07,29,68,235,42,30,47,298,33,31,38,308,30,,,,*4B
$GPGSA,M,3,02,12,25,29,,,,,,,,,6.8,3.9,5.6*34
Trace #112 at position 27.750000
$GPZDA,092823.03,09,10,2011,00,00*6D
$GPRMC,092823.00,A,4611.966881,N,01258.226119,E,001.4,354.1,091011,0.2,E,A*30
$GPGGA,092824.00,4611.967305,N,01258.225900,E,1,04,3.9,136.42,M,46.25,M,,*6E
$GPGLL,4611.967305,N,01258.225900,E,092824.00,A,A*62
$GPVTG,340.3,T,340.4,M,001.5,N,002.8,K,A*2A
$GPGSV,2,1,07,02,35,061,43,12,45,092,45,14,17,240,37,25,77,054,46*74
$GPGSV,2,2,07,29,68,235,42,30,47,298,33,31,38,308,30,,,,*4B
$GPGSA,M,3,02,12,25,29,,,,,,,,,6.8,3.9,5.6*34
Trace #113 at position 28.000000
$GPZDA,092824.03,09,10,2011,00,00*6A
$GPRMC,092824.00,A,4611.967305,N,01258.225900,E,001.5,340.3,091011,0.2,E,A*34
$GPGGA,092825.00,4611.967744,N,01258.225559,E,1,04,3.9,136.42,M,46.25,M,,*6E
$GPGLL,4611.967744,N,01258.225559,E,092825.00,A,A*62
$GPVTG,329.7,T,329.8,M,001.7,N,003.1,K,A*28
$GPGSV,2,1,07,02,35,061,42,12,45,092,43,14,17,240,39,25,77,054,47*7C
$GPGSV,2,2,07,29,68,235,42,30,47,298,33,31,38,308,30,,,,*4B
$GPGSA,M,3,02,12,25,29,,,,,,,,,6.8,3.9,5.6*34
Trace #114 at position 28.250000
$GPZDA,092824.03,09,10,2011,00,00*6A
$GPRMC,092824.00,A,4611.967305,N,01258.225900,E,001.5,340.3,091011,0.2,E,A*34
$GPGGA,092825.00,4611.967744,N,01258.225559,E,1,04,3.9,136.42,M,46.25,M,,*6E
$GPGLL,4611.967744,N,01258.225559,E,092825.00,A,A*62
$GPVTG,329.7,T,329.8,M,001.7,N,003.1,K,A*28
$GPGSV,2,1,07,02,35,061,42,12,45,092,43,14,17,240,39,25,77,054,47*7C
$GPGSV,2,2,07,29,68,235,42,30,47,298,33,31,38,308,30,,,,*4B
$GPGSA,M,3,02,12,25,29,,,,,,,,,6.8,3.9,5.6*34
Trace #115 at position 28.500000
$GPZDA,092824.03,09,10,2011,00,00*6A
$GPRMC,092824.00,A,4611.967305,N,01258.225900,E,001.5,340.3,091011,0.2,E,A*34
$GPGGA,092825.00,4611.967744,N,01258.225559,E,1,04,3.9,136.42,M,46.25,M,,*6E
$GPGLL,4611.967744,N,01258.225559,E,092825.00,A,A*62
$GPVTG,329.7,T,329.8,M,001.7,N,003.1,K,A*28
$GPGSV,2,1,07,02,35,061,42,12,45,092,43,14,17,240,39,25,77,054,47*7C
$GPGSV,2,2,07,29,68,235,42,30,47,298,33,31,38,308,30,,,,*4B
$GPGSA,M,3,02,12,25,29,,,,,,,,,6.8,3.9,5.6*34
Trace #116 at position 28.750000
$GPZDA,092825.03,09,10,2011,00,00*6B
$GPRMC,092825.00,A,4611.967744,N,01258.225559,E,001.7,329.7,091011,0.2,E,A*3D
$GPGGA,092826.00,4611.968192,N,01258.225339,E,1,04,3.9,136.50,M,46.25,M,,*6C
$GPGLL,4611.968192,N,01258.225339,E,092826.00,A,A*63
$GPVTG,0.0,T,0.2,M,001.5,N,002.8,K,A*2F
$GPGSV,2,1,07,02,35,061,42,12,44,092,43,14,17,240,37,25,77,054,47*73
$GPGSV,2,2,07,29,68,235,42,30,47,298,32,31,38,307,29,,,,*4D
$GPGSA,M,3,02,12,25,29,,,,,,,,,6.8,3.9,5.6*34
Trace #117 at position 29.000000
$GPZDA,092825.03,09,10,2011,00,00*6B
$GPRMC,092825.00,A,4611.967744,N,01258.225559,E,001.7,329.7,091011,0.2,E,A*3D
$GPGGA,092826.00,4611.968192,N,01258.225339,E,1,04,3.9,136.50,M,46.25,M,,*6C
$GPGLL,4611.968192,N,01258.225339,E,092826.00,A,A*63
$GPVTG,0.0,T,0.2,M,001.5,N,002.8,K,A*2F
$GPGSV,2,1,07,02,35,061,42,12,44,092,43,14,17,240,37,25,77,054,47*73
$GPGSV,2,2,07,29,68,235,42,30,47,298,32,31,38,307,29,,,,*4D
$GPGSA,M,3,02,12,25,29,,,,,,,,,6.8,3.9,5.6*34
Trace #118 at position 29.250000
$GPZDA,092825.03,09,10,2011,00,00*6B
$GPRMC,092825.00,A,4611.967744,N,01258.225559,E,001.7,329.7,091011,0.2,E,A*3D
$GPGGA,092826.00,4611.968192,N,01258.225339,E,1,04,3.9,136.50,M,46.25,M,,*6C
$GPGLL,4611.968192,N,01258.225339,E,092826.00,A,A*63
$GPVTG,0.0,T,0.2,M,001.5,N,002.8,K,A*2F
$GPGSV,2,1,07,02,35,061,42,12,44,092,43,14,17,240,37,25,77,054,47*73
$GPGSV,2,2,07,29,68,235,42,30,47,298,32,31,38,307,29,,,,*4D
$GPGSA,M,3,02,12,25,29,,,,,,,,,6.8,3.9,5.6*34
Trace #119 at position 29.500000
$GPZDA,092826.03,09,10,2011,00,00*68
$GPRMC,092826.00,A,4611.968192,N,01258.225339,E,001.5,0.0,091011,0.2,E,A*31
$GPGGA,092827.00,4611.968659,N,01258.225211,E,1,04,3.9,136.44,M,46.25,M,,*63
$GPGLL,4611.968659,N,01258.225211,E,092827.00,A,A*69
$GPVTG,349.3,T,349.5,M,001.7,N,003.1,K,A*21
$GPGSV,2,1,07,02,35,061,42,12,44,092,42,14,17,240,39,25,77,054,47*7C
$GPGSV,2,2,07,29,68,235,42,30,47,298,30,31,38,307,28,,,,*4E
$GPGSA,M,3,02,12,25,29,,,,,,,,,6.8,3.9,5.6*34
Trace #120 at position 29.750000
$GPZDA,092826.03,09,10,2011,00,00*68
$GPRMC,092826.00,A,4611.968192,N,01258.225339,E,001.5,0.0,091011,0.2,E,A*31
$GPGGA,092827.00,4611.968659,N,01258.225211,E,1,04,3.9,136.44,M,46.25,M,,*63
$GPGLL,4611.968659,N,01258.225211,E,092827.00,A,A*69
$GPVTG,349.3,T,349.5,M,001.7,N,003.1,K,A*21
$GPGSV,2,1,07,02,35,061,42,12,44,092,42,14,17,240,39,25,77,054,47*7C
$GPGSV,2,2,07,29,68,235,42,30,47,298,30,31,38,307,28,,,,*4E
$GPGSA,M,3,02,12,25,29,,,,,,,,,6.8,3.9,5.6*34
Trace #121 at position 30.000000
$GPZDA,092827.03,09,10,2011,00,00*69
$GPRMC,092827.00,A,4611.968659,N,01258.225211,E,001.7,349.3,091011,0.2,E,A*34
$GPGGA,092828.00,4611.969149,N,01258.225002,E,1,04,3.9,136.16,M,46.25,M,,*6C
$GPGLL,4611.969149,N,01258.225002,E,092828.00,A,A*61
$GPVTG,346.3,T,346.5,M,001.8,N,003.4,K,A*2B
$GPGSV,2,1,07,02,35,061,41,12,44,092,44,14,17,240,37,25,77,054,46*76
$GPGSV,2,2,07,29,68,235,42,30,47,298,30,31,38,307,28,,,,*4E
$GPGSA,M,3,02,12,25,29,,,,,,,,,6.8,3.9,5.6*34
Trace #122 at position 30.250000
$GPZDA,092827.03,09,10,2011,00,00*69
$GPRMC,092827.00,A,4611.968659,N,01258.225211,E,001.7,349.3,091011,0.2,E,A*34
$GPGGA,092828.00,4611.969149,N,01258.225002,E,1,04,3.9,136.16,M,46.25,M,,*6C
$GPGLL,4611.969149,N,01258.225002,E,092828.00,A,A*61
