Trace #1 at position 0.000000
$GPZDA,091635.03,09,10,2011,00,00*67
$GPRMC,091635.00,A,4611.985318,N,01258.220487,E,000.1,134.8,091011,0.2,E,A*31
$GPGGA,091636.00,4611.984773,N,01258.220405,E,1,06,1.5,161.83,M,46.25,M,,*66
$GPGLL,4611.984773,N,01258.220405,E,091636.00,A,A*69
$GPVTG,301.5,T,301.6,M,000.1,N,000.1,K,A*20
$GPGSV,2,1,07,02,37,067,43,12,49,087,,14,21,244,39,25,79,026,46*7D
$GPGSV,2,2,07,29,62,230,41,30,42,296,42,31,34,310,40,,,,*48
$GPGSA,M,3,02,14,25,29,30,31,,,,,,,2.6,1.5,2.1*37
Trace #2 at position 0.250000
$GPZDA,091638.03,09,10,2011,00,00*6A
$GPRMC,091638.00,A,4611.983856,N,01258.220238,E,000.0,307.2,091011,0.2,E,A*30
$GPGGA,091639.00,4611.983385,N,01258.220140,E,1,06,1.5,155.44,M,46.25,M,,*6B
$GPGLL,4611.983385,N,01258.220140,E,091639.00,A,A*68
$GPVTG,285.0,T,285.1,M,000.1,N,000.3,K,A*20
$GPGSV,2,1,07,02,37,067,44,12,49,087,,14,21,244,39,25,79,026,46*7A
$GPGSV,2,2,07,29,62,230,44,30,42,296,44,31,34,310,42,,,,*49
$GPGSA,M,3,02,14,25,29,30,31,,,,,,,2.6,1.5,2.1*37
Trace #3 at position 0.500000
$GPZDA,091638.03,09,10,2011,00,00*6A
$GPRMC,091638.00,A,4611.983856,N,01258.220238,E,000.0,307.2,091011,0.2,E,A*30
$GPGGA,091639.00,4611.983385,N,01258.220140,E,1,06,1.5,155.44,M,46.25,M,,*6B
$GPGLL,4611.983385,N,01258.220140,E,091639.00,A,A*68
$GPVTG,285.0,T,285.1,M,000.1,N,000.3,K,A*20
$GPGSV,2,1,07,02,37,067,44,12,49,087,,14,21,244,39,25,79,026,46*7A
$GPGSV,2,2,07,29,62,230,44,30,42,296,44,31,34,310,42,,,,*49
$GPGSA,M,3,02,14,25,29,30,31,,,,,,,2.6,1.5,2.1*37
Trace #4 at position 0.750000
$GPZDA,091639.03,09,10,2011,00,00*6B
$GPRMC,091639.00,A,4611.983385,N,01258.220140,E,000.1,285.0,091011,0.2,E,A*30
$GPGGA,091640.00,4611.982947,N,01258.220066,E,1,06,1.5,153.60,M,46.25,M,,*65
$GPGLL,4611.982947,N,01258.220066,E,091640.00,A,A*66
$GPVTG,168.2,T,168.4,M,000.2,N,000.3,K,A*24
$GPGSV,2,1,07,02,37,067,45,12,49,087,,14,21,244,41,25,79,026,45*77
$GPGSV,2,2,07,29,62,230,43,30,42,296,43,31,34,310,42,,,,*49
$GPGSA,M,3,02,14,25,29,30,31,,,,,,,2.6,1.5,2.1*37
Trace #5 at position 1.000000
$GPZDA,091639.03,09,10,2011,00,00*6B
$GPRMC,091639.00,A,4611.983385,N,01258.220140,E,000.1,285.0,091011,0.2,E,A*30
$GPGGA,091640.00,4611.982947,N,01258.220066,E,1,06,1.5,153.60,M,46.25,M,,*65
$GPGLL,4611.982947,N,01258.220066,E,091640.00,A,A*66
$GPVTG,168.2,T,168.4,M,000.2,N,000.3,K,A*24
$GPGSV,2,1,07,02,37,067,45,12,49,087,,14,21,244,41,25,79,026,45*77
$GPGSV,2,2,07,29,62,230,43,30,42,296,43,31,34,310,42,,,,*49
$GPGSA,M,3,02,14,25,29,30,31,,,,,,,2.6,1.5,2.1*37
Trace #6 at position 1.250000
$GPZDA,091639.03,09,10,2011,00,00*6B
$GPRMC,091639.00,A,4611.983385,N,01258.220140,E,000.1,285.0,091011,0.2,E,A*30
$GPGGA,091640.00,4611.982947,N,01258.220066,E,1,06,1.5,153.60,M,46.25,M,,*65
$GPGLL,4611.982947,N,01258.220066,E,091640.00,A,A*66
$GPVTG,168.2,T,168.4,M,000.2,N,000.3,K,A*24
$GPGSV,2,1,07,02,37,067,45,12,49,087,,14,21,244,41,25,79,026,45*77
$GPGSV,2,2,07,29,62,230,43,30,42,296,43,31,34,310,42,,,,*49
$GPGSA,M,3,02,14,25,29,30,31,,,,,,,2.6,1.5,2.1*37
Trace #7 at position 1.500000
$GPZDA,091640.03,09,10,2011,00,00*65
$GPRMC,091640.00,A,4611.982947,N,01258.220066,E,000.2,168.2,091011,0.2,E,A*3F
$GPGGA,091641.00,4611.982489,N,01258.220050,E,1,06,1.5,152.06,M,46.25,M,,*6F
$GPGLL,4611.982489,N,01258.220050,E,091641.00,A,A*6D
$GPVTG,166.7,T,166.8,M,000.4,N,000.8,K,A*20
$GPGSV,2,1,07,02,37,067,45,12,49,087,,14,21,244,40,25,79,026,45*76
$GPGSV,2,2,07,29,62,230,44,30,42,296,45,31,34,310,42,,,,*48
$GPGSA,M,3,02,14,25,29,30,31,,,,,,,2.6,1.5,2.1*37
Trace #8 at position 1.750000
$GPZDA,091640.03,09,10,2011,00,00*65
$GPRMC,091640.00,A,4611.982947,N,01258.220066,E,000.2,168.2,091011,0.2,E,A*3F
$GPGGA,091641.00,4611.982489,N,01258.220050,E,1,06,1.5,152.06,M,46.25,M,,*6F
$GPGLL,4611.982489,N,01258.220050,E,091641.00,A,A*6D
$GPVTG,166.7,T,166.8,M,000.4,N,000.8,K,A*20
$GPGSV,2,1,07,02,37,067,45,12,49,087,,14,21,244,40,25,79,026,45*76
$GPGSV,2,2,07,29,62,230,44,30,42,296,45,31,34,310,42,,,,*48
$GPGSA,M,3,02,14,25,29,30,31,,,,,,,2.6,1.5,2.1*37
Trace #9 at position 2.000000
$GPZDA,091641.03,09,10,2011,00,00*64
$GPRMC,091641.00,A,4611.982489,N,01258.220050,E,000.4,166.7,091011,0.2,E,A*39
$GPGGA,091642.00,4611.981936,N,01258.220175,E,1,06,1.5,150.70,M,46.25,M,,*63
$GPGLL,4611.981936,N,01258.220175,E,091642.00,A,A*62
$GPVTG,145.8,T,146.0,M,001.4,N,002.5,K,A*2A
$GPGSV,2,1,07,02,37,067,42,12,49,088,,14,21,244,41,25,79,026,46*7C
$GPGSV,2,2,07,29,62,230,43,30,42,296,43,31,34,310,44,,,,*4F
$GPGSA,M,3,02,14,25,29,30,31,,,,,,,2.6,1.5,2.1*37
Trace #10 at position 2.250000
$GPZDA,091641.03,09,10,2011,00,00*64
$GPRMC,091641.00,A,4611.982489,N,01258.220050,E,000.4,166.7,091011,0.2,E,A*39
$GPGGA,091642.00,4611.981936,N,01258.220175,E,1,06,1.5,150.70,M,46.25,M,,*63
$GPGLL,4611.981936,N,01258.220175,E,091642.00,A,A*62
$GPVTG,145.8,T,146.0,M,001.4,N,002.5,K,A*2A
$GPGSV,2,1,07,02,37,067,42,12,49,088,,14,21,244,41,25,79,026,46*7C
$GPGSV,2,2,07,29,62,230,43,30,42,296,43,31,34,310,44,,,,*4F
$GPGSA,M,3,02,14,25,29,30,31,,,,,,,2.6,1.5,2.1*37
Trace #11 at position 2.500000
$GPZDA,091641.03,09,10,2011,00,00*64
$GPRMC,091641.00,A,4611.982489,N,01258.220050,E,000.4,166.7,091011,0.2,E,A*39
$GPGGA,091642.00,4611.981936,N,01258.220175,E,1,06,1.5,150.70,M,46.25,M,,*63
$GPGLL,4611.981936,N,01258.220175,E,091642.00,A,A*62
$GPVTG,145.8,T,146.0,M,001.4,N,002.5,K,A*2A
$GPGSV,2,1,07,02,37,067,42,12,49,088,,14,21,244,41,25,79,026,46*7C
$GPGSV,2,2,07,29,62,230,43,30,42,296,43,31,34,310,44,,,,*4F
$GPGSA,M,3,02,14,25,29,30,31,,,,,,,2.6,1.5,2.1*37
Trace #12 at position 2.750000
$GPZDA,091642.03,09,10,2011,00,00*67
$GPRMC,091642.00,A,4611.981936,N,01258.220175,E,001.4,145.8,091011,0.2,E,A*39
$GPGGA,091643.00,4611.981289,N,01258.220338,E,1,06,1.5,149.37,M,46.25,M,,*6D
$GPGLL,4611.981289,N,01258.220338,E,091643.00,A,A*67
$GPVTG,168.2,T,168.4,M,001.4,N,002.6,K,A*24
$GPGSV,2,1,07,02,37,067,44,12,49,088,38,14,21,244,40,25,79,026,45*73
$GPGSV,2,2,07,29,62,230,44,30,42,296,43,31,34,310,45,,,,*49
$GPGSA,M,3,02,14,25,29,30,31,,,,,,,2.6,1.5,2.1*37
Trace #13 at position 3.000000
$GPZDA,091642.03,09,10,2011,00,00*67
$GPRMC,091642.00,A,4611.981936,N,01258.220175,E,001.4,145.8,091011,0.2,E,A*39
$GPGGA,091643.00,4611.981289,N,01258.220338,E,1,06,1.5,149.37,M,46.25,M,,*6D
$GPGLL,4611.981289,N,01258.220338,E,091643.00,A,A*67
$GPVTG,168.2,T,168.4,M,001.4,N,002.6,K,A*24
$GPGSV,2,1,07,02,37,067,44,12,49,088,38,14,21,244,40,25,79,026,45*73
$GPGSV,2,2,07,29,62,230,44,30,42,296,43,31,34,310,45,,,,*49
$GPGSA,M,3,02,14,25,29,30,31,,,,,,,2.6,1.5,2.1*37
Trace #14 at position 3.250000
$GPZDA,091642.03,09,10,2011,00,00*67
$GPRMC,091642.00,A,4611.981936,N,01258.220175,E,001.4,145.8,091011,0.2,E,A*39
$GPGGA,091643.00,4611.981289,N,01258.220338,E,1,06,1.5,149.37,M,46.25,M,,*6D
$GPGLL,4611.981289,N,01258.220338,E,091643.00,A,A*67
$GPVTG,168.2,T,168.4,M,001.4,N,002.6,K,A*24
$GPGSV,2,1,07,02,37,067,44,12,49,088,38,14,21,244,40,25,79,026,45*73
$GPGSV,2,2,07,29,62,230,44,30,42,296,43,31,34,310,45,,,,*49
$GPGSA,M,3,02,14,25,29,30,31,,,,,,,2.6,1.5,2.1*37
Trace #15 at position 3.500000
$GPZDA,091642.03,09,10,2011,00,00*67
$GPRMC,091642.00,A,4611.981936,N,01258.220175,E,001.4,145.8,091011,0.2,E,A*39
$GPGGA,091643.00,4611.981289,N,01258.220338,E,1,06,1.5,149.37,M,46.25,M,,*6D
$GPGLL,4611.981289,N,01258.220338,E,091643.00,A,A*67
$GPVTG,168.2,T,168.4,M,001.4,N,002.6,K,A*24
$GPGSV,2,1,07,02,37,067,44,12,49,088,38,14,21,244,40,25,79,026,45*73
$GPGSV,2,2,07,29,62,230,44,30,42,296,43,31,34,310,45,,,,*49
$GPGSA,M,3,02,14,25,29,30,31,,,,,,,2.6,1.5,2.1*37
Trace #16 at position 3.750000
$GPZDA,091643.04,09,10,2011,00,00*61
$GPRMC,091643.00,A,4611.981289,N,01258.220338,E,001.4,168.2,091011,0.2,E,A*39
$GPGGA,091644.00,4611.980610,N,01258.220380,E,1,06,1.5,148.17,M,46.25,M,,*6F
$GPGLL,4611.980610,N,01258.220380,E,091644.00,A,A*66
$GPVTG,176.8,T,177.0,M,001.7,N,003.1,K,A*2E
$GPGSV,2,1,07,02,37,067,45,12,49,088,39,14,21,244,41,25,79,026,47*70
$GPGSV,2,2,07,29,62,230,43,30,42,296,44,31,34,310,44,,,,*48
$GPGSA,M,3,02,14,25,29,30,31,,,,,,,2.6,1.5,2.1*37
Trace #17 at position 4.000000
$GPZDA,091643.04,09,10,2011,00,00*61
$GPRMC,091643.00,A,4611.981289,N,01258.220338,E,001.4,168.2,091011,0.2,E,A*39
$GPGGA,091644.00,4611.980610,N,01258.220380,E,1,06,1.5,148.17,M,46.25,M,,*6F
$GPGLL,4611.980610,N,01258.220380,E,091644.00,A,A*66
$GPVTG,176.8,T,177.0,M,001.7,N,003.1,K,A*2E
$GPGSV,2,1,07,02,37,067,45,12,49,088,39,14,21,244,41,25,79,026,47*70
$GPGSV,2,2,07,29,62,230,43,30,42,296,44,31,34,310,44,,,,*48
$GPGSA,M,3,02,14,25,29,30,31,,,,,,,2.6,1.5,2.1*37
Trace #18 at position 4.250000
$GPZDA,091643.04,09,10,2011,00,00*61
$GPRMC,091643.00,A,4611.981289,N,01258.220338,E,001.4,168.2,091011,0.2,E,A*39
$GPGGA,091644.00,4611.980610,N,01258.220380,E,1,06,1.5,148.17,M,46.25,M,,*6F
$GPGLL,4611.980610,N,01258.220380,E,091644.00,A,A*66
$GPVTG,176.8,T,177.0,M,001.7,N,003.1,K,A*2E
$GPGSV,2,1,07,02,37,067,45,12,49,088,39,14,21,244,41,25,79,026,47*70
$GPGSV,2,2,07,29,62,230,43,30,42,296,44,31,34,310,44,,,,*48
$GPGSA,M,3,02,14,25,29,30,31,,,,,,,2.6,1.5,2.1*37
Trace #19 at position 4.500000
$GPZDA,091644.04,09,10,2011,00,00*66
$GPRMC,091644.00,A,4611.980610,N,01258.220380,E,001.7,176.8,091011,0.2,E,A*3E
$GPGGA,091645.00,4611.979848,N,01258.220472,E,1,06,1.5,147.07,M,46.25,M,,*6F
$GPGLL,4611.979848,N,01258.220472,E,091645.00,A,A*68
$GPVTG,168.6,T,168.7,M,002.3,N,004.3,K,A*24
$GPGSV,2,1,07,02,37,067,44,12,49,088,38,14,21,244,41,25,79,026,46*71
$GPGSV,2,2,07,29,62,230,44,30,42,296,44,31,34,310,45,,,,*4E
$GPGSA,M,3,02,14,25,29,30,31,,,,,,,2.6,1.5,2.1*37
Trace #20 at position 4.750000
$GPZDA,091644.04,09,10,2011,00,00*66
$GPRMC,091644.00,A,4611.980610,N,01258.220380,E,001.7,176.8,091011,0.2,E,A*3E
$GPGGA,091645.00,4611.979848,N,01258.220472,E,1,06,1.5,147.07,M,46.25,M,,*6F
$GPGLL,4611.979848,N,01258.220472,E,091645.00,A,A*68
$GPVTG,168.6,T,168.7,M,002.3,N,004.3,K,A*24
$GPGSV,2,1,07,02,37,067,44,12,49,088,38,14,21,244,41,25,79,026,46*71
$GPGSV,2,2,07,29,62,230,44,30,42,296,44,31,34,310,45,,,,*4E
$GPGSA,M,3,02,14,25,29,30,31,,,,,,,2.6,1.5,2.1*37
Trace #21 at position 5.000000
$GPZDA,091644.04,09,10,2011,00,00*66
$GPRMC,091644.00,A,4611.980610,N,01258.220380,E,001.7,176.8,091011,0.2,E,A*3E
$GPGGA,091645.00,4611.979848,N,01258.220472,E,1,06,1.5,147.07,M,46.25,M,,*6F
$GPGLL,4611.979848,N,01258.220472,E,091645.00,A,A*68
$GPVTG,168.6,T,168.7,M,002.3,N,004.3,K,A*24
$GPGSV,2,1,07,02,37,067,44,12,49,088,38,14,21,244,41,25,79,026,46*71
$GPGSV,2,2,07,29,62,230,44,30,42,296,44,31,34,310,45,,,,*4E
$GPGSA,M,3,02,14,25,29,30,31,,,,,,,2.6,1.5,2.1*37
Trace #22 at position 5.250000
$GPZDA,091644.04,09,10,2011,00,00*66
$GPRMC,091644.00,A,4611.980610,N,01258.220380,E,001.7,176.8,091011,0.2,E,A*3E
$GPGGA,091645.00,4611.979848,N,01258.220472,E,1,06,1.5,147.07,M,46.25,M,,*6F
$GPGLL,4611.979848,N,01258.220472,E,091645.00,A,A*68
$GPVTG,168.6,T,168.7,M,002.3,N,004.3,K,A*24
$GPGSV,2,1,07,02,37,067,44,12,49,088,38,14,21,244,41,25,79,026,46*71
$GPGSV,2,2,07,29,62,230,44,30,42,296,44,31,34,310,45,,,,*4E
$GPGSA,M,3,02,14,25,29,30,31,,,,,,,2.6,1.5,2.1*37
Trace #23 at position 5.500000
$GPZDA,091645.03,09,10,2011,00,00*60
$GPRMC,091645.00,A,4611.979848,N,01258.220472,E,002.3,168.6,091011,0.2,E,A*36
$GPGGA,091646.00,4611.979091,N,01258.220681,E,1,06,1.5,146.05,M,46.25,M,,*6D
$GPGLL,4611.979091,N,01258.220681,E,091646.00,A,A*69
$GPVTG,161.9,T,162.1,M,002.0,N,003.8,K,A*21
$GPGSV,2,1,07,02,37,067,43,12,49,088,39,14,21,244,41,25,79,027,45*75
$GPGSV,2,2,07,29,62,230,44,30,42,296,43,31,34,310,44,,,,*48
$GPGSA,M,3,02,14,25,29,30,31,,,,,,,2.6,1.5,2.1*37
Trace #24 at position 5.750000
$GPZDA,091645.03,09,10,2011,00,00*60
$GPRMC,091645.00,A,4611.979848,N,01258.220472,E,002.3,168.6,091011,0.2,E,A*36
$GPGGA,091646.00,4611.979091,N,01258.220681,E,1,06,1.5,146.05,M,46.25,M,,*6D
$GPGLL,4611.979091,N,01258.220681,E,091646.00,A,A*69
$GPVTG,161.9,T,162.1,M,002.0,N,003.8,K,A*21
$GPGSV,2,1,07,02,37,067,43,12,49,088,39,14,21,244,41,25,79,027,45*75
$GPGSV,2,2,07,29,62,230,44,30,42,296,43,31,34,310,44,,,,*48
$GPGSA,M,3,02,14,25,29,30,31,,,,,,,2.6,1.5,2.1*37
Trace #25 at position 6.000000
$GPZDA,091645.03,09,10,2011,00,00*60
$GPRMC,091645.00,A,4611.979848,N,01258.220472,E,002.3,168.6,091011,0.2,E,A*36
$GPGGA,091646.00,4611.979091,N,01258.220681,E,1,06,1.5,146.05,M,46.25,M,,*6D
$GPGLL,4611.979091,N,01258.220681,E,091646.00,A,A*69
$GPVTG,161.9,T,162.1,M,002.0,N,003.8,K,A*21
$GPGSV,2,1,07,02,37,067,43,12,49,088,39,14,21,244,41,25,79,027,45*75
$GPGSV,2,2,07,29,62,230,44,30,42,296,43,31,34,310,44,,,,*48
$GPGSA,M,3,02,14,25,29,30,31,,,,,,,2.6,1.5,2.1*37
Trace #26 at position 6.250000
$GPZDA,091646.03,09,10,2011,00,00*63
$GPRMC,091646.00,A,4611.979091,N,01258.220681,E,002.0,161.9,091011,0.2,E,A*32
$GPGGA,091647.00,4611.978411,N,01258.220946,E,1,06,1.5,145.15,M,46.25,M,,*67
$GPGLL,4611.978411,N,01258.220946,E,091647.00,A,A*61
$GPVTG,158.3,T,158.4,M,002.1,N,003.8,K,A*2C
$GPGSV,2,1,07,02,37,067,44,12,49,088,39,14,21,244,41,25,79,027,46*71
$GPGSV,2,2,07,29,62,230,44,30,42,296,43,31,34,310,44,,,,*48
$GPGSA,M,3,02,14,25,29,30,31,,,,,,,2.6,1.5,2.1*37
Trace #27 at position 6.500000
$GPZDA,091646.03,09,10,2011,00,00*63
$GPRMC,091646.00,A,4611.979091,N,01258.220681,E,002.0,161.9,091011,0.2,E,A*32
$GPGGA,091647.00,4611.978411,N,01258.220946,E,1,06,1.5,145.15,M,46.25,M,,*67
$GPGLL,4611.978411,N,01258.220946,E,091647.00,A,A*61
$GPVTG,158.3,T,158.4,M,002.1,N,003.8,K,A*2C
$GPGSV,2,1,07,02,37,067,44,12,49,088,39,14,21,244,41,25,79,027,46*71
$GPGSV,2,2,07,29,62,230,44,30,42,296,43,31,34,310,44,,,,*48
$GPGSA,M,3,02,14,25,29,30,31,,,,,,,2.6,1.5,2.1*37
Trace #28 at position 6.750000
$GPZDA,091646.03,09,10,2011,00,00*63
$GPRMC,091646.00,A,4611.979091,N,01258.220681,E,002.0,161.9,091011,0.2,E,A*32
$GPGGA,091647.00,4611.978411,N,01258.220946,E,1,06,1.5,145.15,M,46.25,M,,*67
$GPGLL,4611.978411,N,01258.220946,E,091647.00,A,A*61
$GPVTG,158.3,T,158.4,M,002.1,N,003.8,K,A*2C
$GPGSV,2,1,07,02,37,067,44,12,49,088,39,14,21,244,41,25,79,027,46*71
$GPGSV,2,2,07,29,62,230,44,30,42,296,43,31,34,310,44,,,,*48
$GPGSA,M,3,02,14,25,29,30,31,,,,,,,2.6,1.5,2.1*37
Trace #29 at position 7.000000
$GPZDA,091647.03,09,10,2011,00,00*62
$GPRMC,091647.00,A,4611.978411,N,01258.220946,E,002.1,158.3,091011,0.2,E,A*3B
$GPGGA,091648.00,4611.977704,N,01258.221183,E,1,06,1.5,144.38,M,46.25,M,,*6E
$GPGLL,4611.977704,N,01258.221183,E,091648.00,A,A*66
$GPVTG,167.6,T,167.7,M,002.5,N,004.6,K,A*27
$GPGSV,2,1,07,02,37,067,44,12,49,088,38,14,21,244,41,25,79,027,47*71
$GPGSV,2,2,07,29,62,230,42,30,42,296,43,31,34,310,44,,,,*4E
$GPGSA,M,3,02,14,25,29,30,31,,,,,,,2.6,1.5,2.1*37
Trace #30 at position 7.250000
$GPZDA,091647.03,09,10,2011,00,00*62
$GPRMC,091647.00,A,4611.978411,N,01258.220946,E,002.1,158.3,091011,0.2,E,A*3B
$GPGGA,091648.00,4611.977704,N,01258.221183,E,1,06,1.5,144.38,M,46.25,M,,*6E
$GPGLL,4611.977704,N,01258.221183,E,091648.00,A,A*66
$GPVTG,167.6,T,167.7,M,002.5,N,004.6,K,A*27
$GPGSV,2,1,07,02,37,067,44,12,49,088,38,14,21,244,41,25,79,027,47*71
$GPGSV,2,2,07,29,62,230,42,30,42,296,43,31,34,310,44,,,,*4E
$GPGSA,M,3,02,14,25,29,30,31,,,,,,,2.6,1.5,2.1*37
Trace #31 at position 7.500000
$GPZDA,091647.03,09,10,2011,00,00*62
$GPRMC,091647.00,A,4611.978411,N,01258.220946,E,002.1,158.3,091011,0.2,E,A*3B
$GPGGA,091648.00,4611.977704,N,01258.221183,E,1,06,1.5,144.38,M,46.25,M,,*6E
$GPGLL,4611.977704,N,01258.221183,E,091648.00,A,A*66
$GPVTG,167.6,T,167.7,M,002.5,N,004.6,K,A*27
$GPGSV,2,1,07,02,37,067,44,12,49,088,38,14,21,244,41,25,79,027,47*71
$GPGSV,2,2,07,29,62,230,42,30,42,296,43,31,34,310,44,,,,*4E
$GPGSA,M,3,02,14,25,29,30,31,,,,,,,2.6,1.5,2.1*37
Trace #32 at position 7.750000
$GPZDA,091647.03,09,10,2011,00,00*62
$GPRMC,091647.00,A,4611.978411,N,01258.220946,E,002.1,158.3,091011,0.2,E,A*3B
$GPGGA,091648.00,4611.977704,N,01258.221183,E,1,06,1.5,144.38,M,46.25,M,,*6E
$GPGLL,4611.977704,N,01258.221183,E,091648.00,A,A*66
$GPVTG,167.6,T,167.7,M,002.5,N,004.6,K,A*27
$GPGSV,2,1,07,02,37,067,44,12,49,088,38,14,21,244,41,25,79,027,47*71
$GPGSV,2,2,07,29,62,230,42,30,42,296,43,31,34,310,44,,,,*4E
$GPGSA,M,3,02,14,25,29,30,31,,,,,,,2.6,1.5,2.1*37
Trace #33 at position 8.000000
$GPZDA,091648.04,09,10,2011,00,00*6A
$GPRMC,091648.00,A,4611.977704,N,01258.221183,E,002.5,167.6,091011,0.2,E,A*31
$GPGGA,091649.00,4611.977041,N,01258.221380,E,1,06,1.5,143.81,M,46.25,M,,*6D
$GPGLL,4611.977041,N,01258.221380,E,091649.00,A,A*60
$GPVTG,162.4,T,162.5,M,001.9,N,003.5,K,A*2C
$GPGSV,2,1,07,02,37,067,44,12,49,088,37,14,21,244,40,25,79,027,46*7E
$GPGSV,2,2,07,29,62,230,43,30,42,296,43,31,34,310,43,,,,*48
$GPGSA,M,3,02,14,25,29,30,31,,,,,,,2.6,1.5,2.1*37
Trace #34 at position 8.250000
$GPZDA,091648.04,09,10,2011,00,00*6A
$GPRMC,091648.00,A,4611.977704,N,01258.221183,E,002.5,167.6,091011,0.2,E,A*31
$GPGGA,091649.00,4611.977041,N,01258.221380,E,1,06,1.5,143.81,M,46.25,M,,*6D
$GPGLL,4611.977041,N,01258.221380,E,091649.00,A,A*60
$GPVTG,162.4,T,162.5,M,001.9,N,003.5,K,A*2C
$GPGSV,2,1,07,02,37,067,44,12,49,088,37,14,21,244,40,25,79,027,46*7E
$GPGSV,2,2,07,29,62,230,43,30,42,296,43,31,34,310,43,,,,*48
$GPGSA,M,3,02,14,25,29,30,31,,,,,,,2.6,1.5,2.1*37
Trace #35 at position 8.500000
$GPZDA,091648.04,09,10,2011,00,00*6A
$GPRMC,091648.00,A,4611.977704,N,01258.221183,E,002.5,167.6,091011,0.2,E,A*31
$GPGGA,091649.00,4611.977041,N,01258.221380,E,1,06,1.5,143.81,M,46.25,M,,*6D
$GPGLL,4611.977041,N,01258.221380,E,091649.00,A,A*60
$GPVTG,162.4,T,162.5,M,001.9,N,003.5,K,A*2C
$GPGSV,2,1,07,02,37,067,44,12,49,088,37,14,21,244,40,25,79,027,46*7E
$GPGSV,2,2,07,29,62,230,43,30,42,296,43,31,34,310,43,,,,*48
$GPGSA,M,3,02,14,25,29,30,31,,,,,,,2.6,1.5,2.1*37
Trace #36 at position 8.750000
$GPZDA,091649.03,09,10,2011,00,00*6C
$GPRMC,091649.00,A,4611.977041,N,01258.221380,E,001.9,162.4,091011,0.2,E,A*3F
$GPGGA,091650.00,4611.976452,N,01258.221682,E,1,07,1.4,143.31,M,46.25,M,,*6E
$GPGLL,4611.976452,N,01258.221682,E,091650.00,A,A*68
$GPVTG,155.7,T,155.9,M,002.1,N,003.9,K,A*24
$GPGSV,2,1,07,02,37,067,45,12,49,088,39,14,21,244,40,25,79,027,46*71
$GPGSV,2,2,07,29,62,230,42,30,42,296,43,31,34,310,43,,,,*49
$GPGSA,M,3,02,12,14,25,29,30,31,,,,,,2.6,1.4,2.1*35
Trace #37 at position 9.000000
$GPZDA,091649.03,09,10,2011,00,00*6C
$GPRMC,091649.00,A,4611.977041,N,01258.221380,E,001.9,162.4,091011,0.2,E,A*3F
$GPGGA,091650.00,4611.976452,N,01258.221682,E,1,07,1.4,143.31,M,46.25,M,,*6E
$GPGLL,4611.976452,N,01258.221682,E,091650.00,A,A*68
$GPVTG,155.7,T,155.9,M,002.1,N,003.9,K,A*24
$GPGSV,2,1,07,02,37,067,45,12,49,088,39,14,21,244,40,25,79,027,46*71
$GPGSV,2,2,07,29,62,230,42,30,42,296,43,31,34,310,43,,,,*49
$GPGSA,M,3,02,12,14,25,29,30,31,,,,,,2.6,1.4,2.1*35
Trace #38 at position 9.250000
$GPZDA,091649.03,09,10,2011,00,00*6C
$GPRMC,091649.00,A,4611.977041,N,01258.221380,E,001.9,162.4,091011,0.2,E,A*3F
$GPGGA,091650.00,4611.976452,N,01258.221682,E,1,07,1.4,143.31,M,46.25,M,,*6E
$GPGLL,4611.976452,N,01258.221682,E,091650.00,A,A*68
$GPVTG,155.7,T,155.9,M,002.1,N,003.9,K,A*24
$GPGSV,2,1,07,02,37,067,45,12,49,088,39,14,21,244,40,25,79,027,46*71
$GPGSV,2,2,07,29,62,230,42,30,42,296,43,31,34,310,43,,,,*49
$GPGSA,M,3,02,12,14,25,29,30,31,,,,,,2.6,1.4,2.1*35
Trace #39 at position 9.500000
$GPZDA,091649.03,09,10,2011,00,00*6C
$GPRMC,091649.00,A,4611.977041,N,01258.221380,E,001.9,162.4,091011,0.2,E,A*3F
$GPGGA,091650.00,4611.976452,N,01258.221682,E,1,07,1.4,143.31,M,46.25,M,,*6E
$GPGLL,4611.976452,N,01258.221682,E,091650.00,A,A*68
$GPVTG,155.7,T,155.9,M,002.1,N,003.9,K,A*24
$GPGSV,2,1,07,02,37,067,45,12,49,088,39,14,21,244,40,25,79,027,46*71
$GPGSV,2,2,07,29,62,230,42,30,42,296,43,31,34,310,43,,,,*49
$GPGSA,M,3,02,12,14,25,29,30,31,,,,,,2.6,1.4,2.1*35
Trace #40 at position 9.750000
$GPZDA,091650.04,09,10,2011,00,00*63
$GPRMC,091650.00,A,4611.976452,N,01258.221682,E,002.1,155.7,091011,0.2,E,A*3B
$GPGGA,091651.00,4611.975902,N,01258.222010,E,1,07,1.4,142.86,M,46.25,M,,*67
$GPGLL,4611.975902,N,01258.222010,E,091651.00,A,A*6C
$GPVTG,153.2,T,153.4,M,001.8,N,003.4,K,A*2B
$GPGSV,2,1,07,02,37,067,44,12,49,088,39,14,21,244,40,25,79,027,46*70
$GPGSV,2,2,07,29,62,230,43,30,42,296,44,31,34,310,45,,,,*49
$GPGSA,M,3,02,12,14,25,29,30,31,,,,,,2.6,1.4,2.1*35
Trace #41 at position 10.000000
$GPZDA,091650.04,09,10,2011,00,00*63
$GPRMC,091650.00,A,4611.976452,N,01258.221682,E,002.1,155.7,091011,0.2,E,A*3B
$GPGGA,091651.00,4611.975902,N,01258.222010,E,1,07,1.4,142.86,M,46.25,M,,*67
$GPGLL,4611.975902,N,01258.222010,E,091651.00,A,A*6C
$GPVTG,153.2,T,153.4,M,001.8,N,003.4,K,A*2B
$GPGSV,2,1,07,02,37,067,44,12,49,088,39,14,21,244,40,25,79,027,46*70
$GPGSV,2,2,07,29,62,230,43,30,42,296,44,31,34,310,45,,,,*49
$GPGSA,M,3,02,12,14,25,29,30,31,,,,,,2.6,1.4,2.1*35
Trace #42 at position 10.250000
$GPZDA,091650.04,09,10,2011,00,00*63
$GPRMC,091650.00,A,4611.976452,N,01258.221682,E,002.1,155.7,091011,0.2,E,A*3B
$GPGGA,091651.00,4611.975902,N,01258.222010,E,1,07,1.4,142.86,M,46.25,M,,*67
$GPGLL,4611.975902,N,01258.222010,E,091651.00,A,A*6C
$GPVTG,153.2,T,153.4,M,001.8,N,003.4,K,A*2B
$GPGSV,2,1,07,02,37,067,44,12,49,088,39,14,21,244,40,25,79,027,46*70
$GPGSV,2,2,07,29,62,230,43,30,42,296,44,31,34,310,45,,,,*49
$GPGSA,M,3,02,12,14,25,29,30,31,,,,,,2.6,1.4,2.1*35
Trace #43 at position 10.500000
$GPZDA,091650.04,09,10,2011,00,00*63
$GPRMC,091650.00,A,4611.976452,N,01258.221682,E,002.1,155.7,091011,0.2,E,A*3B
$GPGGA,091651.00,4611.975902,N,01258.222010,E,1,07,1.4,142.86,M,46.25,M,,*67
$GPGLL,4611.975902,N,01258.222010,E,091651.00,A,A*6C
$GPVTG,153.2,T,153.4,M,001.8,N,003.4,K,A*2B
$GPGSV,2,1,07,02,37,067,44,12,49,088,39,14,21,244,40,25,79,027,46*70
$GPGSV,2,2,07,29,62,230,43,30,42,296,44,31,34,310,45,,,,*49
$GPGSA,M,3,02,12,14,25,29,30,31,,,,,,2.6,1.4,2.1*35
Trace #44 at position 10.750000
$GPZDA,091651.04,09,10,2011,00,00*62
$GPRMC,091651.00,A,4611.975902,N,01258.222010,E,001.8,153.2,091011,0.2,E,A*36
$GPGGA,091652.00,4611.975344,N,01258.222082,E,1,07,1.4,142.43,M,46.25,M,,*6E
$GPGLL,4611.975344,N,01258.222082,E,091652.00,A,A*6C
$GPVTG,192.6,T,192.8,M,002.2,N,004.0,K,A*29
$GPGSV,2,1,07,02,37,067,44,12,49,088,39,14,21,244,41,25,79,027,46*71
$GPGSV,2,2,07,29,62,230,44,30,42,296,44,31,34,310,44,,,,*4F
$GPGSA,M,3,02,12,14,25,29,30,31,,,,,,2.6,1.4,2.1*35
Trace #45 at position 11.000000
$GPZDA,091651.04,09,10,2011,00,00*62
$GPRMC,091651.00,A,4611.975902,N,01258.222010,E,001.8,153.2,091011,0.2,E,A*36
$GPGGA,091652.00,4611.975344,N,01258.222082,E,1,07,1.4,142.43,M,46.25,M,,*6E
$GPGLL,4611.975344,N,01258.222082,E,091652.00,A,A*6C
$GPVTG,192.6,T,192.8,M,002.2,N,004.0,K,A*29
$GPGSV,2,1,07,02,37,067,44,12,49,088,39,14,21,244,41,25,79,027,46*71
$GPGSV,2,2,07,29,62,230,44,30,42,296,44,31,34,310,44,,,,*4F
$GPGSA,M,3,02,12,14,25,29,30,31,,,,,,2.6,1.4,2.1*35
Trace #46 at position 11.250000
$GPZDA,091651.04,09,10,2011,00,00*62
$GPRMC,091651.00,A,4611.975902,N,01258.222010,E,001.8,153.2,091011,0.2,E,A*36
$GPGGA,091652.00,4611.975344,N,01258.222082,E,1,07,1.4,142.43,M,46.25,M,,*6E
$GPGLL,4611.975344,N,01258.222082,E,091652.00,A,A*6C
$GPVTG,192.6,T,192.8,M,002.2,N,004.0,K,A*29
$GPGSV,2,1,07,02,37,067,44,12,49,088,39,14,21,244,41,25,79,027,46*71
$GPGSV,2,2,07,29,62,230,44,30,42,296,44,31,34,310,44,,,,*4F
$GPGSA,M,3,02,12,14,25,29,30,31,,,,,,2.6,1.4,2.1*35
Trace #47 at position 11.500000
$GPZDA,091652.04,09,10,2011,00,00*61
$GPRMC,091652.00,A,4611.975344,N,01258.222082,E,002.2,192.6,091011,0.2,E,A*36
$GPGGA,091653.00,4611.974747,N,01258.222178,E,1,07,1.4,142.09,M,46.25,M,,*63
$GPGLL,4611.974747,N,01258.222178,E,091653.00,A,A*6F
$GPVTG,157.5,T,157.6,M,002.2,N,004.0,K,A*24
$GPGSV,2,1,07,02,37,067,44,12,49,088,40,14,21,244,40,25,79,027,46*7E
$GPGSV,2,2,07,29,62,230,42,30,42,296,44,31,34,310,45,,,,*48
$GPGSA,M,3,02,12,14,25,29,30,31,,,,,,2.6,1.4,2.1*35
Trace #48 at position 11.750000
$GPZDA,091652.04,09,10,2011,00,00*61
$GPRMC,091652.00,A,4611.975344,N,01258.222082,E,002.2,192.6,091011,0.2,E,A*36
$GPGGA,091653.00,4611.974747,N,01258.222178,E,1,07,1.4,142.09,M,46.25,M,,*63
$GPGLL,4611.974747,N,01258.222178,E,091653.00,A,A*6F
$GPVTG,157.5,T,157.6,M,002.2,N,004.0,K,A*24
$GPGSV,2,1,07,02,37,067,44,12,49,088,40,14,21,244,40,25,79,027,46*7E
$GPGSV,2,2,07,29,62,230,42,30,42,296,44,31,34,310,45,,,,*48
$GPGSA,M,3,02,12,14,25,29,30,31,,,,,,2.6,1.4,2.1*35
Trace #49 at position 12.000000
$GPZDA,091652.04,09,10,2011,00,00*61
$GPRMC,091652.00,A,4611.975344,N,01258.222082,E,002.2,192.6,091011,0.2,E,A*36
$GPGGA,091653.00,4611.974747,N,01258.222178,E,1,07,1.4,142.09,M,46.25,M,,*63
$GPGLL,4611.974747,N,01258.222178,E,091653.00,A,A*6F
$GPVTG,157.5,T,157.6,M,002.2,N,004.0,K,A*24
$GPGSV,2,1,07,02,37,067,44,12,49,088,40,14,21,244,40,25,79,027,46*7E
$GPGSV,2,2,07,29,62,230,42,30,42,296,44,31,34,310,45,,,,*48
$GPGSA,M,3,02,12,14,25,29,30,31,,,,,,2.6,1.4,2.1*35
Trace #50 at position 12.250000
$GPZDA,091652.04,09,10,2011,00,00*61
$GPRMC,091652.00,A,4611.975344,N,01258.222082,E,002.2,192.6,091011,0.2,E,A*36
$GPGGA,091653.00,4611.974747,N,01258.222178,E,1,07,1.4,142.09,M,46.25,M,,*63
$GPGLL,4611.974747,N,01258.222178,E,091653.00,A,A*6F
$GPVTG,157.5,T,157.6,M,002.2,N,004.0,K,A*24
$GPGSV,2,1,07,02,37,067,44,12,49,088,40,14,21,244,40,25,79,027,46*7E
$GPGSV,2,2,07,29,62,230,42,30,42,296,44,31,34,310,45,,,,*48
$GPGSA,M,3,02,12,14,25,29,30,31,,,,,,2.6,1.4,2.1*35
Trace #51 at position 12.500000
$GPZDA,091653.04,09,10,2011,00,00*60
$GPRMC,091653.00,A,4611.974747,N,01258.222178,E,002.2,157.5,091011,0.2,E,A*3F
$GPGGA,091654.00,4611.974186,N,01258.222479,E,1,07,1.4,141.77,M,46.25,M,,*61
$GPGLL,4611.974186,N,01258.222479,E,091654.00,A,A*67
$GPVTG,161.4,T,161.5,M,002.1,N,003.8,K,A*2A
$GPGSV,2,1,07,02,37,067,44,12,49,088,40,14,21,244,39,25,79,027,46*70
$GPGSV,2,2,07,29,62,230,42,30,42,296,44,31,34,310,44,,,,*49
$GPGSA,M,3,02,12,14,25,29,30,31,,,,,,2.6,1.4,2.1*35
Trace #52 at position 12.750000
$GPZDA,091653.04,09,10,2011,00,00*60
$GPRMC,091653.00,A,4611.974747,N,01258.222178,E,002.2,157.5,091011,0.2,E,A*3F
$GPGGA,091654.00,4611.974186,N,01258.222479,E,1,07,1.4,141.77,M,46.25,M,,*61
$GPGLL,4611.974186,N,01258.222479,E,091654.00,A,A*67
$GPVTG,161.4,T,161.5,M,002.1,N,003.8,K,A*2A
$GPGSV,2,1,07,02,37,067,44,12,49,088,40,14,21,244,39,25,79,027,46*70
$GPGSV,2,2,07,29,62,230,42,30,42,296,44,31,34,310,44,,,,*49
$GPGSA,M,3,02,12,14,25,29,30,31,,,,,,2.6,1.4,2.1*35
Trace #53 at position 13.000000
$GPZDA,091653.04,09,10,2011,00,00*60
$GPRMC,091653.00,A,4611.974747,N,01258.222178,E,002.2,157.5,091011,0.2,E,A*3F
$GPGGA,091654.00,4611.974186,N,01258.222479,E,1,07,1.4,141.77,M,46.25,M,,*61
$GPGLL,4611.974186,N,01258.222479,E,091654.00,A,A*67
$GPVTG,161.4,T,161.5,M,002.1,N,003.8,K,A*2A
$GPGSV,2,1,07,02,37,067,44,12,49,088,40,14,21,244,39,25,79,027,46*70
$GPGSV,2,2,07,29,62,230,42,30,42,296,44,31,34,310,44,,,,*49
$GPGSA,M,3,02,12,14,25,29,30,31,,,,,,2.6,1.4,2.1*35
Trace #54 at position 13.250000
$GPZDA,091653.04,09,10,2011,00,00*60
$GPRMC,091653.00,A,4611.974747,N,01258.222178,E,002.2,157.5,091011,0.2,E,A*3F
$GPGGA,091654.00,4611.974186,N,01258.222479,E,1,07,1.4,141.77,M,46.25,M,,*61
$GPGLL,4611.974186,N,01258.222479,E,091654.00,A,A*67
$GPVTG,161.4,T,161.5,M,002.1,N,003.8,K,A*2A
$GPGSV,2,1,07,02,37,067,44,12,49,088,40,14,21,244,39,25,79,027,46*70
$GPGSV,2,2,07,29,62,230,42,30,42,296,44,31,34,310,44,,,,*49
$GPGSA,M,3,02,12,14,25,29,30,31,,,,,,2.6,1.4,2.1*35
Trace #55 at position 13.500000
$GPZDA,091654.04,09,10,2011,00,00*67
$GPRMC,091654.00,A,4611.974186,N,01258.222479,E,002.1,161.4,091011,0.2,E,A*30
$GPGGA,091655.00,4611.973621,N,01258.222688,E,1,07,1.4,141.41,M,46.25,M,,*64
$GPGLL,4611.973621,N,01258.222688,E,091655.00,A,A*67
$GPVTG,169.3,T,169.4,M,002.1,N,003.9,K,A*2D
$GPGSV,2,1,07,02,37,067,44,12,49,088,39,14,21,244,40,25,79,027,46*70
$GPGSV,2,2,07,29,62,230,43,30,42,296,43,31,34,310,44,,,,*4F
$GPGSA,M,3,02,12,14,25,29,30,31,,,,,,2.6,1.4,2.1*35
Trace #56 at position 13.750000
$GPZDA,091654.04,09,10,2011,00,00*67
$GPRMC,091654.00,A,4611.974186,N,01258.222479,E,002.1,161.4,091011,0.2,E,A*30
$GPGGA,091655.00,4611.973621,N,01258.222688,E,1,07,1.4,141.41,M,46.25,M,,*64
$GPGLL,4611.973621,N,01258.222688,E,091655.00,A,A*67
$GPVTG,169.3,T,169.4,M,002.1,N,003.9,K,A*2D
$GPGSV,2,1,07,02,37,067,44,12,49,088,39,14,21,244,40,25,79,027,46*70
$GPGSV,2,2,07,29,62,230,43,30,42,296,43,31,34,310,44,,,,*4F
$GPGSA,M,3,02,12,14,25,29,30,31,,,,,,2.6,1.4,2.1*35
Trace #57 at position 14.000000
$GPZDA,091654.04,09,10,2011,00,00*67
$GPRMC,091654.00,A,4611.974186,N,01258.222479,E,002.1,161.4,091011,0.2,E,A*30
$GPGGA,091655.00,4611.973621,N,01258.222688,E,1,07,1.4,141.41,M,46.25,M,,*64
$GPGLL,4611.973621,N,01258.222688,E,091655.00,A,A*67
$GPVTG,169.3,T,169.4,M,002.1,N,003.9,K,A*2D
$GPGSV,2,1,07,02,37,067,44,12,49,088,39,14,21,244,40,25,79,027,46*70
$GPGSV,2,2,07,29,62,230,43,30,42,296,43,31,34,310,44,,,,*4F
$GPGSA,M,3,02,12,14,25,29,30,31,,,,,,2.6,1.4,2.1*35
Trace #58 at position 14.250000
$GPZDA,091654.04,09,10,2011,00,00*67
$GPRMC,091654.00,A,4611.974186,N,01258.222479,E,002.1,161.4,091011,0.2,E,A*30
$GPGGA,091655.00,4611.973621,N,01258.222688,E,1,07,1.4,141.41,M,46.25,M,,*64
$GPGLL,4611.973621,N,01258.222688,E,091655.00,A,A*67
$GPVTG,169.3,T,169.4,M,002.1,N,003.9,K,A*2D
$GPGSV,2,1,07,02,37,067,44,12,49,088,39,14,21,244,40,25,79,027,46*70
$GPGSV,2,2,07,29,62,230,43,30,42,296,43,31,34,310,44,,,,*4F
$GPGSA,M,3,02,12,14,25,29,30,31,,,,,,2.6,1.4,2.1*35
Trace #59 at position 14.500000
$GPZDA,091655.04,09,10,2011,00,00*66
$GPRMC,091655.00,A,4611.973621,N,01258.222688,E,002.1,169.3,091011,0.2,E,A*3F
$GPGGA,091656.00,4611.973123,N,01258.222864,E,1,07,1.4,141.15,M,46.25,M,,*6F
$GPGLL,4611.973123,N,01258.222864,E,091656.00,A,A*6D
$GPVTG,163.3,T,163.4,M,001.6,N,003.0,K,A*20
$GPGSV,2,1,07,02,37,067,44,12,49,088,41,14,21,244,39,25,79,027,45*72
$GPGSV,2,2,07,29,62,230,43,30,42,296,44,31,34,310,44,,,,*48
$GPGSA,M,3,02,12,14,25,29,30,31,,,,,,2.5,1.4,2.1*36
Trace #60 at position 14.750000
$GPZDA,091655.04,09,10,2011,00,00*66
$GPRMC,091655.00,A,4611.973621,N,01258.222688,E,002.1,169.3,091011,0.2,E,A*3F
$GPGGA,091656.00,4611.973123,N,01258.222864,E,1,07,1.4,141.15,M,46.25,M,,*6F
$GPGLL,4611.973123,N,01258.222864,E,091656.00,A,A*6D
$GPVTG,163.3,T,163.4,M,001.6,N,003.0,K,A*20
$GPGSV,2,1,07,02,37,067,44,12,49,088,41,14,21,244,39,25,79,027,45*72
$GPGSV,2,2,07,29,62,230,43,30,42,296,44,31,34,310,44,,,,*48
$GPGSA,M,3,02,12,14,25,29,30,31,,,,,,2.5,1.4,2.1*36
Trace #61 at position 15.000000
$GPZDA,091655.04,09,10,2011,00,00*66
$GPRMC,091655.00,A,4611.973621,N,01258.222688,E,002.1,169.3,091011,0.2,E,A*3F
$GPGGA,091656.00,4611.973123,N,01258.222864,E,1,07,1.4,141.15,M,46.25,M,,*6F
$GPGLL,4611.973123,N,01258.222864,E,091656.00,A,A*6D
$GPVTG,163.3,T,163.4,M,001.6,N,003.0,K,A*20
$GPGSV,2,1,07,02,37,067,44,12,49,088,41,14,21,244,39,25,79,027,45*72
$GPGSV,2,2,07,29,62,230,43,30,42,296,44,31,34,310,44,,,,*48
$GPGSA,M,3,02,12,14,25,29,30,31,,,,,,2.5,1.4,2.1*36
Trace #62 at position 15.250000
$GPZDA,091655.04,09,10,2011,00,00*66
$GPRMC,091655.00,A,4611.973621,N,01258.222688,E,002.1,169.3,091011,0.2,E,A*3F
$GPGGA,091656.00,4611.973123,N,01258.222864,E,1,07,1.4,141.15,M,46.25,M,,*6F
$GPGLL,4611.973123,N,01258.222864,E,091656.00,A,A*6D
$GPVTG,163.3,T,163.4,M,001.6,N,003.0,K,A*20
$GPGSV,2,1,07,02,37,067,44,12,49,088,41,14,21,244,39,25,79,027,45*72
$GPGSV,2,2,07,29,62,230,43,30,42,296,44,31,34,310,44,,,,*48
$GPGSA,M,3,02,12,14,25,29,30,31,,,,,,2.5,1.4,2.1*36
Trace #63 at position 15.500000
$GPZDA,091656.04,09,10,2011,00,00*65
$GPRMC,091656.00,A,4611.973123,N,01258.222864,E,001.6,163.3,091011,0.2,E,A*3B
$GPGGA,091657.00,4611.972508,N,01258.223145,E,1,07,1.4,140.87,M,46.25,M,,*63
$GPGLL,4611.972508,N,01258.223145,E,091657.00,A,A*6B
$GPVTG,163.2,T,163.4,M,003.1,N,005.8,K,A*2A
$GPGSV,2,1,07,02,37,067,44,12,49,088,39,14,21,244,41,25,79,027,46*71
$GPGSV,2,2,07,29,62,230,42,30,42,296,44,31,34,310,45,,,,*48
$GPGSA,M,3,02,12,14,25,29,30,31,,,,,,2.5,1.4,2.1*36
Trace #64 at position 15.750000
$GPZDA,091656.04,09,10,2011,00,00*65
$GPRMC,091656.00,A,4611.973123,N,01258.222864,E,001.6,163.3,091011,0.2,E,A*3B
$GPGGA,091657.00,4611.972508,N,01258.223145,E,1,07,1.4,140.87,M,46.25,M,,*63
$GPGLL,4611.972508,N,01258.223145,E,091657.00,A,A*6B
$GPVTG,163.2,T,163.4,M,003.1,N,005.8,K,A*2A
$GPGSV,2,1,07,02,37,067,44,12,49,088,39,14,21,244,41,25,79,027,46*71
$GPGSV,2,2,07,29,62,230,42,30,42,296,44,31,34,310,45,,,,*48
$GPGSA,M,3,02,12,14,25,29,30,31,,,,,,2.5,1.4,2.1*36
Trace #65 at position 16.000000
$GPZDA,091656.04,09,10,2011,00,00*65
$GPRMC,091656.00,A,4611.973123,N,01258.222864,E,001.6,163.3,091011,0.2,E,A*3B
$GPGGA,091657.00,4611.972508,N,01258.223145,E,1,07,1.4,140.87,M,46.25,M,,*63
$GPGLL,4611.972508,N,01258.223145,E,091657.00,A,A*6B
$GPVTG,163.2,T,163.4,M,003.1,N,005.8,K,A*2A
$GPGSV,2,1,07,02,37,067,44,12,49,088,39,14,21,244,41,25,79,027,46*71
$GPGSV,2,2,07,29,62,230,42,30,42,296,44,31,34,310,45,,,,*48
$GPGSA,M,3,02,12,14,25,29,30,31,,,,,,2.5,1.4,2.1*36
Trace #66 at position 16.250000
$GPZDA,091656.04,09,10,2011,00,00*65
$GPRMC,091656.00,A,4611.973123,N,01258.222864,E,001.6,163.3,091011,0.2,E,A*3B
$GPGGA,091657.00,4611.972508,N,01258.223145,E,1,07,1.4,140.87,M,46.25,M,,*63
$GPGLL,4611.972508,N,01258.223145,E,091657.00,A,A*6B
$GPVTG,163.2,T,163.4,M,003.1,N,005.8,K,A*2A
$GPGSV,2,1,07,02,37,067,44,12,49,088,39,14,21,244,41,25,79,027,46*71
$GPGSV,2,2,07,29,62,230,42,30,42,296,44,31,34,310,45,,,,*48
$GPGSA,M,3,02,12,14,25,29,30,31,,,,,,2.5,1.4,2.1*36
Trace #67 at position 16.500000
$GPZDA,091657.04,09,10,2011,00,00*64
$GPRMC,091657.00,A,4611.972508,N,01258.223145,E,003.1,163.2,091011,0.2,E,A*39
$GPGGA,091658.00,4611.971845,N,01258.223576,E,1,07,1.4,140.57,M,46.25,M,,*62
$GPGLL,4611.971845,N,01258.223576,E,091658.00,A,A*67
$GPVTG,146.5,T,146.7,M,002.4,N,004.5,K,A*26
$GPGSV,2,1,07,02,37,066,44,12,49,088,39,14,21,244,41,25,79,027,46*70
$GPGSV,2,2,07,29,62,230,41,30,42,296,44,31,34,310,43,,,,*4D
$GPGSA,M,3,02,12,14,25,29,30,31,,,,,,2.5,1.4,2.1*36
Trace #68 at position 16.750000
$GPZDA,091657.04,09,10,2011,00,00*64
$GPRMC,091657.00,A,4611.972508,N,01258.223145,E,003.1,163.2,091011,0.2,E,A*39
$GPGGA,091658.00,4611.971845,N,01258.223576,E,1,07,1.4,140.57,M,46.25,M,,*62
$GPGLL,4611.971845,N,01258.223576,E,091658.00,A,A*67
$GPVTG,146.5,T,146.7,M,002.4,N,004.5,K,A*26
$GPGSV,2,1,07,02,37,066,44,12,49,088,39,14,21,244,41,25,79,027,46*70
$GPGSV,2,2,07,29,62,230,41,30,42,296,44,31,34,310,43,,,,*4D
$GPGSA,M,3,02,12,14,25,29,30,31,,,,,,2.5,1.4,2.1*36
Trace #69 at position 17.000000
$GPZDA,091657.04,09,10,2011,00,00*64
$GPRMC,091657.00,A,4611.972508,N,01258.223145,E,003.1,163.2,091011,0.2,E,A*39
$GPGGA,091658.00,4611.971845,N,01258.223576,E,1,07,1.4,140.57,M,46.25,M,,*62
$GPGLL,4611.971845,N,01258.223576,E,091658.00,A,A*67
$GPVTG,146.5,T,146.7,M,002.4,N,004.5,K,A*26
$GPGSV,2,1,07,02,37,066,44,12,49,088,39,14,21,244,41,25,79,027,46*70
$GPGSV,2,2,07,29,62,230,41,30,42,296,44,31,34,310,43,,,,*4D
$GPGSA,M,3,02,12,14,25,29,30,31,,,,,,2.5,1.4,2.1*36
Trace #70 at position 17.250000
$GPZDA,091657.04,09,10,2011,00,00*64
$GPRMC,091657.00,A,4611.972508,N,01258.223145,E,003.1,163.2,091011,0.2,E,A*39
$GPGGA,091658.00,4611.971845,N,01258.223576,E,1,07,1.4,140.57,M,46.25,M,,*62
$GPGLL,4611.971845,N,01258.223576,E,091658.00,A,A*67
$GPVTG,146.5,T,146.7,M,002.4,N,004.5,K,A*26
$GPGSV,2,1,07,02,37,066,44,12,49,088,39,14,21,244,41,25,79,027,46*70
$GPGSV,2,2,07,29,62,230,41,30,42,296,44,31,34,310,43,,,,*4D
$GPGSA,M,3,02,12,14,25,29,30,31,,,,,,2.5,1.4,2.1*36
Trace #71 at position 17.500000
$GPZDA,091658.04,09,10,2011,00,00*6B
$GPRMC,091658.00,A,4611.971845,N,01258.223576,E,002.4,146.5,091011,0.2,E,A*31
$GPGGA,091659.00,4611.971440,N,01258.223908,E,1,07,1.4,140.48,M,46.25,M,,*61
$GPGLL,4611.971440,N,01258.223908,E,091659.00,A,A*6A
$GPVTG,154.1,T,154.3,M,001.2,N,002.2,K,A*22
$GPGSV,2,1,07,02,37,066,44,12,49,088,38,14,21,244,40,25,79,027,46*70
$GPGSV,2,2,07,29,62,230,42,30,42,296,44,31,34,310,43,,,,*4E
$GPGSA,M,3,02,12,14,25,29,30,31,,,,,,2.5,1.4,2.1*36
Trace #72 at position 17.750000
$GPZDA,091658.04,09,10,2011,00,00*6B
$GPRMC,091658.00,A,4611.971845,N,01258.223576,E,002.4,146.5,091011,0.2,E,A*31
$GPGGA,091659.00,4611.971440,N,01258.223908,E,1,07,1.4,140.48,M,46.25,M,,*61
$GPGLL,4611.971440,N,01258.223908,E,091659.00,A,A*6A
$GPVTG,154.1,T,154.3,M,001.2,N,002.2,K,A*22
$GPGSV,2,1,07,02,37,066,44,12,49,088,38,14,21,244,40,25,79,027,46*70
$GPGSV,2,2,07,29,62,230,42,30,42,296,44,31,34,310,43,,,,*4E
$GPGSA,M,3,02,12,14,25,29,30,31,,,,,,2.5,1.4,2.1*36
Trace #73 at position 18.000000
$GPZDA,091658.04,09,10,2011,00,00*6B
$GPRMC,091658.00,A,4611.971845,N,01258.223576,E,002.4,146.5,091011,0.2,E,A*31
$GPGGA,091659.00,4611.971440,N,01258.223908,E,1,07,1.4,140.48,M,46.25,M,,*61
$GPGLL,4611.971440,N,01258.223908,E,091659.00,A,A*6A
$GPVTG,154.1,T,154.3,M,001.2,N,002.2,K,A*22
$GPGSV,2,1,07,02,37,066,44,12,49,088,38,14,21,244,40,25,79,027,46*70
$GPGSV,2,2,07,29,62,230,42,30,42,296,44,31,34,310,43,,,,*4E
$GPGSA,M,3,02,12,14,25,29,30,31,,,,,,2.5,1.4,2.1*36
Trace #74 at position 18.250000
$GPZDA,091659.04,09,10,2011,00,00*6A
$GPRMC,091659.00,A,4611.971440,N,01258.223908,E,001.2,154.1,091011,0.2,E,A*3E
$GPGGA,091700.00,4611.971106,N,01258.224128,E,1,07,1.4,140.56,M,46.25,M,,*69
$GPGLL,4611.971106,N,01258.224128,E,091700.00,A,A*6D
$GPVTG,150.1,T,150.3,M,001.6,N,002.9,K,A*2D
$GPGSV,2,1,07,02,37,066,44,12,49,088,38,14,21,244,40,25,79,027,46*70
$GPGSV,2,2,07,29,62,230,42,30,42,296,44,31,34,310,43,,,,*4E
$GPGSA,M,3,02,12,14,25,29,30,31,,,,,,2.5,1.4,2.1*36
Trace #75 at position 18.500000
$GPZDA,091659.04,09,10,2011,00,00*6A
$GPRMC,091659.00,A,4611.971440,N,01258.223908,E,001.2,154.1,091011,0.2,E,A*3E
$GPGGA,091700.00,4611.971106,N,01258.224128,E,1,07,1.4,140.56,M,46.25,M,,*69
$GPGLL,4611.971106,N,01258.224128,E,091700.00,A,A*6D
$GPVTG,150.1,T,150.3,M,001.6,N,002.9,K,A*2D
$GPGSV,2,1,07,02,37,066,44,12,49,088,38,14,21,244,40,25,79,027,46*70
$GPGSV,2,2,07,29,62,230,42,30,42,296,44,31,34,310,43,,,,*4E
$GPGSA,M,3,02,12,14,25,29,30,31,,,,,,2.5,1.4,2.1*36
Trace #76 at position 18.750000
$GPZDA,091659.04,09,10,2011,00,00*6A
$GPRMC,091659.00,A,4611.971440,N,01258.223908,E,001.2,154.1,091011,0.2,E,A*3E
$GPGGA,091700.00,4611.971106,N,01258.224128,E,1,07,1.4,140.56,M,46.25,M,,*69
$GPGLL,4611.971106,N,01258.224128,E,091700.00,A,A*6D
$GPVTG,150.1,T,150.3,M,001.6,N,002.9,K,A*2D
$GPGSV,2,1,07,02,37,066,44,12,49,088,38,14,21,244,40,25,79,027,46*70
$GPGSV,2,2,07,29,62,230,42,30,42,296,44,31,34,310,43,,,,*4E
$GPGSA,M,3,02,12,14,25,29,30,31,,,,,,2.5,1.4,2.1*36
Trace #77 at position 19.000000
$GPZDA,091659.04,09,10,2011,00,00*6A
$GPRMC,091659.00,A,4611.971440,N,01258.223908,E,001.2,154.1,091011,0.2,E,A*3E
$GPGGA,091700.00,4611.971106,N,01258.224128,E,1,07,1.4,140.56,M,46.25,M,,*69
$GPGLL,4611.971106,N,01258.224128,E,091700.00,A,A*6D
$GPVTG,150.1,T,150.3,M,001.6,N,002.9,K,A*2D
$GPGSV,2,1,07,02,37,066,44,12,49,088,38,14,21,244,40,25,79,027,46*70
$GPGSV,2,2,07,29,62,230,42,30,42,296,44,31,34,310,43,,,,*4E
$GPGSA,M,3,02,12,14,25,29,30,31,,,,,,2.5,1.4,2.1*36
Trace #78 at position 19.250000
$GPZDA,091700.04,09,10,2011,00,00*67
$GPRMC,091700.00,A,4611.971106,N,01258.224128,E,001.6,150.1,091011,0.2,E,A*39
$GPGGA,091701.00,4611.970636,N,01258.224402,E,1,07,1.4,140.53,M,46.25,M,,*65
$GPGLL,4611.970636,N,01258.224402,E,091701.00,A,A*64
$GPVTG,157.8,T,158.0,M,002.2,N,004.1,K,A*21
$GPGSV,2,1,07,02,37,066,44,12,49,088,39,14,21,244,40,25,79,027,46*71
$GPGSV,2,2,07,29,62,230,42,30,42,296,43,31,34,310,43,,,,*49
$GPGSA,M,3,02,12,14,25,29,30,31,,,,,,2.5,1.4,2.1*36
Trace #79 at position 19.500000
$GPZDA,091700.04,09,10,2011,00,00*67
$GPRMC,091700.00,A,4611.971106,N,01258.224128,E,001.6,150.1,091011,0.2,E,A*39
$GPGGA,091701.00,4611.970636,N,01258.224402,E,1,07,1.4,140.53,M,46.25,M,,*65
$GPGLL,4611.970636,N,01258.224402,E,091701.00,A,A*64
$GPVTG,157.8,T,158.0,M,002.2,N,004.1,K,A*21
$GPGSV,2,1,07,02,37,066,44,12,49,088,39,14,21,244,40,25,79,027,46*71
$GPGSV,2,2,07,29,62,230,42,30,42,296,43,31,34,310,43,,,,*49
$GPGSA,M,3,02,12,14,25,29,30,31,,,,,,2.5,1.4,2.1*36
Trace #80 at position 19.750000
$GPZDA,091700.04,09,10,2011,00,00*67
$GPRMC,091700.00,A,4611.971106,N,01258.224128,E,001.6,150.1,091011,0.2,E,A*39
$GPGGA,091701.00,4611.970636,N,01258.224402,E,1,07,1.4,140.53,M,46.25,M,,*65
$GPGLL,4611.970636,N,01258.224402,E,091701.00,A,A*64
$GPVTG,157.8,T,158.0,M,002.2,N,004.1,K,A*21
$GPGSV,2,1,07,02,37,066,44,12,49,088,39,14,21,244,40,25,79,027,46*71
$GPGSV,2,2,07,29,62,230,42,30,42,296,43,31,34,310,43,,,,*49
$GPGSA,M,3,02,12,14,25,29,30,31,,,,,,2.5,1.4,2.1*36
Trace #81 at position 20.000000
$GPZDA,091701.04,09,10,2011,00,00*66
$GPRMC,091701.00,A,4611.970636,N,01258.224402,E,002.2,157.8,091011,0.2,E,A*39
$GPGGA,091702.00,4611.970173,N,01258.224654,E,1,07,1.4,140.43,M,46.25,M,,*60
$GPGLL,4611.970173,N,01258.224654,E,091702.00,A,A*60
$GPVTG,153.1,T,153.2,M,001.5,N,002.7,K,A*21
$GPGSV,2,1,07,02,37,066,45,12,49,088,40,14,21,244,39,25,79,027,47*71
$GPGSV,2,2,07,29,62,230,43,30,42,296,42,31,34,310,43,,,,*49
$GPGSA,M,3,02,12,14,25,29,30,31,,,,,,2.5,1.4,2.1*36
Trace #82 at position 20.250000
$GPZDA,091701.04,09,10,2011,00,00*66
$GPRMC,091701.00,A,4611.970636,N,01258.224402,E,002.2,157.8,091011,0.2,E,A*39
$GPGGA,091702.00,4611.970173,N,01258.224654,E,1,07,1.4,140.43,M,46.25,M,,*60
$GPGLL,4611.970173,N,01258.224654,E,091702.00,A,A*60
$GPVTG,153.1,T,153.2,M,001.5,N,002.7,K,A*21
$GPGSV,2,1,07,02,37,066,45,12,49,088,40,14,21,244,39,25,79,027,47*71
$GPGSV,2,2,07,29,62,230,43,30,42,296,42,31,34,310,43,,,,*49
$GPGSA,M,3,02,12,14,25,29,30,31,,,,,,2.5,1.4,2.1*36
Trace #83 at position 20.500000
$GPZDA,091701.04,09,10,2011,00,00*66
$GPRMC,091701.00,A,4611.970636,N,01258.224402,E,002.2,157.8,091011,0.2,E,A*39
$GPGGA,091702.00,4611.970173,N,01258.224654,E,1,07,1.4,140.43,M,46.25,M,,*60
$GPGLL,4611.970173,N,01258.224654,E,091702.00,A,A*60
$GPVTG,153.1,T,153.2,M,001.5,N,002.7,K,A*21
$GPGSV,2,1,07,02,37,066,45,12,49,088,40,14,21,244,39,25,79,027,47*71
$GPGSV,2,2,07,29,62,230,43,30,42,296,42,31,34,310,43,,,,*49
$GPGSA,M,3,02,12,14,25,29,30,31,,,,,,2.5,1.4,2.1*36
Trace #84 at position 20.750000
$GPZDA,091701.04,09,10,2011,00,00*66
$GPRMC,091701.00,A,4611.970636,N,01258.224402,E,002.2,157.8,091011,0.2,E,A*39
$GPGGA,091702.00,4611.970173,N,01258.224654,E,1,07,1.4,140.43,M,46.25,M,,*60
$GPGLL,4611.970173,N,01258.224654,E,091702.00,A,A*60
$GPVTG,153.1,T,153.2,M,001.5,N,002.7,K,A*21
$GPGSV,2,1,07,02,37,066,45,12,49,088,40,14,21,244,39,25,79,027,47*71
$GPGSV,2,2,07,29,62,230,43,30,42,296,42,31,34,310,43,,,,*49
$GPGSA,M,3,02,12,14,25,29,30,31,,,,,,2.5,1.4,2.1*36
Trace #85 at position 21.000000
$GPZDA,091702.04,09,10,2011,00,00*65
$GPRMC,091702.00,A,4611.970173,N,01258.224654,E,001.5,153.1,091011,0.2,E,A*34
$GPGGA,091703.00,4611.969602,N,01258.224756,E,1,07,1.4,140.28,M,46.25,M,,*66
$GPGLL,4611.969602,N,01258.224756,E,091703.00,A,A*6B
$GPVTG,178.7,T,178.9,M,002.9,N,005.4,K,A*27
$GPGSV,2,1,07,02,37,066,44,12,49,088,39,14,21,244,40,25,79,027,47*70
$GPGSV,2,2,07,29,62,230,43,30,42,296,44,31,34,310,44,,,,*48
$GPGSA,M,3,02,12,14,25,29,30,31,,,,,,2.5,1.4,2.1*36
Trace #86 at position 21.250000
$GPZDA,091702.04,09,10,2011,00,00*65
$GPRMC,091702.00,A,4611.970173,N,01258.224654,E,001.5,153.1,091011,0.2,E,A*34
$GPGGA,091703.00,4611.969602,N,01258.224756,E,1,07,1.4,140.28,M,46.25,M,,*66
$GPGLL,4611.969602,N,01258.224756,E,091703.00,A,A*6B
$GPVTG,178.7,T,178.9,M,002.9,N,005.4,K,A*27
$GPGSV,2,1,07,02,37,066,44,12,49,088,39,14,21,244,40,25,79,027,47*70
$GPGSV,2,2,07,29,62,230,43,30,42,296,44,31,34,310,44,,,,*48
$GPGSA,M,3,02,12,14,25,29,30,31,,,,,,2.5,1.4,2.1*36
Trace #87 at position 21.500000
$GPZDA,091703.04,09,10,2011,00,00*64
$GPRMC,091703.00,A,4611.969602,N,01258.224756,E,002.9,178.7,091011,0.2,E,A*3F
$GPGGA,091704.00,4611.968982,N,01258.224994,E,1,07,1.4,140.15,M,46.25,M,,*69
$GPGLL,4611.968982,N,01258.224994,E,091704.00,A,A*6A
$GPVTG,143.4,T,143.6,M,002.3,N,004.2,K,A*26
$GPGSV,2,1,07,02,37,066,44,12,49,088,39,14,21,244,40,25,79,027,46*71
$GPGSV,2,2,07,29,62,230,43,30,42,296,44,31,34,310,44,,,,*48
$GPGSA,M,3,02,12,14,25,29,30,31,,,,,,2.5,1.4,2.1*36
Trace #88 at position 21.750000
$GPZDA,091703.04,09,10,2011,00,00*64
$GPRMC,091703.00,A,4611.969602,N,01258.224756,E,002.9,178.7,091011,0.2,E,A*3F
$GPGGA,091704.00,4611.968982,N,01258.224994,E,1,07,1.4,140.15,M,46.25,M,,*69
$GPGLL,4611.968982,N,01258.224994,E,091704.00,A,A*6A
$GPVTG,143.4,T,143.6,M,002.3,N,004.2,K,A*26
$GPGSV,2,1,07,02,37,066,44,12,49,088,39,14,21,244,40,25,79,027,46*71
$GPGSV,2,2,07,29,62,230,43,30,42,296,44,31,34,310,44,,,,*48
$GPGSA,M,3,02,12,14,25,29,30,31,,,,,,2.5,1.4,2.1*36
Trace #89 at position 22.000000
$GPZDA,091703.04,09,10,2011,00,00*64
$GPRMC,091703.00,A,4611.969602,N,01258.224756,E,002.9,178.7,091011,0.2,E,A*3F
$GPGGA,091704.00,4611.968982,N,01258.224994,E,1,07,1.4,140.15,M,46.25,M,,*69
$GPGLL,4611.968982,N,01258.224994,E,091704.00,A,A*6A
$GPVTG,143.4,T,143.6,M,002.3,N,004.2,K,A*26
$GPGSV,2,1,07,02,37,066,44,12,49,088,39,14,21,244,40,25,79,027,46*71
$GPGSV,2,2,07,29,62,230,43,30,42,296,44,31,34,310,44,,,,*48
$GPGSA,M,3,02,12,14,25,29,30,31,,,,,,2.5,1.4,2.1*36
Trace #90 at position 22.250000
$GPZDA,091703.04,09,10,2011,00,00*64
$GPRMC,091703.00,A,4611.969602,N,01258.224756,E,002.9,178.7,091011,0.2,E,A*3F
$GPGGA,091704.00,4611.968982,N,01258.224994,E,1,07,1.4,140.15,M,46.25,M,,*69
$GPGLL,4611.968982,N,01258.224994,E,091704.00,A,A*6A
$GPVTG,143.4,T,143.6,M,002.3,N,004.2,K,A*26
$GPGSV,2,1,07,02,37,066,44,12,49,088,39,14,21,244,40,25,79,027,46*71
$GPGSV,2,2,07,29,62,230,43,30,42,296,44,31,34,310,44,,,,*48
$GPGSA,M,3,02,12,14,25,29,30,31,,,,,,2.5,1.4,2.1*36
Trace #91 at position 22.500000
$GPZDA,091704.04,09,10,2011,00,00*63
$GPRMC,091704.00,A,4611.968982,N,01258.224994,E,002.3,143.4,091011,0.2,E,A*3F
$GPGGA,091705.00,4611.968525,N,01258.225320,E,1,07,1.4,140.04,M,46.25,M,,*6D
$GPGLL,4611.968525,N,01258.225320,E,091705.00,A,A*6E
$GPVTG,161.3,T,161.5,M,001.9,N,003.5,K,A*2B
$GPGSV,2,1,07,02,37,066,45,12,49,088,40,14,21,244,40,25,79,027,46*7E
$GPGSV,2,2,07,29,62,230,41,30,42,296,43,31,34,310,43,,,,*4A
$GPGSA,M,3,02,12,14,25,29,30,31,,,,,,2.5,1.4,2.1*36
Trace #92 at position 22.750000
$GPZDA,091704.04,09,10,2011,00,00*63
$GPRMC,091704.00,A,4611.968982,N,01258.224994,E,002.3,143.4,091011,0.2,E,A*3F
$GPGGA,091705.00,4611.968525,N,01258.225320,E,1,07,1.4,140.04,M,46.25,M,,*6D
$GPGLL,4611.968525,N,01258.225320,E,091705.00,A,A*6E
$GPVTG,161.3,T,161.5,M,001.9,N,003.5,K,A*2B
$GPGSV,2,1,07,02,37,066,45,12,49,088,40,14,21,244,40,25,79,027,46*7E
$GPGSV,2,2,07,29,62,230,41,30,42,296,43,31,34,310,43,,,,*4A
$GPGSA,M,3,02,12,14,25,29,30,31,,,,,,2.5,1.4,2.1*36
Trace #93 at position 23.000000
$GPZDA,091704.04,09,10,2011,00,00*63
$GPRMC,091704.00,A,4611.968982,N,01258.224994,E,002.3,143.4,091011,0.2,E,A*3F
$GPGGA,091705.00,4611.968525,N,01258.225320,E,1,07,1.4,140.04,M,46.25,M,,*6D
$GPGLL,4611.968525,N,01258.225320,E,091705.00,A,A*6E
$GPVTG,161.3,T,161.5,M,001.9,N,003.5,K,A*2B
$GPGSV,2,1,07,02,37,066,45,12,49,088,40,14,21,244,40,25,79,027,46*7E
$GPGSV,2,2,07,29,62,230,41,30,42,296,43,31,34,310,43,,,,*4A
$GPGSA,M,3,02,12,14,25,29,30,31,,,,,,2.5,1.4,2.1*36
Trace #94 at position 23.250000
$GPZDA,091704.04,09,10,2011,00,00*63
$GPRMC,091704.00,A,4611.968982,N,01258.224994,E,002.3,143.4,091011,0.2,E,A*3F
$GPGGA,091705.00,4611.968525,N,01258.225320,E,1,07,1.4,140.04,M,46.25,M,,*6D
$GPGLL,4611.968525,N,01258.225320,E,091705.00,A,A*6E
$GPVTG,161.3,T,161.5,M,001.9,N,003.5,K,A*2B
$GPGSV,2,1,07,02,37,066,45,12,49,088,40,14,21,244,40,25,79,027,46*7E
$GPGSV,2,2,07,29,62,230,41,30,42,296,43,31,34,310,43,,,,*4A
$GPGSA,M,3,02,12,14,25,29,30,31,,,,,,2.5,1.4,2.1*36
Trace #95 at position 23.500000
$GPZDA,091705.04,09,10,2011,00,00*62
$GPRMC,091705.00,A,4611.968525,N,01258.225320,E,001.9,161.3,091011,0.2,E,A*35
$GPGGA,091706.00,4611.968156,N,01258.225608,E,1,07,1.4,139.91,M,46.25,M,,*63
$GPGLL,4611.968156,N,01258.225608,E,091706.00,A,A*62
$GPVTG,134.5,T,134.7,M,001.7,N,003.2,K,A*26
$GPGSV,2,1,07,02,37,066,45,12,49,088,40,14,21,244,41,25,79,028,47*71
$GPGSV,2,2,07,29,62,230,43,30,42,296,43,31,34,310,44,,,,*4F
$GPGSA,M,3,02,12,14,25,29,30,31,,,,,,2.5,1.4,2.1*36
Trace #96 at position 23.750000
$GPZDA,091705.04,09,10,2011,00,00*62
$GPRMC,091705.00,A,4611.968525,N,01258.225320,E,001.9,161.3,091011,0.2,E,A*35
$GPGGA,091706.00,4611.968156,N,01258.225608,E,1,07,1.4,139.91,M,46.25,M,,*63
$GPGLL,4611.968156,N,01258.225608,E,091706.00,A,A*62
$GPVTG,134.5,T,134.7,M,001.7,N,003.2,K,A*26
$GPGSV,2,1,07,02,37,066,45,12,49,088,40,14,21,244,41,25,79,028,47*71
$GPGSV,2,2,07,29,62,230,43,30,42,296,43,31,34,310,44,,,,*4F
$GPGSA,M,3,02,12,14,25,29,30,31,,,,,,2.5,1.4,2.1*36
Trace #97 at position 24.000000
$GPZDA,091705.04,09,10,2011,00,00*62
$GPRMC,091705.00,A,4611.968525,N,01258.225320,E,001.9,161.3,091011,0.2,E,A*35
$GPGGA,091706.00,4611.968156,N,01258.225608,E,1,07,1.4,139.91,M,46.25,M,,*63
$GPGLL,4611.968156,N,01258.225608,E,091706.00,A,A*62
$GPVTG,134.5,T,134.7,M,001.7,N,003.2,K,A*26
$GPGSV,2,1,07,02,37,066,45,12,49,088,40,14,21,244,41,25,79,028,47*71
$GPGSV,2,2,07,29,62,230,43,30,42,296,43,31,34,310,44,,,,*4F
$GPGSA,M,3,02,12,14,25,29,30,31,,,,,,2.5,1.4,2.1*36
Trace #98 at position 24.250000
$GPZDA,091709.04,09,10,2011,00,00*6E
$GPRMC,091709.00,A,4611.967127,N,01258.226015,E,001.3,177.1,091011,0.2,E,A*39
$GPGGA,091710.00,4611.966980,N,01258.225971,E,1,07,1.4,139.96,M,46.25,M,,*6F
$GPGLL,4611.966980,N,01258.225971,E,091710.00,A,A*69
$GPVTG,194.4,T,194.5,M,000.0,N,000.1,K,A*23
$GPGSV,2,1,07,02,37,066,45,12,49,088,41,14,21,244,41,25,79,028,46*71
$GPGSV,2,2,07,29,62,230,43,30,42,296,42,31,34,310,44,,,,*4E
$GPGSA,M,3,02,12,14,25,29,30,31,,,,,,2.5,1.4,2.1*36
Trace #99 at position 24.500000
$GPZDA,091712.04,09,10,2011,00,00*64
$GPRMC,091712.00,A,4611.966932,N,01258.225786,E,000.2,359.3,091011,0.2,E,A*3C
$GPGGA,091713.00,4611.966953,N,01258.225779,E,1,06,1.5,140.14,M,46.25,M,,*60
$GPGLL,4611.966953,N,01258.225779,E,091713.00,A,A*62
$GPVTG,136.6,T,136.7,M,000.4,N,000.8,K,A*2E
$GPGSV,2,1,07,02,37,066,39,12,49,088,31,14,21,244,38,25,79,028,43*76
$GPGSV,2,2,07,29,62,230,40,30,42,296,42,31,34,310,43,,,,*4A
$GPGSA,M,3,02,14,25,29,30,31,,,,,,,2.6,1.5,2.1*37
Trace #100 at position 24.750000
$GPZDA,091712.04,09,10,2011,00,00*64
$GPRMC,091712.00,A,4611.966932,N,01258.225786,E,000.2,359.3,091011,0.2,E,A*3C
$GPGGA,091713.00,4611.966953,N,01258.225779,E,1,06,1.5,140.14,M,46.25,M,,*60
$GPGLL,4611.966953,N,01258.225779,E,091713.00,A,A*62
$GPVTG,136.6,T,136.7,M,000.4,N,000.8,K,A*2E
$GPGSV,2,1,07,02,37,066,39,12,49,088,31,14,21,244,38,25,79,028,43*76
$GPGSV,2,2,07,29,62,230,40,30,42,296,42,31,34,310,43,,,,*4A
$GPGSA,M,3,02,14,25,29,30,31,,,,,,,2.6,1.5,2.1*37
Trace #101 at position 25.000000
$GPZDA,091719.04,09,10,2011,00,00*6F
$GPRMC,091719.00,A,4611.966777,N,01258.225682,E,000.5,356.6,091011,0.2,E,A*30
$GPGGA,091720.00,4611.966835,N,01258.225678,E,1,07,1.4,140.13,M,46.25,M,,*66
$GPGLL,4611.966835,N,01258.225678,E,091720.00,A,A*63
$GPVTG,230.6,T,230.8,M,000.1,N,000.1,K,A*2D
$GPGSV,2,1,07,02,37,066,45,12,49,088,41,14,21,244,41,25,79,028,47*70
$GPGSV,2,2,07,29,62,230,44,30,42,296,43,31,34,310,43,,,,*4F
$GPGSA,M,3,02,12,14,25,29,30,31,,,,,,2.5,1.4,2.1*36
Trace #102 at position 25.250000
$GPZDA,091720.04,09,10,2011,00,00*65
$GPRMC,091720.00,A,4611.966835,N,01258.225678,E,000.1,230.6,091011,0.2,E,A*33
$GPGGA,091721.00,4611.966830,N,01258.225674,E,1,07,1.4,140.11,M,46.25,M,,*6C
$GPGLL,4611.966830,N,01258.225674,E,091721.00,A,A*6B
$GPVTG,330.8,T,331.0,M,000.1,N,000.1,K,A*2A
$GPGSV,2,1,07,02,37,066,44,12,49,088,41,14,21,244,41,25,79,028,48*7E
$GPGSV,2,2,07,29,62,230,44,30,42,296,43,31,34,310,42,,,,*4E
$GPGSA,M,3,02,12,14,25,29,30,31,,,,,,2.5,1.4,2.1*36
Trace #103 at position 25.500000
$GPZDA,091720.04,09,10,2011,00,00*65
$GPRMC,091720.00,A,4611.966835,N,01258.225678,E,000.1,230.6,091011,0.2,E,A*33
$GPGGA,091721.00,4611.966830,N,01258.225674,E,1,07,1.4,140.11,M,46.25,M,,*6C
$GPGLL,4611.966830,N,01258.225674,E,091721.00,A,A*6B
$GPVTG,330.8,T,331.0,M,000.1,N,000.1,K,A*2A
$GPGSV,2,1,07,02,37,066,44,12,49,088,41,14,21,244,41,25,79,028,48*7E
$GPGSV,2,2,07,29,62,230,44,30,42,296,43,31,34,310,42,,,,*4E
$GPGSA,M,3,02,12,14,25,29,30,31,,,,,,2.5,1.4,2.1*36
Trace #104 at position 25.750000
$GPZDA,091720.04,09,10,2011,00,00*65
$GPRMC,091720.00,A,4611.966835,N,01258.225678,E,000.1,230.6,091011,0.2,E,A*33
$GPGGA,091721.00,4611.966830,N,01258.225674,E,1,07,1.4,140.11,M,46.25,M,,*6C
$GPGLL,4611.966830,N,01258.225674,E,091721.00,A,A*6B
$GPVTG,330.8,T,331.0,M,000.1,N,000.1,K,A*2A
$GPGSV,2,1,07,02,37,066,44,12,49,088,41,14,21,244,41,25,79,028,48*7E
$GPGSV,2,2,07,29,62,230,44,30,42,296,43,31,34,310,42,,,,*4E
$GPGSA,M,3,02,12,14,25,29,30,31,,,,,,2.5,1.4,2.1*36
Trace #105 at position 26.000000
$GPZDA,091721.04,09,10,2011,00,00*64
$GPRMC,091721.00,A,4611.966830,N,01258.225674,E,000.1,330.8,091011,0.2,E,A*34
$GPGGA,091722.00,4611.966839,N,01258.225720,E,1,07,1.4,139.97,M,46.25,M,,*66
$GPGLL,4611.966839,N,01258.225720,E,091722.00,A,A*61
$GPVTG,72.6,T,72.7,M,000.2,N,000.5,K,A*25
$GPGSV,2,1,07,02,37,066,40,12,49,088,36,14,21,244,40,25,79,028,46*75
$GPGSV,2,2,07,29,62,230,42,30,42,296,43,31,34,310,44,,,,*4E
$GPGSA,M,3,02,12,14,25,29,30,31,,,,,,2.5,1.4,2.1*36
Trace #106 at position 26.250000
$GPZDA,091721.04,09,10,2011,00,00*64
$GPRMC,091721.00,A,4611.966830,N,01258.225674,E,000.1,330.8,091011,0.2,E,A*34
$GPGGA,091722.00,4611.966839,N,01258.225720,E,1,07,1.4,139.97,M,46.25,M,,*66
$GPGLL,4611.966839,N,01258.225720,E,091722.00,A,A*61
$GPVTG,72.6,T,72.7,M,000.2,N,000.5,K,A*25
$GPGSV,2,1,07,02,37,066,40,12,49,088,36,14,21,244,40,25,79,028,46*75
$GPGSV,2,2,07,29,62,230,42,30,42,296,43,31,34,310,44,,,,*4E
$GPGSA,M,3,02,12,14,25,29,30,31,,,,,,2.5,1.4,2.1*36
Trace #107 at position 26.500000
$GPZDA,091722.04,09,10,2011,00,00*67
$GPRMC,091722.00,A,4611.966839,N,01258.225720,E,000.2,72.6,091011,0.2,E,A*06
$GPGGA,091723.00,4611.966806,N,01258.225751,E,1,07,1.4,139.87,M,46.25,M,,*6C
$GPGLL,4611.966806,N,01258.225751,E,091723.00,A,A*6A
$GPVTG,197.4,T,197.6,M,000.3,N,000.5,K,A*27
$GPGSV,2,1,07,02,37,066,43,12,49,088,38,14,21,244,40,25,79,028,46*78
$GPGSV,2,2,07,29,62,230,43,30,42,296,43,31,34,310,44,,,,*4F
$GPGSA,M,3,02,12,14,25,29,30,31,,,,,,2.5,1.4,2.1*36
Trace #108 at position 26.750000
$GPZDA,091722.04,09,10,2011,00,00*67
$GPRMC,091722.00,A,4611.966839,N,01258.225720,E,000.2,72.6,091011,0.2,E,A*06
$GPGGA,091723.00,4611.966806,N,01258.225751,E,1,07,1.4,139.87,M,46.25,M,,*6C
$GPGLL,4611.966806,N,01258.225751,E,091723.00,A,A*6A
$GPVTG,197.4,T,197.6,M,000.3,N,000.5,K,A*27
$GPGSV,2,1,07,02,37,066,43,12,49,088,38,14,21,244,40,25,79,028,46*78
$GPGSV,2,2,07,29,62,230,43,30,42,296,43,31,34,310,44,,,,*4F
$GPGSA,M,3,02,12,14,25,29,30,31,,,,,,2.5,1.4,2.1*36
Trace #109 at position 27.000000
$GPZDA,091722.04,09,10,2011,00,00*67
$GPRMC,091722.00,A,4611.966839,N,01258.225720,E,000.2,72.6,091011,0.2,E,A*06
$GPGGA,091723.00,4611.966806,N,01258.225751,E,1,07,1.4,139.87,M,46.25,M,,*6C
$GPGLL,4611.966806,N,01258.225751,E,091723.00,A,A*6A
$GPVTG,197.4,T,197.6,M,000.3,N,000.5,K,A*27
$GPGSV,2,1,07,02,37,066,43,12,49,088,38,14,21,244,40,25,79,028,46*78
$GPGSV,2,2,07,29,62,230,43,30,42,296,43,31,34,310,44,,,,*4F
$GPGSA,M,3,02,12,14,25,29,30,31,,,,,,2.5,1.4,2.1*36
Trace #110 at position 27.250000
$GPZDA,091722.04,09,10,2011,00,00*67
$GPRMC,091722.00,A,4611.966839,N,01258.225720,E,000.2,72.6,091011,0.2,E,A*06
$GPGGA,091723.00,4611.966806,N,01258.225751,E,1,07,1.4,139.87,M,46.25,M,,*6C
$GPGLL,4611.966806,N,01258.225751,E,091723.00,A,A*6A
$GPVTG,197.4,T,197.6,M,000.3,N,000.5,K,A*27
$GPGSV,2,1,07,02,37,066,43,12,49,088,38,14,21,244,40,25,79,028,46*78
$GPGSV,2,2,07,29,62,230,43,30,42,296,43,31,34,310,44,,,,*4F
$GPGSA,M,3,02,12,14,25,29,30,31,,,,,,2.5,1.4,2.1*36
Trace #111 at position 27.500000
$GPZDA,091723.04,09,10,2011,00,00*66
$GPRMC,091723.00,A,4611.966806,N,01258.225751,E,000.3,197.4,091011,0.2,E,A*34
$GPGGA,091724.00,4611.966493,N,01258.225763,E,1,07,1.4,139.89,M,46.25,M,,*64
$GPGLL,4611.966493,N,01258.225763,E,091724.00,A,A*6C
$GPVTG,177.4,T,177.6,M,001.9,N,003.6,K,A*2C
$GPGSV,2,1,07,02,37,066,43,12,49,088,38,14,21,244,39,25,79,028,46*76
$GPGSV,2,2,07,29,62,230,43,30,42,296,43,31,34,310,44,,,,*4F
$GPGSA,M,3,02,12,14,25,29,30,31,,,,,,2.5,1.4,2.1*36
Trace #112 at position 27.750000
$GPZDA,091723.04,09,10,2011,00,00*66
$GPRMC,091723.00,A,4611.966806,N,01258.225751,E,000.3,197.4,091011,0.2,E,A*34
$GPGGA,091724.00,4611.966493,N,01258.225763,E,1,07,1.4,139.89,M,46.25,M,,*64
$GPGLL,4611.966493,N,01258.225763,E,091724.00,A,A*6C
$GPVTG,177.4,T,177.6,M,001.9,N,003.6,K,A*2C
$GPGSV,2,1,07,02,37,066,43,12,49,088,38,14,21,244,39,25,79,028,46*76
$GPGSV,2,2,07,29,62,230,43,30,42,296,43,31,34,310,44,,,,*4F
$GPGSA,M,3,02,12,14,25,29,30,31,,,,,,2.5,1.4,2.1*36
Trace #113 at position 28.000000
$GPZDA,091723.04,09,10,2011,00,00*66
$GPRMC,091723.00,A,4611.966806,N,01258.225751,E,000.3,197.4,091011,0.2,E,A*34
$GPGGA,091724.00,4611.966493,N,01258.225763,E,1,07,1.4,139.89,M,46.25,M,,*64
$GPGLL,4611.966493,N,01258.225763,E,091724.00,A,A*6C
$GPVTG,177.4,T,177.6,M,001.9,N,003.6,K,A*2C
$GPGSV,2,1,07,02,37,066,43,12,49,088,38,14,21,244,39,25,79,028,46*76
$GPGSV,2,2,07,29,62,230,43,30,42,296,43,31,34,310,44,,,,*4F
$GPGSA,M,3,02,12,14,25,29,30,31,,,,,,2.5,1.4,2.1*36
Trace #114 at position 28.250000
$GPZDA,091724.04,09,10,2011,00,00*61
$GPRMC,091724.00,A,4611.966493,N,01258.225763,E,001.9,177.4,091011,0.2,E,A*37
$GPGGA,091725.00,4611.966046,N,01258.225776,E,1,07,1.4,139.84,M,46.25,M,,*60
$GPGLL,4611.966046,N,01258.225776,E,091725.00,A,A*65
$GPVTG,187.1,T,187.2,M,001.4,N,002.6,K,A*21
$GPGSV,2,1,07,02,37,066,43,12,49,088,39,14,21,244,39,25,79,028,46*77
$GPGSV,2,2,07,29,62,230,44,30,42,296,42,31,34,310,44,,,,*49
$GPGSA,M,3,02,12,14,25,29,30,31,,,,,,2.5,1.4,2.1*36
Trace #115 at position 28.500000
$GPZDA,091724.04,09,10,2011,00,00*61
$GPRMC,091724.00,A,4611.966493,N,01258.225763,E,001.9,177.4,091011,0.2,E,A*37
$GPGGA,091725.00,4611.966046,N,01258.225776,E,1,07,1.4,139.84,M,46.25,M,,*60
$GPGLL,4611.966046,N,01258.225776,E,091725.00,A,A*65
$GPVTG,187.1,T,187.2,M,001.4,N,002.6,K,A*21
$GPGSV,2,1,07,02,37,066,43,12,49,088,39,14,21,244,39,25,79,028,46*77
$GPGSV,2,2,07,29,62,230,44,30,42,296,42,31,34,310,44,,,,*49
$GPGSA,M,3,02,12,14,25,29,30,31,,,,,,2.5,1.4,2.1*36
Trace #116 at position 28.750000
$GPZDA,091724.04,09,10,2011,00,00*61
$GPRMC,091724.00,A,4611.966493,N,01258.225763,E,001.9,177.4,091011,0.2,E,A*37
$GPGGA,091725.00,4611.966046,N,01258.225776,E,1,07,1.4,139.84,M,46.25,M,,*60
$GPGLL,4611.966046,N,01258.225776,E,091725.00,A,A*65
$GPVTG,187.1,T,187.2,M,001.4,N,002.6,K,A*21
$GPGSV,2,1,07,02,37,066,43,12,49,088,39,14,21,244,39,25,79,028,46*77
