Trace #1 at position 0.000000
$GPZDA,082237.03,09,10,2011,00,00*63
$GPRMC,082237.00,A,4611.978521,N,01258.215582,E,000.1,335.2,091011,0.2,E,A*30
$GPGGA,082238.00,4611.978521,N,01258.215552,E,1,06,1.6,139.77,M,46.25,M,,*68
$GPGLL,4611.978521,N,01258.215552,E,082238.00,A,A*62
$GPVTG,337.2,T,337.4,M,000.1,N,000.1,K,A*25
$GPGSV,2,1,08,02,36,096,28,04,20,049,42,09,33,146,30,12,68,054,39*72
$GPGSV,2,2,08,14,35,269,41,25,66,301,46,29,37,215,39,30,21,282,42*70
$GPGSA,M,3,04,12,14,25,29,30,,,,,,,2.4,1.6,1.8*3B
Trace #2 at position 0.250000
$GPZDA,082244.04,09,10,2011,00,00*60
$GPRMC,082244.00,A,4611.978492,N,01258.215409,E,000.0,2.7,091011,0.2,E,A*3C
$GPGGA,082245.00,4611.978480,N,01258.215413,E,1,06,1.6,140.17,M,46.25,M,,*64
$GPGLL,4611.978480,N,01258.215413,E,082245.00,A,A*66
$GPVTG,143.2,T,143.3,M,000.0,N,000.0,K,A*22
$GPGSV,2,1,08,02,36,096,34,04,20,049,42,09,33,146,33,12,68,054,40*72
$GPGSV,2,2,08,14,35,269,43,25,66,301,47,29,37,215,42,30,21,282,41*7C
$GPGSA,M,3,04,12,14,25,29,30,,,,,,,2.4,1.6,1.8*3B
Trace #3 at position 0.500000
$GPZDA,082245.03,09,10,2011,00,00*66
$GPRMC,082245.00,A,4611.978480,N,01258.215413,E,000.0,143.2,091011,0.2,E,A*34
$GPGGA,082246.00,4611.978469,N,01258.215411,E,1,06,1.6,140.20,M,46.25,M,,*66
$GPGLL,4611.978469,N,01258.215411,E,082246.00,A,A*60
$GPVTG,272.4,T,272.5,M,000.0,N,000.0,K,A*22
$GPGSV,2,1,08,02,36,096,34,04,20,049,43,09,33,146,32,12,68,054,42*70
$GPGSV,2,2,08,14,35,269,43,25,66,301,46,29,37,215,43,30,21,282,41*7C
$GPGSA,M,3,04,12,14,25,29,30,,,,,,,2.4,1.6,1.8*3B
Trace #4 at position 0.750000
$GPZDA,082245.03,09,10,2011,00,00*66
$GPRMC,082245.00,A,4611.978480,N,01258.215413,E,000.0,143.2,091011,0.2,E,A*34
$GPGGA,082246.00,4611.978469,N,01258.215411,E,1,06,1.6,140.20,M,46.25,M,,*66
$GPGLL,4611.978469,N,01258.215411,E,082246.00,A,A*60
$GPVTG,272.4,T,272.5,M,000.0,N,000.0,K,A*22
$GPGSV,2,1,08,02,36,096,34,04,20,049,43,09,33,146,32,12,68,054,42*70
$GPGSV,2,2,08,14,35,269,43,25,66,301,46,29,37,215,43,30,21,282,41*7C
$GPGSA,M,3,04,12,14,25,29,30,,,,,,,2.4,1.6,1.8*3B
Trace #5 at position 1.000000
$GPZDA,082246.03,09,10,2011,00,00*65
$GPRMC,082246.00,A,4611.978469,N,01258.215411,E,000.0,272.4,091011,0.2,E,A*35
$GPGGA,082247.00,4611.978466,N,01258.215402,E,1,06,1.6,140.23,M,46.25,M,,*69
$GPGLL,4611.978466,N,01258.215402,E,082247.00,A,A*6C
$GPVTG,311.7,T,311.9,M,000.1,N,000.1,K,A*2D
$GPGSV,2,1,08,02,36,096,24,04,20,049,40,09,33,146,36,12,68,054,42*76
$GPGSV,2,2,08,14,35,269,44,25,66,301,46,29,37,215,43,30,21,282,41*7B
$GPGSA,M,3,04,12,14,25,29,30,,,,,,,2.4,1.6,1.8*3B
Trace #6 at position 1.250000
$GPZDA,082246.03,09,10,2011,00,00*65
$GPRMC,082246.00,A,4611.978469,N,01258.215411,E,000.0,272.4,091011,0.2,E,A*35
$GPGGA,082247.00,4611.978466,N,01258.215402,E,1,06,1.6,140.23,M,46.25,M,,*69
$GPGLL,4611.978466,N,01258.215402,E,082247.00,A,A*6C
$GPVTG,311.7,T,311.9,M,000.1,N,000.1,K,A*2D
$GPGSV,2,1,08,02,36,096,24,04,20,049,40,09,33,146,36,12,68,054,42*76
$GPGSV,2,2,08,14,35,269,44,25,66,301,46,29,37,215,43,30,21,282,41*7B
$GPGSA,M,3,04,12,14,25,29,30,,,,,,,2.4,1.6,1.8*3B
Trace #7 at position 1.500000
$GPZDA,082247.03,09,10,2011,00,00*64
$GPRMC,082247.00,A,4611.978466,N,01258.215402,E,000.1,311.7,091011,0.2,E,A*3F
$GPGGA,082248.00,4611.978455,N,01258.215395,E,1,06,1.6,140.23,M,46.25,M,,*6F
$GPGLL,4611.978455,N,01258.215395,E,082248.00,A,A*6A
$GPVTG,193.1,T,193.3,M,000.1,N,000.1,K,A*21
$GPGSV,2,1,08,02,36,096,30,04,20,049,41,09,33,146,35,12,68,054,44*77
$GPGSV,2,2,08,14,35,269,43,25,66,301,46,29,37,215,43,30,21,282,42*7F
$GPGSA,M,3,04,12,14,25,29,30,,,,,,,2.4,1.6,1.8*3B
Trace #8 at position 1.750000
$GPZDA,082248.04,09,10,2011,00,00*6C
$GPRMC,082248.00,A,4611.978455,N,01258.215395,E,000.1,193.1,091011,0.2,E,A*37
$GPGGA,082249.00,4611.978436,N,01258.215398,E,1,06,1.6,140.23,M,46.25,M,,*66
$GPGLL,4611.978436,N,01258.215398,E,082249.00,A,A*63
$GPVTG,161.1,T,161.3,M,000.0,N,000.1,K,A*20
$GPGSV,2,1,08,02,36,096,37,04,20,049,40,09,33,146,32,12,68,054,42*70
$GPGSV,2,2,08,14,35,269,44,25,66,301,47,29,37,215,44,30,21,282,43*7F
$GPGSA,M,3,04,12,14,25,29,30,,,,,,,2.4,1.6,1.8*3B
Trace #9 at position 2.000000
$GPZDA,082248.04,09,10,2011,00,00*6C
$GPRMC,082248.00,A,4611.978455,N,01258.215395,E,000.1,193.1,091011,0.2,E,A*37
$GPGGA,082249.00,4611.978436,N,01258.215398,E,1,06,1.6,140.23,M,46.25,M,,*66
$GPGLL,4611.978436,N,01258.215398,E,082249.00,A,A*63
$GPVTG,161.1,T,161.3,M,000.0,N,000.1,K,A*20
$GPGSV,2,1,08,02,36,096,37,04,20,049,40,09,33,146,32,12,68,054,42*70
$GPGSV,2,2,08,14,35,269,44,25,66,301,47,29,37,215,44,30,21,282,43*7F
$GPGSA,M,3,04,12,14,25,29,30,,,,,,,2.4,1.6,1.8*3B
Trace #10 at position 2.250000
$GPZDA,082249.03,09,10,2011,00,00*6A
$GPRMC,082249.00,A,4611.978436,N,01258.215398,E,000.0,161.1,091011,0.2,E,A*32
$GPGGA,082250.00,4611.978427,N,01258.215413,E,1,06,1.6,140.25,M,46.25,M,,*6C
$GPGLL,4611.978427,N,01258.215413,E,082250.00,A,A*6F
$GPVTG,109.8,T,109.9,M,000.1,N,000.1,K,A*22
$GPGSV,2,1,08,02,36,096,36,04,20,049,40,09,33,146,34,12,68,054,43*76
$GPGSV,2,2,08,14,35,269,44,25,66,301,47,29,37,215,44,30,21,282,42*7E
$GPGSA,M,3,04,12,14,25,29,30,,,,,,,2.4,1.6,1.8*3B
Trace #11 at position 2.500000
$GPZDA,082249.03,09,10,2011,00,00*6A
$GPRMC,082249.00,A,4611.978436,N,01258.215398,E,000.0,161.1,091011,0.2,E,A*32
$GPGGA,082250.00,4611.978427,N,01258.215413,E,1,06,1.6,140.25,M,46.25,M,,*6C
$GPGLL,4611.978427,N,01258.215413,E,082250.00,A,A*6F
$GPVTG,109.8,T,109.9,M,000.1,N,000.1,K,A*22
$GPGSV,2,1,08,02,36,096,36,04,20,049,40,09,33,146,34,12,68,054,43*76
$GPGSV,2,2,08,14,35,269,44,25,66,301,47,29,37,215,44,30,21,282,42*7E
$GPGSA,M,3,04,12,14,25,29,30,,,,,,,2.4,1.6,1.8*3B
Trace #12 at position 2.750000
$GPZDA,082250.03,09,10,2011,00,00*62
$GPRMC,082250.00,A,4611.978427,N,01258.215413,E,000.1,109.8,091011,0.2,E,A*38
$GPGGA,082251.00,4611.978348,N,01258.215478,E,1,06,1.6,140.26,M,46.25,M,,*6D
$GPGLL,4611.978348,N,01258.215478,E,082251.00,A,A*6D
$GPVTG,152.3,T,152.5,M,000.6,N,001.0,K,A*22
$GPGSV,2,1,08,02,36,096,37,04,20,049,42,09,33,146,34,12,68,054,43*75
$GPGSV,2,2,08,14,35,269,43,25,66,301,45,29,37,215,42,30,21,282,42*7D
$GPGSA,M,3,04,12,14,25,29,30,,,,,,,2.4,1.6,1.8*3B
Trace #13 at position 3.000000
$GPZDA,082250.03,09,10,2011,00,00*62
$GPRMC,082250.00,A,4611.978427,N,01258.215413,E,000.1,109.8,091011,0.2,E,A*38
$GPGGA,082251.00,4611.978348,N,01258.215478,E,1,06,1.6,140.26,M,46.25,M,,*6D
$GPGLL,4611.978348,N,01258.215478,E,082251.00,A,A*6D
$GPVTG,152.3,T,152.5,M,000.6,N,001.0,K,A*22
$GPGSV,2,1,08,02,36,096,37,04,20,049,42,09,33,146,34,12,68,054,43*75
$GPGSV,2,2,08,14,35,269,43,25,66,301,45,29,37,215,42,30,21,282,42*7D
$GPGSA,M,3,04,12,14,25,29,30,,,,,,,2.4,1.6,1.8*3B
Trace #14 at position 3.250000
$GPZDA,082251.03,09,10,2011,00,00*63
$GPRMC,082251.00,A,4611.978348,N,01258.215478,E,000.6,152.3,091011,0.2,E,A*38
$GPGGA,082252.00,4611.978213,N,01258.215495,E,1,06,1.6,140.22,M,46.25,M,,*66
$GPGLL,4611.978213,N,01258.215495,E,082252.00,A,A*62
$GPVTG,208.1,T,208.2,M,000.4,N,000.8,K,A*2C
$GPGSV,2,1,08,02,36,096,37,04,20,049,41,09,33,146,32,12,68,054,43*70
$GPGSV,2,2,08,14,35,269,44,252,41*7B
$GPGSA,M,3,04,12,14,25,29,30,,,,,,,2.4,1.6,1.8*3B
Trace #15 at position 3.500000
$GPZDA,082251.03,09,10,2011,00,00*63
$GPRMC,082251.00,A,4611.978348,N,01258.215478,E,000.6,152.3,091011,0.2,E,A*38
$GPGGA,082252.00,4611.978213,N,01258.215495,E,1,06,1.6,140.22,M,46.25,M,,*66
$GPGLL,4611.978213,N,01258.215495,E,082252.00,A,A*62
$GPVTG,208.1,T,208.2,M,000.4,N,000.8,K,A*2C
$GPGSV,2,1,08,02,36,096,37,04,20,049,41,09,33,146,32,12,68,054,43*70
$GPGSV,2,2,08,14,35,269,44,252,41*7B
$GPGSA,M,3,04,12,14,25,29,30,,,,,,,2.4,1.6,1.8*3B
Trace #16 at position 3.750000
$GPZDA,082252.03,09,10,2011,00,00*60
$GPRMC,082252.00,A,4611.978213,N,01258.215495,E,000.4,208.1,091011,0.2,E,A*3B
$GPGGA,082253.00,4611.977977,N,01258.215559,E,1,06,1.6,140.15,M,46.25,M,,*64
$GPGLL,4611.977977,N,01258.215559,E,082253.00,A,A*64
$GPVTG,158.6,T,158.7,M,001.3,N,002.5,K,A*27
$GPGSV,2,1,08,02,36,096,37,04,20,049,41,09,33,146,32,12,68,054,44*77
$GPGSV,2,2,08,14,35,269,43,25,66,301,46,29,37,215,43,30,21,282,42*7F
$GPGSA,M,3,04,12,14,09,10,2011,00,00*66
Trace #17 at position 4.000000
$GPZDA,082252.03,09,10,2011,00,00*60
$GPRMC,082252.00,A,4611.978213,N,01258.215495,E,000.4,208.1,091011,0.2,E,A*3B
$GPGGA,082253.00,4611.977977,N,01258.215559,E,1,06,1.6,140.15,M,46.25,M,,*64
$GPGLL,4611.977977,N,01258.215559,E,082253.00,A,A*64
$GPVTG,158.6,T,158.7,M,001.3,N,002.5,K,A*27
$GPGSV,2,1,08,02,36,096,37,04,20,049,41,09,33,146,32,12,68,054,44*77
$GPGSV,2,2,08,14,35,269,43,25,66,301,46,29,37,215,43,30,21,282,42*7F
$GPGSA,M,3,04,12,14,09,10,2011,00,00*66
Trace #18 at position 4.250000
$GPRMC,082253.00,A,4611.977977,N,01258.215559,E,001.3,158.6,091011,0.2,E,A*3A
$GPGGA,082254.00,4611.977625,N,01258.215738,E,1,06,1.6,140.10,M,46.25,M,,*6B
$GPGLL,4611.977625,N,01258.215738,E,082254.00,A,A*6E
$GPVTG,164.5,T,164.7,M,001.3,N,002.4,K,A*25
$GPGSV,2,1,08,02,36,096,39,04,20,049,43,09,33,146,30,12,68,054,42*7F
$GPGSV,2,2,08,14,35,269,43,25,66,301,46,29,37,215,41,30,21,282,40*7F
$GPGSA,M,3,04,12,14,25,29,30,,,,,,,2.4,1.6,1.8*3B
Trace #19 at position 4.500000
$GPRMC,082253.00,A,4611.977977,N,01258.215559,E,001.3,158.6,091011,0.2,E,A*3A
$GPGGA,082254.00,4611.977625,N,01258.215738,E,1,06,1.6,140.10,M,46.25,M,,*6B
$GPGLL,4611.977625,N,01258.215738,E,082254.00,A,A*6E
$GPVTG,164.5,T,164.7,M,001.3,N,002.4,K,A*25
$GPGSV,2,1,08,02,36,096,39,04,20,049,43,09,33,146,30,12,68,054,42*7F
$GPGSV,2,2,08,14,35,269,43,25,66,301,46,29,37,215,41,30,21,282,40*7F
$GPGSA,M,3,04,12,14,25,29,30,,,,,,,2.4,1.6,1.8*3B
Trace #20 at position 4.750000
$GPRMC,082253.00,A,4611.977977,N,01258.215559,E,001.3,158.6,091011,0.2,E,A*3A
$GPGGA,082254.00,4611.977625,N,01258.215738,E,1,06,1.6,140.10,M,46.25,M,,*6B
$GPGLL,4611.977625,N,01258.215738,E,082254.00,A,A*6E
$GPVTG,164.5,T,164.7,M,001.3,N,002.4,K,A*25
$GPGSV,2,1,08,02,36,096,39,04,20,049,43,09,33,146,30,12,68,054,42*7F
$GPGSV,2,2,08,14,35,269,43,25,66,301,46,29,37,215,41,30,21,282,40*7F
$GPGSA,M,3,04,12,14,25,29,30,,,,,,,2.4,1.6,1.8*3B
Trace #21 at position 5.000000
$GPZDA,082254.03,09,10,2011,00,00*66
$GPR$GPGGA,082255.00,4611.977457,N,01258.215922,E,1,07,1.3,140.22,M,46.25,M,,*6D
$GPGLL,4611.977457,N,01258.215922,E,082255.00,A,A*6D
$GPVTG,94.1,T,94.2,M,000.8,N,001.4,K,A*2D
$GPGSV,2,1,08,02,36,096,40,04,20,049,42,09,33,146,29,12,68,054,42*78
$GPGSV,2,2,08,14,35,269,44,25,66,301,46,29,37,215,42,30,21,282,42*79
$GPGSA,M,3,02,04,12,14,25,29,30,,,,,,2.2,1.3,1.8*3A
Trace #22 at position 5.250000
$GPZDA,082254.03,09,10,2011,00,00*66
$GPR$GPGGA,082255.00,4611.977457,N,01258.215922,E,1,07,1.3,140.22,M,46.25,M,,*6D
$GPGLL,4611.977457,N,01258.215922,E,082255.00,A,A*6D
$GPVTG,94.1,T,94.2,M,000.8,N,001.4,K,A*2D
$GPGSV,2,1,08,02,36,096,40,04,20,049,42,09,33,146,29,12,68,054,42*78
$GPGSV,2,2,08,14,35,269,44,25,66,301,46,29,37,215,42,30,21,282,42*79
$GPGSA,M,3,02,04,12,14,25,29,30,,,,,,2.2,1.3,1.8*3A
Trace #23 at position 5.500000
$GPZDA,082255.04,09,10,2011,00,00*60
$GPRMC,082255.00,A,4611.977457,N,01258.215922,E,000.8,94.1,091011,0.2,E,A*0F
$GPGGA,082256.00,4611.977274,N,01258.216010,E,1,07,1.3,140.36,M,46.25,M,,*67
$GPGLL,4611.977274,N,01258.216010,E,082256.00,A,A*62
$GPVTG,186.2,T,186.4,M,001.3,N,002.4,K,A*21
$GPGSV,2,1,08,02,36,096,40,04,20,049,43,09,33,146,31,12,68,054,43*71
$GPGSV,2,2,08,14,35,269,42,25,66,301,46,29,37,215,42,30,21,282,41*7C
$GPGSA,M,3,02,04,12,14,25,29,30,,,,,,2.2,1.3,1.8*3A
Trace #24 at position 5.750000
$GPZDA,082255.04,09,10,2011,00,00*60
$GPRMC,082255.00,A,4611.977457,N,01258.215922,E,000.8,94.1,091011,0.2,E,A*0F
$GPGGA,082256.00,4611.977274,N,01258.216010,E,1,07,1.3,140.36,M,46.25,M,,*67
$GPGLL,4611.977274,N,01258.216010,E,082256.00,A,A*62
$GPVTG,186.2,T,186.4,M,001.3,N,002.4,K,A*21
$GPGSV,2,1,08,02,36,096,40,04,20,049,43,09,33,146,31,12,68,054,43*71
$GPGSV,2,2,08,14,35,269,42,25,66,301,46,29,37,215,42,30,21,282,41*7C
$GPGSA,M,3,02,04,12,14,25,29,30,,,,,,2.2,1.3,1.8*3A
Trace #25 at position 6.000000
$GPZDA,082255.04,09,10,2011,00,00*60
$GPRMC,082255.00,A,4611.977457,N,01258.215922,E,000.8,94.1,091011,0.2,E,A*0F
$GPGGA,082256.00,4611.977274,N,01258.216010,E,1,07,1.3,140.36,M,46.25,M,,*67
$GPGLL,4611.977274,N,01258.216010,E,082256.00,A,A*62
$GPVTG,186.2,T,186.4,M,001.3,N,002.4,K,A*21
$GPGSV,2,1,08,02,36,096,40,04,20,049,43,09,33,146,31,12,68,054,43*71
$GPGSV,2,2,08,14,35,269,42,25,66,301,46,29,37,215,42,30,21,282,41*7C
$GPGSA,M,3,02,04,12,14,25,29,30,,,,,,2.2,1.3,1.8*3A
Trace #26 at position 6.250000
$GPZDA,082256.04,09,10,2011,00,00*63
$GPRMC,082256.00,A,4611.977274,N,01258.216010,E,001.3,186.2,091011,0.2,E,A*3B
$GPGGA,082257.00,4611.976935,N,01258.216002,E,1,07,1.3,140.35,M,46.25,M,,*69
$GPGLL,4611.976935,N,01258.216002,E,082257.00,A,A*6F
$GPVTG,171.6,T,171.8,M,001.2,N,002.2,K,A*2E
$GPGSV,2,1,08,02,36,096,37,04,20,049,43,09,33,146,,12,68,054,44*74
$GPGSV,2,2,08,14,35,269,43,25,66,301,46,29,37,215,43,30,21,282,41*7C
$GPGSA,M,3,02,04,12,14,25,29,30,,,,,,2.2,1.3,1.8*3A
Trace #27 at position 6.500000
$GPZDA,082256.04,09,10,2011,00,00*63
$GPRMC,082256.00,A,4611.977274,N,01258.216010,E,001.3,186.2,091011,0.2,E,A*3B
$GPGGA,082257.00,4611.976935,N,01258.216002,E,1,07,1.3,140.35,M,46.25,M,,*69
$GPGLL,4611.976935,N,01258.216002,E,082257.00,A,A*6F
$GPVTG,171.6,T,171.8,M,001.2,N,002.2,K,A*2E
$GPGSV,2,1,08,02,36,096,37,04,20,049,43,09,33,146,,12,68,054,44*74
$GPGSV,2,2,08,14,35,269,43,25,66,301,46,29,37,215,43,30,21,282,41*7C
$GPGSA,M,3,02,04,12,14,25,29,30,,,,,,2.2,1.3,1.8*3A
Trace #28 at position 6.750000
$GPZDA,082257.04,09,10,2011,00,00*62
$GPRMC,082257.00,A,4611.976935,N,01258.216002,E,001.2,171.6,091011,0.2,E,A*3B
$GPGGA,082258.00,4611.976680,N,01258.216087,E,1,07,1.3,140.30,M,46.25,M,,*6F
$GPGLL,4611.976680,N,01258.216087,E,082258.00,A,A*6C
$GPVTG,156.4,T,156.6,M,000.8,N,001.4,K,A*2C
$GPGSV,2,1,08,02,36,096,39,04,20,049,42,09,33,146,24,12,68,054,44*7D
$GPGSV,2,2,08,14,35,269,44,25,66,301,46,29,37,215,42,30,21,282,40*7B
$GPGSA,M,3,02,04,12,14,25,29,30,,,,,,2.2,1.3,1.8*3A
Trace #29 at position 7.000000
$GPZDA,082257.04,09,10,2011,00,00*62
$GPRMC,082257.00,A,4611.976935,N,01258.216002,E,001.2,171.6,091011,0.2,E,A*3B
$GPGGA,082258.00,4611.976680,N,01258.216087,E,1,07,1.3,140.30,M,46.25,M,,*6F
$GPGLL,4611.976680,N,01258.216087,E,082258.00,A,A*6C
$GPVTG,156.4,T,156.6,M,000.8,N,001.4,K,A*2C
$GPGSV,2,1,08,02,36,096,39,04,20,049,42,09,33,146,24,12,68,054,44*7D
$GPGSV,2,2,08,14,35,269,44,25,66,301,46,29,37,215,42,30,21,282,40*7B
$GPGSA,M,3,02,04,12,14,25,29,30,,,,,,2.2,1.3,1.8*3A
Trace #30 at position 7.250000
$GPZDA,082258.04,09,10,2011,00,00*6D
$GPRMC,082258.00,A,4611.976680,N,01258.216087,E,000.8,156.4,091011,0.2,E,A*34
$GPGGA,082259.00,4611.976498,N,01258.216197,E,1,07,1.3,140.29,M,46.25,M,,*6D
$GPGLL,4611.976498,N,01258.216197,E,082259.00,A,A*66
$GPVTG,154.8,T,155.0,M,000.6,N,001.2,K,A*2F
$GPGSV,2,1,08,02,36,096,41,04,20,049,43,09,33,146,32,12,68,054,43*73
$GPGSV,2,2,08,14,35,269,43,25,66,301,45,29,37,215,40,30,21,282,40*7D
$GPGSA,M,3,02,04,12,14,25,29,30,,,,,,2.2,1.3,1.8*3A
Trace #31 at position 7.500000
$GPZDA,082258.04,09,10,2011,00,00*6D
$GPRMC,082258.00,A,4611.976680,N,01258.216087,E,000.8,156.4,091011,0.2,E,A*34
$GPGGA,082259.00,4611.976498,N,01258.216197,E,1,07,1.3,140.29,M,46.25,M,,*6D
$GPGLL,4611.976498,N,01258.216197,E,082259.00,A,A*66
$GPVTG,154.8,T,155.0,M,000.6,N,001.2,K,A*2F
$GPGSV,2,1,08,02,36,096,41,04,20,049,43,09,33,146,32,12,68,054,43*73
$GPGSV,2,2,08,14,35,269,43,25,66,301,45,29,37,215,40,30,21,282,40*7D
$GPGSA,M,3,02,04,12,14,25,29,30,,,,,,2.2,1.3,1.8*3A
Trace #32 at position 7.750000
$GPZDA,082258.04,09,10,2011,00,00*6D
$GPRMC,082258.00,A,4611.976680,N,01258.216087,E,000.8,156.4,091011,0.2,E,A*34
$GPGGA,082259.00,4611.976498,N,01258.216197,E,1,07,1.3,140.29,M,46.25,M,,*6D
$GPGLL,4611.976498,N,01258.216197,E,082259.00,A,A*66
$GPVTG,154.8,T,155.0,M,000.6,N,001.2,K,A*2F
$GPGSV,2,1,08,02,36,096,41,04,20,049,43,09,33,146,32,12,68,054,43*73
$GPGSV,2,2,08,14,35,269,43,25,66,301,45,29,37,215,40,30,21,282,40*7D
$GPGSA,M,3,02,04,12,14,25,29,30,,,,,,2.2,1.3,1.8*3A
Trace #33 at position 8.000000
$GPZDA,082258.04,09,10,2011,00,00*6D
$GPRMC,082258.00,A,4611.976680,N,01258.216087,E,000.8,156.4,091011,0.2,E,A*34
$GPGGA,082259.00,4611.976498,N,01258.216197,E,1,07,1.3,140.29,M,46.25,M,,*6D
$GPGLL,4611.976498,N,01258.216197,E,082259.00,A,A*66
$GPVTG,154.8,T,155.0,M,000.6,N,001.2,K,A*2F
$GPGSV,2,1,08,02,36,096,41,04,20,049,43,09,33,146,32,12,68,054,43*73
$GPGSV,2,2,08,14,35,269,43,25,66,301,45,29,37,215,40,30,21,282,40*7D
$GPGSA,M,3,02,04,12,14,25,29,30,,,,,,2.2,1.3,1.8*3A
Trace #34 at position 8.250000
$GPZDA,082259.04,09,10,2011,00,00*6C
$GPRMC,082259.00,A,4611.976498,N,01258.216197,E,000.6,154.8,091011,0.2,E,A*3E
$GPGGA,082300.00,4611.976222,N,01258.216315,E,1,06,1.6,140.26,M,46.25,M,,*64
$GPGLL,4611.976222,N,01258.216315,E,082300.00,A,A*64
$GPVTG,170.4,T,170.5,M,001.2,N,002.2,K,A*21
$GPGSV,2,1,08,02,36,096,35,04,20,049,44,09,33,146,25,12,68,054,45*77
$GPGSV,2,2,08,14,35,269,43,25,66,301,46,29,37,215,42,30,21,282,39*72
$GPGSA,M,3,04,12,14,25,29,30,,,,,,,2.4,1.6,1.8*3B
Trace #35 at position 8.500000
$GPZDA,082259.04,09,10,2011,00,00*6C
$GPRMC,082259.00,A,4611.976498,N,01258.216197,E,000.6,154.8,091011,0.2,E,A*3E
$GPGGA,082300.00,4611.976222,N,01258.216315,E,1,06,1.6,140.26,M,46.25,M,,*64
$GPGLL,4611.976222,N,01258.216315,E,082300.00,A,A*64
$GPVTG,170.4,T,170.5,M,001.2,N,002.2,K,A*21
$GPGSV,2,1,08,02,36,096,35,04,20,049,44,09,33,146,25,12,68,054,45*77
$GPGSV,2,2,08,14,35,269,43,25,66,301,46,29,37,215,42,30,21,282,39*72
$GPGSA,M,3,04,12,14,25,29,30,,,,,,,2.4,1.6,1.8*3B
Trace #36 at position 8.750000
$GPZDA,082300.04,09,10,2011,00,00*61
$GPRMC,082300.00,A,4611.976222,N,01258.216315,E,001.2,170.4,091011,0.2,E,A*33
$GPGGA,082301.00,4611.975837,N,01258.216424,E,1,06,1.6,140.21,M,46.25,M,,*6A
$GPGLL,4611.975837,N,01258.216424,E,082301.00,A,A*6D
$GPVTG,172.4,T,172.6,M,001.4,N,002.6,K,A*20
$GPGSV,2,1,08,02,36,096,35,04,20,049,43,09,33,146,26,12,68,054,44*72
$GPGSV,2,2,08,14,35,269,44,25,66,301,46,29,37,215,43,30,21,282,40*7A
$GPGSA,M,3,04,12,14,25,29,30,,,,,,,2.4,1.6,1.8*3B
Trace #37 at position 9.000000
$GPZDA,082300.04,09,10,2011,00,00*61
$GPRMC,082300.00,A,4611.976222,N,01258.216315,E,001.2,170.4,091011,0.2,E,A*33
$GPGGA,082301.00,4611.975837,N,01258.216424,E,1,06,1.6,140.21,M,46.25,M,,*6A
$GPGLL,4611.975837,N,01258.216424,E,082301.00,A,A*6D
$GPVTG,172.4,T,172.6,M,001.4,N,002.6,K,A*20
$GPGSV,2,1,08,02,36,096,35,04,20,049,43,09,33,146,26,12,68,054,44*72
$GPGSV,2,2,08,14,35,269,44,25,66,301,46,29,37,215,43,30,21,282,40*7A
$GPGSA,M,3,04,12,14,25,29,30,,,,,,,2.4,1.6,1.8*3B
Trace #38 at position 9.250000
$GPZDA,082300.04,09,10,2011,00,00*61
$GPRMC,082300.00,A,4611.976222,N,01258.216315,E,001.2,170.4,091011,0.2,E,A*33
$GPGGA,082301.00,4611.975837,N,01258.216424,E,1,06,1.6,140.21,M,46.25,M,,*6A
$GPGLL,4611.975837,N,01258.216424,E,082301.00,A,A*6D
$GPVTG,172.4,T,172.6,M,001.4,N,002.6,K,A*20
$GPGSV,2,1,08,02,36,096,35,04,20,049,43,09,33,146,26,12,68,054,44*72
$GPGSV,2,2,08,14,35,269,44,25,66,301,46,29,37,215,43,30,21,282,40*7A
$GPGSA,M,3,04,12,14,25,29,30,,,,,,,2.4,1.6,1.8*3B
Trace #39 at position 9.500000
$GPZDA,082301.03,09,10,2011,00,00*67
$GPRMC,082301.00,A,4611.975837,N,01258.216424,E,001.4,172.4,091011,0.2,E,A*3E
$GPGGA,082302.00,4611.975460,N,01258.216644,E,1,06,1.6,140.24,M,46.25,M,,*66
$GPGLL,4611.975460,N,01258.216644,E,082302.00,A,A*64
$GPVTG,145.0,T,145.2,M,001.4,N,002.6,K,A*20
$GPGSV,2,1,08,02,36,096,32,04,20,049,44,09,33,146,26,12,68,055,44*73
$GPGSV,2,2,08,14,35,269,44,25,66,301,45,29,37,215,41,30,21,282,41*7A
$GPGSA,M,3,04,12,14,25,29,30,,,,,,,2.4,1.6,1.8*3B
Trace #40 at position 9.750000
$GPZDA,082301.03,09,10,2011,00,00*67
$GPRMC,082301.00,A,4611.975837,N,01258.216424,E,001.4,172.4,091011,0.2,E,A*3E
$GPGGA,082302.00,4611.975460,N,01258.216644,E,1,06,1.6,140.24,M,46.25,M,,*66
$GPGLL,4611.975460,N,01258.216644,E,082302.00,A,A*64
$GPVTG,145.0,T,145.2,M,001.4,N,002.6,K,A*20
$GPGSV,2,1,08,02,36,096,32,04,20,049,44,09,33,146,26,12,68,055,44*73
$GPGSV,2,2,08,14,35,269,44,25,66,301,45,29,37,215,41,30,21,282,41*7A
$GPGSA,M,3,04,12,14,25,29,30,,,,,,,2.4,1.6,1.8*3B
Trace #41 at position 10.000000
$GPZDA,082301.03,09,10,2011,00,00*67
$GPRMC,082301.00,A,4611.975837,N,01258.216424,E,001.4,172.4,091011,0.2,E,A*3E
$GPGGA,082302.00,4611.975460,N,01258.216644,E,1,06,1.6,140.24,M,46.25,M,,*66
$GPGLL,4611.975460,N,01258.216644,E,082302.00,A,A*64
$GPVTG,145.0,T,145.2,M,001.4,N,002.6,K,A*20
$GPGSV,2,1,08,02,36,096,32,04,20,049,44,09,33,146,26,12,68,055,44*73
$GPGSV,2,2,08,14,35,269,44,25,66,301,45,29,37,215,41,30,21,282,41*7A
$GPGSA,M,3,04,12,14,25,29,30,,,,,,,2.4,1.6,1.8*3B
Trace #42 at position 10.250000
$GPZDA,082302.03,09,10,2011,00,00*64
$GPRMC,082302.00,A,4611.975460,N,01258.216644,E,001.4,145.0,091011,0.2,E,A*37
$GPGGA,082303.00,4611.975123,N,01258.216872,E,1,06,1.6,140.33,M,46.25,M,,*68
$GPGLL,4611.975123,N,01258.216872,E,082303.00,A,A*6C
$GPVTG,165.2,T,165.3,M,001.2,N,002.1,K,A*22
$GPGSV,2,1,08,02,36,096,32,04,20,049,44,09,33,146,32,12,68,055,45*77
$GPGSV,2,2,08,14,35,269,43,25,66,301,46,29,37,215,43,30,21,282,41*7C
$GPGSA,M,3,04,12,14,25,29,30,,,,,,,2.4,1.6,1.8*3B
Trace #43 at position 10.500000
$GPZDA,082302.03,09,10,2011,00,00*64
$GPRMC,082302.00,A,4611.975460,N,01258.216644,E,001.4,145.0,091011,0.2,E,A*37
$GPGGA,082303.00,4611.975123,N,01258.216872,E,1,06,1.6,140.33,M,46.25,M,,*68
$GPGLL,4611.975123,N,01258.216872,E,082303.00,A,A*6C
$GPVTG,165.2,T,165.3,M,001.2,N,002.1,K,A*22
$GPGSV,2,1,08,02,36,096,32,04,20,049,44,09,33,146,32,12,68,055,45*77
$GPGSV,2,2,08,14,35,269,43,25,66,301,46,29,37,215,43,30,21,282,41*7C
$GPGSA,M,3,04,12,14,25,29,30,,,,,,,2.4,1.6,1.8*3B
Trace #44 at position 10.750000
$GPZDA,082302.03,09,10,2011,00,00*64
$GPRMC,082302.00,A,4611.975460,N,01258.216644,E,001.4,145.0,091011,0.2,E,A*37
$GPGGA,082303.00,4611.975123,N,01258.216872,E,1,06,1.6,140.33,M,46.25,M,,*68
$GPGLL,4611.975123,N,01258.216872,E,082303.00,A,A*6C
$GPVTG,165.2,T,165.3,M,001.2,N,002.1,K,A*22
$GPGSV,2,1,08,02,36,096,32,04,20,049,44,09,33,146,32,12,68,055,45*77
$GPGSV,2,2,08,14,35,269,43,25,66,301,46,29,37,215,43,30,21,282,41*7C
$GPGSA,M,3,04,12,14,25,29,30,,,,,,,2.4,1.6,1.8*3B
Trace #45 at position 11.000000
$GPZDA,082302.03,09,10,2011,00,00*64
$GPRMC,082302.00,A,4611.975460,N,01258.216644,E,001.4,145.0,091011,0.2,E,A*37
$GPGGA,082303.00,4611.975123,N,01258.216872,E,1,06,1.6,140.33,M,46.25,M,,*68
$GPGLL,4611.975123,N,01258.216872,E,082303.00,A,A*6C
$GPVTG,165.2,T,165.3,M,001.2,N,002.1,K,A*22
$GPGSV,2,1,08,02,36,096,32,04,20,049,44,09,33,146,32,12,68,055,45*77
$GPGSV,2,2,08,14,35,269,43,25,66,301,46,29,37,215,43,30,21,282,41*7C
$GPGSA,M,3,04,12,14,25,29,30,,,,,,,2.4,1.6,1.8*3B
Trace #46 at position 11.250000
$GPZDA,082302.03,09,10,2011,00,00*64
$GPRMC,082302.00,A,4611.975460,N,01258.216644,E,001.4,145.0,091011,0.2,E,A*37
$GPGGA,082303.00,4611.975123,N,01258.216872,E,1,06,1.6,140.33,M,46.25,M,,*68
$GPGLL,4611.975123,N,01258.216872,E,082303.00,A,A*6C
$GPVTG,165.2,T,165.3,M,001.2,N,002.1,K,A*22
$GPGSV,2,1,08,02,36,096,32,04,20,049,44,09,33,146,32,12,68,055,45*77
$GPGSV,2,2,08,14,35,269,43,25,66,301,46,29,37,215,43,30,21,282,41*7C
$GPGSA,M,3,04,12,14,25,29,30,,,,,,,2.4,1.6,1.8*3B
Trace #47 at position 11.500000
$GPZDA,082303.04,09,10,2011,00,00*62
$GPRMC,082303.00,A,4611.975123,N,01258.216872,E,001.2,165.2,091011,0.2,E,A*39
$GPGGA,082304.00,4611.974845,N,01258.216929,E,1,06,1.6,140.37,M,46.25,M,,*6C
$GPGLL,4611.974845,N,01258.216929,E,082304.00,A,A*6C
$GPVTG,185.7,T,185.9,M,000.7,N,001.3,K,A*28
$GPGSV,2,1,08,02,36,096,38,04,20,049,42,09,33,146,30,12,68,05,,2.4,1.6,1.8*3B
$GPZDA,082304.03,09,10,2011,00,00*62
$GPRMC,082304.00,A,4611.974845,N,01258.216929,E,000.7,185.7,091011,0.2,E,A*36
$GPGGA,082305.00,4611.974579,N,01258.216896,E,1,07,1.3,140.40,M,46.25,M,,*6E
$GPGLL,4611.974579,N,01258.216896,E,082305.00,A,A*6A
$GPVTG,182.0,T,182.2,M,001.2,N,002.3,K,A*23
$GPGSV,2,1,08,02,36,096,40,04,20,049,42,09,33,146,26,12,68,055,44*70
$GPGSV,2,2,08,14,35,269,41,25,66,301,46,29,37,215,40,30,21,282,40*7C
$GPGSA,M,3,02,04,12,14,25,29,30,,,,,,2.2,1.3,1.8*3A
Trace #48 at position 11.750000
$GPZDA,082303.04,09,10,2011,00,00*62
$GPRMC,082303.00,A,4611.975123,N,01258.216872,E,001.2,165.2,091011,0.2,E,A*39
$GPGGA,082304.00,4611.974845,N,01258.216929,E,1,06,1.6,140.37,M,46.25,M,,*6C
$GPGLL,4611.974845,N,01258.216929,E,082304.00,A,A*6C
$GPVTG,185.7,T,185.9,M,000.7,N,001.3,K,A*28
$GPGSV,2,1,08,02,36,096,38,04,20,049,42,09,33,146,30,12,68,05,,2.4,1.6,1.8*3B
$GPZDA,082304.03,09,10,2011,00,00*62
$GPRMC,082304.00,A,4611.974845,N,01258.216929,E,000.7,185.7,091011,0.2,E,A*36
$GPGGA,082305.00,4611.974579,N,01258.216896,E,1,07,1.3,140.40,M,46.25,M,,*6E
$GPGLL,4611.974579,N,01258.216896,E,082305.00,A,A*6A
$GPVTG,182.0,T,182.2,M,001.2,N,002.3,K,A*23
$GPGSV,2,1,08,02,36,096,40,04,20,049,42,09,33,146,26,12,68,055,44*70
$GPGSV,2,2,08,14,35,269,41,25,66,301,46,29,37,215,40,30,21,282,40*7C
$GPGSA,M,3,02,04,12,14,25,29,30,,,,,,2.2,1.3,1.8*3A
Trace #49 at position 12.000000
$GPZDA,$GPGGA,082306.00,4611.974176,N,01258.217057,E,1,07,1.3,140.38,M,46.25,M,,*6D
$GPGLL,4611.974176,N,01258.217057,E,082306.00,A,A*66
$GPVTG,151.9,T,152.1,M,002.0,N,003.7,K,A*2E
$GPGSV,2,1,08,02,36,096,38,04,20,049,42,09,33,146,32,12,68,055,44*7A
$GPGSV,2,2,08,14,35,269,42,25,66,301,46,29,37,215,42,30,21,282,39*73
$GPGSA,M,3,02,04,12,14,25,29,30,,,,,,2.2,1.3,1.8*3A
Trace #50 at position 12.250000
$GPZDA,$GPGGA,082306.00,4611.974176,N,01258.217057,E,1,07,1.3,140.38,M,46.25,M,,*6D
$GPGLL,4611.974176,N,01258.217057,E,082306.00,A,A*66
$GPVTG,151.9,T,152.1,M,002.0,N,003.7,K,A*2E
$GPGSV,2,1,08,02,36,096,38,04,20,049,42,09,33,146,32,12,68,055,44*7A
$GPGSV,2,2,08,14,35,269,42,25,66,301,46,29,37,215,42,30,21,282,39*73
$GPGSA,M,3,02,04,12,14,25,29,30,,,,,,2.2,1.3,1.8*3A
Trace #51 at position 12.500000
$GPZDA,$GPGGA,082306.00,4611.974176,N,01258.217057,E,1,07,1.3,140.38,M,46.25,M,,*6D
$GPGLL,4611.974176,N,01258.217057,E,082306.00,A,A*66
$GPVTG,151.9,T,152.1,M,002.0,N,003.7,K,A*2E
$GPGSV,2,1,08,02,36,096,38,04,20,049,42,09,33,146,32,12,68,055,44*7A
$GPGSV,2,2,08,14,35,269,42,25,66,301,46,29,37,215,42,30,21,282,39*73
$GPGSA,M,3,02,04,12,14,25,29,30,,,,,,2.2,1.3,1.8*3A
Trace #52 at position 12.750000
$GPZDA,082306.04,09,10,2011,00,00*67
$GPRMC,082306.00,A,4611.974176,N,01258.217057,E,002.0,151.9,091011,0.2,E,A*3E
$GPGGA,082307.00,4611.973801,N,01258.217308,E,1,06,1.6,140.40,M,46.25,M,,*60
$GPGLL,4611.973801,N,01258.217308,E,082307.00,A,A*60
$GPVTG,165.8,T,165.9,M,001.0,N,001.8,K,A*2A
$GPGSV,2,1,08,02,36,096,33,04,20,049,44,09,33,146,30,12,68,055,43*72
$GPGSV,2,2,08,14,35,269,42,25,66,301,46,29,37,215,42,30,21,282,42*7F
$GPGSA,M,3,04,12,14,25,29,30,,,,,,,2.4,1.6,1.8*3B
Trace #53 at position 13.000000
$GPZDA,082306.04,09,10,2011,00,00*67
$GPRMC,082306.00,A,4611.974176,N,01258.217057,E,002.0,151.9,091011,0.2,E,A*3E
$GPGGA,082307.00,4611.973801,N,01258.217308,E,1,06,1.6,140.40,M,46.25,M,,*60
$GPGLL,4611.973801,N,01258.217308,E,082307.00,A,A*60
$GPVTG,165.8,T,165.9,M,001.0,N,001.8,K,A*2A
$GPGSV,2,1,08,02,36,096,33,04,20,049,44,09,33,146,30,12,68,055,43*72
$GPGSV,2,2,08,14,35,269,42,25,66,301,46,29,37,215,42,30,21,282,42*7F
$GPGSA,M,3,04,12,14,25,29,30,,,,,,,2.4,1.6,1.8*3B
Trace #54 at position 13.250000
$GPZDA,082306.04,09,10,2011,00,00*67
$GPRMC,082306.00,A,4611.974176,N,01258.217057,E,002.0,151.9,091011,0.2,E,A*3E
$GPGGA,082307.00,4611.973801,N,01258.217308,E,1,06,1.6,140.40,M,46.25,M,,*60
$GPGLL,4611.973801,N,01258.217308,E,082307.00,A,A*60
$GPVTG,165.8,T,165.9,M,001.0,N,001.8,K,A*2A
$GPGSV,2,1,08,02,36,096,33,04,20,049,44,09,33,146,30,12,68,055,43*72
$GPGSV,2,2,08,14,35,269,42,25,66,301,46,29,37,215,42,30,21,282,42*7F
$GPGSA,M,3,04,12,14,25,29,30,,,,,,,2.4,1.6,1.8*3B
Trace #55 at position 13.500000
$GPZDA,082307.04,09,10,2011,00,00*66
$GPRMC,082307.00,A,4611.973801,N,01258.217308,E,001.0,165.8,091011,0.2,E,A*3D
$GPGGA,082308.00,4611.973453,N,01258.217460,E,1,06,1.6,140.47,M,46.25,M,,*6A
$GPGLL,4611.973453,N,01258.217460,E,082308.00,A,A*6D
$GPVTG,163.7,T,163.9,M,001.6,N,003.0,K,A*29
$GPGSV,2,1,08,02,36,096,36,04,20,049,44,09,33,146,36,12,68,055,43*71
$GPGSV,2,2,08,14,35,269,43,25,66,301,46,29,37,215,41,30,21,282,42*7D
$GPGSA,M,3,04,12,14,25,29,30,,,,,,,2.4,1.6,1.8*3B
Trace #56 at position 13.750000
$GPZDA,082307.04,09,10,2011,00,00*66
$GPRMC,082307.00,A,4611.973801,N,01258.217308,E,001.0,165.8,091011,0.2,E,A*3D
$GPGGA,082308.00,4611.973453,N,01258.217460,E,1,06,1.6,140.47,M,46.25,M,,*6A
$GPGLL,4611.973453,N,01258.217460,E,082308.00,A,A*6D
$GPVTG,163.7,T,163.9,M,001.6,N,003.0,K,A*29
$GPGSV,2,1,08,02,36,096,36,04,20,049,44,09,33,146,36,12,68,055,43*71
$GPGSV,2,2,08,14,35,269,43,25,66,301,46,29,37,215,41,30,21,282,42*7D
$GPGSA,M,3,04,12,14,25,29,30,,,,,,,2.4,1.6,1.8*3B
Trace #57 at position 14.000000
$GPZDA,082307.04,09,10,2011,00,00*66
$GPRMC,082307.00,A,4611.973801,N,01258.217308,E,001.0,165.8,091011,0.2,E,A*3D
$GPGGA,082308.00,4611.973453,N,01258.217460,E,1,06,1.6,140.47,M,46.25,M,,*6A
$GPGLL,4611.973453,N,01258.217460,E,082308.00,A,A*6D
$GPVTG,163.7,T,163.9,M,001.6,N,003.0,K,A*29
$GPGSV,2,1,08,02,36,096,36,04,20,049,44,09,33,146,36,12,68,055,43*71
$GPGSV,2,2,08,14,35,269,43,25,66,301,46,29,37,215,41,30,21,282,42*7D
$GPGSA,M,3,04,12,14,25,29,30,,,,,,,2.4,1.6,1.8*3B
Trace #58 at position 14.250000
$GPZDA,082307.04,09,10,2011,00,00*66
$GPRMC,082307.00,A,4611.973801,N,01258.217308,E,001.0,165.8,091011,0.2,E,A*3D
$GPGGA,082308.00,4611.973453,N,01258.217460,E,1,06,1.6,140.47,M,46.25,M,,*6A
$GPGLL,4611.973453,N,01258.217460,E,082308.00,A,A*6D
$GPVTG,163.7,T,163.9,M,001.6,N,003.0,K,A*29
$GPGSV,2,1,08,02,36,096,36,04,20,049,44,09,33,146,36,12,68,055,43*71
$GPGSV,2,2,08,14,35,269,43,25,66,301,46,29,37,215,41,30,21,282,42*7D
$GPGSA,M,3,04,12,14,25,29,30,,,,,,,2.4,1.6,1.8*3B
Trace #59 at position 14.500000
$GPZDA,082308.04,09,10,2011,00,00*69
$GPRMC,082308.00,A,4611.973453,N,01258.217460,E,001.6,163.7,091011,0.2,E,A*3F
$GPGGA,082309.00,4611.972981,N,01258.217584,E,1,06,1.6,140.36,M,46.25,M,,*65
$GPGLL,4611.972981,N,01258.217584,E,082309.00,A,A*64
$GPVTG,178.3,T,178.4,M,001.9,N,003.5,K,A*2A
$GPGSV,2,1,08,02,36,096,37,04,20,049,43,09,33,146,37,12,68,055,42*77
$GPGSV,2,2,08,14,35,269,43,25,66,301,46,29,37,215,42,30,21,282,41*7D
$GPGSA,M,3,04,12,14,25,29,30,,,,,,,2.4,1.6,1.8*3B
Trace #60 at position 14.750000
$GPZDA,082308.04,09,10,2011,00,00*69
$GPRMC,082308.00,A,4611.973453,N,01258.217460,E,001.6,163.7,091011,0.2,E,A*3F
$GPGGA,082309.00,4611.972981,N,01258.217584,E,1,06,1.6,140.36,M,46.25,M,,*65
$GPGLL,4611.972981,N,01258.217584,E,082309.00,A,A*64
$GPVTG,178.3,T,178.4,M,001.9,N,003.5,K,A*2A
$GPGSV,2,1,08,02,36,096,37,04,20,049,43,09,33,146,37,12,68,055,42*77
$GPGSV,2,2,08,14,35,269,43,25,66,301,46,29,37,215,42,30,21,282,41*7D
$GPGSA,M,3,04,12,14,25,29,30,,,,,,,2.4,1.6,1.8*3B
Trace #61 at position 15.000000
$GPZDA,082308.04,09,10,2011,00,00*69
$GPRMC,082308.00,A,4611.973453,N,01258.217460,E,001.6,163.7,091011,0.2,E,A*3F
$GPGGA,082309.00,4611.972981,N,01258.217584,E,1,06,1.6,140.36,M,46.25,M,,*65
$GPGLL,4611.972981,N,01258.217584,E,082309.00,A,A*64
$GPVTG,178.3,T,178.4,M,001.9,N,003.5,K,A*2A
$GPGSV,2,1,08,02,36,096,37,04,20,049,43,09,33,146,37,12,68,055,42*77
$GPGSV,2,2,08,14,35,269,43,25,66,301,46,29,37,215,42,30,21,282,41*7D
$GPGSA,M,3,04,12,14,25,29,30,,,,,,,2.4,1.6,1.8*3B
Trace #62 at position 15.250000
$GPZDA,082309.03,09,10,2011,00,00*6F
$GPRMC,082309.00,A,4611.972981,N,01258.217584,E,001.9,178.3,091011,0.2,E,A*37
$GPGGA,082310.00,4611.972586,N,01258.217700,E,1,07,1.1,140.32,M,46.25,M,,*6A
$GPGLL,4611.972586,N,01258.217700,E,082310.00,A,A*69
$GPVTG,161.1,T,161.3,M,001.0,N,001.9,K,A*28
$GPGSV,2,1,08,02,36,096,33,04,20,049,42,09,33,146,40,12,68,055,43*73
$GPGSV,2,2,08,14,35,269,43,25,66,301,46,29,37,216,43,30,21,282,42*7C
$GPGSA,M,3,04,09,12,14,25,29,30,,,,,,2.1,1.1,1.8*30
Trace #63 at position 15.500000
$GPZDA,082309.03,09,10,2011,00,00*6F
$GPRMC,082309.00,A,4611.972981,N,01258.217584,E,001.9,178.3,091011,0.2,E,A*37
$GPGGA,082310.00,4611.972586,N,01258.217700,E,1,07,1.1,140.32,M,46.25,M,,*6A
$GPGLL,4611.972586,N,01258.217700,E,082310.00,A,A*69
$GPVTG,161.1,T,161.3,M,001.0,N,001.9,K,A*28
$GPGSV,2,1,08,02,36,096,33,04,20,049,42,09,33,146,40,12,68,055,43*73
$GPGSV,2,2,08,14,35,269,43,25,66,301,46,29,37,216,43,30,21,282,42*7C
$GPGSA,M,3,04,09,12,14,25,29,30,,,,,,2.1,1.1,1.8*30
Trace #64 at position 15.750000
$GPZDA,082309.03,09,10,2011,00,00*6F
$GPRMC,082309.00,A,4611.972981,N,01258.217584,E,001.9,178.3,091011,0.2,E,A*37
$GPGGA,082310.00,4611.972586,N,01258.217700,E,1,07,1.1,140.32,M,46.25,M,,*6A
$GPGLL,4611.972586,N,01258.217700,E,082310.00,A,A*69
$GPVTG,161.1,T,161.3,M,001.0,N,001.9,K,A*28
$GPGSV,2,1,08,02,36,096,33,04,20,049,42,09,33,146,40,12,68,055,43*73
$GPGSV,2,2,08,14,35,269,43,25,66,301,46,29,37,216,43,30,21,282,42*7C
$GPGSA,M,3,04,09,12,14,25,29,30,,,,,,2.1,1.1,1.8*30
Trace #65 at position 16.000000
$GPZDA,082310.04,09,10,2011,00,00*60
$GPRMC,082310.00,A,4611.972586,N,01258.217700,E,001.0,161.1,091011,0.2,E,A*39
$GPGGA,082311.00,4611.972200,N,01258.217837,E,1,07,1.1,140.36,M,46.25,M,,*6D
$GPGLL,4611.972200,N,01258.217837,E,082311.00,A,A*6A
$GPVTG,174.3,T,174.5,M,001.9,N,003.4,K,A*2A
$GPGSV,2,1,08,02,36,096,34,04,20,049,43,09,33,146,36,12,68,055,42*75
$GPGSV,2,2,08,14,35,269,43,25,66,301,46,29,37,216,43,30,21,282,42*7C
$GPGSA,M,3,04,09,12,14,25,29,30,,,,,,2.1,1.1,1.8*30
Trace #66 at position 16.250000
$GPZDA,082310.04,09,10,2011,00,00*60
$GPRMC,082310.00,A,4611.972586,N,01258.217700,E,001.0,161.1,091011,0.2,E,A*39
$GPGGA,082311.00,4611.972200,N,01258.217837,E,1,07,1.1,140.36,M,46.25,M,,*6D
$GPGLL,4611.972200,N,01258.217837,E,082311.00,A,A*6A
$GPVTG,174.3,T,174.5,M,001.9,N,003.4,K,A*2A
$GPGSV,2,1,08,02,36,096,34,04,20,049,43,09,33,146,36,12,68,055,42*75
$GPGSV,2,2,08,14,35,269,43,25,66,301,46,29,37,216,43,30,21,282,42*7C
$GPGSA,M,3,04,09,12,14,25,29,30,,,,,,2.1,1.1,1.8*30
Trace #67 at position 16.500000
$GPZDA,082310.04,09,10,2011,00,00*60
$GPRMC,082310.00,A,4611.972586,N,01258.217700,E,001.0,161.1,091011,0.2,E,A*39
$GPGGA,082311.00,4611.972200,N,01258.217837,E,1,07,1.1,140.36,M,46.25,M,,*6D
$GPGLL,4611.972200,N,01258.217837,E,082311.00,A,A*6A
$GPVTG,174.3,T,174.5,M,001.9,N,003.4,K,A*2A
$GPGSV,2,1,08,02,36,096,34,04,20,049,43,09,33,146,36,12,68,055,42*75
$GPGSV,2,2,08,14,35,269,43,25,66,301,46,29,37,216,43,30,21,282,42*7C
$GPGSA,M,3,04,09,12,14,25,29,30,,,,,,2.1,1.1,1.8*30
Trace #68 at position 16.750000
$GPZDA,082311.04,09,10,2011,00,00*61
$GPRMC,082311.00,A,4611.972200,N,01258.217837,E,001.9,174.3,091011,0.2,E,A*35
$GPGGA,082312.00,4611.971735,N,01258.217923,E,1,07,1.1,140.25,M,46.25,M,,*68
$GPGLL,4611.971735,N,01258.217923,E,082312.00,A,A*6D
$GPVTG,179.8,T,180.0,M,001.6,N,002.9,K,A*21
$GPGSV,2,1,08,02,36,096,35,04,20,049,42,09,33,146,38,12,68,055,42*7B
$GPGSV,2,2,08,14,35,269,43,25,66,301,46,29,37,216,41,30,21,282,42*7E
$GPGSA,M,3,04,09,12,14,25,29,30,,,,,,2.1,1.1,1.8*30
Trace #69 at position 17.000000
$GPZDA,082311.04,09,10,2011,00,00*61
$GPRMC,082311.00,A,4611.972200,N,01258.217837,E,001.9,174.3,091011,0.2,E,A*35
$GPGGA,082312.00,4611.971735,N,01258.217923,E,1,07,1.1,140.25,M,46.25,M,,*68
$GPGLL,4611.971735,N,01258.217923,E,082312.00,A,A*6D
$GPVTG,179.8,T,180.0,M,001.6,N,002.9,K,A*21
$GPGSV,2,1,08,02,36,096,35,04,20,049,42,09,33,146,38,12,68,055,42*7B
$GPGSV,2,2,08,14,35,269,43,25,66,301,46,29,37,216,41,30,21,282,42*7E
$GPGSA,M,3,04,09,12,14,25,29,30,,,,,,2.1,1.1,1.8*30
Trace #70 at position 17.250000
$GPZDA,082311.04,09,10,2011,00,00*61
$GPRMC,082311.00,A,4611.972200,N,01258.217837,E,001.9,174.3,091011,0.2,E,A*35
$GPGGA,082312.00,4611.971735,N,01258.217923,E,1,07,1.1,140.25,M,46.25,M,,*68
$GPGLL,4611.971735,N,01258.217923,E,082312.00,A,A*6D
$GPVTG,179.8,T,180.0,M,001.6,N,002.9,K,A*21
$GPGSV,2,1,08,02,36,096,35,04,20,049,42,09,33,146,38,12,68,055,42*7B
$GPGSV,2,2,08,14,35,269,43,25,66,301,46,29,37,216,41,30,21,282,42*7E
$GPGSA,M,3,04,09,12,14,25,29,30,,,,,,2.1,1.1,1.8*30
Trace #71 at position 17.500000
$GPZDA,082312.04,09,10,2011,00,00*62
$GPRMC,082312.00,A,4611.971735,N,01258.217923,E,001.6,179.8,091011,0.2,E,A*3B
$GPGGA,082313.00,4611.971387,N,01258.218117,E,1,07,1.1,140.21,M,46.25,M,,*60
$GPGLL,4611.971387,N,01258.218117,E,082313.00,A,A*61
$GPVTG,144.0,T,144.1,M,001.2,N,002.2,K,A*21
$GPGSV,2,1,08,02,36,096,33,04,20,049,42,09,33,146,39,12,68,055,43*7D
$GPGSV,2,2,08,14,35,269,43,25,66,301,45,29,37,216,43,30,21,282,41*7C
$GPGSA,M,3,04,09,12,14,25,29,30,,,,,,2.1,1.1,1.8*30
Trace #72 at position 17.750000
$GPZDA,082312.04,09,10,2011,00,00*62
$GPRMC,082312.00,A,4611.971735,N,01258.217923,E,001.6,179.8,091011,0.2,E,A*3B
$GPGGA,082313.00,4611.971387,N,01258.218117,E,1,07,1.1,140.21,M,46.25,M,,*60
$GPGLL,4611.971387,N,01258.218117,E,082313.00,A,A*61
$GPVTG,144.0,T,144.1,M,001.2,N,002.2,K,A*21
$GPGSV,2,1,08,02,36,096,33,04,20,049,42,09,33,146,39,12,68,055,43*7D
$GPGSV,2,2,08,14,35,269,43,25,66,301,45,29,37,216,43,30,21,282,41*7C
$GPGSA,M,3,04,09,12,14,25,29,30,,,,,,2.1,1.1,1.8*30
Trace #73 at position 18.000000
$GPZDA,082313.04,09,10,2011,00,00*63
$GPRMC,082313.00,A,4611.971387,N,01258.218117,E,001.2,144.0,091011,0.2,E,A*35
$GPGGA,082314.00,4611.971119,N,01258.218403,E,1,07,1.1,140.29,M,46.25,M,,*6A
$GPGLL,4611.971119,N,01258.218403,E,082314.00,A,A*63
$GPVTG,149.9,T,150.1,M,001.0,N,001.9,K,A*2A
$GPGSV,2,1,08,02,36,096,,04,20,049,43,09,33,147,38,12,68,055,43*7C
$GPGSV,2,2,08,14,35,268,43,25,66,302,46,29,37,216,43,30,21,282,42*7E
$GPGSA,M,3,04,09,12,14,25,29,30,,,,,,2.1,1.1,1.8*30
Trace #74 at position 18.250000
$GPZDA,082313.04,09,10,2011,00,00*63
$GPRMC,082313.00,A,4611.971387,N,01258.218117,E,001.2,144.0,091011,0.2,E,A*35
$GPGGA,082314.00,4611.971119,N,01258.218403,E,1,07,1.1,140.29,M,46.25,M,,*6A
$GPGLL,4611.971119,N,01258.218403,E,082314.00,A,A*63
$GPVTG,149.9,T,150.1,M,001.0,N,001.9,K,A*2A
$GPGSV,2,1,08,02,36,096,,04,20,049,43,09,33,147,38,12,68,055,43*7C
$GPGSV,2,2,08,14,35,268,43,25,66,302,46,29,37,216,43,30,21,282,42*7E
$GPGSA,M,3,04,09,12,14,25,29,30,,,,,,2.1,1.1,1.8*30
Trace #75 at position 18.500000
$GPZDA,082313.04,09,10,2011,00,00*63
$GPRMC,082313.00,A,4611.971387,N,01258.218117,E,001.2,144.0,091011,0.2,E,A*35
$GPGGA,082314.00,4611.971119,N,01258.218403,E,1,07,1.1,140.29,M,46.25,M,,*6A
$GPGLL,4611.971119,N,01258.218403,E,082314.00,A,A*63
$GPVTG,149.9,T,150.1,M,001.0,N,001.9,K,A*2A
$GPGSV,2,1,08,02,36,096,,04,20,049,43,09,33,147,38,12,68,055,43*7C
$GPGSV,2,2,08,14,35,268,43,25,66,302,46,29,37,216,43,30,21,282,42*7E
$GPGSA,M,3,04,09,12,14,25,29,30,,,,,,2.1,1.1,1.8*30
Trace #76 at position 18.750000
$GPZDA,082313.04,09,10,2011,00,00*63
$GPRMC,082313.00,A,4611.971387,N,01258.218117,E,001.2,144.0,091011,0.2,E,A*35
$GPGGA,082314.00,4611.971119,N,01258.218403,E,1,07,1.1,140.29,M,46.25,M,,*6A
$GPGLL,4611.971119,N,01258.218403,E,082314.00,A,A*63
$GPVTG,149.9,T,150.1,M,001.0,N,001.9,K,A*2A
$GPGSV,2,1,08,02,36,096,,04,20,049,43,09,33,147,38,12,68,055,43*7C
$GPGSV,2,2,08,14,35,268,43,25,66,302,46,29,37,216,43,30,21,282,42*7E
$GPGSA,M,3,04,09,12,14,25,29,30,,,,,,2.1,1.1,1.8*30
Trace #77 at position 19.000000
$GPZDA,082313.04,09,10,2011,00,00*63
$GPRMC,082313.00,A,4611.971387,N,01258.218117,E,001.2,144.0,091011,0.2,E,A*35
$GPGGA,082314.00,4611.971119,N,01258.218403,E,1,07,1.1,140.29,M,46.25,M,,*6A
$GPGLL,4611.971119,N,01258.218403,E,082314.00,A,A*63
$GPVTG,149.9,T,150.1,M,001.0,N,001.9,K,A*2A
$GPGSV,2,1,08,02,36,096,,04,20,049,43,09,33,147,38,12,68,055,43*7C
$GPGSV,2,2,08,14,35,268,43,25,66,302,46,29,37,216,43,30,21,282,42*7E
$GPGSA,M,3,04,09,12,14,25,29,30,,,,,,2.1,1.1,1.8*30
Trace #78 at position 19.250000
$GPZDA,082314.04,09,10,2011,00,00*64
$GPRMC,082314.00,A,4611.971119,N,01258.218403,E,001.0,149.9,091011,0.2,E,A*31
$GPGGA,082315.00,4611.970812,N,01258.218536,E,1,07,1.1,140.35,M,46.25,M,,*62
$GPGLL,4611.970812,N,01258.218536,E,082315.00,A,A*66
$GPVTG,182.4,T,182.5,M,001.1,N,002.1,K,A*21
$GPGSV,2,1,08,02,36,096,36,04,20,049,43,09,33,147,39,12,01258.218536,E,001.1,182.4,091011,0.2,E,A*3F
$GPGGA,082316.00,4611.970450,N,01258.218733,E,1,07,1.1,140.29,M,46.25,M,,*61
$GPGLL,4611.970450,N,01258.218733,E,082316.00,A,A*68
$GPVTG,146.7,T,146.8,M,001.5,N,002.8,K,A*22
$GPGSV,2,1,08,02,36,096,36,04,20,049,43,09,33,147,38,12,68,055,43*79
$GPGSV,2,2,08,14,35,268,42,25,66,302,45,29,37,216,43,30,21,282,42*7C
$GPGSA,M,3,04,09,12,14,25,29,30,,,,,,2.1,1.1,1.8*30
Trace #79 at position 19.500000
$GPZDA,082314.04,09,10,2011,00,00*64
$GPRMC,082314.00,A,4611.971119,N,01258.218403,E,001.0,149.9,091011,0.2,E,A*31
$GPGGA,082315.00,4611.970812,N,01258.218536,E,1,07,1.1,140.35,M,46.25,M,,*62
$GPGLL,4611.970812,N,01258.218536,E,082315.00,A,A*66
$GPVTG,182.4,T,182.5,M,001.1,N,002.1,K,A*21
$GPGSV,2,1,08,02,36,096,36,04,20,049,43,09,33,147,39,12,01258.218536,E,001.1,182.4,091011,0.2,E,A*3F
$GPGGA,082316.00,4611.970450,N,01258.218733,E,1,07,1.1,140.29,M,46.25,M,,*61
$GPGLL,4611.970450,N,01258.218733,E,082316.00,A,A*68
$GPVTG,146.7,T,146.8,M,001.5,N,002.8,K,A*22
$GPGSV,2,1,08,02,36,096,36,04,20,049,43,09,33,147,38,12,68,055,43*79
$GPGSV,2,2,08,14,35,268,42,25,66,302,45,29,37,216,43,30,21,282,42*7C
$GPGSA,M,3,04,09,12,14,25,29,30,,,,,,2.1,1.1,1.8*30
Trace #80 at position 19.750000
$GPZDA,082314.04,09,10,2011,00,00*64
$GPRMC,082314.00,A,4611.971119,N,01258.218403,E,001.0,149.9,091011,0.2,E,A*31
$GPGGA,082315.00,4611.970812,N,01258.218536,E,1,07,1.1,140.35,M,46.25,M,,*62
$GPGLL,4611.970812,N,01258.218536,E,082315.00,A,A*66
$GPVTG,182.4,T,182.5,M,001.1,N,002.1,K,A*21
$GPGSV,2,1,08,02,36,096,36,04,20,049,43,09,33,147,39,12,01258.218536,E,001.1,182.4,091011,0.2,E,A*3F
$GPGGA,082316.00,4611.970450,N,01258.218733,E,1,07,1.1,140.29,M,46.25,M,,*61
$GPGLL,4611.970450,N,01258.218733,E,082316.00,A,A*68
$GPVTG,146.7,T,146.8,M,001.5,N,002.8,K,A*22
$GPGSV,2,1,08,02,36,096,36,04,20,049,43,09,33,147,38,12,68,055,43*79
$GPGSV,2,2,08,14,35,268,42,25,66,302,45,29,37,216,43,30,21,282,42*7C
$GPGSA,M,3,04,09,12,14,25,29,30,,,,,,2.1,1.1,1.8*30
Trace #81 at position 20.000000
$GPZDA,082316.04,09,10,2011,00,00*66
$GPRMC,082316.00,A,4611.970450,N,01258.218733,E,001.5,146.$GPGGA,082317.00,4611.970128,N,01258.219064,E,1,07,1.1,140.34,M,46.25,M,,*62
$GPGLL,4611.970128,N,01258.219064,E,082317.00,A,A*67
$GPVTG,137.6,T,137.8,M,001.1,N,002.0,K,A*2F
$GPGSV,2,1,08,02,36,096,34,04,20,049,43,09,33,147,37,12,68,055,43*74
$GPGSV,2,2,08,14,35,268,43,25,66,302,45,29,37,216,42,30,21,282,42*7C
$GPGSA,M,3,04,09,12,14,25,29,30,,,,,,2.1,1.1,1.8*30
Trace #82 at position 20.250000
$GPZDA,082316.04,09,10,2011,00,00*66
$GPRMC,082316.00,A,4611.970450,N,01258.218733,E,001.5,146.$GPGGA,082317.00,4611.970128,N,01258.219064,E,1,07,1.1,140.34,M,46.25,M,,*62
$GPGLL,4611.970128,N,01258.219064,E,082317.00,A,A*67
$GPVTG,137.6,T,137.8,M,001.1,N,002.0,K,A*2F
$GPGSV,2,1,08,02,36,096,34,04,20,049,43,09,33,147,37,12,68,055,43*74
$GPGSV,2,2,08,14,35,268,43,25,66,302,45,29,37,216,42,30,21,282,42*7C
$GPGSA,M,3,04,09,12,14,25,29,30,,,,,,2.1,1.1,1.8*30
Trace #83 at position 20.500000
$GPZDA,082317.04,09,10,2011,00,00*67
$GPRMC,082317.00,A,4611.970128,N,01258.219064,E,001.1,137.6,091011,0.2,E,A*32
$GPGGA,082318.00,4611.969820,N,01258.219258,E,1,07,1.1,140.47,M,46.25,M,,*6D
$GPGLL,4611.969820,N,01258.219258,E,082318.00,A,A*6C
$GPVTG,169.4,T,169.6,M,001.1,N,002.0,K,A*23
$GPGSV,2,1,08,02,36,096,30,04,20,049,43,09,33,147,38,12,68,055,43*7F
$GPGSV,2,2,08,14,35,268,44,25,66,302,46,29,37,216,42,30,21,282,42*78
$GPGSA,M,3,04,09,12,14,25,29,30,,,,,,2.1,1.1,1.8*30
Trace #84 at position 20.750000
$GPZDA,082317.04,09,10,2011,00,00*67
$GPRMC,082317.00,A,4611.970128,N,01258.219064,E,001.1,137.6,091011,0.2,E,A*32
$GPGGA,082318.00,4611.969820,N,01258.219258,E,1,07,1.1,140.47,M,46.25,M,,*6D
$GPGLL,4611.969820,N,01258.219258,E,082318.00,A,A*6C
$GPVTG,169.4,T,169.6,M,001.1,N,002.0,K,A*23
$GPGSV,2,1,08,02,36,096,30,04,20,049,43,09,33,147,38,12,68,055,43*7F
$GPGSV,2,2,08,14,35,268,44,25,66,302,46,29,37,216,42,30,21,282,42*78
$GPGSA,M,3,04,09,12,14,25,29,30,,,,,,2.1,1.1,1.8*30
Trace #85 at position 21.000000
$GPZDA,082317.04,09,10,2011,00,00*67
$GPRMC,082317.00,A,4611.970128,N,01258.219064,E,001.1,137.6,091011,0.2,E,A*32
$GPGGA,082318.00,4611.969820,N,01258.219258,E,1,07,1.1,140.47,M,46.25,M,,*6D
$GPGLL,4611.969820,N,01258.219258,E,082318.00,A,A*6C
$GPVTG,169.4,T,169.6,M,001.1,N,002.0,K,A*23
$GPGSV,2,1,08,02,36,096,30,04,20,049,43,09,33,147,38,12,68,055,43*7F
$GPGSV,2,2,08,14,35,268,44,25,66,302,46,29,37,216,42,30,21,282,42*78
$GPGSA,M,3,04,09,12,14,25,29,30,,,,,,2.1,1.1,1.8*30
Trace #86 at position 21.250000
$GPZDA,082317.04,09,10,2011,00,00*67
$GPRMC,082317.00,A,4611.970128,N,01258.219064,E,001.1,137.6,091011,0.2,E,A*32
$GPGGA,082318.00,4611.969820,N,01258.219258,E,1,07,1.1,140.47,M,46.25,M,,*6D
$GPGLL,4611.969820,N,01258.219258,E,082318.00,A,A*6C
$GPVTG,169.4,T,169.6,M,001.1,N,002.0,K,A*23
$GPGSV,2,1,08,02,36,096,30,04,20,049,43,09,33,147,38,12,68,055,43*7F
$GPGSV,2,2,08,14,35,268,44,25,66,302,46,29,37,216,42,30,21,282,42*78
$GPGSA,M,3,04,09,12,14,25,29,30,,,,,,2.1,1.1,1.8*30
Trace #87 at position 21.500000
$GPZDA,082318.04,09,10,2011,00,00*68
$GPRMC,082318.00,A,4611.969820,N,01258.219258,E,001.1,169.4,091011,0.2,E,A*30
$GPGGA,082319.00,4611.969465,N,01258.219422,E,1,07,1.1,140.38,M,46.25,M,,*62
$GPGLL,4611.969465,N,01258.219422,E,082319.00,A,A*6B
$GPVTG,154.0,T,154.2,M,001.2,N,002.3,K,A*23
$GPGSV,2,1,08,02,36,096,31,04,20,049,42,09,33,147,38,12,68,055,43*7F
$GPGSV,2,2,08,14,35,268,43,25,66,302,45,29,37,216,42,30,21,282,41*7F
$GPGSA,M,3,04,09,12,14,25,29,30,,,,,,2.1,1.1,1.8*30
Trace #88 at position 21.750000
$GPZDA,082318.04,09,10,2011,00,00*68
$GPRMC,082318.00,A,4611.969820,N,01258.219258,E,001.1,169.4,091011,0.2,E,A*30
$GPGGA,082319.00,4611.969465,N,01258.219422,E,1,07,1.1,140.38,M,46.25,M,,*62
$GPGLL,4611.969465,N,01258.219422,E,082319.00,A,A*6B
$GPVTG,154.0,T,154.2,M,001.2,N,002.3,K,A*23
$GPGSV,2,1,08,02,36,096,31,04,20,049,42,09,33,147,38,12,68,055,43*7F
$GPGSV,2,2,08,14,35,268,43,25,66,302,45,29,37,216,42,30,21,282,41*7F
$GPGSA,M,3,04,09,12,14,25,29,30,,,,,,2.1,1.1,1.8*30
Trace #89 at position 22.000000
$GPZDA,082318.04,09,10,2011,00,00*68
$GPRMC,082318.00,A,4611.969820,N,01258.219258,E,001.1,169.4,091011,0.2,E,A*30
$GPGGA,082319.00,4611.969465,N,01258.219422,E,1,07,1.1,140.38,M,46.25,M,,*62
$GPGLL,4611.969465,N,01258.219422,E,082319.00,A,A*6B
$GPVTG,154.0,T,154.2,M,001.2,N,002.3,K,A*23
$GPGSV,2,1,08,02,36,096,31,04,20,049,42,09,33,147,38,12,68,055,43*7F
$GPGSV,2,2,08,14,35,268,43,25,66,302,45,29,37,216,42,30,21,282,41*7F
$GPGSA,M,3,04,09,12,14,25,29,30,,,,,,2.1,1.1,1.8*30
Trace #90 at position 22.250000
$GPZDA,082319.04,09,10,2011,00,00*69
$GPRMC,082319.00,A,4611.969465,N,01258.219422,E,001.2,154.0,091011,0.2,E,A*3E
$GPGGA,082320.00,4611.969096,N,01258.219663,E,1,06,1.6,140.24,M,46.25,M,,*6C
$GPGLL,4611.969096,N,01258.219663,E,082320.00,A,A*6E
$GPVTG,151.5,T,151.6,M,001.4,N,002.7,K,A*20
$GPGSV,2,1,08,02,36,096,32,04,20,049,43,09,33,147,36,12,68,055,44*74
$GPGSV,2,2,08,14,35,268,43,25,66,302,46,29,37,216,42,30,21,282,42*7F
$GPGSA,M,3,04,12,14,25,29,30,,,,,,,2.4,1.6,1.8*3B
Trace #91 at position 22.500000
$GPZDA,082319.04,09,10,2011,00,00*69
$GPRMC,082319.00,A,4611.969465,N,01258.219422,E,001.2,154.0,091011,0.2,E,A*3E
$GPGGA,082320.00,4611.969096,N,01258.219663,E,1,06,1.6,140.24,M,46.25,M,,*6C
$GPGLL,4611.969096,N,01258.219663,E,082320.00,A,A*6E
$GPVTG,151.5,T,151.6,M,001.4,N,002.7,K,A*20
$GPGSV,2,1,08,02,36,096,32,04,20,049,43,09,33,147,36,12,68,055,44*74
$GPGSV,2,2,08,14,35,268,43,25,66,302,46,29,37,216,42,30,21,282,42*7F
$GPGSA,M,3,04,12,14,25,29,30,,,,,,,2.4,1.6,1.8*3B
Trace #92 at position 22.750000
$GPZDA,082319.04,09,10,2011,00,00*69
$GPRMC,082319.00,A,4611.969465,N,01258.219422,E,001.2,154.0,091011,0.2,E,A*3E
$GPGGA,082320.00,4611.969096,N,01258.219663,E,1,06,1.6,140.24,M,46.25,M,,*6C
$GPGLL,4611.969096,N,01258.219663,E,082320.00,A,A*6E
$GPVTG,151.5,T,151.6,M,001.4,N,002.7,K,A*20
$GPGSV,2,1,08,02,36,096,32,04,20,049,43,09,33,147,36,12,68,055,44*74
$GPGSV,2,2,08,14,35,268,43,25,66,302,46,29,37,216,42,30,21,282,42*7F
$GPGSA,M,3,04,12,14,25,29,30,,,,,,,2.4,1.6,1.8*3B
Trace #93 at position 23.000000
$GPZDA,082320.04,09,10,2011,00,00*63
$GPRMC,082320.00,A,4611.969096,N,01258.219663,E,001.4,151.5,091011,0.2,E,A*3D
$GPGGA,082321.00,4611.968682,N,01258.219858,E,1,06,1.6,140.16,M,46.25,M,,*68
$GPGLL,4611.968682,N,01258.219858,E,082321.00,A,A*6B
$GPVTG,167.0,T,167.2,M,001.5,N,002.7,K,A*20
$GPGSV,2,1,08,02,36,096,33,04,20,049,42,09,33,147,39,12,68,055,43*7C
$GPGSV,2,2,08,14,35,268,44,25,66,302,46,29,37,216,42,30,21,282,42*78
$GPGSA,M,3,04,12,14,25,29,30,,,,,,,2.4,1.6,1.8*3B
Trace #94 at position 23.250000
$GPZDA,082320.04,09,10,2011,00,00*63
$GPRMC,082320.00,A,4611.969096,N,01258.219663,E,001.4,151.5,091011,0.2,E,A*3D
$GPGGA,082321.00,4611.968682,N,01258.219858,E,1,06,1.6,140.16,M,46.25,M,,*68
$GPGLL,4611.968682,N,01258.219858,E,082321.00,A,A*6B
$GPVTG,167.0,T,167.2,M,001.5,N,002.7,K,A*20
$GPGSV,2,1,08,02,36,096,33,04,20,049,42,09,33,147,39,12,68,055,43*7C
$GPGSV,2,2,08,14,35,268,44,25,66,302,46,29,37,216,42,30,21,282,42*78
$GPGSA,M,3,04,12,14,25,29,30,,,,,,,2.4,1.6,1.8*3B
Trace #95 at position 23.500000
$GPZDA,082321.03,09,10,2011,00,00*65
$GPRMC,082321.00,A,4611.968682,N,01258.219858,E,001.5,167.0,091011,0.2,E,A*39
$GPGGA,082322.00,4611.968225,N,01258.219994,E,1,06,1.6,140.03,M,46.25,M,,*67
$GPGLL,4611.968225,N,01258.219994,E,082322.00,A,A*60
$GPVTG,167.9,T,168.0,M,001.7,N,003.1,K,A*21
$GPGSV,2,1,08,02,36,096,34,04,20,049,43,09,33,147,38,12,68,055,43*7B
$GPGSV,2,2,08,14,35,268,43,25,66,302,45,29,37,216,42,30,21,282,41*7F
$GPGSA,M,3,04,12,14,25,29,30,,,,,,,2.4,1.6,1.8*3B
Trace #96 at position 23.750000
$GPZDA,082322.03,09,10,2011,00,00*66
$GPRMC,082322.00,A,4611.968225,N,01258.219994,E,001.7,167.9,091011,0.2,E,A*39
$GPGGA,082323.00,4611.967848,N,01258.220260,E,1,07,1.1,140.02,M,46.25,M,,*65
$GPGLL,4611.967848,N,01258.220260,E,082323.00,A,A*65
$GPVTG,129.4,T,129.6,M,001.3,N,002.4,K,A*25
$GPGSV,2,1,08,02,36,096,33,04,20,049,42,09,33,147,39,12,68,055,44*7B
$GPGSV,2,2,08,14,35,268,43,25,66,302,46,29,37,216,41,30,21,282,41*7F
$GPGSA,M,3,04,09,12,14,25,29,30,,,,,,2.1,1.1,1.8*30
Trace #97 at position 24.000000
$GPZDA,082323.04,09,10,2011,00,00*60
$GPRMC,082323.00,A,4611.967848,N,01258.220260,E,001.3,129.4,091011,0.2,E,A*3F
$GPGGA,082324.00,4611.967470,N,01258.220732,E,1,07,1.1,140.08,M,46.25,M,,*6D
$GPGLL,4611.967470,N,01258.220732,E,082324.00,A,A*67
$GPVTG,136.8,T,137.0,M,002.3,N,004.2,K,A*2D
$GPGSV,2,1,08,02,36,096,35,04,20,049,43,09,33,147,39,12,68,055,44*7C
$GPGSV,2,2,08,14,35,268,43,25,66,302,45,29,37,216,43,30,21,282,41*7E
$GPGSA,M,3,04,09,12,14,25,29,30,,,,,,2.1,1.1,1.8*30
Trace #98 at position 24.250000
$GPZDA,082330.04,09,10,2011,00,00*62
$GPRMC,082330.00,A,4611.965566,N,01258.221343,E,000.4,143.1,091011,0.2,E,A*30
$GPGGA,082331.00,4611.965427,N,01258.221424,E,1,06,1.6,139.89,M,46.25,M,,*6D
$GPGLL,4611.965427,N,01258.221424,E,082331.00,A,A*66
$GPVTG,153.8,T,154.0,M,000.8,N,001.6,K,A*23
$GPGSV,2,1,08,02,36,096,31,04,20,049,44,09,33,147,31,12,68,055,36*72
$GPGSV,2,2,08,14,35,268,41,25,66,302,44,29,37,216,42,30,21,282,40*7D
$GPGSA,M,3,04,12,14,25,29,30,,,,,,,2.4,1.6,1.8*3B
Trace #99 at position 24.500000
$GPZDA,082330.04,09,10,2011,00,00*62
$GPRMC,082330.00,A,4611.965566,N,01258.221343,E,000.4,143.1,091011,0.2,E,A*30
$GPGGA,082331.00,4611.965427,N,01258.221424,E,1,06,1.6,139.89,M,46.25,M,,*6D
$GPGLL,4611.965427,N,01258.221424,E,082331.00,A,A*66
$GPVTG,153.8,T,154.0,M,000.8,N,001.6,K,A*23
$GPGSV,2,1,08,02,36,096,31,04,20,049,44,09,33,147,31,12,68,055,36*72
$GPGSV,2,2,08,14,35,268,41,25,66,302,44,29,37,216,42,30,21,282,40*7D
$GPGSA,M,3,04,12,14,25,29,30,,,,,,,2.4,1.6,1.8*3B
Trace #100 at position 24.750000
$GPZDA,082330.04,09,10,2011,00,00*62
$GPRMC,082330.00,A,4611.965566,N,01258.221343,E,000.4,143.1,091011,0.2,E,A*30
$GPGGA,082331.00,4611.965427,N,01258.221424,E,1,06,1.6,139.89,M,46.25,M,,*6D
$GPGLL,4611.965427,N,01258.221424,E,082331.00,A,A*66
$GPVTG,153.8,T,154.0,M,000.8,N,001.6,K,A*23
$GPGSV,2,1,08,02,36,096,31,04,20,049,44,09,33,147,31,12,68,055,36*72
$GPGSV,2,2,08,14,35,268,41,25,66,302,44,29,37,216,42,30,21,282,40*7D
$GPGSA,M,3,04,12,14,25,29,30,,,,,,,2.4,1.6,1.8*3B
Trace #101 at position 25.000000
$GPZDA,082331.03,09,10,2011,00,00*64
$GPRMC,082331.00,A,4611.965427,N,01258.221424,E,000.8,153.8,091011,0.2,E,A*37
$GPGGA,082332.00,4611.965324,N,01258.221455,E,1,06,1.6,139.79,M,46.25,M,,*63
$GPGLL,4611.965324,N,01258.221455,E,082332.00,A,A*67
$GPVTG,175.4,T,175.6,M,000.2,N,000.3,K,A*20
$GPGSV,2,1,08,02,36,096,33,04,20,049,42,09,33,147,26,12,68,055,40*71
$GPGSV,2,2,08,14,35,268,42,25,66,302,46,29,37,216,43,30,21,282,38*72
$GPGSA,M,3,04,12,14,25,29,30,,,,,,,2.4,1.6,1.8*3B
Trace #102 at position 25.250000
$GPZDA,082331.03,09,10,2011,00,00*64
$GPRMC,082331.00,A,4611.965427,N,01258.221424,E,000.8,153.8,091011,0.2,E,A*37
$GPGGA,082332.00,4611.965324,N,01258.221455,E,1,06,1.6,139.79,M,46.25,M,,*63
$GPGLL,4611.965324,N,01258.221455,E,082332.00,A,A*67
$GPVTG,175.4,T,175.6,M,000.2,N,000.3,K,A*20
$GPGSV,2,1,08,02,36,096,33,04,20,049,42,09,33,147,26,12,68,055,40*71
$GPGSV,2,2,08,14,35,268,42,25,66,302,46,29,37,216,43,30,21,282,38*72
$GPGSA,M,3,04,12,14,25,29,30,,,,,,,2.4,1.6,1.8*3B
Trace #103 at position 25.500000
$GPZDA,082331.03,09,10,2011,00,00*64
$GPRMC,082331.00,A,4611.965427,N,01258.221424,E,000.8,153.8,091011,0.2,E,A*37
$GPGGA,082332.00,4611.965324,N,01258.221455,E,1,06,1.6,139.79,M,46.25,M,,*63
$GPGLL,4611.965324,N,01258.221455,E,082332.00,A,A*67
$GPVTG,175.4,T,175.6,M,000.2,N,000.3,K,A*20
$GPGSV,2,1,08,02,36,096,33,04,20,049,42,09,33,147,26,12,68,055,40*71
$GPGSV,2,2,08,14,35,268,42,25,66,302,46,29,37,216,43,30,21,282,38*72
$GPGSA,M,3,04,12,14,25,29,30,,,,,,,2.4,1.6,1.8*3B
Trace #104 at position 25.750000
$GPZDA,082331.03,09,10,2011,00,00*64
$GPRMC,082331.00,A,4611.965427,N,01258.221424,E,000.8,153.8,091011,0.2,E,A*37
$GPGGA,082332.00,4611.965324,N,01258.221455,E,1,06,1.6,139.79,M,46.25,M,,*63
$GPGLL,4611.965324,N,01258.221455,E,082332.00,A,A*67
$GPVTG,175.4,T,175.6,M,000.2,N,000.3,K,A*20
$GPGSV,2,1,08,02,36,096,33,04,20,049,42,09,33,147,26,12,68,055,40*71
$GPGSV,2,2,08,14,35,268,42,25,66,302,46,29,37,216,43,30,21,282,38*72
$GPGSA,M,3,04,12,14,25,29,30,,,,,,,2.4,1.6,1.8*3B
Trace #105 at position 26.000000
$GPZDA,082332.03,09,10,2011,00,00*67
$GPRMC,082332.00,A,4611.965324,N,01258.221455,E,000.2,175.4,091011,0.2,E,A*34
$GPGGA,082333.00,4611.965293,N,01258.221427,E,1,06,1.6,139.73,M,46.25,M,,*60
$GPGLL,4611.965293,N,01258.221427,E,082333.00,A,A*6E
$GPVTG,170.6,T,170.7,M,000.2,N,000.4,K,A*24
$GPGSV,2,1,08,02,36,096,28,04,20,049,43,09,33,147,28,12,68,055,39*7A
$GPGSV,2,2,08,14,35,268,41,25,66,302,45,29,37,216,42,30,21,282,41*7D
$GPGSA,M,3,04,12,14,25,29,30,,,,,,,2.4,1.6,1.8*3B
Trace #106 at position 26.250000
$GPZDA,082332.03,09,10,2011,00,00*67
$GPRMC,082332.00,A,4611.965324,N,01258.221455,E,000.2,175.4,091011,0.2,E,A*34
$GPGGA,082333.00,4611.965293,N,01258.221427,E,1,06,1.6,139.73,M,46.25,M,,*60
$GPGLL,4611.965293,N,01258.221427,E,082333.00,A,A*6E
$GPVTG,170.6,T,170.7,M,000.2,N,000.4,K,A*24
$GPGSV,2,1,08,02,36,096,28,04,20,049,43,09,33,147,28,12,68,055,39*7A
$GPGSV,2,2,08,14,35,268,41,25,66,302,45,29,37,216,42,30,21,282,41*7D
$GPGSA,M,3,04,12,14,25,29,30,,,,,,,2.4,1.6,1.8*3B
Trace #107 at position 26.500000
$GPZDA,082332.03,09,10,2011,00,00*67
$GPRMC,082332.00,A,4611.965324,N,01258.221455,E,000.2,175.4,091011,0.2,E,A*34
$GPGGA,082333.00,4611.965293,N,01258.221427,E,1,06,1.6,139.73,M,46.25,M,,*60
$GPGLL,4611.965293,N,01258.221427,E,082333.00,A,A*6E
$GPVTG,170.6,T,170.7,M,000.2,N,000.4,K,A*24
$GPGSV,2,1,08,02,36,096,28,04,20,049,43,09,33,147,28,12,68,055,39*7A
$GPGSV,2,2,08,14,35,268,41,25,66,302,45,29,37,216,42,30,21,282,41*7D
$GPGSA,M,3,04,12,14,25,29,30,,,,,,,2.4,1.6,1.8*3B
Trace #108 at position 26.750000
$GPZDA,082332.03,09,10,2011,00,00*67
$GPRMC,082332.00,A,4611.965324,N,01258.221455,E,000.2,175.4,091011,0.2,E,A*34
$GPGGA,082333.00,4611.965293,N,01258.221427,E,1,06,1.6,139.73,M,46.25,M,,*60
$GPGLL,4611.965293,N,01258.221427,E,082333.00,A,A*6E
$GPVTG,170.6,T,170.7,M,000.2,N,000.4,K,A*24
$GPGSV,2,1,08,02,36,096,28,04,20,049,43,09,33,147,28,12,68,055,39*7A
$GPGSV,2,2,08,14,35,268,41,25,66,302,45,29,37,216,42,30,21,282,41*7D
$GPGSA,M,3,04,12,14,25,29,30,,,,,,,2.4,1.6,1.8*3B
Trace #109 at position 27.000000
$GPZDA,082333.04,09,10,2011,00,00*61
$GPRMC,082333.00,A,4611.965293,N,01258.221427,E,000.2,170.6,091011,0.2,E,A*3A
$GPGGA,082334.00,4611.965279,N,01258.221402,E,1,06,1.6,139.69,M,46.25,M,,*6F
$GPGLL,4611.965279,N,01258.221402,E,082334.00,A,A*6A
$GPVTG,151.3,T,151.4,M,000.0,N,000.1,K,A*25
$GPGSV,2,1,08,02,36,096,27,04,20,049,42,09,33,147,28,12,68,055,40*7A
$GPGSV,2,2,08,14,35,268,42,25,66,302,45,29,37,216,41,30,21,282,39*72
$GPGSA,M,3,04,12,14,25,29,30,,,,,,,2.4,1.6,1.8*3B
Trace #110 at position 27.250000
$GPZDA,082333.04,09,10,2011,00,00*61
$GPRMC,082333.00,A,4611.965293,N,01258.221427,E,000.2,170.6,091011,0.2,E,A*3A
$GPGGA,082334.00,4611.965279,N,01258.221402,E,1,06,1.6,139.69,M,46.25,M,,*6F
$GPGLL,4611.965279,N,01258.221402,E,082334.00,A,A*6A
$GPVTG,151.3,T,151.4,M,000.0,N,000.1,K,A*25
$GPGSV,2,1,08,02,36,096,27,04,20,049,42,09,33,147,28,12,68,055,40*7A
$GPGSV,2,2,08,14,35,268,42,25,66,302,45,29,37,216,41,30,21,282,39*72
$GPGSA,M,3,04,12,14,25,29,30,,,,,,,2.4,1.6,1.8*3B
Trace #111 at position 27.500000
$GPZDA,082333.04,09,10,2011,00,00*61
$GPRMC,082333.00,A,4611.965293,N,01258.221427,E,000.2,170.6,091011,0.2,E,A*3A
$GPGGA,082334.00,4611.965279,N,01258.221402,E,1,06,1.6,139.69,M,46.25,M,,*6F
$GPGLL,4611.965279,N,01258.221402,E,082334.00,A,A*6A
$GPVTG,151.3,T,151.4,M,000.0,N,000.1,K,A*25
$GPGSV,2,1,08,02,36,096,27,04,20,049,42,09,33,147,28,12,68,055,40*7A
$GPGSV,2,2,08,14,35,268,42,25,66,302,45,29,37,216,41,30,21,282,39*72
$GPGSA,M,3,04,12,14,25,29,30,,,,,,,2.4,1.6,1.8*3B
Trace #112 at position 27.750000
$GPZDA,082333.04,09,10,2011,00,00*61
$GPRMC,082333.00,A,4611.965293,N,01258.221427,E,000.2,170.6,091011,0.2,E,A*3A
$GPGGA,082334.00,4611.965279,N,01258.221402,E,1,06,1.6,139.69,M,46.25,M,,*6F
$GPGLL,4611.965279,N,01258.221402,E,082334.00,A,A*6A
$GPVTG,151.3,T,151.4,M,000.0,N,000.1,K,A*25
$GPGSV,2,1,08,02,36,096,27,04,20,049,42,09,33,147,28,12,68,055,40*7A
$GPGSV,2,2,08,14,35,268,42,25,66,302,45,29,37,216,41,30,21,282,39*72
$GPGSA,M,3,04,12,14,25,29,30,,,,,,,2.4,1.6,1.8*3B
Trace #113 at position 28.000000
$GPZDA,082334.03,09,10,2011,00,00*61
$GPRMC,082334.00,A,4611.965279,N,01258.221402,E,000.0,151.3,091011,0.2,E,A*3A
