Trace #1 at position 0.000000
$GPZDA,092612.03,09,10,2011,00,00*61
$GPRMC,092612.00,A,4611.979699,N,01258.220226,E,000.1,230.4,091011,0.2,E,A*3E
$GPGGA,092613.00,4611.979789,N,01258.220215,E,1,06,1.6,140.71,M,46.25,M,,*6F
$GPGLL,4611.979789,N,01258.220215,E,092613.00,A,A*6D
$GPVTG,339.5,T,339.7,M,000.1,N,000.2,K,A*22
$GPGSV,2,1,07,02,35,062,43,12,45,092,38,14,18,241,37,25,78,049,44*72
$GPGSV,2,2,07,29,67,234,42,30,46,298,42,31,37,308,44,,,,*4E
$GPGSA,M,3,02,14,25,29,30,31,,,,,,,2.5,1.6,2.0*36
Trace #2 at position 0.250000
$GPZDA,092616.03,09,10,2011,00,00*65
$GPRMC,092616.00,A,4611.980010,N,01258.220218,E,000.1,8.0,091011,0.2,E,A*3B
$GPGGA,092617.00,4611.980053,N,01258.220222,E,1,06,1.6,141.40,M,46.25,M,,*6A
$GPGLL,4611.980053,N,01258.220222,E,092617.00,A,A*6B
$GPVTG,196.6,T,196.7,M,000.1,N,000.2,K,A*21
$GPGSV,2,1,07,02,35,062,44,12,45,092,39,14,18,241,37,25,78,049,44*74
$GPGSV,2,2,07,29,67,234,42,30,46,298,42,31,37,308,43,,,,*49
$GPGSA,M,3,02,14,25,29,30,31,,,,,,,2.5,1.6,2.0*36
Trace #3 at position 0.500000
$GPZDA,092617.03,09,10,2011,00,00*64
$GPRMC,092617.00,A,4611.980053,N,01258.220222,E,000.1,196.6,091011,0.2,E,A*34
$GPGGA,092618.00,4611.980056,N,01258.220263,E,1,07,1.4,141.43,M,46.25,M,,*65
$GPGLL,4611.980056,N,01258.220263,E,092618.00,A,A*64
$GPVTG,323.7,T,323.9,M,000.0,N,000.0,K,A*2D
$GPGSV,2,1,07,02,35,062,44,12,45,092,40,14,18,241,37,25,78,050,43*75
$GPGSV,2,2,07,29,67,234,41,30,46,298,41,31,37,308,42,,,,*48
$GPGSA,M,3,02,12,14,25,29,30,31,,,,,,2.4,1.4,1.9*3C
Trace #4 at position 0.750000
$GPZDA,092617.03,09,10,2011,00,00*64
$GPRMC,092617.00,A,4611.980053,N,01258.220222,E,000.1,196.6,091011,0.2,E,A*34
$GPGGA,092618.00,4611.980056,N,01258.220263,E,1,07,1.4,141.43,M,46.25,M,,*65
$GPGLL,4611.980056,N,01258.220263,E,092618.00,A,A*64
$GPVTG,323.7,T,323.9,M,000.0,N,000.0,K,A*2D
$GPGSV,2,1,07,02,35,062,44,12,45,092,40,14,18,241,37,25,78,050,43*75
$GPGSV,2,2,07,29,67,234,41,30,46,298,41,31,37,308,42,,,,*48
$GPGSA,M,3,02,12,14,25,29,30,31,,,,,,2.4,1.4,1.9*3C
Trace #5 at position 1.000000
$GPZDA,092618.04,09,10,2011,00,00*6C
$GPRMC,092618.00,A,4611.980056,N,01258.220263,E,000.0,323.7,091011,0.2,E,A*37
$GPGGA,092619.00,4611.980069,N,01258.220316,E,1,07,1.4,141.48,M,46.25,M,,*60
$GPGLL,4611.980069,N,01258.220316,E,092619.00,A,A*6A
$GPVTG,115.5,T,115.6,M,000.1,N,000.1,K,A*20
$GPGSV,2,1,07,02,35,062,44,12,45,092,39,14,18,241,37,25,78,050,43*7B
$GPGSV,2,2,07,29,67,234,43,30,46,298,41,31,37,308,41,,,,*49
$GPGSA,M,3,02,12,14,25,29,30,31,,,,,,2.4,1.4,1.9*3C
Trace #6 at position 1.250000
$GPZDA,092618.04,09,10,2011,00,00*6C
$GPRMC,092618.00,A,4611.980056,N,01258.220263,E,000.0,323.7,091011,0.2,E,A*37
$GPGGA,092619.00,4611.980069,N,01258.220316,E,1,07,1.4,141.48,M,46.25,M,,*60
$GPGLL,4611.980069,N,01258.220316,E,092619.00,A,A*6A
$GPVTG,115.5,T,115.6,M,000.1,N,000.1,K,A*20
$GPGSV,2,1,07,02,35,062,44,12,45,092,39,14,18,241,37,25,78,050,43*7B
$GPGSV,2,2,07,29,67,234,43,30,46,298,41,31,37,308,41,,,,*49
$GPGSA,M,3,02,12,14,25,29,30,31,,,,,,2.4,1.4,1.9*3C
Trace #7 at position 1.500000
$GPZDA,092619.03,09,10,2011,00,00*6A
$GPRMC,092619.00,A,4611.980069,N,01258.220316,E,000.1,115.5,091011,0.2,E,A*3D
$GPGGA,092620.00,4611.979936,N,01258.220388,E,1,06,1.6,141.54,M,46.25,M,,*66
$GPGLL,4611.979936,N,01258.220388,E,092620.00,A,A*62
$GPVTG,164.7,T,164.9,M,001.2,N,002.3,K,A*2F
$GPGSV,2,1,07,02,35,062,43,12,45,092,35,14,18,241,37,25,78,050,43*70
$GPGSV,2,2,07,29,67,234,44,30,46,298,43,31,37,308,43,,,,*4E
$GPGSA,M,3,02,14,25,29,30,31,,,,,,,2.5,1.6,2.0*36
Trace #8 at position 1.750000
$GPZDA,092619.03,09,10,2011,00,00*6A
$GPRMC,092619.00,A,4611.980069,N,01258.220316,E,000.1,115.5,091011,0.2,E,A*3D
$GPGGA,092620.00,4611.979936,N,01258.220388,E,1,06,1.6,141.54,M,46.25,M,,*66
$GPGLL,4611.979936,N,01258.220388,E,092620.00,A,A*62
$GPVTG,164.7,T,164.9,M,001.2,N,002.3,K,A*2F
$GPGSV,2,1,07,02,35,062,43,12,45,092,35,14,18,241,37,25,78,050,43*70
$GPGSV,2,2,07,29,67,234,44,30,46,298,43,31,37,308,43,,,,*4E
$GPGSA,M,3,02,14,25,29,30,31,,,,,,,2.5,1.6,2.0*36
Trace #9 at position 2.000000
$GPZDA,092619.03,09,10,2011,00,00*6A
$GPRMC,092619.00,A,4611.980069,N,01258.220316,E,000.1,115.5,091011,0.2,E,A*3D
$GPGGA,092620.00,4611.979936,N,01258.220388,E,1,06,1.6,141.54,M,46.25,M,,*66
$GPGLL,4611.979936,N,01258.220388,E,092620.00,A,A*62
$GPVTG,164.7,T,164.9,M,001.2,N,002.3,K,A*2F
$GPGSV,2,1,07,02,35,062,43,12,45,092,35,14,18,241,37,25,78,050,43*70
$GPGSV,2,2,07,29,67,234,44,30,46,298,43,31,37,308,43,,,,*4E
$GPGSA,M,3,02,14,25,29,30,31,,,,,,,2.5,1.6,2.0*36
Trace #10 at position 2.250000
$GPZDA,092620.04,09,10,2011,00,00*67
$GPRMC,092620.00,A,4611.979936,N,01258.220388,E,001.2,164.7,091011,0.2,E,A*33
$GPGGA,092621.00,4611.979659,N,01258.220488,E,1,06,1.6,141.55,M,46.25,M,,*67
$GPGLL,4611.979659,N,01258.220488,E,092621.00,A,A*62
$GPVTG,169.8,T,170.0,M,001.1,N,002.1,K,A*20
$GPGSV,2,1,07,02,35,062,44,12,45,092,35,14,18,241,39,25,78,050,44*7E
$GPGSV,2,2,07,29,67,234,43,30,46,298,43,31,37,308,44,,,,*4E
$GPGSA,M,3,02,14,25,29,30,31,,,,,,,2.5,1.6,2.0*36
Trace #11 at position 2.500000
$GPZDA,092620.04,09,10,2011,00,00*67
$GPRMC,092620.00,A,4611.979936,N,01258.220388,E,001.2,164.7,091011,0.2,E,A*33
$GPGGA,092621.00,4611.979659,N,01258.220488,E,1,06,1.6,141.55,M,46.25,M,,*67
$GPGLL,4611.979659,N,01258.220488,E,092621.00,A,A*62
$GPVTG,169.8,T,170.0,M,001.1,N,002.1,K,A*20
$GPGSV,2,1,07,02,35,062,44,12,45,092,35,14,18,241,39,25,78,050,44*7E
$GPGSV,2,2,07,29,67,234,43,30,46,298,43,31,37,308,44,,,,*4E
$GPGSA,M,3,02,14,25,29,30,31,,,,,,,2.5,1.6,2.0*36
Trace #12 at position 2.750000
$GPZDA,092620.04,09,10,2011,00,00*67
$GPRMC,092620.00,A,4611.979936,N,01258.220388,E,001.2,164.7,091011,0.2,E,A*33
$GPGGA,092621.00,4611.979659,N,01258.220488,E,1,06,1.6,141.55,M,46.25,M,,*67
$GPGLL,4611.979659,N,01258.220488,E,092621.00,A,A*62
$GPVTG,169.8,T,170.0,M,001.1,N,002.1,K,A*20
$GPGSV,2,1,07,02,35,062,44,12,45,092,35,14,18,241,39,25,78,050,44*7E
$GPGSV,2,2,07,29,67,234,43,30,46,298,43,31,37,308,44,,,,*4E
$GPGSA,M,3,02,14,25,29,30,31,,,,,,,2.5,1.6,2.0*36
Trace #13 at position 3.000000
$GPZDA,092621.03,09,10,2011,00,00*61
$GPRMC,092621.00,A,4611.979659,N,01258.220488,E,001.1,169.8,091011,0.2,E,A*32
$GPGGA,092622.00,4611.979396,N,01258.220676,E,1,06,1.6,141.49,M,46.25,M,,*6C
$GPGLL,4611.979396,N,01258.220676,E,092622.00,A,A*64
$GPVTG,145.8,T,146.0,M,001.3,N,002.5,K,A*2D
$GPGSV,2,1,07,02,35,062,44,12,45,092,38,14,18,241,38,25,78,050,46*70
$GPGSV,2,2,07,29,67,234,40,30,46,298,42,31,37,308,44,,,,*4C
$GPGSA,M,3,02,14,25,29,30,31,,,,,,,2.5,1.6,2.0*36
Trace #14 at position 3.250000
$GPZDA,092621.03,09,10,2011,00,00*61
$GPRMC,092621.00,A,4611.979659,N,01258.220488,E,001.1,169.8,091011,0.2,E,A*32
$GPGGA,092622.00,4611.979396,N,01258.220676,E,1,06,1.6,141.49,M,46.25,M,,*6C
$GPGLL,4611.979396,N,01258.220676,E,092622.00,A,A*64
$GPVTG,145.8,T,146.0,M,001.3,N,002.5,K,A*2D
$GPGSV,2,1,07,02,35,062,44,12,45,092,38,14,18,241,38,25,78,050,46*70
$GPGSV,2,2,07,29,67,234,40,30,46,298,42,31,37,308,44,,,,*4C
$GPGSA,M,3,02,14,25,29,30,31,,,,,,,2.5,1.6,2.0*36
Trace #15 at position 3.500000
$GPZDA,092622.03,09,10,2011,00,00*62
$GPRMC,092622.00,A,4611.979396,N,01258.220676,E,001.3,145.8,091011,0.2,E,A*38
$GPGGA,092623.00,4611.979134,N,01258.220885,E,1,06,1.6,141.51,M,46.25,M,,*6C
$GPGLL,4611.979134,N,01258.220885,E,092623.00,A,A*6D
$GPVTG,161.7,T,161.8,M,001.1,N,002.1,K,A*2F
$GPGSV,2,1,07,02,35,062,42,12,45,092,36,14,18,241,37,25,78,050,43*72
$GPGSV,2,2,07,29,67,234,40,30,46,298,41,31,37,308,44,,,,*4F
$GPGSA,M,3,02,14,25,29,30,31,,,,,,,2.5,1.6,2.0*36
Trace #16 at position 3.750000
$GPZDA,092622.03,09,10,2011,00,00*62
$GPRMC,092622.00,A,4611.979396,N,01258.220676,E,001.3,145.8,091011,0.2,E,A*38
$GPGGA,092623.00,4611.979134,N,01258.220885,E,1,06,1.6,141.51,M,46.25,M,,*6C
$GPGLL,4611.979134,N,01258.220885,E,092623.00,A,A*6D
$GPVTG,161.7,T,161.8,M,001.1,N,002.1,K,A*2F
$GPGSV,2,1,07,02,35,062,42,12,45,092,36,14,18,241,37,25,78,050,43*72
$GPGSV,2,2,07,29,67,234,40,30,46,298,41,31,37,308,44,,,,*4F
$GPGSA,M,3,02,14,25,29,30,31,,,,,,,2.5,1.6,2.0*36
Trace #17 at position 4.000000
$GPZDA,092622.03,09,10,2011,00,00*62
$GPRMC,092622.00,A,4611.979396,N,01258.220676,E,001.3,145.8,091011,0.2,E,A*38
$GPGGA,092623.00,4611.979134,N,01258.220885,E,1,06,1.6,141.51,M,46.25,M,,*6C
$GPGLL,4611.979134,N,01258.220885,E,092623.00,A,A*6D
$GPVTG,161.7,T,161.8,M,001.1,N,002.1,K,A*2F
$GPGSV,2,1,07,02,35,062,42,12,45,092,36,14,18,241,37,25,78,050,43*72
$GPGSV,2,2,07,29,67,234,40,30,46,298,41,31,37,308,44,,,,*4F
$GPGSA,M,3,02,14,25,29,30,31,,,,,,,2.5,1.6,2.0*36
Trace #18 at position 4.250000
$GPZDA,092623.04,09,10,2011,00,00*64
$GPRMC,092623.00,A,4611.979134,N,01258.220885,E,001.1,161.7,091011,0.2,E,A*3A
$GPGGA,092624.00,4611.978658,N,01258.221054,E,1,05,3.2,141.18,M,46.25,M,,*6A
$GPGLL,4611.978658,N,01258.221054,E,092624.00,A,A*63
$GPVTG,160.4,T,160.6,M,001.8,N,003.3,K,A*28
$GPGSV,2,1,07,02,35,062,44,12,45,092,36,14,18,241,36,25,78,050,43*75
$GPGSV,2,2,07,29,67,234,41,30,46,298,41,31,37,308,44,,,,*4E
$GPGSA,M,3,02,25,29,30,31,,,,,,,,5.7,3.2,4.8*3E
Trace #19 at position 4.500000
$GPZDA,092623.04,09,10,2011,00,00*64
$GPRMC,092623.00,A,4611.979134,N,01258.220885,E,001.1,161.7,091011,0.2,E,A*3A
$GPGGA,092624.00,4611.978658,N,01258.221054,E,1,05,3.2,141.18,M,46.25,M,,*6A
$GPGLL,4611.978658,N,01258.221054,E,092624.00,A,A*63
$GPVTG,160.4,T,160.6,M,001.8,N,003.3,K,A*28
$GPGSV,2,1,07,02,35,062,44,12,45,092,36,14,18,241,36,25,78,050,43*75
$GPGSV,2,2,07,29,67,234,41,30,46,298,41,31,37,308,44,,,,*4E
$GPGSA,M,3,02,25,29,30,31,,,,,,,,5.7,3.2,4.8*3E
Trace #20 at position 4.750000
$GPZDA,092623.04,09,10,2011,00,00*64
$GPRMC,092623.00,A,4611.979134,N,01258.220885,E,001.1,161.7,091011,0.2,E,A*3A
$GPGGA,092624.00,4611.978658,N,01258.221054,E,1,05,3.2,141.18,M,46.25,M,,*6A
$GPGLL,4611.978658,N,01258.221054,E,092624.00,A,A*63
$GPVTG,160.4,T,160.6,M,001.8,N,003.3,K,A*28
$GPGSV,2,1,07,02,35,062,44,12,45,092,36,14,18,241,36,25,78,050,43*75
$GPGSV,2,2,07,29,67,234,41,30,46,298,41,31,37,308,44,,,,*4E
$GPGSA,M,3,02,25,29,30,31,,,,,,,,5.7,3.2,4.8*3E
Trace #21 at position 5.000000
$GPZDA,092624.03,09,10,2011,00,00*64
$GPRMC,092624.00,A,4611.978658,N,01258.221054,E,001.8,160.4,091011,0.2,E,A*3F
$GPGGA,092625.00,4611.978143,N,01258.221355,E,1,05,3.2,140.82,M,46.25,M,,*66
$GPGLL,4611.978143,N,01258.221355,E,092625.00,A,A*6D
$GPVTG,143.6,T,143.8,M,001.9,N,003.5,K,A*23
$GPGSV,2,1,07,02,35,062,45,12,45,092,38,14,18,241,35,25,78,050,43*79
$GPGSV,2,2,07,29,67,234,42,30,46,298,42,31,37,308,43,,,,*49
$GPGSA,M,3,02,25,29,30,31,,,,,,,,5.7,3.2,4.8*3E
Trace #22 at position 5.250000
$GPZDA,092624.03,09,10,2011,00,00*64
$GPRMC,092624.00,A,4611.978658,N,01258.221054,E,001.8,160.4,091011,0.2,E,A*3F
$GPGGA,092625.00,4611.978143,N,01258.221355,E,1,05,3.2,140.82,M,46.25,M,,*66
$GPGLL,4611.978143,N,01258.221355,E,092625.00,A,A*6D
$GPVTG,143.6,T,143.8,M,001.9,N,003.5,K,A*23
$GPGSV,2,1,07,02,35,062,45,12,45,092,38,14,18,241,35,25,78,050,43*79
$GPGSV,2,2,07,29,67,234,42,30,46,298,42,31,37,308,43,,,,*49
$GPGSA,M,3,02,25,29,30,31,,,,,,,,5.7,3.2,4.8*3E
Trace #23 at position 5.500000
$GPZDA,092624.03,09,10,2011,00,00*64
$GPRMC,092624.00,A,4611.978658,N,01258.221054,E,001.8,160.4,091011,0.2,E,A*3F
$GPGGA,092625.00,4611.978143,N,01258.221355,E,1,05,3.2,140.82,M,46.25,M,,*66
$GPGLL,4611.978143,N,01258.221355,E,092625.00,A,A*6D
$GPVTG,143.6,T,143.8,M,001.9,N,003.5,K,A*23
$GPGSV,2,1,07,02,35,062,45,12,45,092,38,14,18,241,35,25,78,050,43*79
$GPGSV,2,2,07,29,67,234,42,30,46,298,42,31,37,308,43,,,,*49
$GPGSA,M,3,02,25,29,30,31,,,,,,,,5.7,3.2,4.8*3E
Trace #24 at position 5.750000
$GPZDA,092625.03,09,10,2011,00,00*65
$GPRMC,092625.00,A,4611.978143,N,01258.221355,E,001.9,143.6,091011,0.2,E,A*33
$GPGGA,092626.00,4611.977648,N,01258.221638,E,1,05,3.2,140.46,M,46.25,M,,*60
$GPGLL,4611.977648,N,01258.221638,E,092626.00,A,A*63
$GPVTG,160.1,T,160.3,M,001.8,N,003.3,K,A*28
$GPGSV,2,1,07,02,35,062,45,12,45,092,34,14,18,241,38,25,78,050,44*7F
$GPGSV,2,2,07,29,67,234,43,30,46,298,42,31,37,308,44,,,,*4F
$GPGSA,M,3,02,25,29,30,31,,,,,,,,5.7,3.2,4.8*3E
Trace #25 at position 6.000000
$GPZDA,092625.03,09,10,2011,00,00*65
$GPRMC,092625.00,A,4611.978143,N,01258.221355,E,001.9,143.6,091011,0.2,E,A*33
$GPGGA,092626.00,4611.977648,N,01258.221638,E,1,05,3.2,140.46,M,46.25,M,,*60
$GPGLL,4611.977648,N,01258.221638,E,092626.00,A,A*63
$GPVTG,160.1,T,160.3,M,001.8,N,003.3,K,A*28
$GPGSV,2,1,07,02,35,062,45,12,45,092,34,14,18,241,38,25,78,050,44*7F
$GPGSV,2,2,07,29,67,234,43,30,46,298,42,31,37,308,44,,,,*4F
$GPGSA,M,3,02,25,29,30,31,,,,,,,,5.7,3.2,4.8*3E
Trace #26 at position 6.250000
$GPZDA,092626.03,09,10,2011,00,00*66
$GPRMC,092626.00,A,4611.977648,N,01258.221638,E,001.8,160.1,091011,0.2,E,A*3A
$GPGGA,092627.00,4611.977199,N,01258.221754,E,1,05,3.2,140.12,M,46.25,M,,*60
$GPGLL,4611.977199,N,01258.221754,E,092627.00,A,A*62
$GPVTG,168.6,T,168.8,M,001.3,N,002.3,K,A*2E
$GPGSV,2,1,07,02,35,062,45,12,45,092,36,14,18,241,36,25,78,050,44*73
$GPGSV,2,2,07,29,67,234,40,30,46,298,41,31,37,308,44,,,,*4F
$GPGSA,M,3,02,25,29,30,31,,,,,,,,5.7,3.2,4.8*3E
Trace #27 at position 6.500000
$GPZDA,092626.03,09,10,2011,00,00*66
$GPRMC,092626.00,A,4611.977648,N,01258.221638,E,001.8,160.1,091011,0.2,E,A*3A
$GPGGA,092627.00,4611.977199,N,01258.221754,E,1,05,3.2,140.12,M,46.25,M,,*60
$GPGLL,4611.977199,N,01258.221754,E,092627.00,A,A*62
$GPVTG,168.6,T,168.8,M,001.3,N,002.3,K,A*2E
$GPGSV,2,1,07,02,35,062,45,12,45,092,36,14,18,241,36,25,78,050,44*73
$GPGSV,2,2,07,29,67,234,40,30,46,298,41,31,37,308,44,,,,*4F
$GPGSA,M,3,02,25,29,30,31,,,,,,,,5.7,3.2,4.8*3E
Trace #28 at position 6.750000
$GPZDA,092626.03,09,10,2011,00,00*66
$GPRMC,092626.00,A,4611.977648,N,01258.221638,E,001.8,160.1,091011,0.2,E,A*3A
$GPGGA,092627.00,4611.977199,N,01258.221754,E,1,05,3.2,140.12,M,46.25,M,,*60
$GPGLL,4611.977199,N,01258.221754,E,092627.00,A,A*62
$GPVTG,168.6,T,168.8,M,001.3,N,002.3,K,A*2E
$GPGSV,2,1,07,02,35,062,45,12,45,092,36,14,18,241,36,25,78,050,44*73
$GPGSV,2,2,07,29,67,234,40,30,46,298,41,31,37,308,44,,,,*4F
$GPGSA,M,3,02,25,29,30,31,,,,,,,,5.7,3.2,4.8*3E
Trace #29 at position 7.000000
$GPZDA,092627.03,09,10,2011,00,00*67
$GPRMC,092627.00,A,4611.977199,N,01258.221754,E,001.3,168.6,091011,0.2,E,A*3F
$GPGGA,092628.00,4611.976755,N,01258.221858,E,1,05,3.2,139.76,M,46.25,M,,*67
$GPGLL,4611.976755,N,01258.221858,E,092628.00,A,A*69
$GPVTG,162.2,T,162.4,M,001.8,N,003.3,K,A*2C
$GPGSV,2,1,07,02,35,062,45,12,45,092,37,14,18,241,35,25,78,050,44*71
$GPGSV,2,2,07,29,67,234,42,30,46,298,42,31,37,308,43,,,,*49
$GPGSA,M,3,02,25,29,30,31,,,,,,,,5.7,3.2,4.8*3E
Trace #30 at position 7.250000
$GPZDA,092627.03,09,10,2011,00,00*67
$GPRMC,092627.00,A,4611.977199,N,01258.221754,E,001.3,168.6,091011,0.2,E,A*3F
$GPGGA,092628.00,4611.976755,N,01258.221858,E,1,05,3.2,139.76,M,46.25,M,,*67
$GPGLL,4611.976755,N,01258.221858,E,092628.00,A,A*69
$GPVTG,162.2,T,162.4,M,001.8,N,003.3,K,A*2C
$GPGSV,2,1,07,02,35,062,45,12,45,092,37,14,18,241,35,25,78,050,44*71
$GPGSV,2,2,07,29,67,234,42,30,46,298,42,31,37,308,43,,,,*49
$GPGSA,M,3,02,25,29,30,31,,,,,,,,5.7,3.2,4.8*3E
Trace #31 at position 7.500000
$GPZDA,092627.03,09,10,2011,00,00*67
$GPRMC,092627.00,A,4611.977199,N,01258.221754,E,001.3,168.6,091011,0.2,E,A*3F
$GPGGA,092628.00,4611.976755,N,01258.221858,E,1,05,3.2,139.76,M,46.25,M,,*67
$GPGLL,4611.976755,N,01258.221858,E,092628.00,A,A*69
$GPVTG,162.2,T,162.4,M,001.8,N,003.3,K,A*2C
$GPGSV,2,1,07,02,35,062,45,12,45,092,37,14,18,241,35,25,78,050,44*71
$GPGSV,2,2,07,29,67,234,42,30,46,298,42,31,37,308,43,,,,*49
$GPGSA,M,3,02,25,29,30,31,,,,,,,,5.7,3.2,4.8*3E
Trace #32 at position 7.750000
$GPZDA,092628.03,09,10,2011,00,00*68
$GPRMC,092628.00,A,4611.976755,N,01258.221858,E,001.8,162.2,091011,0.2,E,A*31
$GPGGA,092629.00,4611.976323,N,01258.222019,E,1,05,3.2,139.38,M,46.25,M,,*67
$GPGLL,4611.976323,N,01258.222019,E,092629.00,A,A*63
$GPVTG,157.3,T,157.5,M,001.4,N,002.6,K,A*24
$GPGSV,2,1,07,02,35,062,45,12,45,092,35,14,18,241,33,25,78,050,44*75
$GPGSV,2,2,07,29,67,234,41,30,46,298,45,31,37,308,44,,,,*4A
$GPGSA,M,3,02,25,29,30,31,,,,,,,,5.7,3.2,4.8*3E
Trace #33 at position 8.000000
$GPZDA,092628.03,09,10,2011,00,00*68
$GPRMC,092628.00,A,4611.976755,N,01258.221858,E,001.8,162.2,091011,0.2,E,A*31
$GPGGA,092629.00,4611.976323,N,01258.222019,E,1,05,3.2,139.38,M,46.25,M,,*67
$GPGLL,4611.976323,N,01258.222019,E,092629.00,A,A*63
$GPVTG,157.3,T,157.5,M,001.4,N,002.6,K,A*24
$GPGSV,2,1,07,02,35,062,45,12,45,092,35,14,18,241,33,25,78,050,44*75
$GPGSV,2,2,07,29,67,234,41,30,46,298,45,31,37,308,44,,,,*4A
$GPGSA,M,3,02,25,29,30,31,,,,,,,,5.7,3.2,4.8*3E
Trace #34 at position 8.250000
$GPZDA,092629.03,09,10,2011,00,00*69
$GPRMC,092629.00,A,4611.976323,N,01258.222019,E,001.4,157.3,091011,0.2,E,A*30
$GPGGA,092630.00,4611.975954,N,01258.222179,E,1,05,3.2,139.15,M,46.25,M,,*6E
$GPGLL,4611.975954,N,01258.222179,E,092630.00,A,A*65
$GPVTG,158.5,T,158.7,M,001.4,N,002.6,K,A*20
$GPGSV,2,1,07,02,35,062,45,12,45,092,32,14,18,241,36,25,78,050,44*77
$GPGSV,2,2,07,29,67,234,41,30,46,298,45,31,37,308,44,,,,*4A
$GPGSA,M,3,02,25,29,30,31,,,,,,,,5.8,3.2,4.8*31
Trace #35 at position 8.500000
$GPZDA,092629.03,09,10,2011,00,00*69
$GPRMC,092629.00,A,4611.976323,N,01258.222019,E,001.4,157.3,091011,0.2,E,A*30
$GPGGA,092630.00,4611.975954,N,01258.222179,E,1,05,3.2,139.15,M,46.25,M,,*6E
$GPGLL,4611.975954,N,01258.222179,E,092630.00,A,A*65
$GPVTG,158.5,T,158.7,M,001.4,N,002.6,K,A*20
$GPGSV,2,1,07,02,35,062,45,12,45,092,32,14,18,241,36,25,78,050,44*77
$GPGSV,2,2,07,29,67,234,41,30,46,298,45,31,37,308,44,,,,*4A
$GPGSA,M,3,02,25,29,30,31,,,,,,,,5.8,3.2,4.8*31
Trace #36 at position 8.750000
$GPZDA,092629.03,09,10,2011,00,00*69
$GPRMC,092629.00,A,4611.976323,N,01258.222019,E,001.4,157.3,091011,0.2,E,A*30
$GPGGA,092630.00,4611.975954,N,01258.222179,E,1,05,3.2,139.15,M,46.25,M,,*6E
$GPGLL,4611.975954,N,01258.222179,E,092630.00,A,A*65
$GPVTG,158.5,T,158.7,M,001.4,N,002.6,K,A*20
$GPGSV,2,1,07,02,35,062,45,12,45,092,32,14,18,241,36,25,78,050,44*77
$GPGSV,2,2,07,29,67,234,41,30,46,298,45,31,37,308,44,,,,*4A
$GPGSA,M,3,02,25,29,30,31,,,,,,,,5.8,3.2,4.8*31
Trace #37 at position 9.000000
$GPZDA,092630.03,09,10,2011,00,00*61
$GPRMC,092630.00,A,4611.975954,N,01258.222179,E,001.4,158.5,091011,0.2,E,A*3F
$GPGGA,092631.00,4611.975559,N,01258.222304,E,1,05,3.2,139.00,M,46.25,M,,*62
$GPGLL,4611.975559,N,01258.222304,E,092631.00,A,A*6D
$GPVTG,167.3,T,167.5,M,001.6,N,002.9,K,A*29
$GPGSV,2,1,07,02,35,062,44,12,45,092,35,14,18,241,35,25,78,050,43*75
$GPGSV,2,2,07,29,67,234,41,30,46,298,43,31,37,308,43,,,,*4B
$GPGSA,M,3,02,25,29,30,31,,,,,,,,5.8,3.2,4.8*31
Trace #38 at position 9.250000
$GPZDA,092630.03,09,10,2011,00,00*61
$GPRMC,092630.00,A,4611.975954,N,01258.222179,E,001.4,158.5,091011,0.2,E,A*3F
$GPGGA,092631.00,4611.975559,N,01258.222304,E,1,05,3.2,139.00,M,46.25,M,,*62
$GPGLL,4611.975559,N,01258.222304,E,092631.00,A,A*6D
$GPVTG,167.3,T,167.5,M,001.6,N,002.9,K,A*29
$GPGSV,2,1,07,02,35,062,44,12,45,092,35,14,18,241,35,25,78,050,43*75
$GPGSV,2,2,07,29,67,234,41,30,46,298,43,31,37,308,43,,,,*4B
$GPGSA,M,3,02,25,29,30,31,,,,,,,,5.8,3.2,4.8*31
Trace #39 at position 9.500000
$GPZDA,092630.03,09,10,2011,00,00*61
$GPRMC,092630.00,A,4611.975954,N,01258.222179,E,001.4,158.5,091011,0.2,E,A*3F
$GPGGA,092631.00,4611.975559,N,01258.222304,E,1,05,3.2,139.00,M,46.25,M,,*62
$GPGLL,4611.975559,N,01258.222304,E,092631.00,A,A*6D
$GPVTG,167.3,T,167.5,M,001.6,N,002.9,K,A*29
$GPGSV,2,1,07,02,35,062,44,12,45,092,35,14,18,241,35,25,78,050,43*75
$GPGSV,2,2,07,29,67,234,41,30,46,298,43,31,37,308,43,,,,*4B
$GPGSA,M,3,02,25,29,30,31,,,,,,,,5.8,3.2,4.8*31
Trace #40 at position 9.750000
$GPZDA,092631.03,09,10,2011,00,00*60
$GPRMC,092631.00,A,4611.975559,N,01258.222304,E,001.6,167.3,091011,0.2,E,A*3F
$GPGGA,092632.00,4611.975240,N,01258.222382,E,1,05,3.2,138.99,M,46.25,M,,*61
$GPGLL,4611.975240,N,01258.222382,E,092632.00,A,A*6F
$GPVTG,162.2,T,162.3,M,000.8,N,001.5,K,A*2E
$GPGSV,2,1,07,02,35,062,45,12,45,092,33,14,18,241,36,25,78,050,43*71
$GPGSV,2,2,07,29,67,234,40,30,46,298,42,31,37,308,43,,,,*4B
$GPGSA,M,3,02,25,29,30,31,,,,,,,,5.8,3.2,4.8*31
Trace #41 at position 10.000000
$GPZDA,092631.03,09,10,2011,00,00*60
$GPRMC,092631.00,A,4611.975559,N,01258.222304,E,001.6,167.3,091011,0.2,E,A*3F
$GPGGA,092632.00,4611.975240,N,01258.222382,E,1,05,3.2,138.99,M,46.25,M,,*61
$GPGLL,4611.975240,N,01258.222382,E,092632.00,A,A*6F
$GPVTG,162.2,T,162.3,M,000.8,N,001.5,K,A*2E
$GPGSV,2,1,07,02,35,062,45,12,45,092,33,14,18,241,36,25,78,050,43*71
$GPGSV,2,2,07,29,67,234,40,30,46,298,42,31,37,308,43,,,,*4B
$GPGSA,M,3,02,25,29,30,31,,,,,,,,5.8,3.2,4.8*31
Trace #42 at position 10.250000
$GPZDA,092631.03,09,10,2011,00,00*60
$GPRMC,092631.00,A,4611.975559,N,01258.222304,E,001.6,167.3,091011,0.2,E,A*3F
$GPGGA,092632.00,4611.975240,N,01258.222382,E,1,05,3.2,138.99,M,46.25,M,,*61
$GPGLL,4611.975240,N,01258.222382,E,092632.00,A,A*6F
$GPVTG,162.2,T,162.3,M,000.8,N,001.5,K,A*2E
$GPGSV,2,1,07,02,35,062,45,12,45,092,33,14,18,241,36,25,78,050,43*71
$GPGSV,2,2,07,29,67,234,40,30,46,298,42,31,37,308,43,,,,*4B
$GPGSA,M,3,02,25,29,30,31,,,,,,,,5.8,3.2,4.8*31
Trace #43 at position 10.500000
$GPZDA,092632.03,09,10,2011,00,00*63
$GPRMC,092632.00,A,4611.975240,N,01258.222382,E,000.8,162.2,091011,0.2,E,A*36
$GPGGA,092633.00,4611.974879,N,01258.222428,E,1,05,3.2,138.95,M,46.25,M,,*6A
$GPGLL,4611.974879,N,01258.222428,E,092633.00,A,A*68
$GPVTG,175.5,T,175.7,M,001.8,N,003.4,K,A*2F
$GPGSV,2,1,07,02,35,062,45,12,45,092,38,14,18,241,35,25,78,050,45*7F
$GPGSV,2,2,07,29,67,234,40,30,46,298,42,31,37,308,44,,,,*4C
$GPGSA,M,3,02,25,29,30,31,,,,,,,,5.8,3.2,4.8*31
Trace #44 at position 10.750000
$GPZDA,092632.03,09,10,2011,00,00*63
$GPRMC,092632.00,A,4611.975240,N,01258.222382,E,000.8,162.2,091011,0.2,E,A*36
$GPGGA,092633.00,4611.974879,N,01258.222428,E,1,05,3.2,138.95,M,46.25,M,,*6A
$GPGLL,4611.974879,N,01258.222428,E,092633.00,A,A*68
$GPVTG,175.5,T,175.7,M,001.8,N,003.4,K,A*2F
$GPGSV,2,1,07,02,35,062,45,12,45,092,38,14,18,241,35,25,78,050,45*7F
$GPGSV,2,2,07,29,67,234,40,30,46,298,42,31,37,308,44,,,,*4C
$GPGSA,M,3,02,25,29,30,31,,,,,,,,5.8,3.2,4.8*31
Trace #45 at position 11.000000
$GPZDA,092633.03,09,10,2011,00,00*62
$GPRMC,092633.00,A,4611.974879,N,01258.222428,E,001.8,175.5,091011,0.2,E,A*31
$GPGGA,092634.00,4611.974404,N,01258.222511,E,1,06,2.7,138.72,M,46.25,M,,*6E
$GPGLL,4611.974404,N,01258.222511,E,092634.00,A,A*62
$GPVTG,168.3,T,168.5,M,001.4,N,002.7,K,A*25
$GPGSV,2,1,07,02,35,062,45,12,45,092,39,14,18,241,35,25,78,050,45*7E
$GPGSV,2,2,07,29,67,234,42,30,46,298,44,31,37,308,44,,,,*48
$GPGSA,M,3,02,12,25,29,30,31,,,,,,,5.0,2.7,4.2*34
Trace #46 at position 11.250000
$GPZDA,092633.03,09,10,2011,00,00*62
$GPRMC,092633.00,A,4611.974879,N,01258.222428,E,001.8,175.5,091011,0.2,E,A*31
$GPGGA,092634.00,4611.974404,N,01258.222511,E,1,06,2.7,138.72,M,46.25,M,,*6E
$GPGLL,4611.974404,N,01258.222511,E,092634.00,A,A*62
$GPVTG,168.3,T,168.5,M,001.4,N,002.7,K,A*25
$GPGSV,2,1,07,02,35,062,45,12,45,092,39,14,18,241,35,25,78,050,45*7E
$GPGSV,2,2,07,29,67,234,42,30,46,298,44,31,37,308,44,,,,*48
$GPGSA,M,3,02,12,25,29,30,31,,,,,,,5.0,2.7,4.2*34
Trace #47 at position 11.500000
$GPZDA,092634.03,09,10,2011,00,00*65
$GPRMC,092634.00,A,4611.974404,N,01258.222511,E,001.4,168.3,091011,0.2,E,A*3D
$GPGGA,092635.00,4611.974059,N,01258.222570,E,1,06,2.7,138.68,M,46.25,M,,*6F
$GPGLL,4611.974059,N,01258.222570,E,092635.00,A,A*68
$GPVTG,182.1,T,182.2,M,000.9,N,001.7,K,A*2F
$GPGSV,2,1,07,02,35,062,46,12,45,092,36,14,18,241,36,25,78,050,44*70
$GPGSV,2,2,07,29,67,234,44,30,46,298,43,31,37,308,44,,,,*49
$GPGSA,M,3,02,12,25,29,30,31,,,,,,,5.0,2.7,4.2*34
Trace #48 at position 11.750000
$GPZDA,092634.03,09,10,2011,00,00*65
$GPRMC,092634.00,A,4611.974404,N,01258.222511,E,001.4,168.3,091011,0.2,E,A*3D
$GPGGA,092635.00,4611.974059,N,01258.222570,E,1,06,2.7,138.68,M,46.25,M,,*6F
$GPGLL,4611.974059,N,01258.222570,E,092635.00,A,A*68
$GPVTG,182.1,T,182.2,M,000.9,N,001.7,K,A*2F
$GPGSV,2,1,07,02,35,062,46,12,45,092,36,14,18,241,36,25,78,050,44*70
$GPGSV,2,2,07,29,67,234,44,30,46,298,43,31,37,308,44,,,,*49
$GPGSA,M,3,02,12,25,29,30,31,,,,,,,5.0,2.7,4.2*34
Trace #49 at position 12.000000
$GPZDA,092634.03,09,10,2011,00,00*65
$GPRMC,092634.00,A,4611.974404,N,01258.222511,E,001.4,168.3,091011,0.2,E,A*3D
$GPGGA,092635.00,4611.974059,N,01258.222570,E,1,06,2.7,138.68,M,46.25,M,,*6F
$GPGLL,4611.974059,N,01258.222570,E,092635.00,A,A*68
$GPVTG,182.1,T,182.2,M,000.9,N,001.7,K,A*2F
$GPGSV,2,1,07,02,35,062,46,12,45,092,36,14,18,241,36,25,78,050,44*70
$GPGSV,2,2,07,29,67,234,44,30,46,298,43,31,37,308,44,,,,*49
$GPGSA,M,3,02,12,25,29,30,31,,,,,,,5.0,2.7,4.2*34
Trace #50 at position 12.250000
$GPZDA,092635.03,09,10,2011,00,00*64
$GPRMC,092635.00,A,4611.974059,N,01258.222570,E,000.9,182.1,091011,0.2,E,A*3D
$GPGGA,092636.00,4611.973670,N,01258.222661,E,1,06,2.7,138.64,M,46.25,M,,*69
$GPGLL,4611.973670,N,01258.222661,E,092636.00,A,A*62
$GPVTG,167.2,T,167.4,M,001.8,N,003.4,K,A*2B
$GPGSV,2,1,07,02,35,062,45,12,45,092,36,14,18,241,36,25,78,050,44*73
$GPGSV,2,2,07,29,67,234,44,30,46,298,43,31,37,308,43,,,,*4E
$GPGSA,M,3,02,12,25,29,30,31,,,,,,,5.0,2.7,4.2*34
Trace #51 at position 12.500000
$GPZDA,092635.03,09,10,2011,00,00*64
$GPRMC,092635.00,A,4611.974059,N,01258.222570,E,000.9,182.1,091011,0.2,E,A*3D
$GPGGA,092636.00,4611.973670,N,01258.222661,E,1,06,2.7,138.64,M,46.25,M,,*69
$GPGLL,4611.973670,N,01258.222661,E,092636.00,A,A*62
$GPVTG,167.2,T,167.4,M,001.8,N,003.4,K,A*2B
$GPGSV,2,1,07,02,35,062,45,12,45,092,36,14,18,241,36,25,78,050,44*73
$GPGSV,2,2,07,29,67,234,44,30,46,298,43,31,37,308,43,,,,*4E
$GPGSA,M,3,02,12,25,29,30,31,,,,,,,5.0,2.7,4.2*34
Trace #52 at position 12.750000
$GPZDA,092636.03,09,10,2011,00,00*67
$GPRMC,092636.00,A,4611.973670,N,01258.222661,E,001.8,167.2,091011,0.2,E,A*3F
$GPGGA,092637.00,4611.973255,N,01258.222769,E,1,06,2.7,138.50,M,46.25,M,,*65
$GPGLL,4611.973255,N,01258.222769,E,092637.00,A,A*69
$GPVTG,177.6,T,177.8,M,001.2,N,002.3,K,A*2F
$GPGSV,2,1,07,02,35,062,45,12,45,092,38,14,18,241,36,25,78,050,45*7C
$GPGSV,2,2,07,29,67,234,43,30,46,298,44,31,37,308,44,,,,*49
$GPGSA,M,3,02,12,25,29,30,31,,,,,,,5.0,2.7,4.2*34
Trace #53 at position 13.000000
$GPZDA,092636.03,09,10,2011,00,00*67
$GPRMC,092636.00,A,4611.973670,N,01258.222661,E,001.8,167.2,091011,0.2,E,A*3F
$GPGGA,092637.00,4611.973255,N,01258.222769,E,1,06,2.7,138.50,M,46.25,M,,*65
$GPGLL,4611.973255,N,01258.222769,E,092637.00,A,A*69
$GPVTG,177.6,T,177.8,M,001.2,N,002.3,K,A*2F
$GPGSV,2,1,07,02,35,062,45,12,45,092,38,14,18,241,36,25,78,050,45*7C
$GPGSV,2,2,07,29,67,234,43,30,46,298,44,31,37,308,44,,,,*49
$GPGSA,M,3,02,12,25,29,30,31,,,,,,,5.0,2.7,4.2*34
Trace #54 at position 13.250000
$GPZDA,092636.03,09,10,2011,00,00*67
$GPRMC,092636.00,A,4611.973670,N,01258.222661,E,001.8,167.2,091011,0.2,E,A*3F
$GPGGA,092637.00,4611.973255,N,01258.222769,E,1,06,2.7,138.50,M,46.25,M,,*65
$GPGLL,4611.973255,N,01258.222769,E,092637.00,A,A*69
$GPVTG,177.6,T,177.8,M,001.2,N,002.3,K,A*2F
$GPGSV,2,1,07,02,35,062,45,12,45,092,38,14,18,241,36,25,78,050,45*7C
$GPGSV,2,2,07,29,67,234,43,30,46,298,44,31,37,308,44,,,,*49
$GPGSA,M,3,02,12,25,29,30,31,,,,,,,5.0,2.7,4.2*34
Trace #55 at position 13.500000
$GPZDA,092637.03,09,10,2011,00,00*66
$GPRMC,092637.00,A,4611.973255,N,01258.222769,E,001.2,177.6,091011,0.2,E,A*3B
$GPGGA,092638.00,4611.972879,N,01258.222897,E,1,06,2.7,138.32,M,46.25,M,,*65
$GPGLL,4611.972879,N,01258.222897,E,092638.00,A,A*6D
$GPVTG,161.5,T,161.7,M,001.6,N,002.9,K,A*2D
$GPGSV,2,1,07,02,35,062,45,12,45,092,40,14,18,241,35,25,78,050,44*71
$GPGSV,2,2,07,29,67,234,42,30,46,298,41,31,37,308,44,,,,*4D
$GPGSA,M,3,02,12,25,29,30,31,,,,,,,5.0,2.7,4.2*34
Trace #56 at position 13.750000
$GPZDA,092637.03,09,10,2011,00,00*66
$GPRMC,092637.00,A,4611.973255,N,01258.222769,E,001.2,177.6,091011,0.2,E,A*3B
$GPGGA,092638.00,4611.972879,N,01258.222897,E,1,06,2.7,138.32,M,46.25,M,,*65
$GPGLL,4611.972879,N,01258.222897,E,092638.00,A,A*6D
$GPVTG,161.5,T,161.7,M,001.6,N,002.9,K,A*2D
$GPGSV,2,1,07,02,35,062,45,12,45,092,40,14,18,241,35,25,78,050,44*71
$GPGSV,2,2,07,29,67,234,42,30,46,298,41,31,37,308,44,,,,*4D
$GPGSA,M,3,02,12,25,29,30,31,,,,,,,5.0,2.7,4.2*34
Trace #57 at position 14.000000
$GPZDA,092637.03,09,10,2011,00,00*66
$GPRMC,092637.00,A,4611.973255,N,01258.222769,E,001.2,177.6,091011,0.2,E,A*3B
$GPGGA,092638.00,4611.972879,N,01258.222897,E,1,06,2.7,138.32,M,46.25,M,,*65
$GPGLL,4611.972879,N,01258.222897,E,092638.00,A,A*6D
$GPVTG,161.5,T,161.7,M,001.6,N,002.9,K,A*2D
$GPGSV,2,1,07,02,35,062,45,12,45,092,40,14,18,241,35,25,78,050,44*71
$GPGSV,2,2,07,29,67,234,42,30,46,298,41,31,37,308,44,,,,*4D
$GPGSA,M,3,02,12,25,29,30,31,,,,,,,5.0,2.7,4.2*34
Trace #58 at position 14.250000
$GPZDA,092638.04,09,10,2011,00,00*6E
$GPRMC,092638.00,A,4611.972879,N,01258.222897,E,001.6,161.5,091011,0.2,E,A*3F
$GPGGA,092639.00,4611.972633,N,01258.223054,E,1,06,2.7,138.38,M,46.25,M,,*68
$GPGLL,4611.972633,N,01258.223054,E,092639.00,A,A*6A
$GPVTG,136.0,T,136.1,M,000.3,N,000.6,K,A*27
$GPGSV,2,1,07,02,35,062,45,12,45,092,40,14,18,241,35,25,78,050,45*70
$GPGSV,2,2,07,29,67,234,42,30,46,298,42,31,37,308,44,,,,*4E
$GPGSA,M,3,02,12,25,29,30,31,,,,,,,5.0,2.7,4.2*34
Trace #59 at position 14.500000
$GPZDA,092638.04,09,10,2011,00,00*6E
$GPRMC,092638.00,A,4611.972879,N,01258.222897,E,001.6,161.5,091011,0.2,E,A*3F
$GPGGA,092639.00,4611.972633,N,01258.223054,E,1,06,2.7,138.38,M,46.25,M,,*68
$GPGLL,4611.972633,N,01258.223054,E,092639.00,A,A*6A
$GPVTG,136.0,T,136.1,M,000.3,N,000.6,K,A*27
$GPGSV,2,1,07,02,35,062,45,12,45,092,40,14,18,241,35,25,78,050,45*70
$GPGSV,2,2,07,29,67,234,42,30,46,298,42,31,37,308,44,,,,*4E
$GPGSA,M,3,02,12,25,29,30,31,,,,,,,5.0,2.7,4.2*34
Trace #60 at position 14.750000
$GPZDA,092639.03,09,10,2011,00,00*68
$GPRMC,092639.00,A,4611.972633,N,01258.223054,E,000.3,136.0,091011,0.2,E,A*3B
$GPGGA,092640.00,4611.972395,N,01258.223222,E,1,06,2.7,138.58,M,46.25,M,,*6A
$GPGLL,4611.972395,N,01258.223222,E,092640.00,A,A*6E
$GPVTG,155.1,T,155.3,M,001.4,N,002.6,K,A*20
$GPGSV,2,1,07,02,35,062,46,12,45,092,41,14,18,241,35,25,78,050,44*73
$GPGSV,2,2,07,29,67,234,40,30,46,298,42,31,37,308,42,,,,*4A
$GPGSA,M,3,02,12,25,29,30,31,,,,,,,5.0,2.7,4.2*34
Trace #61 at position 15.000000
$GPZDA,092639.03,09,10,2011,00,00*68
$GPRMC,092639.00,A,4611.972633,N,01258.223054,E,000.3,136.0,091011,0.2,E,A*3B
$GPGGA,092640.00,4611.972395,N,01258.223222,E,1,06,2.7,138.58,M,46.25,M,,*6A
$GPGLL,4611.972395,N,01258.223222,E,092640.00,A,A*6E
$GPVTG,155.1,T,155.3,M,001.4,N,002.6,K,A*20
$GPGSV,2,1,07,02,35,062,46,12,45,092,41,14,18,241,35,25,78,050,44*73
$GPGSV,2,2,07,29,67,234,40,30,46,298,42,31,37,308,42,,,,*4A
$GPGSA,M,3,02,12,25,29,30,31,,,,,,,5.0,2.7,4.2*34
Trace #62 at position 15.250000
$GPZDA,092640.03,09,10,2011,00,00*66
$GPRMC,092640.00,A,4611.972395,N,01258.223222,E,001.4,155.1,091011,0.2,E,A*3D
$GPGGA,092641.00,4611.972075,N,01258.223420,E,1,06,2.7,138.64,M,46.25,M,,*6D
$GPGLL,4611.972075,N,01258.223420,E,092641.00,A,A*66
$GPVTG,153.1,T,153.2,M,000.8,N,001.5,K,A*2C
$GPGSV,2,1,07,02,35,062,46,12,45,092,39,14,18,241,33,25,78,050,43*7D
$GPGSV,2,2,07,29,67,234,41,30,46,298,42,31,37,308,43,,,,*4A
$GPGSA,M,3,02,12,25,29,30,31,,,,,,,5.0,2.7,4.2*34
Trace #63 at position 15.500000
$GPZDA,092640.03,09,10,2011,00,00*66
$GPRMC,092640.00,A,4611.972395,N,01258.223222,E,001.4,155.1,091011,0.2,E,A*3D
$GPGGA,092641.00,4611.972075,N,01258.223420,E,1,06,2.7,138.64,M,46.25,M,,*6D
$GPGLL,4611.972075,N,01258.223420,E,092641.00,A,A*66
$GPVTG,153.1,T,153.2,M,000.8,N,001.5,K,A*2C
$GPGSV,2,1,07,02,35,062,46,12,45,092,39,14,18,241,33,25,78,050,43*7D
$GPGSV,2,2,07,29,67,234,41,30,46,298,42,31,37,308,43,,,,*4A
$GPGSA,M,3,02,12,25,29,30,31,,,,,,,5.0,2.7,4.2*34
Trace #64 at position 15.750000
$GPZDA,092640.03,09,10,2011,00,00*66
$GPRMC,092640.00,A,4611.972395,N,01258.223222,E,001.4,155.1,091011,0.2,E,A*3D
$GPGGA,092641.00,4611.972075,N,01258.223420,E,1,06,2.7,138.64,M,46.25,M,,*6D
$GPGLL,4611.972075,N,01258.223420,E,092641.00,A,A*66
$GPVTG,153.1,T,153.2,M,000.8,N,001.5,K,A*2C
$GPGSV,2,1,07,02,35,062,46,12,45,092,39,14,18,241,33,25,78,050,43*7D
$GPGSV,2,2,07,29,67,234,41,30,46,298,42,31,37,308,43,,,,*4A
$GPGSA,M,3,02,12,25,29,30,31,,,,,,,5.0,2.7,4.2*34
Trace #65 at position 16.000000
$GPZDA,092641.03,09,10,2011,00,00*67
$GPRMC,092641.00,A,4611.972075,N,01258.223420,E,000.8,153.1,091011,0.2,E,A*3E
$GPGGA,092642.00,4611.971777,N,01258.223606,E,1,06,2.7,138.70,M,46.25,M,,*6B
$GPGLL,4611.971777,N,01258.223606,E,092642.00,A,A*65
$GPVTG,153.9,T,154.0,M,001.4,N,002.5,K,A*2F
$GPGSV,2,1,07,02,35,062,45,12,45,092,38,14,18,241,34,25,78,050,45*7E
$GPGSV,2,2,07,29,67,234,40,30,46,298,42,31,37,308,44,,,,*4C
$GPGSA,M,3,02,12,25,29,30,31,,,,,,,5.0,2.7,4.2*34
Trace #66 at position 16.250000
$GPZDA,092641.03,09,10,2011,00,00*67
$GPRMC,092641.00,A,4611.972075,N,01258.223420,E,000.8,153.1,091011,0.2,E,A*3E
$GPGGA,092642.00,4611.971777,N,01258.223606,E,1,06,2.7,138.70,M,46.25,M,,*6B
$GPGLL,4611.971777,N,01258.223606,E,092642.00,A,A*65
$GPVTG,153.9,T,154.0,M,001.4,N,002.5,K,A*2F
$GPGSV,2,1,07,02,35,062,45,12,45,092,38,14,18,241,34,25,78,050,45*7E
$GPGSV,2,2,07,29,67,234,40,30,46,298,42,31,37,308,44,,,,*4C
$GPGSA,M,3,02,12,25,29,30,31,,,,,,,5.0,2.7,4.2*34
Trace #67 at position 16.500000
$GPZDA,092641.03,09,10,2011,00,00*67
$GPRMC,092641.00,A,4611.972075,N,01258.223420,E,000.8,153.1,091011,0.2,E,A*3E
$GPGGA,092642.00,4611.971777,N,01258.223606,E,1,06,2.7,138.70,M,46.25,M,,*6B
$GPGLL,4611.971777,N,01258.223606,E,092642.00,A,A*65
$GPVTG,153.9,T,154.0,M,001.4,N,002.5,K,A*2F
$GPGSV,2,1,07,02,35,062,45,12,45,092,38,14,18,241,34,25,78,050,45*7E
$GPGSV,2,2,07,29,67,234,40,30,46,298,42,31,37,308,44,,,,*4C
$GPGSA,M,3,02,12,25,29,30,31,,,,,,,5.0,2.7,4.2*34
Trace #68 at position 16.750000
$GPZDA,092642.03,09,10,2011,00,00*64
$GPRMC,092642.00,A,4611.971777,N,01258.223606,E,001.4,153.9,091011,0.2,E,A*38
$GPGGA,092643.00,4611.971465,N,01258.223856,E,1,06,2.7,138.81,M,46.25,M,,*6F
$GPGLL,4611.971465,N,01258.223856,E,092643.00,A,A*6F
$GPVTG,139.7,T,139.9,M,001.1,N,002.1,K,A*2E
$GPGSV,2,1,07,02,35,062,44,12,45,092,37,14,18,241,36,25,78,050,44*73
$GPGSV,2,2,07,29,67,234,43,30,46,298,43,31,37,308,44,,,,*4E
$GPGSA,M,3,02,12,25,29,30,31,,,,,,,5.0,2.7,4.2*34
Trace #69 at position 17.000000
$GPZDA,092642.03,09,10,2011,00,00*64
$GPRMC,092642.00,A,4611.971777,N,01258.223606,E,001.4,153.9,091011,0.2,E,A*38
$GPGGA,092643.00,4611.971465,N,01258.223856,E,1,06,2.7,138.81,M,46.25,M,,*6F
$GPGLL,4611.971465,N,01258.223856,E,092643.00,A,A*6F
$GPVTG,139.7,T,139.9,M,001.1,N,002.1,K,A*2E
$GPGSV,2,1,07,02,35,062,44,12,45,092,37,14,18,241,36,25,78,050,44*73
$GPGSV,2,2,07,29,67,234,43,30,46,298,43,31,37,308,44,,,,*4E
$GPGSA,M,3,02,12,25,29,30,31,,,,,,,5.0,2.7,4.2*34
Trace #70 at position 17.250000
$GPZDA,092642.03,09,10,2011,00,00*64
$GPRMC,092642.00,A,4611.971777,N,01258.223606,E,001.4,153.9,091011,0.2,E,A*38
$GPGGA,092643.00,4611.971465,N,01258.223856,E,1,06,2.7,138.81,M,46.25,M,,*6F
$GPGLL,4611.971465,N,01258.223856,E,092643.00,A,A*6F
$GPVTG,139.7,T,139.9,M,001.1,N,002.1,K,A*2E
$GPGSV,2,1,07,02,35,062,44,12,45,092,37,14,18,241,36,25,78,050,44*73
$GPGSV,2,2,07,29,67,234,43,30,46,298,43,31,37,308,44,,,,*4E
$GPGSA,M,3,02,12,25,29,30,31,,,,,,,5.0,2.7,4.2*34
Trace #71 at position 17.500000
$GPZDA,092643.04,09,10,2011,00,00*62
$GPRMC,092643.00,A,4611.971465,N,01258.223856,E,001.1,139.7,091011,0.2,E,A*35
$GPGGA,092644.00,4611.971125,N,01258.224014,E,1,06,2.7,138.76,M,46.25,M,,*68
$GPGLL,4611.971125,N,01258.224014,E,092644.00,A,A*60
$GPVTG,173.3,T,173.5,M,001.4,N,002.6,K,A*24
$GPGSV,2,1,07,02,35,062,43,12,45,092,40,14,18,241,37,25,78,050,45*74
$GPGSV,2,2,07,29,67,234,43,30,46,298,43,31,37,308,45,,,,*4F
$GPGSA,M,3,02,12,25,29,30,31,,,,,,,5.0,2.7,4.2*34
Trace #72 at position 17.750000
$GPZDA,092643.04,09,10,2011,00,00*62
$GPRMC,092643.00,A,4611.971465,N,01258.223856,E,001.1,139.7,091011,0.2,E,A*35
$GPGGA,092644.00,4611.971125,N,01258.224014,E,1,06,2.7,138.76,M,46.25,M,,*68
$GPGLL,4611.971125,N,01258.224014,E,092644.00,A,A*60
$GPVTG,173.3,T,173.5,M,001.4,N,002.6,K,A*24
$GPGSV,2,1,07,02,35,062,43,12,45,092,40,14,18,241,37,25,78,050,45*74
$GPGSV,2,2,07,29,67,234,43,30,46,298,43,31,37,308,45,,,,*4F
$GPGSA,M,3,02,12,25,29,30,31,,,,,,,5.0,2.7,4.2*34
Trace #73 at position 18.000000
$GPZDA,092643.04,09,10,2011,00,00*62
$GPRMC,092643.00,A,4611.971465,N,01258.223856,E,001.1,139.7,091011,0.2,E,A*35
$GPGGA,092644.00,4611.971125,N,01258.224014,E,1,06,2.7,138.76,M,46.25,M,,*68
$GPGLL,4611.971125,N,01258.224014,E,092644.00,A,A*60
$GPVTG,173.3,T,173.5,M,001.4,N,002.6,K,A*24
$GPGSV,2,1,07,02,35,062,43,12,45,092,40,14,18,241,37,25,78,050,45*74
$GPGSV,2,2,07,29,67,234,43,30,46,298,43,31,37,308,45,,,,*4F
$GPGSA,M,3,02,12,25,29,30,31,,,,,,,5.0,2.7,4.2*34
Trace #74 at position 18.250000
$GPZDA,092644.04,09,10,2011,00,00*65
$GPRMC,092644.00,A,4611.971125,N,01258.224014,E,001.4,173.3,091011,0.2,E,A*35
$GPGGA,092645.00,4611.970755,N,01258.224147,E,1,06,2.7,138.61,M,46.25,M,,*68
$GPGLL,4611.970755,N,01258.224147,E,092645.00,A,A*66
$GPVTG,153.8,T,153.9,M,001.2,N,002.2,K,A*21
$GPGSV,2,1,07,02,35,062,44,12,45,092,38,14,18,241,36,25,78,050,45*7D
$GPGSV,2,2,07,29,67,234,41,30,46,298,42,31,37,308,44,,,,*4D
$GPGSA,M,3,02,12,25,29,30,31,,,,,,,5.0,2.7,4.2*34
Trace #75 at position 18.500000
$GPZDA,092644.04,09,10,2011,00,00*65
$GPRMC,092644.00,A,4611.971125,N,01258.224014,E,001.4,173.3,091011,0.2,E,A*35
$GPGGA,092645.00,4611.970755,N,01258.224147,E,1,06,2.7,138.61,M,46.25,M,,*68
$GPGLL,4611.970755,N,01258.224147,E,092645.00,A,A*66
$GPVTG,153.8,T,153.9,M,001.2,N,002.2,K,A*21
$GPGSV,2,1,07,02,35,062,44,12,45,092,38,14,18,241,36,25,78,050,45*7D
$GPGSV,2,2,07,29,67,234,41,30,46,298,42,31,37,308,44,,,,*4D
$GPGSA,M,3,02,12,25,29,30,31,,,,,,,5.0,2.7,4.2*34
Trace #76 at position 18.750000
$GPZDA,092644.04,09,10,2011,00,00*65
$GPRMC,092644.00,A,4611.971125,N,01258.224014,E,001.4,173.3,091011,0.2,E,A*35
$GPGGA,092645.00,4611.970755,N,01258.224147,E,1,06,2.7,138.61,M,46.25,M,,*68
$GPGLL,4611.970755,N,01258.224147,E,092645.00,A,A*66
$GPVTG,153.8,T,153.9,M,001.2,N,002.2,K,A*21
$GPGSV,2,1,07,02,35,062,44,12,45,092,38,14,18,241,36,25,78,050,45*7D
$GPGSV,2,2,07,29,67,234,41,30,46,298,42,31,37,308,44,,,,*4D
$GPGSA,M,3,02,12,25,29,30,31,,,,,,,5.0,2.7,4.2*34
Trace #77 at position 19.000000
$GPZDA,092645.03,09,10,2011,00,00*63
$GPRMC,092645.00,A,4611.970755,N,01258.224147,E,001.2,153.8,091011,0.2,E,A*3C
$GPGGA,092646.00,4611.970404,N,01258.224384,E,1,06,2.7,138.52,M,46.25,M,,*61
$GPGLL,4611.970404,N,01258.224384,E,092646.00,A,A*6F
$GPVTG,148.1,T,148.2,M,001.4,N,002.6,K,A*21
$GPGSV,2,1,07,02,35,062,46,12,45,092,39,14,18,241,37,25,78,051,45*7E
$GPGSV,2,2,07,29,67,234,41,30,46,298,43,31,37,308,44,,,,*4C
$GPGSA,M,3,02,12,25,29,30,31,,,,,,,5.0,2.7,4.2*34
Trace #78 at position 19.250000
$GPZDA,092645.03,09,10,2011,00,00*63
$GPRMC,092645.00,A,4611.970755,N,01258.224147,E,001.2,153.8,091011,0.2,E,A*3C
$GPGGA,092646.00,4611.970404,N,01258.224384,E,1,06,2.7,138.52,M,46.25,M,,*61
$GPGLL,4611.970404,N,01258.224384,E,092646.00,A,A*6F
$GPVTG,148.1,T,148.2,M,001.4,N,002.6,K,A*21
$GPGSV,2,1,07,02,35,062,46,12,45,092,39,14,18,241,37,25,78,051,45*7E
$GPGSV,2,2,07,29,67,234,41,30,46,298,43,31,37,308,44,,,,*4C
$GPGSA,M,3,02,12,25,29,30,31,,,,,,,5.0,2.7,4.2*34
Trace #79 at position 19.500000
$GPZDA,092645.03,09,10,2011,00,00*63
$GPRMC,092645.00,A,4611.970755,N,01258.224147,E,001.2,153.8,091011,0.2,E,A*3C
$GPGGA,092646.00,4611.970404,N,01258.224384,E,1,06,2.7,138.52,M,46.25,M,,*61
$GPGLL,4611.970404,N,01258.224384,E,092646.00,A,A*6F
$GPVTG,148.1,T,148.2,M,001.4,N,002.6,K,A*21
$GPGSV,2,1,07,02,35,062,46,12,45,092,39,14,18,241,37,25,78,051,45*7E
$GPGSV,2,2,07,29,67,234,41,30,46,298,43,31,37,308,44,,,,*4C
$GPGSA,M,3,02,12,25,29,30,31,,,,,,,5.0,2.7,4.2*34
Trace #80 at position 19.750000
$GPZDA,092646.03,09,10,2011,00,00*60
$GPRMC,092646.00,A,4611.970404,N,01258.224384,E,001.4,148.1,091011,0.2,E,A*30
$GPGGA,092647.00,4611.970010,N,01258.224735,E,1,06,2.7,138.46,M,46.25,M,,*6A
$GPGLL,4611.970010,N,01258.224735,E,092647.00,A,A*61
$GPVTG,139.1,T,139.2,M,001.9,N,003.5,K,A*2E
$GPGSV,2,1,07,02,35,062,45,12,45,092,39,14,18,241,36,25,78,051,45*7C
$GPGSV,2,2,07,29,67,234,41,30,46,298,42,31,37,308,45,,,,*4C
$GPGSA,M,3,02,12,25,29,30,31,,,,,,,5.0,2.7,4.2*34
Trace #81 at position 20.000000
$GPZDA,092646.03,09,10,2011,00,00*60
$GPRMC,092646.00,A,4611.970404,N,01258.224384,E,001.4,148.1,091011,0.2,E,A*30
$GPGGA,092647.00,4611.970010,N,01258.224735,E,1,06,2.7,138.46,M,46.25,M,,*6A
$GPGLL,4611.970010,N,01258.224735,E,092647.00,A,A*61
$GPVTG,139.1,T,139.2,M,001.9,N,003.5,K,A*2E
$GPGSV,2,1,07,02,35,062,45,12,45,092,39,14,18,241,36,25,78,051,45*7C
$GPGSV,2,2,07,29,67,234,41,30,46,298,42,31,37,308,45,,,,*4C
$GPGSA,M,3,02,12,25,29,30,31,,,,,,,5.0,2.7,4.2*34
Trace #82 at position 20.250000
$GPZDA,092646.03,09,10,2011,00,00*60
$GPRMC,092646.00,A,4611.970404,N,01258.224384,E,001.4,148.1,091011,0.2,E,A*30
$GPGGA,092647.00,4611.970010,N,01258.224735,E,1,06,2.7,138.46,M,46.25,M,,*6A
$GPGLL,4611.970010,N,01258.224735,E,092647.00,A,A*61
$GPVTG,139.1,T,139.2,M,001.9,N,003.5,K,A*2E
$GPGSV,2,1,07,02,35,062,45,12,45,092,39,14,18,241,36,25,78,051,45*7C
$GPGSV,2,2,07,29,67,234,41,30,46,298,42,31,37,308,45,,,,*4C
$GPGSA,M,3,02,12,25,29,30,31,,,,,,,5.0,2.7,4.2*34
Trace #83 at position 20.500000
$GPZDA,092646.03,09,10,2011,00,00*60
$GPRMC,092646.00,A,4611.970404,N,01258.224384,E,001.4,148.1,091011,0.2,E,A*30
$GPGGA,092647.00,4611.970010,N,01258.224735,E,1,06,2.7,138.46,M,46.25,M,,*6A
$GPGLL,4611.970010,N,01258.224735,E,092647.00,A,A*61
$GPVTG,139.1,T,139.2,M,001.9,N,003.5,K,A*2E
$GPGSV,2,1,07,02,35,062,45,12,45,092,39,14,18,241,36,25,78,051,45*7C
$GPGSV,2,2,07,29,67,234,41,30,46,298,42,31,37,308,45,,,,*4C
$GPGSA,M,3,02,12,25,29,30,31,,,,,,,5.0,2.7,4.2*34
Trace #84 at position 20.750000
$GPZDA,092647.03,09,10,2011,00,00*61
$GPRMC,092647.00,A,4611.970010,N,01258.224735,E,001.9,139.1,091011,0.2,E,A*35
$GPGGA,092648.00,4611.969589,N,01258.225004,E,1,05,3.2,138.61,M,46.25,M,,*6E
$GPGLL,4611.969589,N,01258.225004,E,092648.00,A,A*67
$GPVTG,163.7,T,163.8,M,001.7,N,003.1,K,A*28
$GPGSV,2,1,07,02,35,062,45,12,45,092,31,14,18,241,36,25,78,051,46*77
$GPGSV,2,2,07,29,67,234,42,30,46,298,44,31,37,308,46,,,,*4A
$GPGSA,M,3,02,25,29,30,31,,,,,,,,5.8,3.2,4.8*31
Trace #85 at position 21.000000
$GPZDA,092647.03,09,10,2011,00,00*61
$GPRMC,092647.00,A,4611.970010,N,01258.224735,E,001.9,139.1,091011,0.2,E,A*35
$GPGGA,092648.00,4611.969589,N,01258.225004,E,1,05,3.2,138.61,M,46.25,M,,*6E
$GPGLL,4611.969589,N,01258.225004,E,092648.00,A,A*67
$GPVTG,163.7,T,163.8,M,001.7,N,003.1,K,A*28
$GPGSV,2,1,07,02,35,062,45,12,45,092,31,14,18,241,36,25,78,051,46*77
$GPGSV,2,2,07,29,67,234,42,30,46,298,44,31,37,308,46,,,,*4A
$GPGSA,M,3,02,25,29,30,31,,,,,,,,5.8,3.2,4.8*31
Trace #86 at position 21.250000
$GPZDA,092647.03,09,10,2011,00,00*61
$GPRMC,092647.00,A,4611.970010,N,01258.224735,E,001.9,139.1,091011,0.2,E,A*35
$GPGGA,092648.00,4611.969589,N,01258.225004,E,1,05,3.2,138.61,M,46.25,M,,*6E
$GPGLL,4611.969589,N,01258.225004,E,092648.00,A,A*67
$GPVTG,163.7,T,163.8,M,001.7,N,003.1,K,A*28
$GPGSV,2,1,07,02,35,062,45,12,45,092,31,14,18,241,36,25,78,051,46*77
$GPGSV,2,2,07,29,67,234,42,30,46,298,44,31,37,308,46,,,,*4A
$GPGSA,M,3,02,25,29,30,31,,,,,,,,5.8,3.2,4.8*31
Trace #87 at position 21.500000
$GPZDA,092648.04,09,10,2011,00,00*69
$GPRMC,092648.00,A,4611.969589,N,01258.225004,E,001.7,163.7,091011,0.2,E,A*34
$GPGGA,092649.00,4611.969203,N,01258.225202,E,1,05,3.2,138.81,M,46.25,M,,*60
$GPGLL,4611.969203,N,01258.225202,E,092649.00,A,A*67
$GPVTG,143.2,T,143.4,M,001.4,N,002.6,K,A*24
$GPGSV,2,1,07,02,35,062,45,12,45,092,37,14,18,241,36,25,78,051,45*72
$GPGSV,2,2,07,29,67,234,40,30,46,298,42,31,37,308,43,,,,*4B
$GPGSA,M,3,02,25,29,30,31,,,,,,,,5.8,3.2,4.8*31
Trace #88 at position 21.750000
$GPZDA,092648.04,09,10,2011,00,00*69
$GPRMC,092648.00,A,4611.969589,N,01258.225004,E,001.7,163.7,091011,0.2,E,A*34
$GPGGA,092649.00,4611.969203,N,01258.225202,E,1,05,3.2,138.81,M,46.25,M,,*60
$GPGLL,4611.969203,N,01258.225202,E,092649.00,A,A*67
$GPVTG,143.2,T,143.4,M,001.4,N,002.6,K,A*24
$GPGSV,2,1,07,02,35,062,45,12,45,092,37,14,18,241,36,25,78,051,45*72
$GPGSV,2,2,07,29,67,234,40,30,46,298,42,31,37,308,43,,,,*4B
$GPGSA,M,3,02,25,29,30,31,,,,,,,,5.8,3.2,4.8*31
Trace #89 at position 22.000000
$GPZDA,092648.04,09,10,2011,00,00*69
$GPRMC,092648.00,A,4611.969589,N,01258.225004,E,001.7,163.7,091011,0.2,E,A*34
$GPGGA,092649.00,4611.969203,N,01258.225202,E,1,05,3.2,138.81,M,46.25,M,,*60
$GPGLL,4611.969203,N,01258.225202,E,092649.00,A,A*67
$GPVTG,143.2,T,143.4,M,001.4,N,002.6,K,A*24
$GPGSV,2,1,07,02,35,062,45,12,45,092,37,14,18,241,36,25,78,051,45*72
$GPGSV,2,2,07,29,67,234,40,30,46,298,42,31,37,308,43,,,,*4B
$GPGSA,M,3,02,25,29,30,31,,,,,,,,5.8,3.2,4.8*31
Trace #90 at position 22.250000
$GPZDA,092648.04,09,10,2011,00,00*69
$GPRMC,092648.00,A,4611.969589,N,01258.225004,E,001.7,163.7,091011,0.2,E,A*34
$GPGGA,092649.00,4611.969203,N,01258.225202,E,1,05,3.2,138.81,M,46.25,M,,*60
$GPGLL,4611.969203,N,01258.225202,E,092649.00,A,A*67
$GPVTG,143.2,T,143.4,M,001.4,N,002.6,K,A*24
$GPGSV,2,1,07,02,35,062,45,12,45,092,37,14,18,241,36,25,78,051,45*72
$GPGSV,2,2,07,29,67,234,40,30,46,298,42,31,37,308,43,,,,*4B
$GPGSA,M,3,02,25,29,30,31,,,,,,,,5.8,3.2,4.8*31
Trace #91 at position 22.500000
$GPZDA,092649.03,09,10,2011,00,00*6F
$GPRMC,092649.00,A,4611.969203,N,01258.225202,E,001.4,143.2,091011,0.2,E,A*30
$GPGGA,092650.00,4611.968821,N,01258.225366,E,1,05,3.2,138.92,M,46.25,M,,*62
$GPGLL,4611.968821,N,01258.225366,E,092650.00,A,A*67
$GPVTG,169.7,T,169.8,M,001.5,N,002.8,K,A*22
$GPGSV,2,1,07,02,35,062,44,12,45,092,36,14,18,241,37,25,78,051,45*73
$GPGSV,2,2,07,29,67,234,43,30,46,298,42,31,37,308,45,,,,*4E
$GPGSA,M,3,02,25,29,30,31,,,,,,,,5.8,3.2,4.8*31
Trace #92 at position 22.750000
$GPZDA,092649.03,09,10,2011,00,00*6F
$GPRMC,092649.00,A,4611.969203,N,01258.225202,E,001.4,143.2,091011,0.2,E,A*30
$GPGGA,092650.00,4611.968821,N,01258.225366,E,1,05,3.2,138.92,M,46.25,M,,*62
$GPGLL,4611.968821,N,01258.225366,E,092650.00,A,A*67
$GPVTG,169.7,T,169.8,M,001.5,N,002.8,K,A*22
$GPGSV,2,1,07,02,35,062,44,12,45,092,36,14,18,241,37,25,78,051,45*73
$GPGSV,2,2,07,29,67,234,43,30,46,298,42,31,37,308,45,,,,*4E
$GPGSA,M,3,02,25,29,30,31,,,,,,,,5.8,3.2,4.8*31
Trace #93 at position 23.000000
$GPZDA,092649.03,09,10,2011,00,00*6F
$GPRMC,092649.00,A,4611.969203,N,01258.225202,E,001.4,143.2,091011,0.2,E,A*30
$GPGGA,092650.00,4611.968821,N,01258.225366,E,1,05,3.2,138.92,M,46.25,M,,*62
$GPGLL,4611.968821,N,01258.225366,E,092650.00,A,A*67
$GPVTG,169.7,T,169.8,M,001.5,N,002.8,K,A*22
$GPGSV,2,1,07,02,35,062,44,12,45,092,36,14,18,241,37,25,78,051,45*73
$GPGSV,2,2,07,29,67,234,43,30,46,298,42,31,37,308,45,,,,*4E
$GPGSA,M,3,02,25,29,30,31,,,,,,,,5.8,3.2,4.8*31
Trace #94 at position 23.250000
$GPZDA,092650.03,09,10,2011,00,00*67
$GPRMC,092650.00,A,4611.968821,N,01258.225366,E,001.5,169.7,091011,0.2,E,A*3C
$GPGGA,092651.00,4611.968365,N,01258.225572,E,1,06,2.7,138.79,M,46.25,M,,*69
$GPGLL,4611.968365,N,01258.225572,E,092651.00,A,A*6E
$GPVTG,145.4,T,145.6,M,001.8,N,003.3,K,A*28
$GPGSV,2,1,07,02,35,062,45,12,45,092,39,14,18,241,37,25,78,051,44*7C
$GPGSV,2,2,07,29,67,234,42,30,46,298,43,31,37,308,43,,,,*48
$GPGSA,M,3,02,12,25,29,30,31,,,,,,,5.0,2.7,4.2*34
Trace #95 at position 23.500000
$GPZDA,092650.03,09,10,2011,00,00*67
$GPRMC,092650.00,A,4611.968821,N,01258.225366,E,001.5,169.7,091011,0.2,E,A*3C
$GPGGA,092651.00,4611.968365,N,01258.225572,E,1,06,2.7,138.79,M,46.25,M,,*69
$GPGLL,4611.968365,N,01258.225572,E,092651.00,A,A*6E
$GPVTG,145.4,T,145.6,M,001.8,N,003.3,K,A*28
$GPGSV,2,1,07,02,35,062,45,12,45,092,39,14,18,241,37,25,78,051,44*7C
$GPGSV,2,2,07,29,67,234,42,30,46,298,43,31,37,308,43,,,,*48
$GPGSA,M,3,02,12,25,29,30,31,,,,,,,5.0,2.7,4.2*34
Trace #96 at position 23.750000
$GPZDA,092650.03,09,10,2011,00,00*67
$GPRMC,092650.00,A,4611.968821,N,01258.225366,E,001.5,169.7,091011,0.2,E,A*3C
$GPGGA,092651.00,4611.968365,N,01258.225572,E,1,06,2.7,138.79,M,46.25,M,,*69
$GPGLL,4611.968365,N,01258.225572,E,092651.00,A,A*6E
$GPVTG,145.4,T,145.6,M,001.8,N,003.3,K,A*28
$GPGSV,2,1,07,02,35,062,45,12,45,092,39,14,18,241,37,25,78,051,44*7C
$GPGSV,2,2,07,29,67,234,42,30,46,298,43,31,37,308,43,,,,*48
$GPGSA,M,3,02,12,25,29,30,31,,,,,,,5.0,2.7,4.2*34
Trace #97 at position 24.000000
$GPZDA,092650.03,09,10,2011,00,00*67
$GPRMC,092650.00,A,4611.968821,N,01258.225366,E,001.5,169.7,091011,0.2,E,A*3C
$GPGGA,092651.00,4611.968365,N,01258.225572,E,1,06,2.7,138.79,M,46.25,M,,*69
$GPGLL,4611.968365,N,01258.225572,E,092651.00,A,A*6E
$GPVTG,145.4,T,145.6,M,001.8,N,003.3,K,A*28
$GPGSV,2,1,07,02,35,062,45,12,45,092,39,14,18,241,37,25,78,051,44*7C
$GPGSV,2,2,07,29,67,234,42,30,46,298,43,31,37,308,43,,,,*48
$GPGSA,M,3,02,12,25,29,30,31,,,,,,,5.0,2.7,4.2*34
Trace #98 at position 24.250000
$GPZDA,092651.03,09,10,2011,00,00*66
$GPRMC,092651.00,A,4611.968365,N,01258.225572,E,001.8,145.4,091011,0.2,E,A*35
$GPGGA,092652.00,4611.967893,N,01258.225815,E,1,06,2.7,138.70,M,46.25,M,,*62
$GPGLL,4611.967893,N,01258.225815,E,092652.00,A,A*6C
$GPVTG,162.8,T,163.0,M,001.7,N,003.1,K,A*2E
$GPGSV,2,1,07,02,35,062,45,12,45,092,39,14,18,241,38,25,78,051,45*72
$GPGSV,2,2,07,29,67,234,43,30,46,298,43,31,37,308,45,,,,*4F
$GPGSA,M,3,02,12,25,29,30,31,,,,,,,5.0,2.7,4.2*34
Trace #99 at position 24.500000
$GPZDA,092651.03,09,10,2011,00,00*66
$GPRMC,092651.00,A,4611.968365,N,01258.225572,E,001.8,145.4,091011,0.2,E,A*35
$GPGGA,092652.00,4611.967893,N,01258.225815,E,1,06,2.7,138.70,M,46.25,M,,*62
$GPGLL,4611.967893,N,01258.225815,E,092652.00,A,A*6C
$GPVTG,162.8,T,163.0,M,001.7,N,003.1,K,A*2E
$GPGSV,2,1,07,02,35,062,45,12,45,092,39,14,18,241,38,25,78,051,45*72
$GPGSV,2,2,07,29,67,234,43,30,46,298,43,31,37,308,45,,,,*4F
$GPGSA,M,3,02,12,25,29,30,31,,,,,,,5.0,2.7,4.2*34
Trace #100 at position 24.750000
$GPZDA,092651.03,09,10,2011,00,00*66
$GPRMC,092651.00,A,4611.968365,N,01258.225572,E,001.8,145.4,091011,0.2,E,A*35
$GPGGA,092652.00,4611.967893,N,01258.225815,E,1,06,2.7,138.70,M,46.25,M,,*62
$GPGLL,4611.967893,N,01258.225815,E,092652.00,A,A*6C
$GPVTG,162.8,T,163.0,M,001.7,N,003.1,K,A*2E
$GPGSV,2,1,07,02,35,062,45,12,45,092,39,14,18,241,38,25,78,051,45*72
$GPGSV,2,2,07,29,67,234,43,30,46,298,43,31,37,308,45,,,,*4F
$GPGSA,M,3,02,12,25,29,30,31,,,,,,,5.0,2.7,4.2*34
Trace #101 at position 25.000000
$GPZDA,092652.03,09,10,2011,00,00*65
$GPRMC,092652.00,A,4611.967893,N,01258.225815,E,001.7,162.8,091011,0.2,E,A*31
$GPGGA,092653.00,4611.967335,N,01258.225908,E,1,06,2.7,138.51,M,46.25,M,,*6A
$GPGLL,4611.967335,N,01258.225908,E,092653.00,A,A*67
$GPVTG,175.5,T,175.7,M,002.1,N,004.0,K,A*26
$GPGSV,2,1,07,02,35,062,44,12,45,092,38,14,18,241,36,25,78,051,44*7D
$GPGSV,2,2,07,29,67,234,41,30,46,298,43,31,37,308,44,,,,*4C
$GPGSA,M,3,02,12,25,29,30,31,,,,,,,5.0,2.7,4.2*34
Trace #102 at position 25.250000
$GPZDA,092652.03,09,10,2011,00,00*65
$GPRMC,092652.00,A,4611.967893,N,01258.225815,E,001.7,162.8,091011,0.2,E,A*31
$GPGGA,092653.00,4611.967335,N,01258.225908,E,1,06,2.7,138.51,M,46.25,M,,*6A
$GPGLL,4611.967335,N,01258.225908,E,092653.00,A,A*67
$GPVTG,175.5,T,175.7,M,002.1,N,004.0,K,A*26
$GPGSV,2,1,07,02,35,062,44,12,45,092,38,14,18,241,36,25,78,051,44*7D
$GPGSV,2,2,07,29,67,234,41,30,46,298,43,31,37,308,44,,,,*4C
$GPGSA,M,3,02,12,25,29,30,31,,,,,,,5.0,2.7,4.2*34
Trace #103 at position 25.500000
$GPZDA,092652.03,09,10,2011,00,00*65
$GPRMC,092652.00,A,4611.967893,N,01258.225815,E,001.7,162.8,091011,0.2,E,A*31
$GPGGA,092653.00,4611.967335,N,01258.225908,E,1,06,2.7,138.51,M,46.25,M,,*6A
$GPGLL,4611.967335,N,01258.225908,E,092653.00,A,A*67
$GPVTG,175.5,T,175.7,M,002.1,N,004.0,K,A*26
$GPGSV,2,1,07,02,35,062,44,12,45,092,38,14,18,241,36,25,78,051,44*7D
$GPGSV,2,2,07,29,67,234,41,30,46,298,43,31,37,308,44,,,,*4C
$GPGSA,M,3,02,12,25,29,30,31,,,,,,,5.0,2.7,4.2*34
Trace #104 at position 25.750000
$GPZDA,092652.03,09,10,2011,00,00*65
$GPRMC,092652.00,A,4611.967893,N,01258.225815,E,001.7,162.8,091011,0.2,E,A*31
$GPGGA,092653.00,4611.967335,N,01258.225908,E,1,06,2.7,138.51,M,46.25,M,,*6A
$GPGLL,4611.967335,N,01258.225908,E,092653.00,A,A*67
$GPVTG,175.5,T,175.7,M,002.1,N,004.0,K,A*26
$GPGSV,2,1,07,02,35,062,44,12,45,092,38,14,18,241,36,25,78,051,44*7D
$GPGSV,2,2,07,29,67,234,41,30,46,298,43,31,37,308,44,,,,*4C
$GPGSA,M,3,02,12,25,29,30,31,,,,,,,5.0,2.7,4.2*34
Trace #105 at position 26.000000
$GPZDA,092652.03,09,10,2011,00,00*65
$GPRMC,092652.00,A,4611.967893,N,01258.225815,E,001.7,162.8,091011,0.2,E,A*31
$GPGGA,092653.00,4611.967335,N,01258.225908,E,1,06,2.7,138.51,M,46.25,M,,*6A
$GPGLL,4611.967335,N,01258.225908,E,092653.00,A,A*67
$GPVTG,175.5,T,175.7,M,002.1,N,004.0,K,A*26
$GPGSV,2,1,07,02,35,062,44,12,45,092,38,14,18,241,36,25,78,051,44*7D
$GPGSV,2,2,07,29,67,234,41,30,46,298,43,31,37,308,44,,,,*4C
$GPGSA,M,3,02,12,25,29,30,31,,,,,,,5.0,2.7,4.2*34
Trace #106 at position 26.250000
$GPZDA,092653.04,09,10,2011,00,00*63
$GPRMC,092653.00,A,4611.967335,N,01258.225908,E,002.1,175.5,091011,0.2,E,A*34
$GPGGA,092654.00,4611.966726,N,01258.226149,E,1,06,2.7,138.20,M,46.25,M,,*62
$GPGLL,4611.966726,N,01258.226149,E,092654.00,A,A*69
$GPVTG,149.7,T,149.9,M,002.5,N,004.7,K,A*29
$GPGSV,2,1,07,02,35,062,44,12,45,092,39,14,18,241,37,25,78,051,44*7D
$GPGSV,2,2,07,29,67,234,40,30,46,298,43,31,37,308,44,,,,*4D
$GPGSA,M,3,02,12,25,29,30,31,,,,,,,5.0,2.7,4.2*34
Trace #107 at position 26.500000
$GPZDA,092653.04,09,10,2011,00,00*63
$GPRMC,092653.00,A,4611.967335,N,01258.225908,E,002.1,175.5,091011,0.2,E,A*34
$GPGGA,092654.00,4611.966726,N,01258.226149,E,1,06,2.7,138.20,M,46.25,M,,*62
$GPGLL,4611.966726,N,01258.226149,E,092654.00,A,A*69
$GPVTG,149.7,T,149.9,M,002.5,N,004.7,K,A*29
$GPGSV,2,1,07,02,35,062,44,12,45,092,39,14,18,241,37,25,78,051,44*7D
$GPGSV,2,2,07,29,67,234,40,30,46,298,43,31,37,308,44,,,,*4D
$GPGSA,M,3,02,12,25,29,30,31,,,,,,,5.0,2.7,4.2*34
Trace #108 at position 26.750000
$GPZDA,092653.04,09,10,2011,00,00*63
$GPRMC,092653.00,A,4611.967335,N,01258.225908,E,002.1,175.5,091011,0.2,E,A*34
$GPGGA,092654.00,4611.966726,N,01258.226149,E,1,06,2.7,138.20,M,46.25,M,,*62
$GPGLL,4611.966726,N,01258.226149,E,092654.00,A,A*69
$GPVTG,149.7,T,149.9,M,002.5,N,004.7,K,A*29
$GPGSV,2,1,07,02,35,062,44,12,45,092,39,14,18,241,37,25,78,051,44*7D
$GPGSV,2,2,07,29,67,234,40,30,46,298,43,31,37,308,44,,,,*4D
$GPGSA,M,3,02,12,25,29,30,31,,,,,,,5.0,2.7,4.2*34
Trace #109 at position 27.000000
$GPZDA,092654.03,09,10,2011,00,00*63
$GPRMC,092654.00,A,4611.966726,N,01258.226149,E,002.5,149.7,091011,0.2,E,A*33
$GPGGA,092655.00,4611.966174,N,01258.226392,E,1,06,2.7,138.02,M,46.25,M,,*66
$GPGLL,4611.966174,N,01258.226392,E,092655.00,A,A*6D
$GPVTG,174.1,T,174.2,M,001.9,N,003.5,K,A*2E
$GPGSV,2,1,07,02,35,062,44,12,45,092,39,14,18,241,36,25,78,051,44*7C
$GPGSV,2,2,07,29,67,234,41,30,46,298,42,31,37,308,44,,,,*4D
$GPGSA,M,3,02,12,25,29,30,31,,,,,,,5.0,2.7,4.2*34
Trace #110 at position 27.250000
$GPZDA,092654.03,09,10,2011,00,00*63
$GPRMC,092654.00,A,4611.966726,N,01258.226149,E,002.5,149.7,091011,0.2,E,A*33
$GPGGA,092655.00,4611.966174,N,01258.226392,E,1,06,2.7,138.02,M,46.25,M,,*66
$GPGLL,4611.966174,N,01258.226392,E,092655.00,A,A*6D
$GPVTG,174.1,T,174.2,M,001.9,N,003.5,K,A*2E
$GPGSV,2,1,07,02,35,062,44,12,45,092,39,14,18,241,36,25,78,051,44*7C
$GPGSV,2,2,07,29,67,234,41,30,46,298,42,31,37,308,44,,,,*4D
$GPGSA,M,3,02,12,25,29,30,31,,,,,,,5.0,2.7,4.2*34
Trace #111 at position 27.500000
$GPZDA,092654.03,09,10,2011,00,00*63
$GPRMC,092654.00,A,4611.966726,N,01258.226149,E,002.5,149.7,091011,0.2,E,A*33
$GPGGA,092655.00,4611.966174,N,01258.226392,E,1,06,2.7,138.02,M,46.25,M,,*66
$GPGLL,4611.966174,N,01258.226392,E,092655.00,A,A*6D
$GPVTG,174.1,T,174.2,M,001.9,N,003.5,K,A*2E
$GPGSV,2,1,07,02,35,062,44,12,45,092,39,14,18,241,36,25,78,051,44*7C
$GPGSV,2,2,07,29,67,234,41,30,46,298,42,31,37,308,44,,,,*4D
$GPGSA,M,3,02,12,25,29,30,31,,,,,,,5.0,2.7,4.2*34
Trace #112 at position 27.750000
$GPZDA,092654.03,09,10,2011,00,00*63
$GPRMC,092654.00,A,4611.966726,N,01258.226149,E,002.5,149.7,091011,0.2,E,A*33
$GPGGA,092655.00,4611.966174,N,01258.226392,E,1,06,2.7,138.02,M,46.25,M,,*66
$GPGLL,4611.966174,N,01258.226392,E,092655.00,A,A*6D
$GPVTG,174.1,T,174.2,M,001.9,N,003.5,K,A*2E
$GPGSV,2,1,07,02,35,062,44,12,45,092,39,14,18,241,36,25,78,051,44*7C
$GPGSV,2,2,07,29,67,234,41,30,46,298,42,31,37,308,44,,,,*4D
$GPGSA,M,3,02,12,25,29,30,31,,,,,,,5.0,2.7,4.2*34
Trace #113 at position 28.000000
$GPZDA,092655.03,09,10,2011,00,00*62
$GPRMC,092655.00,A,4611.966174,N,01258.226392,E,001.9,174.1,091011,0.2,E,A*30
$GPGGA,092656.00,4611.965721,N,01258.226523,E,1,06,2.7,138.05,M,46.25,M,,*6B
$GPGLL,4611.965721,N,01258.226523,E,092656.00,A,A*67
$GPVTG,156.3,T,156.5,M,001.6,N,002.9,K,A*29
$GPGSV,2,1,07,02,35,062,44,12,45,092,38,14,18,241,38,25,78,051,44*73
$GPGSV,2,2,07,29,67,234,42,30,46,298,42,31,37,308,45,,,,*4F
$GPGSA,M,3,02,12,25,29,30,31,,,,,,,5.0,2.7,4.2*34
Trace #114 at position 28.250000
$GPZDA,092655.03,09,10,2011,00,00*62
$GPRMC,092655.00,A,4611.966174,N,01258.226392,E,001.9,174.1,091011,0.2,E,A*30
$GPGGA,092656.00,4611.965721,N,01258.226523,E,1,06,2.7,138.05,M,46.25,M,,*6B
$GPGLL,4611.965721,N,01258.226523,E,092656.00,A,A*67
$GPVTG,156.3,T,156.5,M,001.6,N,002.9,K,A*29
$GPGSV,2,1,07,02,35,062,44,12,45,092,38,14,18,241,38,25,78,051,44*73
$GPGSV,2,2,07,29,67,234,42,30,46,298,42,31,37,308,45,,,,*4F
$GPGSA,M,3,02,12,25,29,30,31,,,,,,,5.0,2.7,4.2*34
Trace #115 at position 28.500000
$GPZDA,092655.03,09,10,2011,00,00*62
$GPRMC,092655.00,A,4611.966174,N,01258.226392,E,001.9,174.1,091011,0.2,E,A*30
$GPGGA,092656.00,4611.965721,N,01258.226523,E,1,06,2.7,138.05,M,46.25,M,,*6B
$GPGLL,4611.965721,N,01258.226523,E,092656.00,A,A*67
$GPVTG,156.3,T,156.5,M,001.6,N,002.9,K,A*29
$GPGSV,2,1,07,02,35,062,44,12,45,092,38,14,18,241,38,25,78,051,44*73
$GPGSV,2,2,07,29,67,234,42,30,46,298,42,31,37,308,45,,,,*4F
$GPGSA,M,3,02,12,25,29,30,31,,,,,,,5.0,2.7,4.2*34
Trace #116 at position 28.750000
$GPZDA,092656.03,09,10,2011,00,00*61
$GPRMC,092656.00,A,4611.965721,N,01258.226523,E,001.6,156.3,091011,0.2,E,A*37
$GPGGA,092657.00,4611.965327,N,01258.226625,E,1,06,2.7,138.07,M,46.25,M,,*6F
$GPGLL,4611.965327,N,01258.226625,E,092657.00,A,A*61
$GPVTG,180.0,T,180.1,M,001.4,N,002.5,K,A*20
$GPGSV,2,1,07,02,35,062,45,12,45,092,38,14,18,241,38,25,78,051,44*72
$GPGSV,2,2,07,29,67,234,43,30,46,298,43,31,37,308,44,,,,*4E
$GPGSA,M,3,02,12,25,29,30,31,,,,,,,5.0,2.7,4.2*34
Trace #117 at position 29.000000
$GPZDA,092656.03,09,10,2011,00,00*61
