Trace #1 at position 0.000000
$GPZDA,084821.03,09,10,2011,00,00*68
$GPRMC,084821.00,A,4611.953903,N,01258.228930,E,000.1,113.0,091011,0.2,E,A*31
$GPGGA,084822.00,4611.953893,N,01258.228966,E,1,05,5.3,141.50,M,46.25,M,,*6F
$GPGLL,4611.953893,N,01258.228966,E,084822.00,A,A*6D
$GPVTG,307.8,T,308.0,M,000.0,N,000.0,K,A*24
$GPGSV,2,1,08,02,38,082,44,09,22,151,39,12,59,073,45,14,30,256,38*71
$GPGSV,2,2,08,25,74,326,41,29,49,221,46,30,31,289,,31,22,313,*73
$GPGSA,M,3,02,09,12,25,29,,,,,,,,11.1,5.3,9.8*0C
Trace #2 at position 0.250000
$GPZDA,084823.04,09,10,2011,00,00*6D
$GPRMC,084823.00,A,4611.953900,N,01258.228976,E,000.1,331.1,091011,0.2,E,A*31
$GPGGA,084824.00,4611.953896,N,01258.229000,E,1,05,5.3,141.54,M,46.25,M,,*60
$GPGLL,4611.953896,N,01258.229000,E,084824.00,A,A*66
$GPVTG,140.5,T,140.7,M,000.1,N,000.2,K,A*22
$GPGSV,2,1,08,02,38,082,44,09,22,151,41,12,59,073,47,14,30,256,33*77
$GPGSV,2,2,08,25,74,326,43,29,49,221,44,30,31,289,,31,22,313,*73
$GPGSA,M,3,02,09,12,25,29,,,,,,,,11.1,5.3,9.8*0C
Trace #3 at position 0.500000
$GPZDA,084823.04,09,10,2011,00,00*6D
$GPRMC,084823.00,A,4611.953900,N,01258.228976,E,000.1,331.1,091011,0.2,E,A*31
$GPGGA,084824.00,4611.953896,N,01258.229000,E,1,05,5.3,141.54,M,46.25,M,,*60
$GPGLL,4611.953896,N,01258.229000,E,084824.00,A,A*66
$GPVTG,140.5,T,140.7,M,000.1,N,000.2,K,A*22
$GPGSV,2,1,08,02,38,082,44,09,22,151,41,12,59,073,47,14,30,256,33*77
$GPGSV,2,2,08,25,74,326,43,29,49,221,44,30,31,289,,31,22,313,*73
$GPGSA,M,3,02,09,12,25,29,,,,,,,,11.1,5.3,9.8*0C
Trace #4 at position 0.750000
$GPZDA,084824.03,09,10,2011,00,00*6D
$GPRMC,084824.00,A,4611.953896,N,01258.229000,E,000.1,140.5,091011,0.2,E,A*31
$GPGGA,084825.00,4611.953883,N,01258.229035,E,1,05,5.3,141.58,M,46.25,M,,*6F
$GPGLL,4611.953883,N,01258.229035,E,084825.00,A,A*65
$GPVTG,97.5,T,97.6,M,000.0,N,000.1,K,A*21
$GPGSV,2,1,08,02,38,082,44,09,22,151,40,12,59,073,47,14,30,256,32*77
$GPGSV,2,2,08,25,74,326,44,29,49,221,44,30,31,289,,31,22,313,*74
$GPGSA,M,3,02,09,12,25,29,,,,,,,,11.1,5.3,9.8*0C
Trace #5 at position 1.000000
$GPZDA,084824.03,09,10,2011,00,00*6D
$GPRMC,084824.00,A,4611.953896,N,01258.229000,E,000.1,140.5,091011,0.2,E,A*31
$GPGGA,084825.00,4611.953883,N,01258.229035,E,1,05,5.3,141.58,M,46.25,M,,*6F
$GPGLL,4611.953883,N,01258.229035,E,084825.00,A,A*65
$GPVTG,97.5,T,97.6,M,000.0,N,000.1,K,A*21
$GPGSV,2,1,08,02,38,082,44,09,22,151,40,12,59,073,47,14,30,256,32*77
$GPGSV,2,2,08,25,74,326,44,29,49,221,44,30,31,289,,31,22,313,*74
$GPGSA,M,3,02,09,12,25,29,,,,,,,,11.1,5.3,9.8*0C
Trace #6 at position 1.250000
$GPZDA,084825.03,09,10,2011,00,00*6C
$GPRMC,084825.00,A,4611.953883,N,01258.229035,E,000.0,97.5,091011,0.2,E,A*08
$GPGGA,084826.00,4611.953870,N,01258.229085,E,1,05,5.3,141.69,M,46.25,M,,*69
$GPGLL,4611.953870,N,01258.229085,E,084826.00,A,A*61
$GPVTG,120.2,T,120.3,M,000.2,N,000.4,K,A*24
$GPGSV,2,1,08,02,38,082,43,09,22,151,41,12,59,073,45,14,30,256,38*79
$GPGSV,2,2,08,25,74,326,45,29,49,221,47,30,31,289,,31,23,313,*77
$GPGSA,M,3,02,09,12,25,29,,,,,,,,11.1,5.3,9.8*0C
Trace #7 at position 1.500000
$GPZDA,084825.03,09,10,2011,00,00*6C
$GPRMC,084825.00,A,4611.953883,N,01258.229035,E,000.0,97.5,091011,0.2,E,A*08
$GPGGA,084826.00,4611.953870,N,01258.229085,E,1,05,5.3,141.69,M,46.25,M,,*69
$GPGLL,4611.953870,N,01258.229085,E,084826.00,A,A*61
$GPVTG,120.2,T,120.3,M,000.2,N,000.4,K,A*24
$GPGSV,2,1,08,02,38,082,43,09,22,151,41,12,59,073,45,14,30,256,38*79
$GPGSV,2,2,08,25,74,326,45,29,49,221,47,30,31,289,,31,23,313,*77
$GPGSA,M,3,02,09,12,25,29,,,,,,,,11.1,5.3,9.8*0C
Trace #8 at position 1.750000
$GPZDA,084825.03,09,10,2011,00,00*6C
$GPRMC,084825.00,A,4611.953883,N,01258.229035,E,000.0,97.5,091011,0.2,E,A*08
$GPGGA,084826.00,4611.953870,N,01258.229085,E,1,05,5.3,141.69,M,46.25,M,,*69
$GPGLL,4611.953870,N,01258.229085,E,084826.00,A,A*61
$GPVTG,120.2,T,120.3,M,000.2,N,000.4,K,A*24
$GPGSV,2,1,08,02,38,082,43,09,22,151,41,12,59,073,45,14,30,256,38*79
$GPGSV,2,2,08,25,74,326,45,29,49,221,47,30,31,289,,31,23,313,*77
$GPGSA,M,3,02,09,12,25,29,,,,,,,,11.1,5.3,9.8*0C
Trace #9 at position 2.000000
$GPZDA,084826.03,09,10,2011,00,00*6F
$GPRMC,084826.00,A,4611.953870,N,01258.229085,E,000.2,120.2,091011,0.2,E,A*34
$GPGGA,084827.00,4611.953829,N,01258.229152,E,1,05,5.3,141.89,M,46.25,M,,*61
$GPGLL,4611.953829,N,01258.229152,E,084827.00,A,A*67
$GPVTG,144.1,T,144.2,M,000.3,N,000.5,K,A*26
$GPGSV,2,1,08,02,38,082,44,09,22,151,41,12,59,073,45,14,30,256,38*7E
$GPGSV,2,2,08,25,74,326,47,29,49,221,47,30,31,289,,31,23,313,*75
$GPGSA,M,3,02,09,12,25,29,,,,,,,,11.1,5.3,9.8*0C
Trace #10 at position 2.250000
$GPZDA,084826.03,09,10,2011,00,00*6F
$GPRMC,084826.00,A,4611.953870,N,01258.229085,E,000.2,120.2,091011,0.2,E,A*34
$GPGGA,084827.00,4611.953829,N,01258.229152,E,1,05,5.3,141.89,M,46.25,M,,*61
$GPGLL,4611.953829,N,01258.229152,E,084827.00,A,A*67
$GPVTG,144.1,T,144.2,M,000.3,N,000.5,K,A*26
$GPGSV,2,1,08,02,38,082,44,09,22,151,41,12,59,073,45,14,30,256,38*7E
$GPGSV,2,2,08,25,74,326,47,29,49,221,47,30,31,289,,31,23,313,*75
$GPGSA,M,3,02,09,12,25,29,,,,,,,,11.1,5.3,9.8*0C
Trace #11 at position 2.500000
$GPZDA,084827.03,09,10,2011,00,00*6E
$GPRMC,084827.00,A,4611.953829,N,01258.229152,E,000.3,144.1,091011,0.2,E,A*32
$GPGGA,084828.00,4611.953871,N,01258.229121,E,1,06,1.8,141.74,M,46.25,M,,*69
$GPGLL,4611.953871,N,01258.229121,E,084828.00,A,A*61
$GPVTG,334.3,T,334.4,M,000.2,N,000.3,K,A*25
$GPGSV,2,1,08,02,38,082,46,09,22,151,39,12,59,073,45,14,30,256,40*7C
$GPGSV,2,2,08,25,74,326,47,29,49,221,47,30,31,289,,31,23,313,*75
$GPGSA,M,3,02611.953871,N,01258.229121,E,000.2,334.3,091011,0.2,E,A*32
Trace #12 at position 2.750000
$GPZDA,084827.03,09,10,2011,00,00*6E
$GPRMC,084827.00,A,4611.953829,N,01258.229152,E,000.3,144.1,091011,0.2,E,A*32
$GPGGA,084828.00,4611.953871,N,01258.229121,E,1,06,1.8,141.74,M,46.25,M,,*69
$GPGLL,4611.953871,N,01258.229121,E,084828.00,A,A*61
$GPVTG,334.3,T,334.4,M,000.2,N,000.3,K,A*25
$GPGSV,2,1,08,02,38,082,46,09,22,151,39,12,59,073,45,14,30,256,40*7C
$GPGSV,2,2,08,25,74,326,47,29,49,221,47,30,31,289,,31,23,313,*75
$GPGSA,M,3,02611.953871,N,01258.229121,E,000.2,334.3,091011,0.2,E,A*32
Trace #13 at position 3.000000
$GPGGA,084829.00,4611.953937,N,01258.229062,E,1,06,1.8,141.50,M,46.25,M,,*6B
$GPGLL,4611.953937,N,01258.229062,E,084829.00,A,A*65
$GPVTG,350.0,T,350.1,M,000.0,N,000.0,K,A*22
$GPGSV,2,1,08,02,38,082,46,09,22,151,39,12,59,073,45,14,30,256,41*7D
$GPGSV,2,2,08,25,74,326,45,29,49,221,47,30,31,289,,31,23,313,*77
$GPGSA,M,3,02,09,12,14,25,29,,,,,,,3.5,1.8,3.0*33
Trace #14 at position 3.250000
$GPGGA,084829.00,4611.953937,N,01258.229062,E,1,06,1.8,141.50,M,46.25,M,,*6B
$GPGLL,4611.953937,N,01258.229062,E,084829.00,A,A*65
$GPVTG,350.0,T,350.1,M,000.0,N,000.0,K,A*22
$GPGSV,2,1,08,02,38,082,46,09,22,151,39,12,59,073,45,14,30,256,41*7D
$GPGSV,2,2,08,25,74,326,45,29,49,221,47,30,31,289,,31,23,313,*77
$GPGSA,M,3,02,09,12,14,25,29,,,,,,,3.5,1.8,3.0*33
Trace #15 at position 3.500000
$GPZDA,084829.04,09,10,2011,00,00*67
$GPRMC,084829.00,A,4611.953937,N,01258.229062,E,000$GPGGA,084830.00,4611.954016,N,01258.228992,E,1,06,1.8,141.34,M,46.25,M,,*6B
$GPGLL,4611.954016,N,01258.228992,E,084830.00,A,A*67
$GPVTG,331.1,T,331.3,M,000.3,N,000.6,K,A*24
$GPGSV,2,1,08,02,38,082,45,09,22,151,40,12,59,073,46,14,30,256,40*72
$GPGSV,2,2,08,25,74,327,45,29,49,221,47,30,31,289,,31,23,313,*76
$GPGSA,M,3,02,09,12,14,25,29,,,,,,,3.5,1.8,3.0*33
Trace #16 at position 3.750000
$GPZDA,084829.04,09,10,2011,00,00*67
$GPRMC,084829.00,A,4611.953937,N,01258.229062,E,000$GPGGA,084830.00,4611.954016,N,01258.228992,E,1,06,1.8,141.34,M,46.25,M,,*6B
$GPGLL,4611.954016,N,01258.228992,E,084830.00,A,A*67
$GPVTG,331.1,T,331.3,M,000.3,N,000.6,K,A*24
$GPGSV,2,1,08,02,38,082,45,09,22,151,40,12,59,073,46,14,30,256,40*72
$GPGSV,2,2,08,25,74,327,45,29,49,221,47,30,31,289,,31,23,313,*76
$GPGSA,M,3,02,09,12,14,25,29,,,,,,,3.5,1.8,3.0*33
Trace #17 at position 4.000000
$GPZDA,084829.04,09,10,2011,00,00*67
$GPRMC,084829.00,A,4611.953937,N,01258.229062,E,000$GPGGA,084830.00,4611.954016,N,01258.228992,E,1,06,1.8,141.34,M,46.25,M,,*6B
$GPGLL,4611.954016,N,01258.228992,E,084830.00,A,A*67
$GPVTG,331.1,T,331.3,M,000.3,N,000.6,K,A*24
$GPGSV,2,1,08,02,38,082,45,09,22,151,40,12,59,073,46,14,30,256,40*72
$GPGSV,2,2,08,25,74,327,45,29,49,221,47,30,31,289,,31,23,313,*76
$GPGSA,M,3,02,09,12,14,25,29,,,,,,,3.5,1.8,3.0*33
Trace #18 at position 4.250000
$GPZDA,084830.03,09,10,2011,00,00*68
$GPRMC,084830.00,A,4611.954016,N,01258.228992,E,000.3,331.1,091011,0.2,E,A*32
$GPGGA,084831.00,4611.954198,N,01258.228838,E,1,06,1.8,141.26,M,46.25,M,,*6F
$GPGLL,4611.954198,N,01258.228838,E,084831.00,A,A*60
$GPVTG,327.4,T,327.5,M,000.8,N,001.6,K,A*2D
$GPGSV,2,1,08,02,38,082,44,09,22,151,42,12,59,073,43,14,30,256,39*7A
$GPGSV,2,2,08,25,74,327,45,29,49,221,46,30,31,289,,31,23,313,*77
$GPGSA,M,3,02,09,12,14,25,29,,,,,,,3.5,1.8,3.0*33
Trace #19 at position 4.500000
$GPZDA,084830.03,09,10,2011,00,00*68
$GPRMC,084830.00,A,4611.954016,N,01258.228992,E,000.3,331.1,091011,0.2,E,A*32
$GPGGA,084831.00,4611.954198,N,01258.228838,E,1,06,1.8,141.26,M,46.25,M,,*6F
$GPGLL,4611.954198,N,01258.228838,E,084831.00,A,A*60
$GPVTG,327.4,T,327.5,M,000.8,N,001.6,K,A*2D
$GPGSV,2,1,08,02,38,082,44,09,22,151,42,12,59,073,43,14,30,256,39*7A
$GPGSV,2,2,08,25,74,327,45,29,49,221,46,30,31,289,,31,23,313,*77
$GPGSA,M,3,02,09,12,14,25,29,,,,,,,3.5,1.8,3.0*33
Trace #20 at position 4.750000
$GPZDA,084830.03,09,10,2011,00,00*68
$GPRMC,084830.00,A,4611.954016,N,01258.228992,E,000.3,331.1,091011,0.2,E,A*32
$GPGGA,084831.00,4611.954198,N,01258.228838,E,1,06,1.8,141.26,M,46.25,M,,*6F
$GPGLL,4611.954198,N,01258.228838,E,084831.00,A,A*60
$GPVTG,327.4,T,327.5,M,000.8,N,001.6,K,A*2D
$GPGSV,2,1,08,02,38,082,44,09,22,151,42,12,59,073,43,14,30,256,39*7A
$GPGSV,2,2,08,25,74,327,45,29,49,221,46,30,31,289,,31,23,313,*77
$GPGSA,M,3,02,09,12,14,25,29,,,,,,,3.5,1.8,3.0*33
Trace #21 at position 5.000000
$GPZDA,084831.03,09,10,2011,00,00*69
$GPRMC,084831.00,A,4611.954198,N,01258.228838,E,000.8,327.4,091011,0.2,E,A*3C
$GPGGA,084832.00,4611.954447,N,01258.228586,E,1,06,1.8,141.16,M,46.25,M,,*60
$GPGLL,4611.954447,N,01258.228586,E,084832.00,A,A*6C
$GPVTG,315.6,T,315.8,M,001.1,N,002.0,K,A*2F
$GPGSV,2,1,08,02,38,082,43,09,22,151,44,12,59,073,42,14,30,256,40*74
$GPGSV,2,2,08,25,74,327,41,29,49,221,47,30,31,289,40,31,23,313,*76
$GPGSA,M,3,02,09,12,14,25,29,,,,,,,3.5,1.8,3.0*33
Trace #22 at position 5.250000
$GPZDA,084831.03,09,10,2011,00,00*69
$GPRMC,084831.00,A,4611.954198,N,01258.228838,E,000.8,327.4,091011,0.2,E,A*3C
$GPGGA,084832.00,4611.954447,N,01258.228586,E,1,06,1.8,141.16,M,46.25,M,,*60
$GPGLL,4611.954447,N,01258.228586,E,084832.00,A,A*6C
$GPVTG,315.6,T,315.8,M,001.1,N,002.0,K,A*2F
$GPGSV,2,1,08,02,38,082,43,09,22,151,44,12,59,073,42,14,30,256,40*74
$GPGSV,2,2,08,25,74,327,41,29,49,221,47,30,31,289,40,31,23,313,*76
$GPGSA,M,3,02,09,12,14,25,29,,,,,,,3.5,1.8,3.0*33
Trace #23 at position 5.500000
$GPZDA,084831.03,09,10,2011,00,00*69
$GPRMC,084831.00,A,4611.954198,N,01258.228838,E,000.8,327.4,091011,0.2,E,A*3C
$GPGGA,084832.00,4611.954447,N,01258.228586,E,1,06,1.8,141.16,M,46.25,M,,*60
$GPGLL,4611.954447,N,01258.228586,E,084832.00,A,A*6C
$GPVTG,315.6,T,315.8,M,001.1,N,002.0,K,A*2F
$GPGSV,2,1,08,02,38,082,43,09,22,151,44,12,59,073,42,14,30,256,40*74
$GPGSV,2,2,08,25,74,327,41,29,49,221,47,30,31,289,40,31,23,313,*76
$GPGSA,M,3,02,09,12,14,25,29,,,,,,,3.5,1.8,3.0*33
Trace #24 at position 5.750000
$GPZDA,084831.03,09,10,2011,00,00*69
$GPRMC,084831.00,A,4611.954198,N,01258.228838,E,000.8,327.4,091011,0.2,E,A*3C
$GPGGA,084832.00,4611.954447,N,01258.228586,E,1,06,1.8,141.16,M,46.25,M,,*60
$GPGLL,4611.954447,N,01258.228586,E,084832.00,A,A*6C
$GPVTG,315.6,T,315.8,M,001.1,N,002.0,K,A*2F
$GPGSV,2,1,08,02,38,082,43,09,22,151,44,12,59,073,42,14,30,256,40*74
$GPGSV,2,2,08,25,74,327,41,29,49,221,47,30,31,289,40,31,23,313,*76
$GPGSA,M,3,02,09,12,14,25,29,,,,,,,3.5,1.8,3.0*33
Trace #25 at position 6.000000
$GPZDA,084832.04,09,10,2011,00,00*6D
$GPRMC,084832.00,A,4611.954447,N,01258.228586,E,001.1,315.6,091011,0.2,E,A*3B
$GPGGA,084833.00,4611.954741,N,01258.228452,E,1,06,1.8,140.97,M,46.25,M,,*64
$GPGLL,4611.954741,N,01258.228452,E,084833.00,A,A*60
$GPVTG,4.3,T,4.4,M,001.0,N,001.9,K,A*2D
$GPGSV,2,1,08,02,38,082,43,09,22,151,44,12,59,073,42,14,30,256,39*7A
$GPGSV,2,2,08,25,74,327,41,29,49,221,46,30,31,289,39,31,23,313,*79
$GPGSA,M,3,02,09,12,14,25,29,,,,,,,3.5,1.8,3.0*33
Trace #26 at position 6.250000
$GPZDA,084832.04,09,10,2011,00,00*6D
$GPRMC,084832.00,A,4611.954447,N,01258.228586,E,001.1,315.6,091011,0.2,E,A*3B
$GPGGA,084833.00,4611.954741,N,01258.228452,E,1,06,1.8,140.97,M,46.25,M,,*64
$GPGLL,4611.954741,N,01258.228452,E,084833.00,A,A*60
$GPVTG,4.3,T,4.4,M,001.0,N,001.9,K,A*2D
$GPGSV,2,1,08,02,38,082,43,09,22,151,44,12,59,073,42,14,30,256,39*7A
$GPGSV,2,2,08,25,74,327,41,29,49,221,46,30,31,289,39,31,23,313,*79
$GPGSA,M,3,02,09,12,14,25,29,,,,,,,3.5,1.8,3.0*33
Trace #27 at position 6.500000
$GPZDA,084833.04,09,10,2011,00,00*6C
$GPRMC,084833.00,A,4611.954741,N,01258.228452,E,001.0,4.3,091011,0.2,E,A*30
$GPGGA,084834.00,4611.955089,N,01258.228442,E,1,06,1.8,140.88,M,46.25,M,,*6E
$GPGLL,4611.955089,N,01258.228442,E,084834.00,A,A*64
$GPVTG,0.0,T,0.2,M,001.2,N,002.2,K,A*22
$GPGSV,2,1,08,02,38,082,43,09,22,151,43,12,59,073,43,14,30,256,39*7C
$GPGSV,2,2,08,25,74,327,41,29,49,221,46,30,31,289,38,31,23,313,*78
$GPGSA,M,3,02,09,12,14,25,29,,,,,,,3.5,1.8,3.0*33
Trace #28 at position 6.750000
$GPZDA,084833.04,09,10,2011,00,00*6C
$GPRMC,084833.00,A,4611.954741,N,01258.228452,E,001.0,4.3,091011,0.2,E,A*30
$GPGGA,084834.00,4611.955089,N,01258.228442,E,1,06,1.8,140.88,M,46.25,M,,*6E
$GPGLL,4611.955089,N,01258.228442,E,084834.00,A,A*64
$GPVTG,0.0,T,0.2,M,001.2,N,002.2,K,A*22
$GPGSV,2,1,08,02,38,082,43,09,22,151,43,12,59,073,43,14,30,256,39*7C
$GPGSV,2,2,08,25,74,327,41,29,49,221,46,30,31,289,38,31,23,313,*78
$GPGSA,M,3,02,09,12,14,25,29,,,,,,,3.5,1.8,3.0*33
Trace #29 at position 7.000000
$GPZDA,084833.04,09,10,2011,00,00*6C
$GPRMC,084833.00,A,4611.954741,N,01258.228452,E,001.0,4.3,091011,0.2,E,A*30
$GPGGA,084834.00,4611.955089,N,01258.228442,E,1,06,1.8,140.88,M,46.25,M,,*6E
$GPGLL,4611.955089,N,01258.228442,E,084834.00,A,A*64
$GPVTG,0.0,T,0.2,M,001.2,N,002.2,K,A*22
$GPGSV,2,1,08,02,38,082,43,09,22,151,43,12,59,073,43,14,30,256,39*7C
$GPGSV,2,2,08,25,74,327,41,29,49,221,46,30,31,289,38,31,23,313,*78
$GPGSA,M,3,02,09,12,14,25,29,,,,,,,3.5,1.8,3.0*33
Trace #30 at position 7.250000
$GPZDA,084833.04,09,10,2011,00,00*6C
$GPRMC,084833.00,A,4611.954741,N,01258.228452,E,001.0,4.3,091011,0.2,E,A*30
$GPGGA,084834.00,4611.955089,N,01258.228442,E,1,06,1.8,140.88,M,46.25,M,,*6E
$GPGLL,4611.955089,N,01258.228442,E,084834.00,A,A*64
$GPVTG,0.0,T,0.2,M,001.2,N,002.2,K,A*22
$GPGSV,2,1,08,02,38,082,43,09,22,151,43,12,59,073,43,14,30,256,39*7C
$GPGSV,2,2,08,25,74,327,41,29,49,221,46,30,31,289,38,31,23,313,*78
$GPGSA,M,3,02,09,12,14,25,29,,,,,,,3.5,1.8,3.0*33
Trace #31 at position 7.500000
$GPZDA,084834.04,09,10,2011,00,00*6B
$GPRMC,084834.00,A,4611.955089,N,01258.228442,E,001.2,0.0,091011,0.2,E,A*31
$GPGGA,084835.00,4611.955447,N,01258.228247,E,1,07,1.3,140.77,M,46.25,M,,*60
$GPGLL,4611.955447,N,01258.228247,E,084835.00,A,A*60
$GPVTG,314.5,T,314.7,M,001.0,N,001.9,K,A*28
$GPGSV,2,1,08,02,38,082,43,09,22,151,41,12,59,073,45,14,30,256,39*78
$GPGSV,2,2,08,25,74,327,43,29,49,221,46,30,31,289,39,31,23,313,*7B
$GPGSA,M,3,02,09,12,14,25,29,30,,,,,,2.6,1.3,2.3*3B
Trace #32 at position 7.750000
$GPZDA,084834.04,09,10,2011,00,00*6B
$GPRMC,084834.00,A,4611.955089,N,01258.228442,E,001.2,0.0,091011,0.2,E,A*31
$GPGGA,084835.00,4611.955447,N,01258.228247,E,1,07,1.3,140.77,M,46.25,M,,*60
$GPGLL,4611.955447,N,01258.228247,E,084835.00,A,A*60
$GPVTG,314.5,T,314.7,M,001.0,N,001.9,K,A*28
$GPGSV,2,1,08,02,38,082,43,09,22,151,41,12,59,073,45,14,30,256,39*78
$GPGSV,2,2,08,25,74,327,43,29,49,221,46,30,31,289,39,31,23,313,*7B
$GPGSA,M,3,02,09,12,14,25,29,30,,,,,,2.6,1.3,2.3*3B
Trace #33 at position 8.000000
$GPZDA,084834.04,09,10,2011,00,00*6B
$GPRMC,084834.00,A,4611.955089,N,01258.228442,E,001.2,0.0,091011,0.2,E,A*31
$GPGGA,084835.00,4611.955447,N,01258.228247,E,1,07,1.3,140.77,M,46.25,M,,*60
$GPGLL,4611.955447,N,01258.228247,E,084835.00,A,A*60
$GPVTG,314.5,T,314.7,M,001.0,N,001.9,K,A*28
$GPGSV,2,1,08,02,38,082,43,09,22,151,41,12,59,073,45,14,30,256,39*78
$GPGSV,2,2,08,25,74,327,43,29,49,221,46,30,31,289,39,31,23,313,*7B
$GPGSA,M,3,02,09,12,14,25,29,30,,,,,,2.6,1.3,2.3*3B
Trace #34 at position 8.250000
$GPZDA,084834.04,09,10,2011,00,00*6B
$GPRMC,084834.00,A,4611.955089,N,01258.228442,E,001.2,0.0,091011,0.2,E,A*31
$GPGGA,084835.00,4611.955447,N,01258.228247,E,1,07,1.3,140.77,M,46.25,M,,*60
$GPGLL,4611.955447,N,01258.228247,E,084835.00,A,A*60
$GPVTG,314.5,T,314.7,M,001.0,N,001.9,K,A*28
$GPGSV,2,1,08,02,38,082,43,09,22,151,41,12,59,073,45,14,30,256,39*78
$GPGSV,2,2,08,25,74,327,43,29,49,221,46,30,31,289,39,31,23,313,*7B
$GPGSA,M,3,02,09,12,14,25,29,30,,,,,,2.6,1.3,2.3*3B
Trace #35 at position 8.500000
$GPZDA,084835.04,09,10,2011,00,00*6A
$GPRMC,084835.00,A,4611.955447,N,01258.228247,E,001.0,314.5,091011,0.2,E,A*34
$GPGGA,084836.00,4611.955774,N,01258.228005,E,1,07,1.3,140.62,M,46.25,M,,*60
$GPGLL,4611.955774,N,01258.228005,E,084836.00,A,A*64
$GPVTG,341.3,T,341.4,M,001.0,N,001.9,K,A*2D
$GPGSV,2,1,08,02,38,082,43,09,22,151,43,12,59,073,44,14,30,256,39*7B
$GPGSV,2,2,08,25,74,327,43,29,49,221,46,30,31,289,39,31,23,313,*7B
$GPGSA,M,3,02,09,12,14,25,29,30,,,,,,2.6,1.3,2.3*3B
Trace #36 at position 8.750000
$GPZDA,084835.04,09,10,2011,00,00*6A
$GPRMC,084835.00,A,4611.955447,N,01258.228247,E,001.0,314.5,091011,0.2,E,A*34
$GPGGA,084836.00,4611.955774,N,01258.228005,E,1,07,1.3,140.62,M,46.25,M,,*60
$GPGLL,4611.955774,N,01258.228005,E,084836.00,A,A*64
$GPVTG,341.3,T,341.4,M,001.0,N,001.9,K,A*2D
$GPGSV,2,1,08,02,38,082,43,09,22,151,43,12,59,073,44,14,30,256,39*7B
$GPGSV,2,2,08,25,74,327,43,29,49,221,46,30,31,289,39,31,23,313,*7B
$GPGSA,M,3,02,09,12,14,25,29,30,,,,,,2.6,1.3,2.3*3B
Trace #37 at position 9.000000
$GPZDA,084835.04,09,10,2011,00,00*6A
$GPRMC,084835.00,A,4611.955447,N,01258.228247,E,001.0,314.5,091011,0.2,E,A*34
$GPGGA,084836.00,4611.955774,N,01258.228005,E,1,07,1.3,140.62,M,46.25,M,,*60
$GPGLL,4611.955774,N,01258.228005,E,084836.00,A,A*64
$GPVTG,341.3,T,341.4,M,001.0,N,001.9,K,A*2D
$GPGSV,2,1,08,02,38,082,43,09,22,151,43,12,59,073,44,14,30,256,39*7B
$GPGSV,2,2,08,25,74,327,43,29,49,221,46,30,31,289,39,31,23,313,*7B
$GPGSA,M,3,02,09,12,14,25,29,30,,,,,,2.6,1.3,2.3*3B
Trace #38 at position 9.250000
$GPZDA,084835.04,09,10,2011,00,00*6A
$GPRMC,084835.00,A,4611.955447,N,01258.228247,E,001.0,314.5,091011,0.2,E,A*34
$GPGGA,084836.00,4611.955774,N,01258.228005,E,1,07,1.3,140.62,M,46.25,M,,*60
$GPGLL,4611.955774,N,01258.228005,E,084836.00,A,A*64
$GPVTG,341.3,T,341.4,M,001.0,N,001.9,K,A*2D
$GPGSV,2,1,08,02,38,082,43,09,22,151,43,12,59,073,44,14,30,256,39*7B
$GPGSV,2,2,08,25,74,327,43,29,49,221,46,30,31,289,39,31,23,313,*7B
$GPGSA,M,3,02,09,12,14,25,29,30,,,,,,2.6,1.3,2.3*3B
Trace #39 at position 9.500000
$GPZDA,084835.04,09,10,2011,00,00*6A
$GPRMC,084835.00,A,4611.955447,N,01258.228247,E,001.0,314.5,091011,0.2,E,A*34
$GPGGA,084836.00,4611.955774,N,01258.228005,E,1,07,1.3,140.62,M,46.25,M,,*60
$GPGLL,4611.955774,N,01258.228005,E,084836.00,A,A*64
$GPVTG,341.3,T,341.4,M,001.0,N,001.9,K,A*2D
$GPGSV,2,1,08,02,38,082,43,09,22,151,43,12,59,073,44,14,30,256,39*7B
$GPGSV,2,2,08,25,74,327,43,29,49,221,46,30,31,289,39,31,23,313,*7B
$GPGSA,M,3,02,09,12,14,25,29,30,,,,,,2.6,1.3,2.3*3B
Trace #40 at position 9.750000
$GPZDA,084836.04,09,10,2011,00,00*69
$GPRMC,084836.00,A,4611.955774,N,01258.228005,E,001.0,341.3,091011,0.2,E,A*36
$GPGGA,084837.00,4611.956116,N,01258.227985,E,1,07,1.3,140.51,M,46.25,M,,*6E
$GPGLL,4611.956116,N,01258.227985,E,084837.00,A,A*6A
$GPVTG,26.1,T,26.2,M,001.0,N,001.8,K,A*28
$GPGSV,2,1,08,02,38,082,43,09,22,151,41,4611.956116,N,01258.227985,E,001.0,26.1,091011,0.2,E,A*08
$GPGGA,084838.00,4611.956466,N,01258.227970,E,1,07,1.3,140.45,M,46.25,M,,*6C
$GPGLL,4611.956466,N,01258.227970,E,084838.00,A,A*6D
$GPVTG,349.1,T,349.3,M,001.0,N,001.9,K,A*28
$GPGSV,2,1,08,02,38,082,45,09,22,151,40,12,59,073,44,14,30,256,39*7E
$GPGSV,2,2,08,25,75,327,44,29,49,221,48,30,31,289,37,31,23,313,*7D
$GPGSA,M,3,02,09,12,14,25,29,30,,,,,,2.6,1.3,2.3*3B
Trace #41 at position 10.000000
$GPZDA,084836.04,09,10,2011,00,00*69
$GPRMC,084836.00,A,4611.955774,N,01258.228005,E,001.0,341.3,091011,0.2,E,A*36
$GPGGA,084837.00,4611.956116,N,01258.227985,E,1,07,1.3,140.51,M,46.25,M,,*6E
$GPGLL,4611.956116,N,01258.227985,E,084837.00,A,A*6A
$GPVTG,26.1,T,26.2,M,001.0,N,001.8,K,A*28
$GPGSV,2,1,08,02,38,082,43,09,22,151,41,4611.956116,N,01258.227985,E,001.0,26.1,091011,0.2,E,A*08
$GPGGA,084838.00,4611.956466,N,01258.227970,E,1,07,1.3,140.45,M,46.25,M,,*6C
$GPGLL,4611.956466,N,01258.227970,E,084838.00,A,A*6D
$GPVTG,349.1,T,349.3,M,001.0,N,001.9,K,A*28
$GPGSV,2,1,08,02,38,082,45,09,22,151,40,12,59,073,44,14,30,256,39*7E
$GPGSV,2,2,08,25,75,327,44,29,49,221,48,30,31,289,37,31,23,313,*7D
$GPGSA,M,3,02,09,12,14,25,29,30,,,,,,2.6,1.3,2.3*3B
Trace #42 at position 10.250000
$GPZDA,084836.04,09,10,2011,00,00*69
$GPRMC,084836.00,A,4611.955774,N,01258.228005,E,001.0,341.3,091011,0.2,E,A*36
$GPGGA,084837.00,4611.956116,N,01258.227985,E,1,07,1.3,140.51,M,46.25,M,,*6E
$GPGLL,4611.956116,N,01258.227985,E,084837.00,A,A*6A
$GPVTG,26.1,T,26.2,M,001.0,N,001.8,K,A*28
$GPGSV,2,1,08,02,38,082,43,09,22,151,41,4611.956116,N,01258.227985,E,001.0,26.1,091011,0.2,E,A*08
$GPGGA,084838.00,4611.956466,N,01258.227970,E,1,07,1.3,140.45,M,46.25,M,,*6C
$GPGLL,4611.956466,N,01258.227970,E,084838.00,A,A*6D
$GPVTG,349.1,T,349.3,M,001.0,N,001.9,K,A*28
$GPGSV,2,1,08,02,38,082,45,09,22,151,40,12,59,073,44,14,30,256,39*7E
$GPGSV,2,2,08,25,75,327,44,29,49,221,48,30,31,289,37,31,23,313,*7D
$GPGSA,M,3,02,09,12,14,25,29,30,,,,,,2.6,1.3,2.3*3B
Trace #43 at position 10.500000
$GPZDA,084838.04,09,10,2011,00,00*67
$GPRMC,084838.00,A,4611.956466,N,01258.227970,E$GPGGA,084839.00,4611.956883,N,01258.227760,E,1,07,1.3,140.38,M,46.25,M,,*6F
$GPGLL,4611.956883,N,01258.227760,E,084839.00,A,A*64
$GPVTG,337.6,T,337.7,M,001.5,N,002.7,K,A*23
$GPGSV,2,1,08,02,38,082,45,09,22,151,40,12,59,073,44,14,30,256,40*70
$GPGSV,2,2,08,25,75,327,46,29,49,221,47,30,31,289,38,31,23,313,*7F
$GPGSA,M,3,02,09,12,14,25,29,30,,,,,,2.6,1.3,2.3*3B
Trace #44 at position 10.750000
$GPZDA,084838.04,09,10,2011,00,00*67
$GPRMC,084838.00,A,4611.956466,N,01258.227970,E$GPGGA,084839.00,4611.956883,N,01258.227760,E,1,07,1.3,140.38,M,46.25,M,,*6F
$GPGLL,4611.956883,N,01258.227760,E,084839.00,A,A*64
$GPVTG,337.6,T,337.7,M,001.5,N,002.7,K,A*23
$GPGSV,2,1,08,02,38,082,45,09,22,151,40,12,59,073,44,14,30,256,40*70
$GPGSV,2,2,08,25,75,327,46,29,49,221,47,30,31,289,38,31,23,313,*7F
$GPGSA,M,3,02,09,12,14,25,29,30,,,,,,2.6,1.3,2.3*3B
Trace #45 at position 11.000000
$GPZDA,084838.04,09,10,2011,00,00*67
$GPRMC,084838.00,A,4611.956466,N,01258.227970,E$GPGGA,084839.00,4611.956883,N,01258.227760,E,1,07,1.3,140.38,M,46.25,M,,*6F
$GPGLL,4611.956883,N,01258.227760,E,084839.00,A,A*64
$GPVTG,337.6,T,337.7,M,001.5,N,002.7,K,A*23
$GPGSV,2,1,08,02,38,082,45,09,22,151,40,12,59,073,44,14,30,256,40*70
$GPGSV,2,2,08,25,75,327,46,29,49,221,47,30,31,289,38,31,23,313,*7F
$GPGSA,M,3,02,09,12,14,25,29,30,,,,,,2.6,1.3,2.3*3B
Trace #46 at position 11.250000
$GPZDA,084838.04,09,10,2011,00,00*67
$GPRMC,084838.00,A,4611.956466,N,01258.227970,E$GPGGA,084839.00,4611.956883,N,01258.227760,E,1,07,1.3,140.38,M,46.25,M,,*6F
$GPGLL,4611.956883,N,01258.227760,E,084839.00,A,A*64
$GPVTG,337.6,T,337.7,M,001.5,N,002.7,K,A*23
$GPGSV,2,1,08,02,38,082,45,09,22,151,40,12,59,073,44,14,30,256,40*70
$GPGSV,2,2,08,25,75,327,46,29,49,221,47,30,31,289,38,31,23,313,*7F
$GPGSA,M,3,02,09,12,14,25,29,30,,,,,,2.6,1.3,2.3*3B
Trace #47 at position 11.500000
$GPZDA,084839.04,09,10,2011,00,00*66
$GPRMC,084839.00,A,4611.956883,N,01258.227760,E,001.5,337.6,091011,0.2,E,A*37
$GPGGA,084840.00,4611.957260,N,01258.227661,E,1,07,1.3,140.34,M,46.25,M,,*6B
$GPGLL,4611.957260,N,01258.227661,E,084840.00,A,A*6C
$GPVTG,28.0,T,28.2,M,000.8,N,001.5,K,A*2D
$GPGSV,2,1,08,02,38,082,44,09,22,151,41,12,59,073,44,14,30,256,38*7F
$GPGSV,2,2,08,25,75,327,45,29,49,221,46,30,31,289,39,31,23,313,*7C
$GPGSA,M,3,02,09,12,14,25,29,30,,,,,,2.6,1.3,2.3*3B
Trace #48 at position 11.750000
$GPZDA,084839.04,09,10,2011,00,00*66
$GPRMC,084839.00,A,4611.956883,N,01258.227760,E,001.5,337.6,091011,0.2,E,A*37
$GPGGA,084840.00,4611.957260,N,01258.227661,E,1,07,1.3,140.34,M,46.25,M,,*6B
$GPGLL,4611.957260,N,01258.227661,E,084840.00,A,A*6C
$GPVTG,28.0,T,28.2,M,000.8,N,001.5,K,A*2D
$GPGSV,2,1,08,02,38,082,44,09,22,151,41,12,59,073,44,14,30,256,38*7F
$GPGSV,2,2,08,25,75,327,45,29,49,221,46,30,31,289,39,31,23,313,*7C
$GPGSA,M,3,02,09,12,14,25,29,30,,,,,,2.6,1.3,2.3*3B
Trace #49 at position 12.000000
$GPZDA,084839.04,09,10,2011,00,00*66
$GPRMC,084839.00,A,4611.956883,N,01258.227760,E,001.5,337.6,091011,0.2,E,A*37
$GPGGA,084840.00,4611.957260,N,01258.227661,E,1,07,1.3,140.34,M,46.25,M,,*6B
$GPGLL,4611.957260,N,01258.227661,E,084840.00,A,A*6C
$GPVTG,28.0,T,28.2,M,000.8,N,001.5,K,A*2D
$GPGSV,2,1,08,02,38,082,44,09,22,151,41,12,59,073,44,14,30,256,38*7F
$GPGSV,2,2,08,25,75,327,45,29,49,221,46,30,31,289,39,31,23,313,*7C
$GPGSA,M,3,02,09,12,14,25,29,30,,,,,,2.6,1.3,2.3*3B
Trace #50 at position 12.250000
$GPZDA,084839.04,09,10,2011,00,00*66
$GPRMC,084839.00,A,4611.956883,N,01258.227760,E,001.5,337.6,091011,0.2,E,A*37
$GPGGA,084840.00,4611.957260,N,01258.227661,E,1,07,1.3,140.34,M,46.25,M,,*6B
$GPGLL,4611.957260,N,01258.227661,E,084840.00,A,A*6C
$GPVTG,28.0,T,28.2,M,000.8,N,001.5,K,A*2D
$GPGSV,2,1,08,02,38,082,44,09,22,151,41,12,59,073,44,14,30,256,38*7F
$GPGSV,2,2,08,25,75,327,45,29,49,221,46,30,31,289,39,31,23,313,*7C
$GPGSA,M,3,02,09,12,14,25,29,30,,,,,,2.6,1.3,2.3*3B
Trace #51 at position 12.500000
$GPZDA,084840.04,09,10,2011,00,00*68
$GPRMC,084840.00,A,4611.957260,N,01258.227661,E,000.8,28.0,091011,0.2,E,A*08
$GPGGA,084841.00,4611.957746,N,01258.227602,E,1,07,1.3,140.27,M,46.25,M,,*6C
$GPGLL,4611.957746,N,01258.227602,E,084841.00,A,A*69
$GPVTG,353.9,T,354.0,M,002.2,N,004.1,K,A*28
$GPGSV,2,1,08,02,38,082,44,09,22,151,41,12,59,073,44,14,30,256,38*7F
$GPGSV,2,2,08,25,75,327,47,29,49,221,46,30,31,289,37,31,23,313,*70
$GPGSA,M,3,02,09,12,14,25,29,30,,,,,,2.6,1.3,2.3*3B
Trace #52 at position 12.750000
$GPZDA,084840.04,09,10,2011,00,00*68
$GPRMC,084840.00,A,4611.957260,N,01258.227661,E,000.8,28.0,091011,0.2,E,A*08
$GPGGA,084841.00,4611.957746,N,01258.227602,E,1,07,1.3,140.27,M,46.25,M,,*6C
$GPGLL,4611.957746,N,01258.227602,E,084841.00,A,A*69
$GPVTG,353.9,T,354.0,M,002.2,N,004.1,K,A*28
$GPGSV,2,1,08,02,38,082,44,09,22,151,41,12,59,073,44,14,30,256,38*7F
$GPGSV,2,2,08,25,75,327,47,29,49,221,46,30,31,289,37,31,23,313,*70
$GPGSA,M,3,02,09,12,14,25,29,30,,,,,,2.6,1.3,2.3*3B
Trace #53 at position 13.000000
$GPZDA,084840.04,09,10,2011,00,00*68
$GPRMC,084840.00,A,4611.957260,N,01258.227661,E,000.8,28.0,091011,0.2,E,A*08
$GPGGA,084841.00,4611.957746,N,01258.227602,E,1,07,1.3,140.27,M,46.25,M,,*6C
$GPGLL,4611.957746,N,01258.227602,E,084841.00,A,A*69
$GPVTG,353.9,T,354.0,M,002.2,N,004.1,K,A*28
$GPGSV,2,1,08,02,38,082,44,09,22,151,41,12,59,073,44,14,30,256,38*7F
$GPGSV,2,2,08,25,75,327,47,29,49,221,46,30,31,289,37,31,23,313,*70
$GPGSA,M,3,02,09,12,14,25,29,30,,,,,,2.6,1.3,2.3*3B
Trace #54 at position 13.250000
$GPZDA,084840.04,09,10,2011,00,00*68
$GPRMC,084840.00,A,4611.957260,N,01258.227661,E,000.8,28.0,091011,0.2,E,A*08
$GPGGA,084841.00,4611.957746,N,01258.227602,E,1,07,1.3,140.27,M,46.25,M,,*6C
$GPGLL,4611.957746,N,01258.227602,E,084841.00,A,A*69
$GPVTG,353.9,T,354.0,M,002.2,N,004.1,K,A*28
$GPGSV,2,1,08,02,38,082,44,09,22,151,41,12,59,073,44,14,30,256,38*7F
$GPGSV,2,2,08,25,75,327,47,29,49,221,46,30,31,289,37,31,23,313,*70
$GPGSA,M,3,02,09,12,14,25,29,30,,,,,,2.6,1.3,2.3*3B
Trace #55 at position 13.500000
$GPZDA,084841.04,09,10,2011,00,00*69
$GPRMC,084841.00,A,4611.957746,N,01258.227602,E,002.2,353.9,091011,0.2,E,A*33
$GPGGA,084842.00,4611.958309,N,01258.227505,E,1,06,1.8,140.22,M,46.25,M,,*64
$GPGLL,4611.958309,N,01258.227505,E,084842.00,A,A*6E
$GPVTG,4.2,T,4.3,M,001.8,N,003.3,K,A*2B
$GPGSV,2,1,08,02,38,082,44,09,22,151,40,12,59,073,43,14,30,256,38*79
$GPGSV,2,2,08,25,75,327,46,29,49,221,47,30,31,289,34,31,23,313,*73
$GPGSA,M,3,02,09,12,14,25,29,,,,,,,3.5,1.8,3.0*33
Trace #56 at position 13.750000
$GPZDA,084841.04,09,10,2011,00,00*69
$GPRMC,084841.00,A,4611.957746,N,01258.227602,E,002.2,353.9,091011,0.2,E,A*33
$GPGGA,084842.00,4611.958309,N,01258.227505,E,1,06,1.8,140.22,M,46.25,M,,*64
$GPGLL,4611.958309,N,01258.227505,E,084842.00,A,A*6E
$GPVTG,4.2,T,4.3,M,001.8,N,003.3,K,A*2B
$GPGSV,2,1,08,02,38,082,44,09,22,151,40,12,59,073,43,14,30,256,38*79
$GPGSV,2,2,08,25,75,327,46,29,49,221,47,30,31,289,34,31,23,313,*73
$GPGSA,M,3,02,09,12,14,25,29,,,,,,,3.5,1.8,3.0*33
Trace #57 at position 14.000000
$GPZDA,084841.04,09,10,2011,00,00*69
$GPRMC,084841.00,A,4611.957746,N,01258.227602,E,002.2,353.9,091011,0.2,E,A*33
$GPGGA,084842.00,4611.958309,N,01258.227505,E,1,06,1.8,140.22,M,46.25,M,,*64
$GPGLL,4611.958309,N,01258.227505,E,084842.00,A,A*6E
$GPVTG,4.2,T,4.3,M,001.8,N,003.3,K,A*2B
$GPGSV,2,1,08,02,38,082,44,09,22,151,40,12,59,073,43,14,30,256,38*79
$GPGSV,2,2,08,25,75,327,46,29,49,221,47,30,31,289,34,31,23,313,*73
$GPGSA,M,3,02,09,12,14,25,29,,,,,,,3.5,1.8,3.0*33
Trace #58 at position 14.250000
$GPZDA,084841.04,09,10,2011,00,00*69
$GPRMC,084841.00,A,4611.957746,N,01258.227602,E,002.2,353.9,091011,0.2,E,A*33
$GPGGA,084842.00,4611.958309,N,01258.227505,E,1,06,1.8,140.22,M,46.25,M,,*64
$GPGLL,4611.958309,N,01258.227505,E,084842.00,A,A*6E
$GPVTG,4.2,T,4.3,M,001.8,N,003.3,K,A*2B
$GPGSV,2,1,08,02,38,082,44,09,22,151,40,12,59,073,43,14,30,256,38*79
$GPGSV,2,2,08,25,75,327,46,29,49,221,47,30,31,289,34,31,23,313,*73
$GPGSA,M,3,02,09,12,14,25,29,,,,,,,3.5,1.8,3.0*33
Trace #59 at position 14.500000
$GPZDA,084841.04,09,10,2011,00,00*69
$GPRMC,084841.00,A,4611.957746,N,01258.227602,E,002.2,353.9,091011,0.2,E,A*33
$GPGGA,084842.00,4611.958309,N,01258.227505,E,1,06,1.8,140.22,M,46.25,M,,*64
$GPGLL,4611.958309,N,01258.227505,E,084842.00,A,A*6E
$GPVTG,4.2,T,4.3,M,001.8,N,003.3,K,A*2B
$GPGSV,2,1,08,02,38,082,44,09,22,151,40,12,59,073,43,14,30,256,38*79
$GPGSV,2,2,08,25,75,327,46,29,49,221,47,30,31,289,34,31,23,313,*73
$GPGSA,M,3,02,09,12,14,25,29,,,,,,,3.5,1.8,3.0*33
Trace #60 at position 14.750000
$GPZDA,084842.04,09,10,2011,00,00*6A
$GPRMC,084842.00,A,4611.958309,N,01258.227505,E,001.8,4.2,091011,0.2,E,A*37
$GPGGA,084843.00,4611.958751,N,01258.227311,E,1,06,1.8,140.23,M,46.25,M,,*6E
$GPGLL,4611.958751,N,01258.227311,E,084843.00,A,A*65
$GPVTG,331.7,T,331.8,M,001.5,N,002.8,K,A*22
$GPGSV,2,1,08,02,38,082,44,09,22,151,39,12,59,073,44,14,30,256,39*71
$GPGSV,2,2,08,25,75,327,47,29,49,221,47,30,31,289,37,31,23,313,*71
$GPGSA,M,3,02,09,12,14,25,29,,,,,,,3.5,1.8,3.0*33
Trace #61 at position 15.000000
$GPZDA,084842.04,09,10,2011,00,00*6A
$GPRMC,084842.00,A,4611.958309,N,01258.227505,E,001.8,4.2,091011,0.2,E,A*37
$GPGGA,084843.00,4611.958751,N,01258.227311,E,1,06,1.8,140.23,M,46.25,M,,*6E
$GPGLL,4611.958751,N,01258.227311,E,084843.00,A,A*65
$GPVTG,331.7,T,331.8,M,001.5,N,002.8,K,A*22
$GPGSV,2,1,08,02,38,082,44,09,22,151,39,12,59,073,44,14,30,256,39*71
$GPGSV,2,2,08,25,75,327,47,29,49,221,47,30,31,289,37,31,23,313,*71
$GPGSA,M,3,02,09,12,14,25,29,,,,,,,3.5,1.8,3.0*33
Trace #62 at position 15.250000
$GPZDA,084842.04,09,10,2011,00,00*6A
$GPRMC,084842.00,A,4611.958309,N,01258.227505,E,001.8,4.2,091011,0.2,E,A*37
$GPGGA,084843.00,4611.958751,N,01258.227311,E,1,06,1.8,140.23,M,46.25,M,,*6E
$GPGLL,4611.958751,N,01258.227311,E,084843.00,A,A*65
$GPVTG,331.7,T,331.8,M,001.5,N,002.8,K,A*22
$GPGSV,2,1,08,02,38,082,44,09,22,151,39,12,59,073,44,14,30,256,39*71
$GPGSV,2,2,08,25,75,327,47,29,49,221,47,30,31,289,37,31,23,313,*71
$GPGSA,M,3,02,09,12,14,25,29,,,,,,,3.5,1.8,3.0*33
Trace #63 at position 15.500000
$GPZDA,084842.04,09,10,2011,00,00*6A
$GPRMC,084842.00,A,4611.958309,N,01258.227505,E,001.8,4.2,091011,0.2,E,A*37
$GPGGA,084843.00,4611.958751,N,01258.227311,E,1,06,1.8,140.23,M,46.25,M,,*6E
$GPGLL,4611.958751,N,01258.227311,E,084843.00,A,A*65
$GPVTG,331.7,T,331.8,M,001.5,N,002.8,K,A*22
$GPGSV,2,1,08,02,38,082,44,09,22,151,39,12,59,073,44,14,30,256,39*71
$GPGSV,2,2,08,25,75,327,47,29,49,221,47,30,31,289,37,31,23,313,*71
$GPGSA,M,3,02,09,12,14,25,29,,,,,,,3.5,1.8,3.0*33
Trace #64 at position 15.750000
$GPZDA,084843.04,09,10,2011,00,00*6B
$GPRMC,084843.00,A,4611.958751,N,01258.227311,E,001.5,331.7,091011,0.2,E,A*31
$GPGGA,084844.00,4611.959093,N,01258.227099,E,1,06,1.8,140.26,M,46.25,M,,*67
$GPGLL,4611.959093,N,01258.227099,E,084844.00,A,A*69
$GPVTG,1.1,T,1.3,M,001.0,N,001.8,K,A*29
$GPGSV,2,1,08,02,38,082,44,09,22,151,40,12,59,073,44,14,30,256,36*70
$GPGSV,2,2,08,25,75,327,46,29,49,221,47,30,31,289,39,31,23,313,*7E
$GPGSA,M,3,02,09,12,14,25,29,,,,,,,3.5,1.8,3.0*33
Trace #65 at position 16.000000
$GPZDA,084843.04,09,10,2011,00,00*6B
$GPRMC,084843.00,A,4611.958751,N,01258.227311,E,001.5,331.7,091011,0.2,E,A*31
$GPGGA,084844.00,4611.959093,N,01258.227099,E,1,06,1.8,140.26,M,46.25,M,,*67
$GPGLL,4611.959093,N,01258.227099,E,084844.00,A,A*69
$GPVTG,1.1,T,1.3,M,001.0,N,001.8,K,A*29
$GPGSV,2,1,08,02,38,082,44,09,22,151,40,12,59,073,44,14,30,256,36*70
$GPGSV,2,2,08,25,75,327,46,29,49,221,47,30,31,289,39,31,23,313,*7E
$GPGSA,M,3,02,09,12,14,25,29,,,,,,,3.5,1.8,3.0*33
Trace #66 at position 16.250000
$GPZDA,084843.04,09,10,2011,00,00*6B
$GPRMC,084843.00,A,4611.958751,N,01258.227311,E,001.5,331.7,091011,0.2,E,A*31
$GPGGA,084844.00,4611.959093,N,01258.227099,E,1,06,1.8,140.26,M,46.25,M,,*67
$GPGLL,4611.959093,N,01258.227099,E,084844.00,A,A*69
$GPVTG,1.1,T,1.3,M,001.0,N,001.8,K,A*29
$GPGSV,2,1,08,02,38,082,44,09,22,151,40,12,59,073,44,14,30,256,36*70
$GPGSV,2,2,08,25,75,327,46,29,49,221,47,30,31,289,39,31,23,313,*7E
$GPGSA,M,3,02,09,12,14,25,29,,,,,,,3.5,1.8,3.0*33
Trace #67 at position 16.500000
$GPZDA,084844.04,09,10,2011,00,00*6C
$GPRMC,084844.00,A,4611.959093,N,01258.227099,E,001.0,1.1,091011,0.2,E,A*3E
$GPGGA,084845.00,4611.959552,N,01258.226963,E,1,06,1.8,140.24,M,46.25,M,,*61
$GPGLL,4611.959552,N,01258.226963,E,084845.00,A,A*6D
$GPVTG,352.8,T,353.0,M,002.2,N,004.1,K,A*2F
$GPGSV,2,1,08,02,38,082,45,09,22,151,38,12,59,073,44,14,30,256,38*70
$GPGSV,2,2,08,25,75,327,46,29,49,221,47,30,31,289,36,31,23,313,31*73
$GPGSA,M,3,02,09,12,14,25,29,,,,,,,3.5,1.8,3.0*33
Trace #68 at position 16.750000
$GPZDA,084844.04,09,10,2011,00,00*6C
$GPRMC,084844.00,A,4611.959093,N,01258.227099,E,001.0,1.1,091011,0.2,E,A*3E
$GPGGA,084845.00,4611.959552,N,01258.226963,E,1,06,1.8,140.24,M,46.25,M,,*61
$GPGLL,4611.959552,N,01258.226963,E,084845.00,A,A*6D
$GPVTG,352.8,T,353.0,M,002.2,N,004.1,K,A*2F
$GPGSV,2,1,08,02,38,082,45,09,22,151,38,12,59,073,44,14,30,256,38*70
$GPGSV,2,2,08,25,75,327,46,29,49,221,47,30,31,289,36,31,23,313,31*73
$GPGSA,M,3,02,09,12,14,25,29,,,,,,,3.5,1.8,3.0*33
Trace #69 at position 17.000000
$GPZDA,084844.04,09,10,2011,00,00*6C
$GPRMC,084844.00,A,4611.959093,N,01258.227099,E,001.0,1.1,091011,0.2,E,A*3E
$GPGGA,084845.00,4611.959552,N,01258.226963,E,1,06,1.8,140.24,M,46.25,M,,*61
$GPGLL,4611.959552,N,01258.226963,E,084845.00,A,A*6D
$GPVTG,352.8,T,353.0,M,002.2,N,004.1,K,A*2F
$GPGSV,2,1,08,02,38,082,45,09,22,151,38,12,59,073,44,14,30,256,38*70
$GPGSV,2,2,08,25,75,327,46,29,49,221,47,30,31,289,36,31,23,313,31*73
$GPGSA,M,3,02,09,12,14,25,29,,,,,,,3.5,1.8,3.0*33
Trace #70 at position 17.250000
$GPZDA,084844.04,09,10,2011,00,00*6C
$GPRMC,084844.00,A,4611.959093,N,01258.227099,E,001.0,1.1,091011,0.2,E,A*3E
$GPGGA,084845.00,4611.959552,N,01258.226963,E,1,06,1.8,140.24,M,46.25,M,,*61
$GPGLL,4611.959552,N,01258.226963,E,084845.00,A,A*6D
$GPVTG,352.8,T,353.0,M,002.2,N,004.1,K,A*2F
$GPGSV,2,1,08,02,38,082,45,09,22,151,38,12,59,073,44,14,30,256,38*70
$GPGSV,2,2,08,25,75,327,46,29,49,221,47,30,31,289,36,31,23,313,31*73
$GPGSA,M,3,02,09,12,14,25,29,,,,,,,3.5,1.8,3.0*33
Trace #71 at position 17.500000
$GPZDA,084845.03,09,10,2011,00,00*6A
$GPRMC,084845.00,A,4611.959552,N,01258.226963,E,002.2,352.8,091011,0.2,E,A*37
$GPGGA,084846.00,4611.960147,N,01258.226659,E,1,06,1.8,140.26,M,46.25,M,,*6C
$GPGLL,4611.960147,N,01258.226659,E,084846.00,A,A*62
$GPVTG,337.6,T,337.8,M,002.2,N,004.2,K,A*2B
$GPGSV,2,1,08,02,38,082,45,09,22,151,40,12,59,073,44,14,30,256,38*7F
$GPGSV,2,2,08,25,75,327,47,29,49,221,48,30,31,289,34,31,23,313,29*76
$GPGSA,M,3,02,09,12,14,25,29,,,,,,,3.5,1.8,3.0*33
Trace #72 at position 17.750000
$GPZDA,084845.03,09,10,2011,00,00*6A
$GPRMC,084845.00,A,4611.959552,N,01258.226963,E,002.2,352.8,091011,0.2,E,A*37
$GPGGA,084846.00,4611.960147,N,01258.226659,E,1,06,1.8,140.26,M,46.25,M,,*6C
$GPGLL,4611.960147,N,01258.226659,E,084846.00,A,A*62
$GPVTG,337.6,T,337.8,M,002.2,N,004.2,K,A*2B
$GPGSV,2,1,08,02,38,082,45,09,22,151,40,12,59,073,44,14,30,256,38*7F
$GPGSV,2,2,08,25,75,327,47,29,49,221,48,30,31,289,34,31,23,313,29*76
$GPGSA,M,3,02,09,12,14,25,29,,,,,,,3.5,1.8,3.0*33
Trace #73 at position 18.000000
$GPZDA,084845.03,09,10,2011,00,00*6A
$GPRMC,084845.00,A,4611.959552,N,01258.226963,E,002.2,352.8,091011,0.2,E,A*37
$GPGGA,084846.00,4611.960147,N,01258.226659,E,1,06,1.8,140.26,M,46.25,M,,*6C
$GPGLL,4611.960147,N,01258.226659,E,084846.00,A,A*62
$GPVTG,337.6,T,337.8,M,002.2,N,004.2,K,A*2B
$GPGSV,2,1,08,02,38,082,45,09,22,151,40,12,59,073,44,14,30,256,38*7F
$GPGSV,2,2,08,25,75,327,47,29,49,221,48,30,31,289,34,31,23,313,29*76
$GPGSA,M,3,02,09,12,14,25,29,,,,,,,3.5,1.8,3.0*33
Trace #74 at position 18.250000
$GPZDA,084846.03,09,10,2011,00,00*69
$GPRMC,084846.00,A,4611.960147,N,01258.226659,E,002.2,337.6,091011,0.2,E,A*35
$GPGGA,084847.00,4611.960729,N,01258.226380,E,1,06,1.8,140.29,M,46.25,M,,*6D
$GPGLL,4611.960729,N,01258.226380,E,084847.00,A,A*6C
$GPVTG,354.8,T,355.0,M,002.1,N,003.9,K,A*23
$GPGSV,2,1,08,02,38,082,44,09,22,151,41,12,59,073,46,14,30,256,39*7C
$GPGSV,2,2,08,25,75,327,47,29,49,221,48,30,31,289,35,31,23,313,30*7F
$GPGSA,M,3,02,09,12,14,25,29,,,,,,,3.5,1.8,3.0*33
Trace #75 at position 18.500000
$GPZDA,084846.03,09,10,2011,00,00*69
$GPRMC,084846.00,A,4611.960147,N,01258.226659,E,002.2,337.6,091011,0.2,E,A*35
$GPGGA,084847.00,4611.960729,N,01258.226380,E,1,06,1.8,140.29,M,46.25,M,,*6D
$GPGLL,4611.960729,N,01258.226380,E,084847.00,A,A*6C
$GPVTG,354.8,T,355.0,M,002.1,N,003.9,K,A*23
$GPGSV,2,1,08,02,38,082,44,09,22,151,41,12,59,073,46,14,30,256,39*7C
$GPGSV,2,2,08,25,75,327,47,29,49,221,48,30,31,289,35,31,23,313,30*7F
$GPGSA,M,3,02,09,12,14,25,29,,,,,,,3.5,1.8,3.0*33
Trace #76 at position 18.750000
$GPZDA,084846.03,09,10,2011,00,00*69
$GPRMC,084846.00,A,4611.960147,N,01258.226659,E,002.2,337.6,091011,0.2,E,A*35
$GPGGA,084847.00,4611.960729,N,01258.226380,E,1,06,1.8,140.29,M,46.25,M,,*6D
$GPGLL,4611.960729,N,01258.226380,E,084847.00,A,A*6C
$GPVTG,354.8,T,355.0,M,002.1,N,003.9,K,A*23
$GPGSV,2,1,08,02,38,082,44,09,22,151,41,12,59,073,46,14,30,256,39*7C
$GPGSV,2,2,08,25,75,327,47,29,49,221,48,30,31,289,35,31,23,313,30*7F
$GPGSA,M,3,02,09,12,14,25,29,,,,,,,3.5,1.8,3.0*33
Trace #77 at position 19.000000
$GPZDA,084846.03,09,10,2011,00,00*69
$GPRMC,084846.00,A,4611.960147,N,01258.226659,E,002.2,337.6,091011,0.2,E,A*35
$GPGGA,084847.00,4611.960729,N,01258.226380,E,1,06,1.8,140.29,M,46.25,M,,*6D
$GPGLL,4611.960729,N,01258.226380,E,084847.00,A,A*6C
$GPVTG,354.8,T,355.0,M,002.1,N,003.9,K,A*23
$GPGSV,2,1,08,02,38,082,44,09,22,151,41,12,59,073,46,14,30,256,39*7C
$GPGSV,2,2,08,25,75,327,47,29,49,221,48,30,31,289,35,31,23,313,30*7F
$GPGSA,M,3,02,09,12,14,25,29,,,,,,,3.5,1.8,3.0*33
Trace #78 at position 19.250000
$GPZDA,084846.03,09,10,2011,00,00*69
$GPRMC,084846.00,A,4611.960147,N,01258.226659,E,002.2,337.6,091011,0.2,E,A*35
$GPGGA,084847.00,4611.960729,N,01258.226380,E,1,06,1.8,140.29,M,46.25,M,,*6D
$GPGLL,4611.960729,N,01258.226380,E,084847.00,A,A*6C
$GPVTG,354.8,T,355.0,M,002.1,N,003.9,K,A*23
$GPGSV,2,1,08,02,38,082,44,09,22,151,41,12,59,073,46,14,30,256,39*7C
$GPGSV,2,2,08,25,75,327,47,29,49,221,48,30,31,289,35,31,23,313,30*7F
$GPGSA,M,3,02,09,12,14,25,29,,,,,,,3.5,1.8,3.0*33
Trace #79 at position 19.500000
$GPZDA,084847.03,09,10,2011,00,00*68
$GPRMC,084847.00,A,4611.960729,N,01258.226380,E,002.1,354.8,091011,0.2,E,A*33
$GPGGA,084848.00,4611.961273,N,01258.226222,E,1,06,1.8,140.28,M,46.25,M,,*61
$GPGLL,4611.961273,N,01258.226222,E,084848.00,A,A*61
$GPVTG,354.1,T,354.3,M,001.8,N,003.3,K,A*28
$GPGSV,2,1,08,02,38,082,46,09,22,151,41,12,59,073,44,14,30,256,38*7D
$GPGSV,2,2,08,25,0*33
$GPZDA,084848.04,09,10,2011,00,00*60
$GPRMC,084848.00,A,4611.961273,N,01258.226222,E,001.8,354.1,091011,0.2,E,A*3D
$GPGGA,084849.00,4611.961769,N,01258.226056,E,1,06,1.8,140.29,M,46.25,M,,*6E
$GPGLL,4611.961769,N,01258.226056,E,084849.00,A,A*6F
$GPVTG,353.6,T,353.8,M,001.8,N,003.3,K,A*24
$GPGSV,2,1,08,02,38,082,44,09,22,151,40,12,59,073,44,14,30,256,39*7F
$GPGSV,2,2,08,25,75,327,45,29,49,221,47,30,31,289,38,31,23,313,31*7E
$GPGSA,M,3,02,09,12,14,25,29,,,,,,,3.5,1.8,3.0*33
Trace #80 at position 19.750000
$GPZDA,084847.03,09,10,2011,00,00*68
$GPRMC,084847.00,A,4611.960729,N,01258.226380,E,002.1,354.8,091011,0.2,E,A*33
$GPGGA,084848.00,4611.961273,N,01258.226222,E,1,06,1.8,140.28,M,46.25,M,,*61
$GPGLL,4611.961273,N,01258.226222,E,084848.00,A,A*61
$GPVTG,354.1,T,354.3,M,001.8,N,003.3,K,A*28
$GPGSV,2,1,08,02,38,082,46,09,22,151,41,12,59,073,44,14,30,256,38*7D
$GPGSV,2,2,08,25,0*33
$GPZDA,084848.04,09,10,2011,00,00*60
$GPRMC,084848.00,A,4611.961273,N,01258.226222,E,001.8,354.1,091011,0.2,E,A*3D
$GPGGA,084849.00,4611.961769,N,01258.226056,E,1,06,1.8,140.29,M,46.25,M,,*6E
$GPGLL,4611.961769,N,01258.226056,E,084849.00,A,A*6F
$GPVTG,353.6,T,353.8,M,001.8,N,003.3,K,A*24
$GPGSV,2,1,08,02,38,082,44,09,22,151,40,12,59,073,44,14,30,256,39*7F
$GPGSV,2,2,08,25,75,327,45,29,49,221,47,30,31,289,38,31,23,313,31*7E
$GPGSA,M,3,02,09,12,14,25,29,,,,,,,3.5,1.8,3.0*33
Trace #81 at position 20.000000
$GPZDA,084849.03,09,1
$GPRMC,084849.00,A,4611.961769,N,01258.226056,E,001.8,353.6,091011,0.2,E,A*33
$GPGGA,084850.00,4611.962319,N,01258.226037,E,1,06,1.8,140.25,M,46.25,M,,*6D
$GPGLL,4611.962319,N,01258.226037,E,084850.00,A,A*60
$GPVTG,16.2,T,16.3,M,002.3,N,004.3,K,A*24
$GPGSV,2,1,08,02,38,082,44,09,22,151,40,12,59,073,43,14,30,256,40*76
$GPGSV,2,2,08,25,75,327,45,29,49,221,46,30,31,289,37,31,23,313,31*70
$GPGSA,M,3,02,09,12,14,25,29,,,,,,,3.5,1.8,3.0*33
Trace #82 at position 20.250000
$GPZDA,084849.03,09,1
$GPRMC,084849.00,A,4611.961769,N,01258.226056,E,001.8,353.6,091011,0.2,E,A*33
$GPGGA,084850.00,4611.962319,N,01258.226037,E,1,06,1.8,140.25,M,46.25,M,,*6D
$GPGLL,4611.962319,N,01258.226037,E,084850.00,A,A*60
$GPVTG,16.2,T,16.3,M,002.3,N,004.3,K,A*24
$GPGSV,2,1,08,02,38,082,44,09,22,151,40,12,59,073,43,14,30,256,40*76
$GPGSV,2,2,08,25,75,327,45,29,49,221,46,30,31,289,37,31,23,313,31*70
$GPGSA,M,3,02,09,12,14,25,29,,,,,,,3.5,1.8,3.0*33
Trace #83 at position 20.500000
$GPZDA,084849.03,09,1
$GPRMC,084849.00,A,4611.961769,N,01258.226056,E,001.8,353.6,091011,0.2,E,A*33
$GPGGA,084850.00,4611.962319,N,01258.226037,E,1,06,1.8,140.25,M,46.25,M,,*6D
$GPGLL,4611.962319,N,01258.226037,E,084850.00,A,A*60
$GPVTG,16.2,T,16.3,M,002.3,N,004.3,K,A*24
$GPGSV,2,1,08,02,38,082,44,09,22,151,40,12,59,073,43,14,30,256,40*76
$GPGSV,2,2,08,25,75,327,45,29,49,221,46,30,31,289,37,31,23,313,31*70
$GPGSA,M,3,02,09,12,14,25,29,,,,,,,3.5,1.8,3.0*33
Trace #84 at position 20.750000
$GPZDA,084850.04,09,10,2011,00,00*69
$GPRMC,084850.00,A,4611.9623$GPGGA,084851.00,4611.962871,N,01258.225910,E,1,07,1.3,140.10,M,46.25,M,,*6A
$GPGLL,4611.962871,N,01258.225910,E,084851.00,A,A*6B
$GPVTG,340.2,T,340.4,M,001.6,N,003.0,K,A*21
$GPGSV,2,1,08,02,38,082,44,09,22,151,41,12,59,073,44,14,30,256,41*71
$GPGSV,2,2,08,25,75,327,43,29,49,221,47,30,31,289,40,31,23,313,30*76
$GPGSA,M,3,02,09,12,14,25,29,30,,,,,,2.6,1.3,2.3*3B
Trace #85 at position 21.000000
$GPZDA,084850.04,09,10,2011,00,00*69
$GPRMC,084850.00,A,4611.9623$GPGGA,084851.00,4611.962871,N,01258.225910,E,1,07,1.3,140.10,M,46.25,M,,*6A
$GPGLL,4611.962871,N,01258.225910,E,084851.00,A,A*6B
$GPVTG,340.2,T,340.4,M,001.6,N,003.0,K,A*21
$GPGSV,2,1,08,02,38,082,44,09,22,151,41,12,59,073,44,14,30,256,41*71
$GPGSV,2,2,08,25,75,327,43,29,49,221,47,30,31,289,40,31,23,313,30*76
$GPGSA,M,3,02,09,12,14,25,29,30,,,,,,2.6,1.3,2.3*3B
Trace #86 at position 21.250000
$GPZDA,084851.04,09,10,2011,00,00*68
$GPRMC,084851.00,A,4611.962871,N,01258.225910,E,001.6,340.2,091011,0.2,E,A*3F
$GPGGA,084852.00,4611.963289,N,01258.225543,E,1,07,1.3,140.05,M,46.25,M,,*6B
$GPGLL,4611.963289,N,01258.225543,E,084852.00,A,A*6E
$GPVTG,330.6,T,330.7,M,001.4,N,002.6,K,A*23
$GPGSV,2,1,08,02,38,082,44,09,21,151,43,12,59,073,45,14,30,256,41*71
$GPGSV,2,2,08,25,75,327,43,29,49,221,46,30,31,289,39,31,23,313,30*79
$GPGSA,M,3,02,09,12,14,25,29,30,,,,,,2.6,1.3,2.3*3B
Trace #87 at position 21.500000
$GPZDA,084851.04,09,10,2011,00,00*68
$GPRMC,084851.00,A,4611.962871,N,01258.225910,E,001.6,340.2,091011,0.2,E,A*3F
$GPGGA,084852.00,4611.963289,N,01258.225543,E,1,07,1.3,140.05,M,46.25,M,,*6B
$GPGLL,4611.963289,N,01258.225543,E,084852.00,A,A*6E
$GPVTG,330.6,T,330.7,M,001.4,N,002.6,K,A*23
$GPGSV,2,1,08,02,38,082,44,09,21,151,43,12,59,073,45,14,30,256,41*71
$GPGSV,2,2,08,25,75,327,43,29,49,221,46,30,31,289,39,31,23,313,30*79
$GPGSA,M,3,02,09,12,14,25,29,30,,,,,,2.6,1.3,2.3*3B
Trace #88 at position 21.750000
$GPZDA,084852.04,09,10,2011,00,00*6B
$GPRMC,084852.00,A,4611.963289,N,01258.225543,E,001.4,330.6,091011,0.2,E,A*3B
$GPGGA,084853.00,4611.963644,N,01258.225240,E,1,07,1.3,140.11,M,46.25,M,,*6E
$GPGLL,4611.963644,N,01258.225240,E,084853.00,A,A*6E
$GPVTG,343.0,T,343.2,M,001.1,N,002.0,K,A*23
$GPGSV,2,1,08,02,38,082,44,09,21,151,41,12,59,073,45,14,30,256,40*72
$GPGSV,2,2,08,25,75,327,41,29,49,221,46,30,31,289,38,31,23,313,31*7B
$GPGSA,M,3,02,09,12,14,25,29,30,,,,,,2.6,1.3,2.3*3B
Trace #89 at position 22.000000
$GPZDA,084852.04,09,10,2011,00,00*6B
$GPRMC,084852.00,A,4611.963289,N,01258.225543,E,001.4,330.6,091011,0.2,E,A*3B
$GPGGA,084853.00,4611.963644,N,01258.225240,E,1,07,1.3,140.11,M,46.25,M,,*6E
$GPGLL,4611.963644,N,01258.225240,E,084853.00,A,A*6E
$GPVTG,343.0,T,343.2,M,001.1,N,002.0,K,A*23
$GPGSV,2,1,08,02,38,082,44,09,21,151,41,12,59,073,45,14,30,256,40*72
$GPGSV,2,2,08,25,75,327,41,29,49,221,46,30,31,289,38,31,23,313,31*7B
$GPGSA,M,3,02,09,12,14,25,29,30,,,,,,2.6,1.3,2.3*3B
Trace #90 at position 22.250000
$GPZDA,084852.04,09,10,2011,00,00*6B
$GPRMC,084852.00,A,4611.963289,N,01258.225543,E,001.4,330.6,091011,0.2,E,A*3B
$GPGGA,084853.00,4611.963644,N,01258.225240,E,1,07,1.3,140.11,M,46.25,M,,*6E
$GPGLL,4611.963644,N,01258.225240,E,084853.00,A,A*6E
$GPVTG,343.0,T,343.2,M,001.1,N,002.0,K,A*23
$GPGSV,2,1,08,02,38,082,44,09,21,151,41,12,59,073,45,14,30,256,40*72
$GPGSV,2,2,08,25,75,327,41,29,49,221,46,30,31,289,38,31,23,313,31*7B
$GPGSA,M,3,02,09,12,14,25,29,30,,,,,,2.6,1.3,2.3*3B
Trace #91 at position 22.500000
$GPZDA,084853.04,09,10,2011,00,00*6A
$GPRMC,084853.00,A,4611.963644,N,01258.225240,E,001.1,343.0,091011,0.2,E,A*3C
$GPGGA,084854.00,4611.964007,N,01258.224966,E,1,07,1.3,140.15,M,46.25,M,,*65
$GPGLL,4611.964007,N,01258.224966,E,084854.00,A,A*61
$GPVTG,334.3,T,334.5,M,001.5,N,002.7,K,A*24
$GPGSV,2,1,08,02,38,082,43,09,21,151,42,12,59,073,45,14,30,256,41*77
$GPGSV,2,2,08,25,75,327,43,29,49,221,47,30,31,289,39,31,23,313,30*78
$GPGSA,M,3,02,09,12,14,25,29,30,,,,,,2.6,1.3,2.3*3B
Trace #92 at position 22.750000
$GPZDA,084853.04,09,10,2011,00,00*6A
$GPRMC,084853.00,A,4611.963644,N,01258.225240,E,001.1,343.0,091011,0.2,E,A*3C
$GPGGA,084854.00,4611.964007,N,01258.224966,E,1,07,1.3,140.15,M,46.25,M,,*65
$GPGLL,4611.964007,N,01258.224966,E,084854.00,A,A*61
$GPVTG,334.3,T,334.5,M,001.5,N,002.7,K,A*24
$GPGSV,2,1,08,02,38,082,43,09,21,151,42,12,59,073,45,14,30,256,41*77
$GPGSV,2,2,08,25,75,327,43,29,49,221,47,30,31,289,39,31,23,313,30*78
$GPGSA,M,3,02,09,12,14,25,29,30,,,,,,2.6,1.3,2.3*3B
Trace #93 at position 23.000000
$GPZDA,084853.04,09,10,2011,00,00*6A
$GPRMC,084853.00,A,4611.963644,N,01258.225240,E,001.1,343.0,091011,0.2,E,A*3C
$GPGGA,084854.00,4611.964007,N,01258.224966,E,1,07,1.3,140.15,M,46.25,M,,*65
$GPGLL,4611.964007,N,01258.224966,E,084854.00,A,A*61
$GPVTG,334.3,T,334.5,M,001.5,N,002.7,K,A*24
$GPGSV,2,1,08,02,38,082,43,09,21,151,42,12,59,073,45,14,30,256,41*77
$GPGSV,2,2,08,25,75,327,43,29,49,221,47,30,31,289,39,31,23,313,30*78
$GPGSA,M,3,02,09,12,14,25,29,30,,,,,,2.6,1.3,2.3*3B
Trace #94 at position 23.250000
$GPZDA,084854.04,09,10,2011,00,00*6D
$GPRMC,084854.00,A,4611.964007,N,01258.224966,E,001.5,334.3,091011,0.2,E,A*34
$GPGGA,084855.00,4611.964347,N,01258.224652,E,1,07,1.3,140.15,M,46.25,M,,*6B
$GPGLL,4611.964347,N,01258.224652,E,084855.00,A,A*6F
$GPVTG,324.6,T,324.8,M,001.1,N,002.0,K,A*2F
$GPGSV,2,1,08,02,38,082,43,09,21,151,41,12,59,073,43,14,30,256,40*73
$GPGSV,2,2,08,25,75,327,41,29,49,221,47,30,31,289,38,31,23,313,*78
$GPGSA,M,3,02,09,12,14,25,29,30,,,,,,2.6,1.3,2.3*3B
Trace #95 at position 23.500000
$GPZDA,084854.04,09,10,2011,00,00*6D
$GPRMC,084854.00,A,4611.964007,N,01258.224966,E,001.5,334.3,091011,0.2,E,A*34
$GPGGA,084855.00,4611.964347,N,01258.224652,E,1,07,1.3,140.15,M,46.25,M,,*6B
$GPGLL,4611.964347,N,01258.224652,E,084855.00,A,A*6F
$GPVTG,324.6,T,324.8,M,001.1,N,002.0,K,A*2F
$GPGSV,2,1,08,02,38,082,43,09,21,151,41,12,59,073,43,14,30,256,40*73
$GPGSV,2,2,08,25,75,327,41,29,49,221,47,30,31,289,38,31,23,313,*78
$GPGSA,M,3,02,09,12,14,25,29,30,,,,,,2.6,1.3,2.3*3B
Trace #96 at position 23.750000
$GPZDA,084854.04,09,10,2011,00,00*6D
$GPRMC,084854.00,A,4611.964007,N,01258.224966,E,001.5,334.3,091011,0.2,E,A*34
$GPGGA,084855.00,4611.964347,N,01258.224652,E,1,07,1.3,140.15,M,46.25,M,,*6B
$GPGLL,4611.964347,N,01258.224652,E,084855.00,A,A*6F
$GPVTG,324.6,T,324.8,M,001.1,N,002.0,K,A*2F
$GPGSV,2,1,08,02,38,082,43,09,21,151,41,12,59,073,43,14,30,256,40*73
$GPGSV,2,2,08,25,75,327,41,29,49,221,47,30,31,289,38,31,23,313,*78
$GPGSA,M,3,02,09,12,14,25,29,30,,,,,,2.6,1.3,2.3*3B
Trace #97 at position 24.000000
$GPZDA,084855.04,09,10,2011,00,00*6C
$GPRMC,084855.00,A,4611.964347,N,01258.224652,E,001.1,324.6,091011,0.2,E,A*3A
$GPGGA,084856.00,4611.964666,N,01258.224455,E,1,07,1.3,140.21,M,46.25,M,,*6C
$GPGLL,4611.964666,N,01258.224455,E,084856.00,A,A*6F
$GPVTG,355.7,T,355.8,M,001.1,N,002.1,K,A*2F
$GPGSV,2,1,08,02,38,082,43,09,21,151,41,12,59,073,43,14,30,256,39*7D
$GPGSV,2,2,08,25,75,327,44,29,49,221,47,30,31,289,38,31,23,313,30*7E
$GPGSA,M,3,02,09,12,14,25,29,30,,,,,,2.6,1.3,2.3*3B
Trace #98 at position 24.250000
$GPZDA,084855.04,09,10,2011,00,00*6C
$GPRMC,084855.00,A,4611.964347,N,01258.224652,E,001.1,324.6,091011,0.2,E,A*3A
$GPGGA,084856.00,4611.964666,N,01258.224455,E,1,07,1.3,140.21,M,46.25,M,,*6C
$GPGLL,4611.964666,N,01258.224455,E,084856.00,A,A*6F
$GPVTG,355.7,T,355.8,M,001.1,N,002.1,K,A*2F
$GPGSV,2,1,08,02,38,082,43,09,21,151,41,12,59,073,43,14,30,256,39*7D
$GPGSV,2,2,08,25,75,327,44,29,49,221,47,30,31,289,38,31,23,313,30*7E
$GPGSA,M,3,02,09,12,14,25,29,30,,,,,,2.6,1.3,2.3*3B
Trace #99 at position 24.500000
$GPZDA,084856.04,09,10,2011,00,00*6F
$GPRMC,084856.00,A,4611.964666,N,01258.224455,E,001.1,355.7,091011,0.2,E,A*3D
$GPGGA,084857.00,4611.965077,N,01258.224320,E,1,07,1.3,140.18,M,46.25,M,,*65
$GPGLL,4611.965077,N,01258.224320,E,084857.00,A,A*6C
$GPVTG,350.5,T,350.6,M,001.6,N,003.0,K,A*24
$GPGSV,2,1,08,02,38,082,43,09,21,151,41,12,59,073,43,14,30,256,41*72
$GPGSV,2,2,08,25,75,327,42,29,49,221,47,30,31,289,37,31,23,313,32*75
$GPGSA,M,3,02,09,12,14,25,29,30,,,,,,2.6,1.3,2.3*3B
Trace #100 at position 24.750000
$GPZDA,084857.04,09,10,2011,00,00*6E
$GPRMC,084857.00,A,4611.965077,N,01258.224320,E,001.6,350.5,091011,0.2,E,A*3E
$GPGGA,084858.00,4611.965373,N,01258.224160,E,1,06,1.8,140.19,M,46.25,M,,*60
$GPGLL,4611.965373,N,01258.224160,E,084858.00,A,A*62
$GPVTG,334.0,T,334.2,M,000.9,N,001.6,K,A*2F
9*7B
$GPGSV,2,2,08,25,75,327,44,29,49,221,47,30,31,289,35,31,23,313,29*7B
$GPGSA,M,3,02,09,12,14,25,29,,,,,,,3.5,1.8,3.0*33
Trace #101 at position 25.000000
$GPZDA,084904.03,09,10,2011,00,00*6E
$GPRMC,084904.00,A,4611.966963,N,01258.223012,E,000.8,5.0,091011,0.2,E,A*3A
$GPGGA,084905.00,4611.967085,N,01258.222990,E,1,06,1.8,140.71,M,46.25,M,,*6E
$GPGLL,4611.967085,N,01258.222990,E,084905.00,A,A*62
$GPVTG,300.2,T,300.4,M,000.3,N,000.5,K,A*23
$GPGSV,2,1,08,02,38,082,43,09,21,151,39,12,59,073,43,14,30,256,38*73
$GPGSV,2,2,08,25,75,327,41,29,49,221,48,30,31,289,38,31,23,313,*77
$GPGSA,M,3,02,09,12,14,25,29,,,,,,,3.5,1.8,3.0*33
Trace #102 at position 25.250000
$GPZDA,084904.03,09,10,2011,00,00*6E
$GPRMC,084904.00,A,4611.966963,N,01258.223012,E,000.8,5.0,091011,0.2,E,A*3A
$GPGGA,084905.00,4611.967085,N,01258.222990,E,1,06,1.8,140.71,M,46.25,M,,*6E
$GPGLL,4611.967085,N,01258.222990,E,084905.00,A,A*62
$GPVTG,300.2,T,300.4,M,000.3,N,000.5,K,A*23
$GPGSV,2,1,08,02,38,082,43,09,21,151,39,12,59,073,43,14,30,256,38*73
$GPGSV,2,2,08,25,75,327,41,29,49,221,48,30,31,289,38,31,23,313,*77
$GPGSA,M,3,02,09,12,14,25,29,,,,,,,3.5,1.8,3.0*33
Trace #103 at position 25.500000
$GPZDA,084905.04,09,10,2011,00,00*68
$GPRMC,084905.00,A,4611.967085,N,01258.222990,E,000.3,300.2,091011,0.2,E,A*36
$GPGGA,084906.00,4611.967125,N,01258.222938,E,1,05,1.8,140.90,M,46.25,M,,*68
$GPGLL,4611.967125,N,01258.222938,E,084906.00,A,A*68
$GPVTG,354.9,T,355.0,M,000.1,N,000.2,K,A*28
$GPGSV,2,1,08,02,38,082,42,09,21,151,38,12,59,073,44,14,30,256,37*7B
$GPGSV,2,2,08,25,75,327,36,29,49,221,48,30,31,289,33,31,23,313,*7C
$GPGSA,M,3,02,09,12,14,29,,,,,,,,3.8,1.8,3.3*3A
Trace #104 at position 25.750000
$GPZDA,084905.04,09,10,2011,00,00*68
$GPRMC,084905.00,A,4611.967085,N,01258.222990,E,000.3,300.2,091011,0.2,E,A*36
$GPGGA,084906.00,4611.967125,N,01258.222938,E,1,05,1.8,140.90,M,46.25,M,,*68
$GPGLL,4611.967125,N,01258.222938,E,084906.00,A,A*68
$GPVTG,354.9,T,355.0,M,000.1,N,000.2,K,A*28
$GPGSV,2,1,08,02,38,082,42,09,21,151,38,12,59,073,44,14,30,256,37*7B
$GPGSV,2,2,08,25,75,327,36,29,49,221,48,30,31,289,33,31,23,313,*7C
$GPGSA,M,3,02,09,12,14,29,,,,,,,,3.8,1.8,3.3*3A
Trace #105 at position 26.000000
$GPZDA,084905.04,09,10,2011,00,00*68
$GPRMC,084905.00,A,4611.967085,N,01258.222990,E,000.3,300.2,091011,0.2,E,A*36
$GPGGA,084906.00,4611.967125,N,01258.222938,E,1,05,1.8,140.90,M,46.25,M,,*68
$GPGLL,4611.967125,N,01258.222938,E,084906.00,A,A*68
$GPVTG,354.9,T,355.0,M,000.1,N,000.2,K,A*28
$GPGSV,2,1,08,02,38,082,42,09,21,151,38,12,59,073,44,14,30,256,37*7B
$GPGSV,2,2,08,25,75,327,36,29,49,221,48,30,31,289,33,31,23,313,*7C
$GPGSA,M,3,02,09,12,14,29,,,,,,,,3.8,1.8,3.3*3A
Trace #106 at position 26.250000
$GPZDA,084906.03,09,10,2011,00,00*6C
$GPRMC,084906.00,A,4611.967125,N,01258.222938,E,000.1,354.9,091011,0.2,E,A*34
$GPGGA,084907.00,4611.967120,N,01258.222955,E,1,05,1.8,141.11,M,46.25,M,,*6F
$GPGLL,4611.967120,N,01258.222955,E,084907.00,A,A*67
$GPVTG,146.4,T,146.6,M,000.3,N,000.5,K,A*27
$GPGSV,2,1,08,02,38,082,42,09,21,151,40,12,59,073,45,14,30,256,38*7A
$GPGSV,2,2,08,25,75,327,37,29,49,221,48,30,31,289,30,31,23,313,*7E
$GPGSA,M,3,02,09,12,14,29,,,,,,,,3.8,1.8,3.3*3A
Trace #107 at position 26.500000
$GPZDA,084906.03,09,10,2011,00,00*6C
$GPRMC,084906.00,A,4611.967125,N,01258.222938,E,000.1,354.9,091011,0.2,E,A*34
$GPGGA,084907.00,4611.967120,N,01258.222955,E,1,05,1.8,141.11,M,46.25,M,,*6F
$GPGLL,4611.967120,N,01258.222955,E,084907.00,A,A*67
$GPVTG,146.4,T,146.6,M,000.3,N,000.5,K,A*27
$GPGSV,2,1,08,02,38,082,42,09,21,151,40,12,59,073,45,14,30,256,38*7A
$GPGSV,2,2,08,25,75,327,37,29,49,221,48,30,31,289,30,31,23,313,*7E
$GPGSA,M,3,02,09,12,14,29,,,,,,,,3.8,1.8,3.3*3A
Trace #108 at position 26.750000
$GPZDA,084907.03,09,10,2011,00,00*6D
$GPRMC,084907.00,A,4611.967120,N,01258.222955,E,000.3,146.4,091011,0.2,E,A*35
$GPGGA,084908.00,4611.967179,N,01258.222911,E,1,04,6.1,141.00,M,46.25,M,,*63
$GPGLL,4611.967179,N,01258.222911,E,084908.00,A,A*64
$GPVTG,123.9,T,124.1,M,000.1,N,000.2,K,A*2F
$GPGSV,2,1,08,02,38,082,44,09,21,151,37,12,59,073,42,14,30,256,36*75
$GPGSV,2,2,08,25,75,327,39,29,49,221,48,30,31,289,33,31,23,313,*73
$GPGSA,M,3,02,09,12,29,,,,,,,,,12.1,6.1,10.4*3D
Trace #109 at position 27.000000
$GPZDA,084907.03,09,10,2011,00,00*6D
$GPRMC,084907.00,A,4611.967120,N,01258.222955,E,000.3,146.4,091011,0.2,E,A*35
$GPGGA,084908.00,4611.967179,N,01258.222911,E,1,04,6.1,141.00,M,46.25,M,,*63
$GPGLL,4611.967179,N,01258.222911,E,084908.00,A,A*64
$GPVTG,123.9,T,124.1,M,000.1,N,000.2,K,A*2F
$GPGSV,2,1,08,02,38,082,44,09,21,151,37,12,59,073,42,14,30,256,36*75
$GPGSV,2,2,08,25,75,327,39,29,49,221,48,30,31,289,33,31,23,313,*73
$GPGSA,M,3,02,09,12,29,,,,,,,,,12.1,6.1,10.4*3D
Trace #110 at position 27.250000
$GPZDA,084908.04,09,10,2011,00,00*65
$GPRMC,084908.00,A,4611.967179,N,01258.222911,E,000.1,123.9,091011,0.2,E,A*3A
$GPGGA,084909.00,4611.967100,N,01258.222991,E,1,05,5.3,141.27,M,46.25,M,,*61
$GPGLL,4611.967100,N,01258.222991,E,084909.00,A,A*63
$GPVTG,313.2,T,313.3,M,000.1,N,000.2,K,A*21
$GPGSV,2,1,08,02,38,082,44,09,21,151,39,12,59,073,43,14,30,256,39*75
$GPGSV,2,2,08,25,75,327,42,29,49,221,47,30,31,289,34,31,23,313,*77
$GPGSA,M,3,02,09,12,25,29,,,,,,,,11.1,5.3,9.7*03
Trace #111 at position 27.500000
$GPZDA,084908.04,09,10,2011,00,00*65
$GPRMC,084908.00,A,4611.967179,N,01258.222911,E,000.1,123.9,091011,0.2,E,A*3A
$GPGGA,084909.00,4611.967100,N,01258.222991,E,1,05,5.3,141.27,M,46.25,M,,*61
$GPGLL,4611.967100,N,01258.222991,E,084909.00,A,A*63
$GPVTG,313.2,T,313.3,M,000.1,N,000.2,K,A*21
$GPGSV,2,1,08,02,38,082,44,09,21,151,39,12,59,073,43,14,30,256,39*75
$GPGSV,2,2,08,25,75,327,42,29,49,221,47,30,31,289,34,31,23,313,*77
$GPGSA,M,3,02,09,12,25,29,,,,,,,,11.1,5.3,9.7*03
Trace #112 at position 27.750000
$GPZDA,084908.04,09,10,2011,00,00*65
$GPRMC,084908.00,A,4611.967179,N,01258.222911,E,000.1,123.9,091011,0.2,E,A*3A
$GPGGA,084909.00,4611.967100,N,01258.222991,E,1,05,5.3,141.27,M,46.25,M,,*61
$GPGLL,4611.967100,N,01258.222991,E,084909.00,A,A*63
$GPVTG,313.2,T,313.3,M,000.1,N,000.2,K,A*21
$GPGSV,2,1,08,02,38,082,44,09,21,151,39,12,59,073,43,14,30,256,39*75
$GPGSV,2,2,08,25,75,327,42,29,49,221,47,30,31,289,34,31,23,313,*77
$GPGSA,M,3,02,09,12,25,29,,,,,,,,11.1,5.3,9.7*03
Trace #113 at position 28.000000
$GPZDA,084909.04,09,10,2011,00,00*64
$GPRMC,084909.00,A,4611.967100,N,01258.222991,E,000.1,313.2,091011,0.2,E,A*37
$GPGGA,084910.00,4611.967023,N,01258.223062,E,1,05,5.3,141.57,M,46.25,M,,*6A
$GPGLL,4611.967023,N,01258.223062,E,084910.00,A,A*6F
$GPVTG,138.5,T,138.7,M,000.2,N,000.3,K,A*20
