Trace #1 at position 0.000000
$GPZDA,085219.03,09,10,2011,00,00*68
$GPRMC,085219.00,A,4611.953336,N,01258.229491,E,000.1,168.5,091011,0.2,E,A*33
$GPGGA,085220.00,4611.953321,N,01258.229500,E,1,04,5.8,141.78,M,46.25,M,,*69
$GPGLL,4611.953321,N,01258.229500,E,085220.00,A,A*6B
$GPVTG,327.0,T,327.2,M,000.2,N,000.5,K,A*26
$GPGSV,2,1,08,02,38,080,44,09,20,151,,12,58,075,44,14,29,254,37*78
$GPGSV,2,2,08,25,76,332,43,29,51,222,47,30,32,290,31,31,24,313,*72
$GPGSA,M,3,02,12,25,29,,,,,,,,,11.0,5.8,9.4*03
Trace #2 at position 0.250000
$GPZDA,085221.03,09,10,2011,00,00*63
$GPRMC,085221.00,A,4611.953310,N,01258.229519,E,000.1,108.9,091011,0.2,E,A*37
$GPGGA,085222.00,4611.953259,N,01258.229572,E,1,04,5.8,141.89,M,46.25,M,,*6E
$GPGLL,4611.953259,N,01258.229572,E,085222.00,A,A*62
$GPVTG,148.7,T,148.9,M,000.1,N,000.2,K,A*2E
$GPGSV,2,1,08,02,38,080,46,09,20,151,,12,58,075,45,14,29,254,36*7A
$GPGSV,2,2,08,25,76,332,45,29,51,222,46,30,32,290,34,31,24,313,*70
$GPGSA,M,3,02,12,25,29,,,,,,,,,11.0,5.8,9.3*04
Trace #3 at position 0.500000
$GPZDA,085222.03,09,10,2011,00,00*60
$GPRMC,085222.00,A,4611.953259,N,01258.229572,E,000.1,148.7,091011,0.2,E,A*3F
$GPGGA,085223.00,4611.953239,N,01258.229586,E,1,04,5.8,141.88,M,46.25,M,,*63
$GPGLL,4611.953239,N,01258.229586,E,085223.00,A,A*6E
$GPVTG,320.3,T,320.5,M,000.2,N,000.4,K,A*23
$GPGSV,2,1,08,02,38,080,45,09,20,151,,12,58,075,45,14,29,254,35*7A
$GPGSV,2,2,08,25,76,332,44,29,51,222,48,30,32,290,33,31,24,313,*78
$GPGSA,M,3,02,12,25,29,,,,,,,,,11.0,5.8,9.3*04
Trace #4 at position 0.750000
$GPZDA,085222.03,09,10,2011,00,00*60
$GPRMC,085222.00,A,4611.953259,N,01258.229572,E,000.1,148.7,091011,0.2,E,A*3F
$GPGGA,085223.00,4611.953239,N,01258.229586,E,1,04,5.8,141.88,M,46.25,M,,*63
$GPGLL,4611.953239,N,01258.229586,E,085223.00,A,A*6E
$GPVTG,320.3,T,320.5,M,000.2,N,000.4,K,A*23
$GPGSV,2,1,08,02,38,080,45,09,20,151,,12,58,075,45,14,29,254,35*7A
$GPGSV,2,2,08,25,76,332,44,29,51,222,48,30,32,290,33,31,24,313,*78
$GPGSA,M,3,02,12,25,29,,,,,,,,,11.0,5.8,9.3*04
Trace #5 at position 1.000000
$GPZDA,085223.03,09,10,2011,00,00*61
$GPRMC,085223.00,A,4611.953239,N,01258.229586,E,000.2,320.3,091011,0.2,E,A*38
$GPGGA,085224.00,4611.953233,N,01258.229587,E,1,04,5.8,141.86,M,46.25,M,,*61
$GPGLL,4611.953233,N,01258.229587,E,085224.00,A,A*62
$GPVTG,190.0,T,190.1,M,000.0,N,000.0,K,A*22
$GPGSV,2,1,08,02,38,080,44,09,20,151,,12,58,075,45,14,29,254,35*7B
$GPGSV,2,2,08,25,76,332,44,29,51,222,48,30,32,290,32,31,24,313,*79
$GPGSA,M,3,02,12,25,29,,,,,,,,,11.0,5.8,9.3*04
Trace #6 at position 1.250000
$GPZDA,085223.03,09,10,2011,00,00*61
$GPRMC,085223.00,A,4611.953239,N,01258.229586,E,000.2,320.3,091011,0.2,E,A*38
$GPGGA,085224.00,4611.953233,N,01258.229587,E,1,04,5.8,141.86,M,46.25,M,,*61
$GPGLL,4611.953233,N,01258.229587,E,085224.00,A,A*62
$GPVTG,190.0,T,190.1,M,000.0,N,000.0,K,A*22
$GPGSV,2,1,08,02,38,080,44,09,20,151,,12,58,075,45,14,29,254,35*7B
$GPGSV,2,2,08,25,76,332,44,29,51,222,48,30,32,290,32,31,24,313,*79
$GPGSA,M,3,02,12,25,29,,,,,,,,,11.0,5.8,9.3*04
Trace #7 at position 1.500000
$GPZDA,085224.03,09,10,2011,00,00*66
$GPRMC,085224.00,A,4611.953233,N,01258.229587,E,000.0,190.0,091011,0.2,E,A*3C
$GPGGA,085225.00,4611.953215,N,01258.229610,E,1,04,5.8,141.90,M,46.25,M,,*6E
$GPGLL,4611.953215,N,01258.229610,E,085225.00,A,A*6A
$GPVTG,341.8,T,342.0,M,000.1,N,000.1,K,A*28
$GPGSV,2,1,08,02,38,080,44,09,20,151,,12,58,075,45,14,29,254,35*7B
$GPGSV,2,2,08,25,76,332,45,29,51,222,49,30,32,290,34,31,24,313,*7F
$GPGSA,M,3,02,12,25,29,,,,,,,,,11.0,5.8,9.3*04
Trace #8 at position 1.750000
$GPZDA,085224.03,09,10,2011,00,00*66
$GPRMC,085224.00,A,4611.953233,N,01258.229587,E,000.0,190.0,091011,0.2,E,A*3C
$GPGGA,085225.00,4611.953215,N,01258.229610,E,1,04,5.8,141.90,M,46.25,M,,*6E
$GPGLL,4611.953215,N,01258.229610,E,085225.00,A,A*6A
$GPVTG,341.8,T,342.0,M,000.1,N,000.1,K,A*28
$GPGSV,2,1,08,02,38,080,44,09,20,151,,12,58,075,45,14,29,254,35*7B
$GPGSV,2,2,08,25,76,332,45,29,51,222,49,30,32,290,34,31,24,313,*7F
$GPGSA,M,3,02,12,25,29,,,,,,,,,11.0,5.8,9.3*04
Trace #9 at position 2.000000
$GPZDA,085225.03,09,10,2011,00,00*67
$GPRMC,085225.00,A,4611.953215,N,01258.229610,E,000.1,341.8,091011,0.2,E,A*33
$GPGGA,085226.00,4611.953179,N,01258.229646,E,1,04,5.8,141.95,M,46.25,M,,*62
$GPGLL,4611.953179,N,01258.229646,E,085226.00,A,A*63
$GPVTG,155.1,T,155.3,M,000.2,N,000.3,K,A*20
$GPGSV,2,1,08,02,38,080,45,09,20,151,,12,58,075,46,14,29,254,35*79
$GPGSV,2,2,08,25,76,332,47,29,51,222,49,30,32,290,36,31,24,313,*7F
$GPGSA,M,3,02,12,25,29,,,,,,,,,11.0,5.8,9.3*04
Trace #10 at position 2.250000
$GPZDA,085225.03,09,10,2011,00,00*67
$GPRMC,085225.00,A,4611.953215,N,01258.229610,E,000.1,341.8,091011,0.2,E,A*33
$GPGGA,085226.00,4611.953179,N,01258.229646,E,1,04,5.8,141.95,M,46.25,M,,*62
$GPGLL,4611.953179,N,01258.229646,E,085226.00,A,A*63
$GPVTG,155.1,T,155.3,M,000.2,N,000.3,K,A*20
$GPGSV,2,1,08,02,38,080,45,09,20,151,,12,58,075,46,14,29,254,35*79
$GPGSV,2,2,08,25,76,332,47,29,51,222,49,30,32,290,36,31,24,313,*7F
$GPGSA,M,3,02,12,25,29,,,,,,,,,11.0,5.8,9.3*04
Trace #11 at position 2.500000
$GPZDA,085225.03,09,10,2011,00,00*67
$GPRMC,085225.00,A,4611.953215,N,01258.229610,E,000.1,341.8,091011,0.2,E,A*33
$GPGGA,085226.00,4611.953179,N,01258.229646,E,1,04,5.8,141.95,M,46.25,M,,*62
$GPGLL,4611.953179,N,01258.229646,E,085226.00,A,A*63
$GPVTG,155.1,T,155.3,M,000.2,N,000.3,K,A*20
$GPGSV,2,1,08,02,38,080,45,09,20,151,,12,58,075,46,14,29,254,35*79
$GPGSV,2,2,08,25,76,332,47,29,51,222,49,30,32,290,36,31,24,313,*7F
$GPGSA,M,3,02,12,25,29,,,,,,,,,11.0,5.8,9.3*04
Trace #12 at position 2.750000
$GPZDA,085226.03,09,10,2011,00,00*64
$GPRMC,085226.00,A,4611.953179,N,01258.229646,E,000.2,155.1,091011,0.2,E,A*37
$GPGGA,085227.00,4611.953149,N,01258.229673,E,1,04,5.8,142.03,M,46.25,M,,*6A
$GPGLL,4611.953149,N,01258.229673,E,085227.00,A,A*67
$GPVTG,326.1,T,326.2,M,000.1,N,000.2,K,A*23
$GPGSV,2,1,08,02,38,080,45,09,20,151,,12,58,075,45,14,29,254,35*7A
$GPGSV,2,2,08,25,76,332,46,29,51,222,49,30,32,290,36,31,24,313,*7E
$GPGSA,M,3,02,12,25,29,,,,,,,,,11.0,5.8,9.3*04
Trace #13 at position 3.000000
$GPZDA,085226.03,09,10,2011,00,00*64
$GPRMC,085226.00,A,4611.953179,N,01258.229646,E,000.2,155.1,091011,0.2,E,A*37
$GPGGA,085227.00,4611.953149,N,01258.229673,E,1,04,5.8,142.03,M,46.25,M,,*6A
$GPGLL,4611.953149,N,01258.229673,E,085227.00,A,A*67
$GPVTG,326.1,T,326.2,M,000.1,N,000.2,K,A*23
$GPGSV,2,1,08,02,38,080,45,09,20,151,,12,58,075,45,14,29,254,35*7A
$GPGSV,2,2,08,25,76,332,46,29,51,222,49,30,32,290,36,31,24,313,*7E
$GPGSA,M,3,02,12,25,29,,,,,,,,,11.0,5.8,9.3*04
Trace #14 at position 3.250000
$GPZDA,085227.03,09,10,2011,00,00*65
$GPRMC,085227.00,A,4611.953149,N,01258.229673,E,000.1,326.1,091011,0.2,E,A*36
$GPGGA,085228.00,4611.953217,N,01258.229657,E,1,04,5.8,142.25,M,46.25,M,,*6F
$GPGLL,4611.953217,N,01258.229657,E,085228.00,A,A*66
$GPVTG,346.6,T,346.8,M,000.6,N,001.1,K,A*2B
$GPGSV,2,1,08,02,38,080,44,09,20,151,,12,58,075,44,14,29,254,38*77
$GPGSV,2,2,08,25,76,332,46,29,51,222,49,30,32,290,37,31,24,313,*7F
$GPGSA,M,3,02,12,25,29,,,,,,,,,11.0,5.8,9.3*04
Trace #15 at position 3.500000
$GPZDA,085227.03,09,10,2011,00,00*65
$GPRMC,085227.00,A,4611.953149,N,01258.229673,E,000.1,326.1,091011,0.2,E,A*36
$GPGGA,085228.00,4611.953217,N,01258.229657,E,1,04,5.8,142.25,M,46.25,M,,*6F
$GPGLL,4611.953217,N,01258.229657,E,085228.00,A,A*66
$GPVTG,346.6,T,346.8,M,000.6,N,001.1,K,A*2B
$GPGSV,2,1,08,02,38,080,44,09,20,151,,12,58,075,44,14,29,254,38*77
$GPGSV,2,2,08,25,76,332,46,29,51,222,49,30,32,290,37,31,24,313,*7F
$GPGSA,M,3,02,12,25,29,,,,,,,,,11.0,5.8,9.3*04
Trace #16 at position 3.750000
$GPZDA,085227.03,09,10,2011,00,00*65
$GPRMC,085227.00,A,4611.953149,N,01258.229673,E,000.1,326.1,091011,0.2,E,A*36
$GPGGA,085228.00,4611.953217,N,01258.229657,E,1,04,5.8,142.25,M,46.25,M,,*6F
$GPGLL,4611.953217,N,01258.229657,E,085228.00,A,A*66
$GPVTG,346.6,T,346.8,M,000.6,N,001.1,K,A*2B
$GPGSV,2,1,08,02,38,080,44,09,20,151,,12,58,075,44,14,29,254,38*77
$GPGSV,2,2,08,25,76,332,46,29,51,222,49,30,32,290,37,31,24,313,*7F
$GPGSA,M,3,02,12,25,29,,,,,,,,,11.0,5.8,9.3*04
Trace #17 at position 4.000000
$GPZDA,085228.03,09,10,2011,00,00*6A
$GPRMC,085228.00,A,4611.953217,N,01258.229657,E,000.6,346.6,091011,0.2,E,A*31
$GPGGA,085229.00,4611.953380,N,01258.229610,E,1,04,5.8,142.52,M,46.25,M,,*62
$GPGLL,4611.953380,N,01258.229610,E,085229.00,A,A*6B
$GPVTG,345.5,T,345.6,M,000.7,N,001.4,K,A*22
$GPGSV,2,1,08,02,38,080,45,09,20,151,,12,58,075,45,14,29,254,39*76
$GPGSV,2,2,08,25,76,332,46,29,51,222,48,30,32,290,35,31,24,313,*7C
$GPGSA,M,3,02,12,25,29,,,,,,,,,11.0,5.8,9.3*04
Trace #18 at position 4.250000
$GPZDA,085228.03,09,10,2011,00,00*6A
$GPRMC,085228.00,A,4611.953217,N,01258.229657,E,000.6,346.6,091011,0.2,E,A*31
$GPGGA,085229.00,4611.953380,N,01258.229610,E,1,04,5.8,142.52,M,46.25,M,,*62
$GPGLL,4611.953380,N,01258.229610,E,085229.00,A,A*6B
$GPVTG,345.5,T,345.6,M,000.7,N,001.4,K,A*22
$GPGSV,2,1,08,02,38,080,45,09,20,151,,12,58,075,45,14,29,254,39*76
$GPGSV,2,2,08,25,76,332,46,29,51,222,48,30,32,290,35,31,24,313,*7C
$GPGSA,M,3,02,12,25,29,,,,,,,,,11.0,5.8,9.3*04
Trace #19 at position 4.500000
$GPZDA,085229.03,09,10,2011,00,00*6B
$GPRMC,085229.00,A,4611.953380,N,01258.229610,E,000.7,345.5,091011,0.2,E,A*3D
$GPGGA,085230.00,4611.953641,N,01258.229586,E,1,04,5.8,142.50,M,46.25,M,,*6C
$GPGLL,4611.953641,N,01258.229586,E,085230.00,A,A*67
$GPVTG,2.8,T,3.0,M,001.2,N,002.3,K,A*28
$GPGSV,2,1,08,02,38,080,44,09,20,151,,12,58,075,42,14,29,254,38*71
$GPGSV,2,2,08,25,76,332,42,29,51,222,47,30,32,290,35,31,24,313,*77
$GPGSA,M,3,02,12,25,29,,,,,,,,,11.0,5.8,9.3*04
Trace #20 at position 4.750000
$GPZDA,085229.03,09,10,2011,00,00*6B
$GPRMC,085229.00,A,4611.953380,N,01258.229610,E,000.7,345.5,091011,0.2,E,A*3D
$GPGGA,085230.00,4611.953641,N,01258.229586,E,1,04,5.8,142.50,M,46.25,M,,*6C
$GPGLL,4611.953641,N,01258.229586,E,085230.00,A,A*67
$GPVTG,2.8,T,3.0,M,001.2,N,002.3,K,A*28
$GPGSV,2,1,08,02,38,080,44,09,20,151,,12,58,075,42,14,29,254,38*71
$GPGSV,2,2,08,25,76,332,42,29,51,222,47,30,32,290,35,31,24,313,*77
$GPGSA,M,3,02,12,25,29,,,,,,,,,11.0,5.8,9.3*04
Trace #21 at position 5.000000
$GPZDA,085229.03,09,10,2011,00,00*6B
$GPRMC,085229.00,A,4611.953380,N,01258.229610,E,000.7,345.5,091011,0.2,E,A*3D
$GPGGA,085230.00,4611.953641,N,01258.229586,E,1,04,5.8,142.50,M,46.25,M,,*6C
$GPGLL,4611.953641,N,01258.229586,E,085230.00,A,A*67
$GPVTG,2.8,T,3.0,M,001.2,N,002.3,K,A*28
$GPGSV,2,1,08,02,38,080,44,09,20,151,,12,58,075,42,14,29,254,38*71
$GPGSV,2,2,08,25,76,332,42,29,51,222,47,30,32,290,35,31,24,313,*77
$GPGSA,M,3,02,12,25,29,,,,,,,,,11.0,5.8,9.3*04
Trace #22 at position 5.250000
$GPZDA,085230.03,09,10,2011,00,00*63
$GPRMC,085230.00,A,4611.953641,N,01258.229586,E,001.2,2.8,091011,0.2,E,A*38
$GPGGA,085231.00,4611.953997,N,01258.229473,E,1,05,2.7,142.25,M,46.25,M,,*69
$GPGLL,4611.953997,N,01258.229473,E,085231.00,A,A*69
$GPVTG,342.1,T,342.3,M,001.2,N,002.3,K,A*23
$GPGSV,2,1,08,02,38,080,44,09,20,151,,12,58,075,42,14,29,254,40*7E
$GPGSV,2,2,08,25,76,332,44,29,51,222,48,30,32,290,34,31,24,313,*7F
$GPGSA,M,3,02,12,14,25,29,,,,,,,,4.0,2.7,2.9*3C
Trace #23 at position 5.500000
$GPZDA,085230.03,09,10,2011,00,00*63
$GPRMC,085230.00,A,4611.953641,N,01258.229586,E,001.2,2.8,091011,0.2,E,A*38
$GPGGA,085231.00,4611.953997,N,01258.229473,E,1,05,2.7,142.25,M,46.25,M,,*69
$GPGLL,4611.953997,N,01258.229473,E,085231.00,A,A*69
$GPVTG,342.1,T,342.3,M,001.2,N,002.3,K,A*23
$GPGSV,2,1,08,02,38,080,44,09,20,151,,12,58,075,42,14,29,254,40*7E
$GPGSV,2,2,08,25,76,332,44,29,51,222,48,30,32,290,34,31,24,313,*7F
$GPGSA,M,3,02,12,14,25,29,,,,,,,,4.0,2.7,2.9*3C
Trace #24 at position 5.750000
$GPZDA,085230.03,09,10,2011,00,00*63
$GPRMC,085230.00,A,4611.953641,N,01258.229586,E,001.2,2.8,091011,0.2,E,A*38
$GPGGA,085231.00,4611.953997,N,01258.229473,E,1,05,2.7,142.25,M,46.25,M,,*69
$GPGLL,4611.953997,N,01258.229473,E,085231.00,A,A*69
$GPVTG,342.1,T,342.3,M,001.2,N,002.3,K,A*23
$GPGSV,2,1,08,02,38,080,44,09,20,151,,12,58,075,42,14,29,254,40*7E
$GPGSV,2,2,08,25,76,332,44,29,51,222,48,30,32,290,34,31,24,313,*7F
$GPGSA,M,3,02,12,14,25,29,,,,,,,,4.0,2.7,2.9*3C
Trace #25 at position 6.000000
$GPZDA,085231.03,09,10,2011,00,00*62
$GPRMC,085231.00,A,4611.953997,N,01258.229473,E,001.2,342.1,091011,0.2,E,A*38
$GPGGA,085232.00,4611.954237,N,01258.229269,E,1,05,2.7,142.19,M,46.25,M,,*6E
$GPGLL,4611.954237,N,01258.229269,E,085232.00,A,A*61
$GPVTG,304.9,T,305.0,M,000.5,N,001.0,K,A*2F
$GPGSV,2,1,08,02,38,080,45,09,20,151,,12,58,075,44,14,29,254,41*78
$GPGSV,2,2,08,25,76,332,45,29,51,222,48,30,32,290,31,31,24,313,*7B
$GPGSA,M,3,02,12,14,25,29,,,,,,,,4.0,2.7,2.9*3C
Trace #26 at position 6.250000
$GPZDA,085231.03,09,10,2011,00,00*62
$GPRMC,085231.00,A,4611.953997,N,01258.229473,E,001.2,342.1,091011,0.2,E,A*38
$GPGGA,085232.00,4611.954237,N,01258.229269,E,1,05,2.7,142.19,M,46.25,M,,*6E
$GPGLL,4611.954237,N,01258.229269,E,085232.00,A,A*61
$GPVTG,304.9,T,305.0,M,000.5,N,001.0,K,A*2F
$GPGSV,2,1,08,02,38,080,45,09,20,151,,12,58,075,44,14,29,254,41*78
$GPGSV,2,2,08,25,76,332,45,29,51,222,48,30,32,290,31,31,24,313,*7B
$GPGSA,M,3,02,12,14,25,29,,,,,,,,4.0,2.7,2.9*3C
Trace #27 at position 6.500000
$GPZDA,085232.03,09,10,2011,00,00*61
$GPRMC,085232.00,A,4611.954237,N,01258.229269,E,000.5,304.9,091011,0.2,E,A*3C
$GPGGA,085233.00,4611.954494,N,01258.229128,E,1,05,2.7,142.07,M,46.25,M,,*69
$GPGLL,4611.954494,N,01258.229128,E,085233.00,A,A*69
$GPVTG,355.9,T,356.0,M,001.3,N,002.4,K,A*2D
$GPGSV,2,1,08,02,38,080,45,09,20,151,,12,58,075,45,14,29,254,39*76
$GPGSV,2,2,08,25,76,332,44,29,51,222,47,30,32,290,38,31,24,313,*7C
$GPGSA,M,3,02,12,14,25,29,,,,,,,,4.0,2.7,2.9*3C
Trace #28 at position 6.750000
$GPZDA,085232.03,09,10,2011,00,00*61
$GPRMC,085232.00,A,4611.954237,N,01258.229269,E,000.5,304.9,091011,0.2,E,A*3C
$GPGGA,085233.00,4611.954494,N,01258.229128,E,1,05,2.7,142.07,M,46.25,M,,*69
$GPGLL,4611.954494,N,01258.229128,E,085233.00,A,A*69
$GPVTG,355.9,T,356.0,M,001.3,N,002.4,K,A*2D
$GPGSV,2,1,08,02,38,080,45,09,20,151,,12,58,075,45,14,29,254,39*76
$GPGSV,2,2,08,25,76,332,44,29,51,222,47,30,32,290,38,31,24,313,*7C
$GPGSA,M,3,02,12,14,25,29,,,,,,,,4.0,2.7,2.9*3C
Trace #29 at position 7.000000
$GPZDA,085232.03,09,10,2011,00,00*61
$GPRMC,085232.00,A,4611.954237,N,01258.229269,E,000.5,304.9,091011,0.2,E,A*3C
$GPGGA,085233.00,4611.954494,N,01258.229128,E,1,05,2.7,142.07,M,46.25,M,,*69
$GPGLL,4611.954494,N,01258.229128,E,085233.00,A,A*69
$GPVTG,355.9,T,356.0,M,001.3,N,002.4,K,A*2D
$GPGSV,2,1,08,02,38,080,45,09,20,151,,12,58,075,45,14,29,254,39*76
$GPGSV,2,2,08,25,76,332,44,29,51,222,47,30,32,290,38,31,24,313,*7C
$GPGSA,M,3,02,12,14,25,29,,,,,,,,4.0,2.7,2.9*3C
Trace #30 at position 7.250000
$GPZDA,085233.03,09,10,2011,00,00*60
$GPRMC,085233.00,A,4611.954494,N,01258.229128,E,001.3,355.9,091011,0.2,E,A*37
$GPGGA,085234.00,4611.954882,N,01258.229102,E,1,05,2.7,141.83,M,46.25,M,,*62
$GPGLL,4611.954882,N,01258.229102,E,085234.00,A,A*6D
$GPVTG,7.4,T,7.6,M,001.3,N,002.4,K,A*25
$GPGSV,2,1,08,02,38,080,43,09,20,151,,12,58,075,44,14,29,254,39*71
$GPGSV,2,2,08,25,76,333,46,29,51,222,47,30,32,290,35,31,24,313,30*71
$GPGSA,M,3,02,12,14,25,29,,,,,,,,4.0,2.7,2.9*3C
Trace #31 at position 7.500000
$GPZDA,085233.03,09,10,2011,00,00*60
$GPRMC,085233.00,A,4611.954494,N,01258.229128,E,001.3,355.9,091011,0.2,E,A*37
$GPGGA,085234.00,4611.954882,N,01258.229102,E,1,05,2.7,141.83,M,46.25,M,,*62
$GPGLL,4611.954882,N,01258.229102,E,085234.00,A,A*6D
$GPVTG,7.4,T,7.6,M,001.3,N,002.4,K,A*25
$GPGSV,2,1,08,02,38,080,43,09,20,151,,12,58,075,44,14,29,254,39*71
$GPGSV,2,2,08,25,76,333,46,29,51,222,47,30,32,290,35,31,24,313,30*71
$GPGSA,M,3,02,12,14,25,29,,,,,,,,4.0,2.7,2.9*3C
Trace #32 at position 7.750000
$GPZDA,085233.03,09,10,2011,00,00*60
$GPRMC,085233.00,A,4611.954494,N,01258.229128,E,001.3,355.9,091011,0.2,E,A*37
$GPGGA,085234.00,4611.954882,N,01258.229102,E,1,05,2.7,141.83,M,46.25,M,,*62
$GPGLL,4611.954882,N,01258.229102,E,085234.00,A,A*6D
$GPVTG,7.4,T,7.6,M,001.3,N,002.4,K,A*25
$GPGSV,2,1,08,02,38,080,43,09,20,151,,12,58,075,44,14,29,254,39*71
$GPGSV,2,2,08,25,76,333,46,29,51,222,47,30,32,290,35,31,24,313,30*71
$GPGSA,M,3,02,12,14,25,29,,,,,,,,4.0,2.7,2.9*3C
Trace #33 at position 8.000000
$GPZDA,085234.03,09,10,2011,00,00*67
$GPRMC,085234.00,A,4611.954882,N,01258.229102,E,001.3,7.4,091011,0.2,E,A*3A
$GPGGA,085235.00,4611.955319,N,01258.229107,E,1,05,2.7,141.63,M,46.25,M,,*60
$GPGLL,4611.955319,N,01258.229107,E,085235.00,A,A*61
$GPVTG,6.2,T,6.4,M,001.7,N,003.2,K,A*22
$GPGSV,2,1,08,02,38,080,43,09,20,151,,12,58,075,43,14,29,254,40*78
$GPGSV,2,2,08,25,76,333,46,29,51,222,46,30,32,290,,31,24,313,32*74
$GPGSA,M,3,02,12,14,25,29,,,,,,,,4.0,2.7,2.9*3C
Trace #34 at position 8.250000
$GPZDA,085234.03,09,10,2011,00,00*67
$GPRMC,085234.00,A,4611.954882,N,01258.229102,E,001.3,7.4,091011,0.2,E,A*3A
$GPGGA,085235.00,4611.955319,N,01258.229107,E,1,05,2.7,141.63,M,46.25,M,,*60
$GPGLL,4611.955319,N,01258.229107,E,085235.00,A,A*61
$GPVTG,6.2,T,6.4,M,001.7,N,003.2,K,A*22
$GPGSV,2,1,08,02,38,080,43,09,20,151,,12,58,075,43,14,29,254,40*78
$GPGSV,2,2,08,25,76,333,46,29,51,222,46,30,32,290,,31,24,313,32*74
$GPGSA,M,3,02,12,14,25,29,,,,,,,,4.0,2.7,2.9*3C
Trace #35 at position 8.500000
$GPZDA,085234.03,09,10,2011,00,00*67
$GPRMC,085234.00,A,4611.954882,N,01258.229102,E,001.3,7.4,091011,0.2,E,A*3A
$GPGGA,085235.00,4611.955319,N,01258.229107,E,1,05,2.7,141.63,M,46.25,M,,*60
$GPGLL,4611.955319,N,01258.229107,E,085235.00,A,A*61
$GPVTG,6.2,T,6.4,M,001.7,N,003.2,K,A*22
$GPGSV,2,1,08,02,38,080,43,09,20,151,,12,58,075,43,14,29,254,40*78
$GPGSV,2,2,08,25,76,333,46,29,51,222,46,30,32,290,,31,24,313,32*74
$GPGSA,M,3,02,12,14,25,29,,,,,,,,4.0,2.7,2.9*3C
Trace #36 at position 8.750000
$GPZDA,085235.03,09,10,2011,00,00*66
$GPRMC,085235.00,A,4611.955319,N,01258.229107,E,001.7,6.2,091011,0.2,E,A*35
$GPGGA,085236.00,4611.955774,N,01258.229067,E,1,05,2.7,141.45,M,46.25,M,,*6F
$GPGLL,4611.955774,N,01258.229067,E,085236.00,A,A*6A
$GPVTG,0.3,T,0.5,M,001.6,N,002.9,K,A*29
$GPGSV,2,1,08,02,38,080,44,09,20,151,,12,58,075,45,14,29,254,39*77
$GPGSV,2,2,08,25,76,333,45,29,51,222,47,30,32,290,34,31,24,313,32*71
$GPGSA,M,3,02,12,14,25,29,,,,,,,,4.0,2.7,2.9*3C
Trace #37 at position 9.000000
$GPZDA,085235.03,09,10,2011,00,00*66
$GPRMC,085235.00,A,4611.955319,N,01258.229107,E,001.7,6.2,091011,0.2,E,A*35
$GPGGA,085236.00,4611.955774,N,01258.229067,E,1,05,2.7,141.45,M,46.25,M,,*6F
$GPGLL,4611.955774,N,01258.229067,E,085236.00,A,A*6A
$GPVTG,0.3,T,0.5,M,001.6,N,002.9,K,A*29
$GPGSV,2,1,08,02,38,080,44,09,20,151,,12,58,075,45,14,29,254,39*77
$GPGSV,2,2,08,25,76,333,45,29,51,222,47,30,32,290,34,31,24,313,32*71
$GPGSA,M,3,02,12,14,25,29,,,,,,,,4.0,2.7,2.9*3C
Trace #38 at position 9.250000
$GPZDA,085235.03,09,10,2011,00,00*66
$GPRMC,085235.00,A,4611.955319,N,01258.229107,E,001.7,6.2,091011,0.2,E,A*35
$GPGGA,085236.00,4611.955774,N,01258.229067,E,1,05,2.7,141.45,M,46.25,M,,*6F
$GPGLL,4611.955774,N,01258.229067,E,085236.00,A,A*6A
$GPVTG,0.3,T,0.5,M,001.6,N,002.9,K,A*29
$GPGSV,2,1,08,02,38,080,44,09,20,151,,12,58,075,45,14,29,254,39*77
$GPGSV,2,2,08,25,76,333,45,29,51,222,47,30,32,290,34,31,24,313,32*71
$GPGSA,M,3,02,12,14,25,29,,,,,,,,4.0,2.7,2.9*3C
Trace #39 at position 9.500000
$GPZDA,085236.03,09,10,2011,00,00*65
$GPRMC,085236.00,A,4611.955774,N,01258.229067,E,001.6,0.3,091011,0.2,E,A*38
$GPGGA,085237.00,4611.956124,N,01258.228898,E,1,05,2.7,141.32,M,46.25,M,,*67
$GPGLL,4611.956124,N,01258.228898,E,085237.00,A,A*62
$GPVTG,334.7,T,334.8,M,001.1,N,002.0,K,A*2E
$GPGSV,2,1,08,02,38,080,43,09,20,151,,12,58,075,45,14,29,254,40*7E
$GPGSV,2,2,08,25,76,333,45,29,51,222,47,30,32,290,36,31,24,313,*72
$GPGSA,M,3,02,12,14,25,29,,,,,,,,4.0,2.7,2.9*3C
Trace #40 at position 9.750000
$GPZDA,085236.03,09,10,2011,00,00*65
$GPRMC,085236.00,A,4611.955774,N,01258.229067,E,001.6,0.3,091011,0.2,E,A*38
$GPGGA,085237.00,4611.956124,N,01258.228898,E,1,05,2.7,141.32,M,46.25,M,,*67
$GPGLL,4611.956124,N,01258.228898,E,085237.00,A,A*62
$GPVTG,334.7,T,334.8,M,001.1,N,002.0,K,A*2E
$GPGSV,2,1,08,02,38,080,43,09,20,151,,12,58,075,45,14,29,254,40*7E
$GPGSV,2,2,08,25,76,333,45,29,51,222,47,30,32,290,36,31,24,313,*72
$GPGSA,M,3,02,12,14,25,29,,,,,,,,4.0,2.7,2.9*3C
Trace #41 at position 10.000000
$GPZDA,085236.03,09,10,2011,00,00*65
$GPRMC,085236.00,A,4611.955774,N,01258.229067,E,001.6,0.3,091011,0.2,E,A*38
$GPGGA,085237.00,4611.956124,N,01258.228898,E,1,05,2.7,141.32,M,46.25,M,,*67
$GPGLL,4611.956124,N,01258.228898,E,085237.00,A,A*62
$GPVTG,334.7,T,334.8,M,001.1,N,002.0,K,A*2E
$GPGSV,2,1,08,02,38,080,43,09,20,151,,12,58,075,45,14,29,254,40*7E
$GPGSV,2,2,08,25,76,333,45,29,51,222,47,30,32,290,36,31,24,313,*72
$GPGSA,M,3,02,12,14,25,29,,,,,,,,4.0,2.7,2.9*3C
Trace #42 at position 10.250000
$GPZDA,085237.03,09,10,2011,00,00*64
$GPRMC,085237.00,A,4611.956124,N,01258.228898,E,001.1,334.7,091011,0.2,E,A*37
$GPGGA,085238.00,4611.956383,N,01258.228643,E,1,05,2.7,141.38,M,46.25,M,,*65
$GPGLL,4611.956383,N,01258.228643,E,085238.00,A,A*6A
$GPVTG,327.4,T,327.5,M,001.0,N,001.8,K,A*2A
$GPGSV,2,1,08,02,38,080,43,09,20,151,,12,58,076,44,14,29,254,41*7D
$GPGSV,2,2,08,25,76,333,44,29,51,222,47,30,32,290,38,31,24,313,*7D
$GPGSA,M,3,02,12,14,25,29,,,,,,,,4.0,2.7,2.9*3C
Trace #43 at position 10.500000
$GPZDA,085237.03,09,10,2011,00,00*64
$GPRMC,085237.00,A,4611.956124,N,01258.228898,E,001.1,334.7,091011,0.2,E,A*37
$GPGGA,085238.00,4611.956383,N,01258.228643,E,1,05,2.7,141.38,M,46.25,M,,*65
$GPGLL,4611.956383,N,01258.228643,E,085238.00,A,A*6A
$GPVTG,327.4,T,327.5,M,001.0,N,001.8,K,A*2A
$GPGSV,2,1,08,02,38,080,43,09,20,151,,12,58,076,44,14,29,254,41*7D
$GPGSV,2,2,08,25,76,333,44,29,51,222,47,30,32,290,38,31,24,313,*7D
$GPGSA,M,3,02,12,14,25,29,,,,,,,,4.0,2.7,2.9*3C
Trace #44 at position 10.750000
$GPZDA,085237.03,09,10,2011,00,00*64
$GPRMC,085237.00,A,4611.956124,N,01258.228898,E,001.1,334.7,091011,0.2,E,A*37
$GPGGA,085238.00,4611.956383,N,01258.228643,E,1,05,2.7,141.38,M,46.25,M,,*65
$GPGLL,4611.956383,N,01258.228643,E,085238.00,A,A*6A
$GPVTG,327.4,T,327.5,M,001.0,N,001.8,K,A*2A
$GPGSV,2,1,08,02,38,080,43,09,20,151,,12,58,076,44,14,29,254,41*7D
$GPGSV,2,2,08,25,76,333,44,29,51,222,47,30,32,290,38,31,24,313,*7D
$GPGSA,M,3,02,12,14,25,29,,,,,,,,4.0,2.7,2.9*3C
Trace #45 at position 11.000000
$GPZDA,085238.03,09,10,2011,00,00*6B
$GPRMC,085238.00,A,4611.956383,N,01258.228643,E,001.0,327.4,091011,0.2,E,A*3F
$GPGGA,085239.00,4611.956673,N,01258.228368,E,1,05,2.7,141.40,M,46.25,M,,*6D
$GPGLL,4611.956673,N,01258.228368,E,085239.00,A,A*6D
$GPVTG,330.7,T,330.9,M,001.4,N,002.6,K,A*2C
$GPGSV,2,1,08,02,38,080,43,09,20,151,,12,58,076,44,14,29,254,38*73
$GPGSV,2,2,08,25,76,333,44,29,51,222,47,30,32,290,37,31,24,313,30*71
$GPGSA,M,3,02,12,14,25,29,,,,,,,,4.0,2.7,2.9*3C
Trace #46 at position 11.250000
$GPZDA,085238.03,09,10,2011,00,00*6B
$GPRMC,085238.00,A,4611.956383,N,01258.228643,E,001.0,327.4,091011,0.2,E,A*3F
$GPGGA,085239.00,4611.956673,N,01258.228368,E,1,05,2.7,141.40,M,46.25,M,,*6D
$GPGLL,4611.956673,N,01258.228368,E,085239.00,A,A*6D
$GPVTG,330.7,T,330.9,M,001.4,N,002.6,K,A*2C
$GPGSV,2,1,08,02,38,080,43,09,20,151,,12,58,076,44,14,29,254,38*73
$GPGSV,2,2,08,25,76,333,44,29,51,222,47,30,32,290,37,31,24,313,30*71
$GPGSA,M,3,02,12,14,25,29,,,,,,,,4.0,2.7,2.9*3C
Trace #47 at position 11.500000
$GPZDA,085238.03,09,10,2011,00,00*6B
$GPRMC,085238.00,A,4611.956383,N,01258.228643,E,001.0,327.4,091011,0.2,E,A*3F
$GPGGA,085239.00,4611.956673,N,01258.228368,E,1,05,2.7,141.40,M,46.25,M,,*6D
$GPGLL,4611.956673,N,01258.228368,E,085239.00,A,A*6D
$GPVTG,330.7,T,330.9,M,001.4,N,002.6,K,A*2C
$GPGSV,2,1,08,02,38,080,43,09,20,151,,12,58,076,44,14,29,254,38*73
$GPGSV,2,2,08,25,76,333,44,29,51,222,47,30,32,290,37,31,24,313,30*71
$GPGSA,M,3,02,12,14,25,29,,,,,,,,4.0,2.7,2.9*3C
Trace #48 at position 11.750000
$GPZDA,085238.03,09,10,2011,00,00*6B
$GPRMC,085238.00,A,4611.956383,N,01258.228643,E,001.0,327.4,091011,0.2,E,A*3F
$GPGGA,085239.00,4611.956673,N,01258.228368,E,1,05,2.7,141.40,M,46.25,M,,*6D
$GPGLL,4611.956673,N,01258.228368,E,085239.00,A,A*6D
$GPVTG,330.7,T,330.9,M,001.4,N,002.6,K,A*2C
$GPGSV,2,1,08,02,38,080,43,09,20,151,,12,58,076,44,14,29,254,38*73
$GPGSV,2,2,08,25,76,333,44,29,51,222,47,30,32,290,37,31,24,313,30*71
$GPGSA,M,3,02,12,14,25,29,,,,,,,,4.0,2.7,2.9*3C
Trace #49 at position 12.000000
$GPZDA,085239.03,09,10,2011,00,00*6A
$GPRMC,085239.00,A,4611.956673,N,01258.228368,E,001.4,330.7,091011,0.2,E,A*39
$GPGGA,085240.00,4611.957046,N,01258.228176,E,1,05,2.7,141.29,M,46.25,M,,*60
$GPGLL,4611.957046,N,01258.228176,E,085240.00,A,A*6F
$GPVTG,354.0,T,354.1,M,001.4,N,002.6,K,A*23
$GPGSV,2,1,08,02,38,080,44,09,20,151,,12,58,076,44,14,29,254,38*74
$GPGSV,2,2,08,25,76,333,44,29,51,222,47,30,32,290,35,31,24,313,31*72
$GPGSA,M,3,02,12,14,25,29,,,,,,,,4.0,2.7,2.9*3C
Trace #50 at position 12.250000
$GPZDA,085239.03,09,10,2011,00,00*6A
$GPRMC,085239.00,A,4611.956673,N,01258.228368,E,001.4,330.7,091011,0.2,E,A*39
$GPGGA,085240.00,4611.957046,N,01258.228176,E,1,05,2.7,141.29,M,46.25,M,,*60
$GPGLL,4611.957046,N,01258.228176,E,085240.00,A,A*6F
$GPVTG,354.0,T,354.1,M,001.4,N,002.6,K,A*23
$GPGSV,2,1,08,02,38,080,44,09,20,151,,12,58,076,44,14,29,254,38*74
$GPGSV,2,2,08,25,76,333,44,29,51,222,47,30,32,290,35,31,24,313,31*72
$GPGSA,M,3,02,12,14,25,29,,,,,,,,4.0,2.7,2.9*3C
Trace #51 at position 12.500000
$GPZDA,085239.03,09,10,2011,00,00*6A
$GPRMC,085239.00,A,4611.956673,N,01258.228368,E,001.4,330.7,091011,0.2,E,A*39
$GPGGA,085240.00,4611.957046,N,01258.228176,E,1,05,2.7,141.29,M,46.25,M,,*60
$GPGLL,4611.957046,N,01258.228176,E,085240.00,A,A*6F
$GPVTG,354.0,T,354.1,M,001.4,N,002.6,K,A*23
$GPGSV,2,1,08,02,38,080,44,09,20,151,,12,58,076,44,14,29,254,38*74
$GPGSV,2,2,08,25,76,333,44,29,51,222,47,30,32,290,35,31,24,313,31*72
$GPGSA,M,3,02,12,14,25,29,,,,,,,,4.0,2.7,2.9*3C
Trace #52 at position 12.750000
$GPZDA,085240.03,09,10,2011,00,00*64
$GPRMC,085240.00,A,4611.957046,N,01258.228176,E,001.4,354.0,091011,0.2,E,A*3E
$GPGGA,085241.00,4611.957467,N,01258.227986,E,1,05,2.7,141.22,M,46.25,M,,*65
$GPGLL,4611.957467,N,01258.227986,E,085241.00,A,A*61
$GPVTG,337.3,T,337.4,M,001.7,N,003.2,K,A*23
$GPGSV,2,1,08,02,38,080,43,09,20,151,,12,58,076,45,14,29,254,39*73
$GPGSV,2,2,08,25,76,333,45,29,51,222,46,30,32,290,36,31,24,313,32*72
$GPGSA,M,3,02,12,14,25,29,,,,,,,,4.0,2.7,2.9*3C
Trace #53 at position 13.000000
$GPZDA,085240.03,09,10,2011,00,00*64
$GPRMC,085240.00,A,4611.957046,N,01258.228176,E,001.4,354.0,091011,0.2,E,A*3E
$GPGGA,085241.00,4611.957467,N,01258.227986,E,1,05,2.7,141.22,M,46.25,M,,*65
$GPGLL,4611.957467,N,01258.227986,E,085241.00,A,A*61
$GPVTG,337.3,T,337.4,M,001.7,N,003.2,K,A*23
$GPGSV,2,1,08,02,38,080,43,09,20,151,,12,58,076,45,14,29,254,39*73
$GPGSV,2,2,08,25,76,333,45,29,51,222,46,30,32,290,36,31,24,313,32*72
$GPGSA,M,3,02,12,14,25,29,,,,,,,,4.0,2.7,2.9*3C
Trace #54 at position 13.250000
$GPZDA,085240.03,09,10,2011,00,00*64
$GPRMC,085240.00,A,4611.957046,N,01258.228176,E,001.4,354.0,091011,0.2,E,A*3E
$GPGGA,085241.00,4611.957467,N,01258.227986,E,1,05,2.7,141.22,M,46.25,M,,*65
$GPGLL,4611.957467,N,01258.227986,E,085241.00,A,A*61
$GPVTG,337.3,T,337.4,M,001.7,N,003.2,K,A*23
$GPGSV,2,1,08,02,38,080,43,09,20,151,,12,58,076,45,14,29,254,39*73
$GPGSV,2,2,08,25,76,333,45,29,51,222,46,30,32,290,36,31,24,313,32*72
$GPGSA,M,3,02,12,14,25,29,,,,,,,,4.0,2.7,2.9*3C
Trace #55 at position 13.500000
$GPZDA,085241.03,09,10,2011,00,00*65
$GPRMC,085241.00,A,4611.957467,N,01258.227986,E,001.7,337.3,091011,0.2,E,A*35
$GPGGA,085242.00,4611.957823,N,01258.227727,E,1,05,2.7,141.16,M,46.25,M,,*68
$GPGLL,4611.957823,N,01258.227727,E,085242.00,A,A*6B
$GPVTG,329.8,T,329.9,M,001.1,N,002.0,K,A*20
$GPGSV,2,1,08,02,38,080,44,09,20,151,,12,58,076,44,14,29,254,40*7B
$GPGSV,2,2,08,25,76,333,44,29,51,222,47,30,32,290,32,31,24,313,32*76
$GPGSA,M,3,02,12,14,25,29,,,,,,,,4.0,2.7,2.9*3C
Trace #56 at position 13.750000
$GPZDA,085241.03,09,10,2011,00,00*65
$GPRMC,085241.00,A,4611.957467,N,01258.227986,E,001.7,337.3,091011,0.2,E,A*35
$GPGGA,085242.00,4611.957823,N,01258.227727,E,1,05,2.7,141.16,M,46.25,M,,*68
$GPGLL,4611.957823,N,01258.227727,E,085242.00,A,A*6B
$GPVTG,329.8,T,329.9,M,001.1,N,002.0,K,A*20
$GPGSV,2,1,08,02,38,080,44,09,20,151,,12,58,076,44,14,29,254,40*7B
$GPGSV,2,2,08,25,76,333,44,29,51,222,47,30,32,290,32,31,24,313,32*76
$GPGSA,M,3,02,12,14,25,29,,,,,,,,4.0,2.7,2.9*3C
Trace #57 at position 14.000000
$GPZDA,085241.03,09,10,2011,00,00*65
$GPRMC,085241.00,A,4611.957467,N,01258.227986,E,001.7,337.3,091011,0.2,E,A*35
$GPGGA,085242.00,4611.957823,N,01258.227727,E,1,05,2.7,141.16,M,46.25,M,,*68
$GPGLL,4611.957823,N,01258.227727,E,085242.00,A,A*6B
$GPVTG,329.8,T,329.9,M,001.1,N,002.0,K,A*20
$GPGSV,2,1,08,02,38,080,44,09,20,151,,12,58,076,44,14,29,254,40*7B
$GPGSV,2,2,08,25,76,333,44,29,51,222,47,30,32,290,32,31,24,313,32*76
$GPGSA,M,3,02,12,14,25,29,,,,,,,,4.0,2.7,2.9*3C
Trace #58 at position 14.250000
$GPZDA,085241.03,09,10,2011,00,00*65
$GPRMC,085241.00,A,4611.957467,N,01258.227986,E,001.7,337.3,091011,0.2,E,A*35
$GPGGA,085242.00,4611.957823,N,01258.227727,E,1,05,2.7,141.16,M,46.25,M,,*68
$GPGLL,4611.957823,N,01258.227727,E,085242.00,A,A*6B
$GPVTG,329.8,T,329.9,M,001.1,N,002.0,K,A*20
$GPGSV,2,1,08,02,38,080,44,09,20,151,,12,58,076,44,14,29,254,40*7B
$GPGSV,2,2,08,25,76,333,44,29,51,222,47,30,32,290,32,31,24,313,32*76
$GPGSA,M,3,02,12,14,25,29,,,,,,,,4.0,2.7,2.9*3C
Trace #59 at position 14.500000
$GPZDA,085241.03,09,10,2011,00,00*65
$GPRMC,085241.00,A,4611.957467,N,01258.227986,E,001.7,337.3,091011,0.2,E,A*35
$GPGGA,085242.00,4611.957823,N,01258.227727,E,1,05,2.7,141.16,M,46.25,M,,*68
$GPGLL,4611.957823,N,01258.227727,E,085242.00,A,A*6B
$GPVTG,329.8,T,329.9,M,001.1,N,002.0,K,A*20
$GPGSV,2,1,08,02,38,080,44,09,20,151,,12,58,076,44,14,29,254,40*7B
$GPGSV,2,2,08,25,76,333,44,29,51,222,47,30,32,290,32,31,24,313,32*76
$GPGSA,M,3,02,12,14,25,29,,,,,,,,4.0,2.7,2.9*3C
Trace #60 at position 14.750000
$GPZDA,085241.03,09,10,2011,00,00*65
$GPRMC,085241.00,A,4611.957467,N,01258.227986,E,001.7,337.3,091011,0.2,E,A*35
$GPGGA,085242.00,4611.957823,N,01258.227727,E,1,05,2.7,141.16,M,46.25,M,,*68
$GPGLL,4611.957823,N,01258.227727,E,085242.00,A,A*6B
$GPVTG,329.8,T,329.9,M,001.1,N,002.0,K,A*20
$GPGSV,2,1,08,02,38,080,44,09,20,151,,12,58,076,44,14,29,254,40*7B
$GPGSV,2,2,08,25,76,333,44,29,51,222,47,30,32,290,32,31,24,313,32*76
$GPGSA,M,3,02,12,14,25,29,,,,,,,,4.0,2.7,2.9*3C
Trace #61 at position 15.000000
$GPZDA,085242.03,09,10,2011,00,00*66
$GPRMC,085242.00,A,4611.957823,N,01258.227727,E,001.1,329.8,091011,0.2,E,A*3D
$GPGGA,085243.00,4611.958121,N,01258.227619,E,1,05,2.7,141.20,M,46.25,M,,*64
$GPGLL,4611.958121,N,01258.227619,E,085243.00,A,A*62
$GPVTG,5.6,T,5.8,M,001.2,N,002.2,K,A*2E
$GPGSV,2,1,08,02,38,080,45,09,20,151,,12,58,076,44,14,29,254,39*74
$GPGSV,2,2,08,25,76,333,46,29,51,222,47,ZDA,085243.04,09,10,2011,00,00*60
$GPRMC,085243.00,A,4611.958121,N,01258.227619,E,001.2,5.6,091011,0.2,E,A*34
$GPGGA,085244.00,4611.958517,N,01258.227614,E,1,05,2.7,141.23,M,46.25,M,,*6C
$GPGLL,4611.958517,N,01258.227614,E,085244.00,A,A*69
$GPVTG,3.5,T,3.7,M,001.6,N,003.0,K,A*25
$GPGSV,2,1,08,02,38,080,45,09,20,151,,12,58,076,44,14,29,254,39*74
$GPGSV,2,2,08,25,76,333,46,29,51,222,47,30,32,290,,31,24,313,28*7E
$GPGSA,M,3,02,12,14,25,29,,,,,,,,4.0,2.7,2.9*3C
Trace #62 at position 15.250000
$GPZDA,085242.03,09,10,2011,00,00*66
$GPRMC,085242.00,A,4611.957823,N,01258.227727,E,001.1,329.8,091011,0.2,E,A*3D
$GPGGA,085243.00,4611.958121,N,01258.227619,E,1,05,2.7,141.20,M,46.25,M,,*64
$GPGLL,4611.958121,N,01258.227619,E,085243.00,A,A*62
$GPVTG,5.6,T,5.8,M,001.2,N,002.2,K,A*2E
$GPGSV,2,1,08,02,38,080,45,09,20,151,,12,58,076,44,14,29,254,39*74
$GPGSV,2,2,08,25,76,333,46,29,51,222,47,ZDA,085243.04,09,10,2011,00,00*60
$GPRMC,085243.00,A,4611.958121,N,01258.227619,E,001.2,5.6,091011,0.2,E,A*34
$GPGGA,085244.00,4611.958517,N,01258.227614,E,1,05,2.7,141.23,M,46.25,M,,*6C
$GPGLL,4611.958517,N,01258.227614,E,085244.00,A,A*69
$GPVTG,3.5,T,3.7,M,001.6,N,003.0,K,A*25
$GPGSV,2,1,08,02,38,080,45,09,20,151,,12,58,076,44,14,29,254,39*74
$GPGSV,2,2,08,25,76,333,46,29,51,222,47,30,32,290,,31,24,313,28*7E
$GPGSA,M,3,02,12,14,25,29,,,,,,,,4.0,2.7,2.9*3C
Trace #63 at position 15.500000
$GPZDA,085242.03,09,10,2011,00,00*66
$GPRMC,085242.00,A,4611.957823,N,01258.227727,E,001.1,329.8,091011,0.2,E,A*3D
$GPGGA,085243.00,4611.958121,N,01258.227619,E,1,05,2.7,141.20,M,46.25,M,,*64
$GPGLL,4611.958121,N,01258.227619,E,085243.00,A,A*62
$GPVTG,5.6,T,5.8,M,001.2,N,002.2,K,A*2E
$GPGSV,2,1,08,02,38,080,45,09,20,151,,12,58,076,44,14,29,254,39*74
$GPGSV,2,2,08,25,76,333,46,29,51,222,47,ZDA,085243.04,09,10,2011,00,00*60
$GPRMC,085243.00,A,4611.958121,N,01258.227619,E,001.2,5.6,091011,0.2,E,A*34
$GPGGA,085244.00,4611.958517,N,01258.227614,E,1,05,2.7,141.23,M,46.25,M,,*6C
$GPGLL,4611.958517,N,01258.227614,E,085244.00,A,A*69
$GPVTG,3.5,T,3.7,M,001.6,N,003.0,K,A*25
$GPGSV,2,1,08,02,38,080,45,09,20,151,,12,58,076,44,14,29,254,39*74
$GPGSV,2,2,08,25,76,333,46,29,51,222,47,30,32,290,,31,24,313,28*7E
$GPGSA,M,3,02,12,14,25,29,,,,,,,,4.0,2.7,2.9*3C
Trace #64 at position 15.750000
$GPZDA,085244.03,09,10,2011,00,00*60
$GPR$GPGGA,085245.00,4611.958923,N,01258.227595,E,1,05,2.7,141.23,M,46.25,M,,*6C
$GPGLL,4611.958923,N,01258.227595,E,085245.00,A,A*69
$GPVTG,7.1,T,7.3,M,001.2,N,002.3,K,A*23
$GPGSV,2,1,08,02,38,080,43,09,20,151,,12,58,076,44,14,29,254,39*72
$GPGSV,2,2,08,25,76,333,44,29,51,222,46,30,32,290,,31,24,313,*77
$GPGSA,M,3,02,12,14,25,29,,,,,,,,4.0,2.7,2.9*3C
Trace #65 at position 16.000000
$GPZDA,085244.03,09,10,2011,00,00*60
$GPR$GPGGA,085245.00,4611.958923,N,01258.227595,E,1,05,2.7,141.23,M,46.25,M,,*6C
$GPGLL,4611.958923,N,01258.227595,E,085245.00,A,A*69
$GPVTG,7.1,T,7.3,M,001.2,N,002.3,K,A*23
$GPGSV,2,1,08,02,38,080,43,09,20,151,,12,58,076,44,14,29,254,39*72
$GPGSV,2,2,08,25,76,333,44,29,51,222,46,30,32,290,,31,24,313,*77
$GPGSA,M,3,02,12,14,25,29,,,,,,,,4.0,2.7,2.9*3C
Trace #66 at position 16.250000
$GPZDA,085244.03,09,10,2011,00,00*60
$GPR$GPGGA,085245.00,4611.958923,N,01258.227595,E,1,05,2.7,141.23,M,46.25,M,,*6C
$GPGLL,4611.958923,N,01258.227595,E,085245.00,A,A*69
$GPVTG,7.1,T,7.3,M,001.2,N,002.3,K,A*23
$GPGSV,2,1,08,02,38,080,43,09,20,151,,12,58,076,44,14,29,254,39*72
$GPGSV,2,2,08,25,76,333,44,29,51,222,46,30,32,290,,31,24,313,*77
$GPGSA,M,3,02,12,14,25,29,,,,,,,,4.0,2.7,2.9*3C
Trace #67 at position 16.500000
$GPZDA,085245.03,09,10,2011,00,00*61
$GPRMC,085245.00,A,4611.958923,N,01258.227595,E,001.2,7.1,091011,0.2,E,A*3A
$GPGGA,085246.00,4611.959315,N,01258.227433,E,1,05,2.7,141.21,M,46.25,M,,*6E
$GPGLL,4611.959315,N,01258.227433,E,085246.00,A,A*69
$GPVTG,337.7,T,337.8,M,001.6,N,003.0,K,A*28
$GPGSV,2,1,08,02,38,080,44,09,20,151,,12,58,076,45,14,29,254,38*75
$GPGSV,2,2,08,25,76,333,44,29,51,222,47,30,32,290,,31,24,313,*76
$GPGSA,M,3,02,12,14,25,29,,,,,,,,4.0,2.7,2.9*3C
Trace #68 at position 16.750000
$GPZDA,085245.03,09,10,2011,00,00*61
$GPRMC,085245.00,A,4611.958923,N,01258.227595,E,001.2,7.1,091011,0.2,E,A*3A
$GPGGA,085246.00,4611.959315,N,01258.227433,E,1,05,2.7,141.21,M,46.25,M,,*6E
$GPGLL,4611.959315,N,01258.227433,E,085246.00,A,A*69
$GPVTG,337.7,T,337.8,M,001.6,N,003.0,K,A*28
$GPGSV,2,1,08,02,38,080,44,09,20,151,,12,58,076,45,14,29,254,38*75
$GPGSV,2,2,08,25,76,333,44,29,51,222,47,30,32,290,,31,24,313,*76
$GPGSA,M,3,02,12,14,25,29,,,,,,,,4.0,2.7,2.9*3C
Trace #69 at position 17.000000
$GPZDA,085245.03,09,10,2011,00,00*61
$GPRMC,085245.00,A,4611.958923,N,01258.227595,E,001.2,7.1,091011,0.2,E,A*3A
$GPGGA,085246.00,4611.959315,N,01258.227433,E,1,05,2.7,141.21,M,46.25,M,,*6E
$GPGLL,4611.959315,N,01258.227433,E,085246.00,A,A*69
$GPVTG,337.7,T,337.8,M,001.6,N,003.0,K,A*28
$GPGSV,2,1,08,02,38,080,44,09,20,151,,12,58,076,45,14,29,254,38*75
$GPGSV,2,2,08,25,76,333,44,29,51,222,47,30,32,290,,31,24,313,*76
$GPGSA,M,3,02,12,14,25,29,,,,,,,,4.0,2.7,2.9*3C
Trace #70 at position 17.250000
$GPZDA,085245.03,09,10,2011,00,00*61
$GPRMC,085245.00,A,4611.958923,N,01258.227595,E,001.2,7.1,091011,0.2,E,A*3A
$GPGGA,085246.00,4611.959315,N,01258.227433,E,1,05,2.7,141.21,M,46.25,M,,*6E
$GPGLL,4611.959315,N,01258.227433,E,085246.00,A,A*69
$GPVTG,337.7,T,337.8,M,001.6,N,003.0,K,A*28
$GPGSV,2,1,08,02,38,080,44,09,20,151,,12,58,076,45,14,29,254,38*75
$GPGSV,2,2,08,25,76,333,44,29,51,222,47,30,32,290,,31,24,313,*76
$GPGSA,M,3,02,12,14,25,29,,,,,,,,4.0,2.7,2.9*3C
Trace #71 at position 17.500000
$GPZDA,085246.03,09,10,2011,00,00*62
$GPRMC,085246.00,A,4611.959315,N,01258.227433,E,001.6,337.7,091011,0.2,E,A*38
$GPGGA,085247.00,4611.959730,N,01258.227243,E,1,05,2.7,141.16,M,46.25,M,,*69
$GPGLL,4611.959730,N,01258.227243,E,085247.00,A,A*6A
$GPVTG,0.1,T,0.3,M,001.4,N,002.6,K,A*20
$GPGSV,2,1,08,02,38,080,44,09,20,151,,12,58,076,44,14,29,254,40*7B
$GPGSV,2,2,08,25,76,333,45,29,51,222,47,30,32,290,,31,24,313,*77
$GPGSA,M,3,02,12,14,25,29,,,,,,,,4.0,2.7,2.9*3C
Trace #72 at position 17.750000
$GPZDA,085246.03,09,10,2011,00,00*62
$GPRMC,085246.00,A,4611.959315,N,01258.227433,E,001.6,337.7,091011,0.2,E,A*38
$GPGGA,085247.00,4611.959730,N,01258.227243,E,1,05,2.7,141.16,M,46.25,M,,*69
$GPGLL,4611.959730,N,01258.227243,E,085247.00,A,A*6A
$GPVTG,0.1,T,0.3,M,001.4,N,002.6,K,A*20
$GPGSV,2,1,08,02,38,080,44,09,20,151,,12,58,076,44,14,29,254,40*7B
$GPGSV,2,2,08,25,76,333,45,29,51,222,47,30,32,290,,31,24,313,*77
$GPGSA,M,3,02,12,14,25,29,,,,,,,,4.0,2.7,2.9*3C
Trace #73 at position 18.000000
$GPZDA,085246.03,09,10,2011,00,00*62
$GPRMC,085246.00,A,4611.959315,N,01258.227433,E,001.6,337.7,091011,0.2,E,A*38
$GPGGA,085247.00,4611.959730,N,01258.227243,E,1,05,2.7,141.16,M,46.25,M,,*69
$GPGLL,4611.959730,N,01258.227243,E,085247.00,A,A*6A
$GPVTG,0.1,T,0.3,M,001.4,N,002.6,K,A*20
$GPGSV,2,1,08,02,38,080,44,09,20,151,,12,58,076,44,14,29,254,40*7B
$GPGSV,2,2,08,25,76,333,45,29,51,222,47,30,32,290,,31,24,313,*77
$GPGSA,M,3,02,12,14,25,29,,,,,,,,4.0,2.7,2.9*3C
Trace #74 at position 18.250000
$GPZDA,085247.03,09,10,2011,00,00*63
$GPRMC,085247.00,A,4611.959730,N,01258.227243,E,001.4,0.1,091011,0.2,E,A*38
$GPGGA,085248.00,4611.960163,N,01258.227066,E,1,05,2.7,141.14,M,46.25,M,,*6B
$GPGLL,4611.960163,N,01258.227066,E,085248.00,A,A*6A
$GPVTG,341.6,T,341.7,M,001.7,N,003.1,K,A*26
$GPGSV,2,1,08,02,38,080,44,09,20,151,,12,58,076,44,14,29,254,41*7A
$GPGSV,2,2,08,25,76,333,45,29,51,222,48,30,32,290,34,31,24,313,*7F
$GPGSA,M,3,02,12,14,25,29,,,,,,,,4.0,2.7,2.9*3C
Trace #75 at position 18.500000
$GPZDA,085247.03,09,10,2011,00,00*63
$GPRMC,085247.00,A,4611.959730,N,01258.227243,E,001.4,0.1,091011,0.2,E,A*38
$GPGGA,085248.00,4611.960163,N,01258.227066,E,1,05,2.7,141.14,M,46.25,M,,*6B
$GPGLL,4611.960163,N,01258.227066,E,085248.00,A,A*6A
$GPVTG,341.6,T,341.7,M,001.7,N,003.1,K,A*26
$GPGSV,2,1,08,02,38,080,44,09,20,151,,12,58,076,44,14,29,254,41*7A
$GPGSV,2,2,08,25,76,333,45,29,51,222,48,30,32,290,34,31,24,313,*7F
$GPGSA,M,3,02,12,14,25,29,,,,,,,,4.0,2.7,2.9*3C
Trace #76 at position 18.750000
$GPZDA,085247.03,09,10,2011,00,00*63
$GPRMC,085247.00,A,4611.959730,N,01258.227243,E,001.4,0.1,091011,0.2,E,A*38
$GPGGA,085248.00,4611.960163,N,01258.227066,E,1,05,2.7,141.14,M,46.25,M,,*6B
$GPGLL,4611.960163,N,01258.227066,E,085248.00,A,A*6A
$GPVTG,341.6,T,341.7,M,001.7,N,003.1,K,A*26
$GPGSV,2,1,08,02,38,080,44,09,20,151,,12,58,076,44,14,29,254,41*7A
$GPGSV,2,2,08,25,76,333,45,29,51,222,48,30,32,290,34,31,24,313,*7F
$GPGSA,M,3,02,12,14,25,29,,,,,,,,4.0,2.7,2.9*3C
Trace #77 at position 19.000000
$GPZDA,085248.03,09,10,2011,00,00*6C
$GPRMC,085248.00,A,4611.960163,N,01258.227066,E,001.7,341.6,091011,0.2,E,A*3A
$GPGGA,085249.00,4611.960577,N,01258.226825,E,1,05,2.7,141.21,M,46.25,M,,*63
$GPGLL,4611.960577,N,01258.226825,E,085249.00,A,A*64
$GPVTG,343.3,T,343.5,M,001.3,N,002.5,K,A*20
$GPGSV,2,1,08,02,38,080,44,09,20,151,,12,58,076,44,14,29,254,38*74
$GPGSV,2,2,08,25,76,333,44,29,51,222,47,30,32,290,38,31,24,313,31*7F
$GPGSA,M,3,02,12,14,25,29,,,,,,,,4.0,2.7,2.9*3C
Trace #78 at position 19.250000
$GPZDA,085248.03,09,10,2011,00,00*6C
$GPRMC,085248.00,A,4611.960163,N,01258.227066,E,001.7,341.6,091011,0.2,E,A*3A
$GPGGA,085249.00,4611.960577,N,01258.226825,E,1,05,2.7,141.21,M,46.25,M,,*63
$GPGLL,4611.960577,N,01258.226825,E,085249.00,A,A*64
$GPVTG,343.3,T,343.5,M,001.3,N,002.5,K,A*20
$GPGSV,2,1,08,02,38,080,44,09,20,151,,12,58,076,44,14,29,254,38*74
$GPGSV,2,2,08,25,76,333,44,29,51,222,47,30,32,290,38,31,24,313,31*7F
$GPGSA,M,3,02,12,14,25,29,,,,,,,,4.0,2.7,2.9*3C
Trace #79 at position 19.500000
$GPZDA,085248.03,09,10,2011,00,00*6C
$GPRMC,085248.00,A,4611.960163,N,01258.227066,E,001.7,341.6,091011,0.2,E,A*3A
$GPGGA,085249.00,4611.960577,N,01258.226825,E,1,05,2.7,141.21,M,46.25,M,,*63
$GPGLL,4611.960577,N,01258.226825,E,085249.00,A,A*64
$GPVTG,343.3,T,343.5,M,001.3,N,002.5,K,A*20
$GPGSV,2,1,08,02,38,080,44,09,20,151,,12,58,076,44,14,29,254,38*74
$GPGSV,2,2,08,25,76,333,44,29,51,222,47,30,32,290,38,31,24,313,31*7F
$GPGSA,M,3,02,12,14,25,29,,,,,,,,4.0,2.7,2.9*3C
Trace #80 at position 19.750000
$GPZDA,085248.03,09,10,2011,00,00*6C
$GPRMC,085248.00,A,4611.960163,N,01258.227066,E,001.7,341.6,091011,0.2,E,A*3A
$GPGGA,085249.00,4611.960577,N,01258.226825,E,1,05,2.7,141.21,M,46.25,M,,*63
$GPGLL,4611.960577,N,01258.226825,E,085249.00,A,A*64
$GPVTG,343.3,T,343.5,M,001.3,N,002.5,K,A*20
$GPGSV,2,1,08,02,38,080,44,09,20,151,,12,58,076,44,14,29,254,38*74
$GPGSV,2,2,08,25,76,333,44,29,51,222,47,30,32,290,38,31,24,313,31*7F
$GPGSA,M,3,02,12,14,25,29,,,,,,,,4.0,2.7,2.9*3C
Trace #81 at position 20.000000
$GPZDA,085249.04,09,10,2011,00,00*6A
$GPRMC,085249.00,A,4611.960577,N,01258.226825,E,001.3,343.3,091011,0.2,E,A*37
$GPGGA,085250.00,4611.960959,N,01258.226554,E,1,05,2.7,141.17,M,46.25,M,,*65
$GPGLL,4611.960959,N,01258.226554,E,085250.00,A,A*67
$GPVTG,331.0,T,331.2,M,001.5,N,002.8,K,A*2F
$GPGSV,2,1,08,02,38,080,43,09,20,151,,12,58,076,44,14,29,254,39*72
$GPGSV,2,2,08,25,76,333,45,29,51,222,47,30,32,290,36,31,24,313,30*71
$GPGSA,M,3,02,12,14,25,29,,,,,,,,4.0,2.7,2.9*3C
Trace #82 at position 20.250000
$GPZDA,085249.04,09,10,2011,00,00*6A
$GPRMC,085249.00,A,4611.960577,N,01258.226825,E,001.3,343.3,091011,0.2,E,A*37
$GPGGA,085250.00,4611.960959,N,01258.226554,E,1,05,2.7,141.17,M,46.25,M,,*65
$GPGLL,4611.960959,N,01258.226554,E,085250.00,A,A*67
$GPVTG,331.0,T,331.2,M,001.5,N,002.8,K,A*2F
$GPGSV,2,1,08,02,38,080,43,09,20,151,,12,58,076,44,14,29,254,39*72
$GPGSV,2,2,08,25,76,333,45,29,51,222,47,30,32,290,36,31,24,313,30*71
$GPGSA,M,3,02,12,14,25,29,,,,,,,,4.0,2.7,2.9*3C
Trace #83 at position 20.500000
$GPZDA,085249.04,09,10,2011,00,00*6A
$GPRMC,085249.00,A,4611.960577,N,01258.226825,E,001.3,343.3,091011,0.2,E,A*37
$GPGGA,085250.00,4611.960959,N,01258.226554,E,1,05,2.7,141.17,M,46.25,M,,*65
$GPGLL,4611.960959,N,01258.226554,E,085250.00,A,A*67
$GPVTG,331.0,T,331.2,M,001.5,N,002.8,K,A*2F
$GPGSV,2,1,08,02,38,080,43,09,20,151,,12,58,076,44,14,29,254,39*72
$GPGSV,2,2,08,25,76,333,45,29,51,222,47,30,32,290,36,31,24,313,30*71
$GPGSA,M,3,02,12,14,25,29,,,,,,,,4.0,2.7,2.9*3C
Trace #84 at position 20.750000
$GPZDA,085250.03,09,10,2011,00,00*65
$GPRMC,085250.00,A,4611.960959,N,01258.226554,E,001.5,331.0,091011,0.2,E,A*34
$GPGGA,085251.00,4611.961374,N,01258.226256,E,1,05,2.7,141.07,M,46.25,M,,*64
$GPGLL,4611.961374,N,01258.226256,E,085251.00,A,A*67
$GPVTG,338.1,T,338.2,M,001.6,N,002.9,K,A*2C
$GPGSV,2,1,08,02,38,080,44,09,20,151,,12,58,076,44,14,29,254,38*74
$GPGSV,2,2,08,25,76,333,45,29,51,222,47,30,32,290,37,31,24,313,31*71
$GPGSA,M,3,02,12,14,25,29,,,,,,,,4.0,2.7,2.9*3C
Trace #85 at position 21.000000
$GPZDA,085250.03,09,10,2011,00,00*65
$GPRMC,085250.00,A,4611.960959,N,01258.226554,E,001.5,331.0,091011,0.2,E,A*34
$GPGGA,085251.00,4611.961374,N,01258.226256,E,1,05,2.7,141.07,M,46.25,M,,*64
$GPGLL,4611.961374,N,01258.226256,E,085251.00,A,A*67
$GPVTG,338.1,T,338.2,M,001.6,N,002.9,K,A*2C
$GPGSV,2,1,08,02,38,080,44,09,20,151,,12,58,076,44,14,29,254,38*74
$GPGSV,2,2,08,25,76,333,45,29,51,222,47,30,32,290,37,31,24,313,31*71
$GPGSA,M,3,02,12,14,25,29,,,,,,,,4.0,2.7,2.9*3C
Trace #86 at position 21.250000
$GPZDA,085250.03,09,10,2011,00,00*65
$GPRMC,085250.00,A,4611.960959,N,01258.226554,E,001.5,331.0,091011,0.2,E,A*34
$GPGGA,085251.00,4611.961374,N,01258.226256,E,1,05,2.7,141.07,M,46.25,M,,*64
$GPGLL,4611.961374,N,01258.226256,E,085251.00,A,A*67
$GPVTG,338.1,T,338.2,M,001.6,N,002.9,K,A*2C
$GPGSV,2,1,08,02,38,080,44,09,20,151,,12,58,076,44,14,29,254,38*74
$GPGSV,2,2,08,25,76,333,45,29,51,222,47,30,32,290,37,31,24,313,31*71
$GPGSA,M,3,02,12,14,25,29,,,,,,,,4.0,2.7,2.9*3C
Trace #87 at position 21.500000
$GPZDA,085250.03,09,10,2011,00,00*65
$GPRMC,085250.00,A,4611.960959,N,01258.226554,E,001.5,331.0,091011,0.2,E,A*34
$GPGGA,085251.00,4611.961374,N,01258.226256,E,1,05,2.7,141.07,M,46.25,M,,*64
$GPGLL,4611.961374,N,01258.226256,E,085251.00,A,A*67
$GPVTG,338.1,T,338.2,M,001.6,N,002.9,K,A*2C
$GPGSV,2,1,08,02,38,080,44,09,20,151,,12,58,076,44,14,29,254,38*74
$GPGSV,2,2,08,25,76,333,45,29,51,222,47,30,32,290,37,31,24,313,31*71
$GPGSA,M,3,02,12,14,25,29,,,,,,,,4.0,2.7,2.9*3C
Trace #88 at position 21.750000
$GPZDA,085251.03,09,10,2011,00,00*64
$GPRMC,085251.00,A,4611.961374,N,01258.226256,E,001.6,338.1,091011,0.2,E,A*3F
$GPGGA,085252.00,4611.961820,N,01258.225997,E,1,05,2.7,141.13,M,46.25,M,,*6D
$GPGLL,4611.961820,N,01258.225997,E,085252.00,A,A*6B
$GPVTG,340.3,T,340.5,M,001.7,N,003.1,K,A*21
$GPGSV,2,1,08,02,38,080,44,09,20,151,,12,58,076,44,14,29,254,38*74
$GPGSV,2,2,08,25,76,333,45,29,51,222,46,30,32,290,38,31,24,313,32*7C
$GPGSA,M,3,02,12,14,25,29,,,,,,,,4.0,2.7,2.9*3C
Trace #89 at position 22.000000
$GPZDA,085251.03,09,10,2011,00,00*64
$GPRMC,085251.00,A,4611.961374,N,01258.226256,E,001.6,338.1,091011,0.2,E,A*3F
$GPGGA,085252.00,4611.961820,N,01258.225997,E,1,05,2.7,141.13,M,46.25,M,,*6D
$GPGLL,4611.961820,N,01258.225997,E,085252.00,A,A*6B
$GPVTG,340.3,T,340.5,M,001.7,N,003.1,K,A*21
$GPGSV,2,1,08,02,38,080,44,09,20,151,,12,58,076,44,14,29,254,38*74
$GPGSV,2,2,08,25,76,333,45,29,51,222,46,30,32,290,38,31,24,313,32*7C
$GPGSA,M,3,02,12,14,25,29,,,,,,,,4.0,2.7,2.9*3C
Trace #90 at position 22.250000
$GPZDA,085251.03,09,10,2011,00,00*64
$GPRMC,085251.00,A,4611.961374,N,01258.226256,E,001.6,338.1,091011,0.2,E,A*3F
$GPGGA,085252.00,4611.961820,N,01258.225997,E,1,05,2.7,141.13,M,46.25,M,,*6D
$GPGLL,4611.961820,N,01258.225997,E,085252.00,A,A*6B
$GPVTG,340.3,T,340.5,M,001.7,N,003.1,K,A*21
$GPGSV,2,1,08,02,38,080,44,09,20,151,,12,58,076,44,14,29,254,38*74
$GPGSV,2,2,08,25,76,333,45,29,51,222,46,30,32,290,38,31,24,313,32*7C
$GPGSA,M,3,02,12,14,25,29,,,,,,,,4.0,2.7,2.9*3C
Trace #91 at position 22.500000
$GPZDA,085252.03,09,10,2011,00,00*67
$GPRMC,085252.00,A,4611.961820,N,01258.225997,E,001.7,340.3,091011,0.2,E,A*3F
$GPGGA,085253.00,4611.962220,N,01258.225898,E,1,05,2.7,141.12,M,46.25,M,,*6A
$GPGLL,4611.962220,N,01258.225898,E,085253.00,A,A*6D
$GPVTG,13.0,T,13.1,M,001.1,N,002.1,K,A*21
$GPGSV,2,1,08,02,38,080,44,09,20,151,,12,58,076,44,14,29,254,38*74
$GPGSV,2,2,08,25,76,333,46,29,51,222,47,30,32,290,33,31,24,313,32*75
$GPGSA,M,3,02,12,14,25,29,,,,,,,,4.0,2.7,2.9*3C
Trace #92 at position 22.750000
$GPZDA,085252.03,09,10,2011,00,00*67
$GPRMC,085252.00,A,4611.961820,N,01258.225997,E,001.7,340.3,091011,0.2,E,A*3F
$GPGGA,085253.00,4611.962220,N,01258.225898,E,1,05,2.7,141.12,M,46.25,M,,*6A
$GPGLL,4611.962220,N,01258.225898,E,085253.00,A,A*6D
$GPVTG,13.0,T,13.1,M,001.1,N,002.1,K,A*21
$GPGSV,2,1,08,02,38,080,44,09,20,151,,12,58,076,44,14,29,254,38*74
$GPGSV,2,2,08,25,76,333,46,29,51,222,47,30,32,290,33,31,24,313,32*75
$GPGSA,M,3,02,12,14,25,29,,,,,,,,4.0,2.7,2.9*3C
Trace #93 at position 23.000000
$GPZDA,085252.03,09,10,2011,00,00*67
$GPRMC,085252.00,A,4611.961820,N,01258.225997,E,001.7,340.3,091011,0.2,E,A*3F
$GPGGA,085253.00,4611.962220,N,01258.225898,E,1,05,2.7,141.12,M,46.25,M,,*6A
$GPGLL,4611.962220,N,01258.225898,E,085253.00,A,A*6D
$GPVTG,13.0,T,13.1,M,001.1,N,002.1,K,A*21
$GPGSV,2,1,08,02,38,080,44,09,20,151,,12,58,076,44,14,29,254,38*74
$GPGSV,2,2,08,25,76,333,46,29,51,222,47,30,32,290,33,31,24,313,32*75
$GPGSA,M,3,02,12,14,25,29,,,,,,,,4.0,2.7,2.9*3C
Trace #94 at position 23.250000
$GPZDA,085253.03,09,10,2011,00,00*66
$GPRMC,085253.00,A,4611.962220,N,01258.225898,E,001.1,13.0,091011,0.2,E,A*09
$GPGGA,085254.00,4611.962626,N,01258.225747,E,1,05,2.7,141.05,M,46.25,M,,*64
$GPGLL,4611.962626,N,01258.225747,E,085254.00,A,A*65
$GPVTG,333.7,T,333.9,M,001.8,N,003.3,K,A*24
$GPGSV,2,1,08,02,38,080,43,09,20,151,,12,58,076,44,14,29,254,39*72
$GPGSV,2,2,08,25,76,333,44,29,51,222,46,30,32,290,35,31,24,313,31*73
$GPGSA,M,3,02,12,14,25,29,,,,,,,,4.0,2.7,2.9*3C
Trace #95 at position 23.500000
$GPZDA,085253.03,09,10,2011,00,00*66
$GPRMC,085253.00,A,4611.962220,N,01258.225898,E,001.1,13.0,091011,0.2,E,A*09
$GPGGA,085254.00,4611.962626,N,01258.225747,E,1,05,2.7,141.05,M,46.25,M,,*64
$GPGLL,4611.962626,N,01258.225747,E,085254.00,A,A*65
$GPVTG,333.7,T,333.9,M,001.8,N,003.3,K,A*24
$GPGSV,2,1,08,02,38,080,43,09,20,151,,12,58,076,44,14,29,254,39*72
$GPGSV,2,2,08,25,76,333,44,29,51,222,46,30,32,290,35,31,24,313,31*73
$GPGSA,M,3,02,12,14,25,29,,,,,,,,4.0,2.7,2.9*3C
Trace #96 at position 23.750000
$GPZDA,085253.03,09,10,2011,00,00*66
$GPRMC,085253.00,A,4611.962220,N,01258.225898,E,001.1,13.0,091011,0.2,E,A*09
$GPGGA,085254.00,4611.962626,N,01258.225747,E,1,05,2.7,141.05,M,46.25,M,,*64
$GPGLL,4611.962626,N,01258.225747,E,085254.00,A,A*65
$GPVTG,333.7,T,333.9,M,001.8,N,003.3,K,A*24
$GPGSV,2,1,08,02,38,080,43,09,20,151,,12,58,076,44,14,29,254,39*72
$GPGSV,2,2,08,25,76,333,44,29,51,222,46,30,32,290,35,31,24,313,31*73
$GPGSA,M,3,02,12,14,25,29,,,,,,,,4.0,2.7,2.9*3C
Trace #97 at position 24.000000
$GPZDA,085254.03,09,10,2011,00,00*61
$GPRMC,085254.00,A,4611.962626,N,01258.225747,E,001.8,333.7,091011,0.2,E,A*3E
$GPGGA,085255.00,4611.963096,N,01258.225457,E,1,05,2.7,141.02,M,46.25,M,,*6C
$GPGLL,4611.963096,N,01258.225457,E,085255.00,A,A*6A
$GPVTG,342.8,T,343.0,M,001.7,N,003.1,K,A*2E
$GPGSV,2,1,08,02,38,080,43,09,20,151,,12,58,076,43,14,29,254,39*75
$GPGSV,2,2,08,25,76,333,44,29,51,222,47,30,32,290,34,31,24,313,33*71
$GPGSA,M,3,02,12,14,25,2085255.03,09,10,2011,00,00*60
Trace #98 at position 24.250000
$GPZDA,085254.03,09,10,2011,00,00*61
$GPRMC,085254.00,A,4611.962626,N,01258.225747,E,001.8,333.7,091011,0.2,E,A*3E
$GPGGA,085255.00,4611.963096,N,01258.225457,E,1,05,2.7,141.02,M,46.25,M,,*6C
$GPGLL,4611.963096,N,01258.225457,E,085255.00,A,A*6A
$GPVTG,342.8,T,343.0,M,001.7,N,003.1,K,A*2E
$GPGSV,2,1,08,02,38,080,43,09,20,151,,12,58,076,43,14,29,254,39*75
$GPGSV,2,2,08,25,76,333,44,29,51,222,47,30,32,290,34,31,24,313,33*71
$GPGSA,M,3,02,12,14,25,2085255.03,09,10,2011,00,00*60
Trace #99 at position 24.500000
$GPRMC,085255.00,A,4611.963096,N,01258.225457,E,001.7,342.8,091011,0.2,E,A*37
$GPGGA,085256.00,4611.963508,N,01258.225236,E,1,05,2.7,141.05,M,46.25,M,,*6B
$GPGLL,4611.963508,N,01258.225236,E,085256.00,A,A*6A
$GPVTG,337.9,T,338.0,M,001.3,N,002.4,K,A*21
$GPGSV,2,1,08,02,38,080,44,09,20,151,,12,58,076,44,14,29,254,41*7A
$GPGSV,2,2,08,25,76,333,47,29,51,222,47,30,32,290,27,31,24,313,*70
$GPGSA,M,3,02,12,14,25,29,,,,,,,,4.0,2.7,2.9*3C
Trace #100 at position 24.750000
$GPRMC,085255.00,A,4611.963096,N,01258.225457,E,001.7,342.8,091011,0.2,E,A*37
$GPGGA,085256.00,4611.963508,N,01258.225236,E,1,05,2.7,141.05,M,46.25,M,,*6B
$GPGLL,4611.963508,N,01258.225236,E,085256.00,A,A*6A
$GPVTG,337.9,T,338.0,M,001.3,N,002.4,K,A*21
$GPGSV,2,1,08,02,38,080,44,09,20,151,,12,58,076,44,14,29,254,41*7A
$GPGSV,2,2,08,25,76,333,47,29,51,222,47,30,32,290,27,31,24,313,*70
$GPGSA,M,3,02,12,14,25,29,,,,,,,,4.0,2.7,2.9*3C
Trace #101 at position 25.000000
$GPZDA,085258.04,09,10,2011,00,00*6A
$GPRMC,085258.00,A,4611.964388,N,01258.224685,E,001.9,340.7,091011,0.2,E,A*3E
$GPGGA,085259.00,4611.964848,N,01258.224497,E,1,05,2.8,141.16,M,46.25,M,,*6B
$GPGLL,4611.964848,N,01258.224497,E,085259.00,A,A*67
$GPVTG,346.0,T,346.1,M,001.4,N,002.7,K,A*22
$GPGSV,2,1,08,02,38,080,43,09,20,151,,12,58,076,44,14,29,254,39*72
$GPGSV,2,2,08,25,76,333,43,29,51,222,47,30,32,290,36,31,24,313,*74
$GPGSA,M,3,02,12,14,25,29,,,,,,,,4.0,2.8,2.9*33
Trace #102 at position 25.250000
$GPZDA,085258.04,09,10,2011,00,00*6A
$GPRMC,085258.00,A,4611.964388,N,01258.224685,E,001.9,340.7,091011,0.2,E,A*3E
$GPGGA,085259.00,4611.964848,N,01258.224497,E,1,05,2.8,141.16,M,46.25,M,,*6B
$GPGLL,4611.964848,N,01258.224497,E,085259.00,A,A*67
$GPVTG,346.0,T,346.1,M,001.4,N,002.7,K,A*22
$GPGSV,2,1,08,02,38,080,43,09,20,151,,12,58,076,44,14,29,254,39*72
$GPGSV,2,2,08,25,76,333,43,29,51,222,47,30,32,290,36,31,24,313,*74
$GPGSA,M,3,02,12,14,25,29,,,,,,,,4.0,2.8,2.9*33
Trace #103 at position 25.500000
$GPZDA,085259.04,09,10,2011,00,00*6B
$GPRMC,085259.00,A,4611.964848,N,01258.224497,E,001.4,346.0,091011,0.2,E,A*35
$GPGGA,085300.00,4611.965241,N,01258.224362,E,1,05,2.8,141.13,M,46.25,M,,*6C
$GPGLL,4611.965241,N,01258.224362,E,085300.00,A,A*65
$GPVTG,346.5,T,346.7,M,001.4,N,002.5,K,A*23
$GPGSV,2,1,08,02,38,080,43,09,20,151,,12,58,076,44,14,29,254,40*7C
$GPGSV,2,2,08,25,76,333,44,29,51,222,46,30,32,290,37,31,24,313,31*71
$GPGSA,M,3,02,12,14,25,29,,,,,,,,4.0,2.8,2.9*33
Trace #104 at position 25.750000
$GPZDA,085259.04,09,10,2011,00,00*6B
$GPRMC,085259.00,A,4611.964848,N,01258.224497,E,001.4,346.0,091011,0.2,E,A*35
$GPGGA,085300.00,4611.965241,N,01258.224362,E,1,05,2.8,141.13,M,46.25,M,,*6C
$GPGLL,4611.965241,N,01258.224362,E,085300.00,A,A*65
$GPVTG,346.5,T,346.7,M,001.4,N,002.5,K,A*23
$GPGSV,2,1,08,02,38,080,43,09,20,151,,12,58,076,44,14,29,254,40*7C
$GPGSV,2,2,08,25,76,333,44,29,51,222,46,30,32,290,37,31,24,313,31*71
$GPGSA,M,3,02,12,14,25,29,,,,,,,,4.0,2.8,2.9*33
Trace #105 at position 26.000000
$GPZDA,085259.04,09,10,2011,00,00*6B
$GPRMC,085259.00,A,4611.964848,N,01258.224497,E,001.4,346.0,091011,0.2,E,A*35
$GPGGA,085300.00,4611.965241,N,01258.224362,E,1,05,2.8,141.13,M,46.25,M,,*6C
$GPGLL,4611.965241,N,01258.224362,E,085300.00,A,A*65
$GPVTG,346.5,T,346.7,M,001.4,N,002.5,K,A*23
$GPGSV,2,1,08,02,38,080,43,09,20,151,,12,58,076,44,14,29,254,40*7C
$GPGSV,2,2,08,25,76,333,44,29,51,222,46,30,32,290,37,31,24,313,31*71
$GPGSA,M,3,02,12,14,25,29,,,,,,,,4.0,2.8,2.9*33
Trace #106 at position 26.250000
$GPZDA,085300.03,09,10,2011,00,00*61
$GPRMC,085300.00,A,4611.965241,N,01258.224362,E,001.4,346.5,091011,0.2,E,A*32
$GPGGA,085301.00,4611.965659,N,01258.224179,E,1,05,2.8,141.02,M,46.25,M,,*68
$GPGLL,4611.965659,N,01258.224179,E,085301.00,A,A*61
$GPVTG,339.9,T,340.1,M,001.7,N,003.2,K,A*22
$GPGSV,2,1,08,02,38,080,44,09,20,151,,12,58,076,44,14,29,254,38*74
$GPGSV,2,2,08,25,76,333,43,29,51,222,47,30,32,290,37,31,24,313,31*77
$GPGSA,M,3,02,12,14,25,29,,,,,,,,4.0,2.8,2.9*33
Trace #107 at position 26.500000
$GPZDA,085300.03,09,10,2011,00,00*61
$GPRMC,085300.00,A,4611.965241,N,01258.224362,E,001.4,346.5,091011,0.2,E,A*32
$GPGGA,085301.00,4611.965659,N,01258.224179,E,1,05,2.8,141.02,M,46.25,M,,*68
$GPGLL,4611.965659,N,01258.224179,E,085301.00,A,A*61
$GPVTG,339.9,T,340.1,M,001.7,N,003.2,K,A*22
$GPGSV,2,1,08,02,38,080,44,09,20,151,,12,58,076,44,14,29,254,38*74
$GPGSV,2,2,08,25,76,333,43,29,51,222,47,30,32,290,37,31,24,313,31*77
$GPGSA,M,3,02,12,14,25,29,,,,,,,,4.0,2.8,2.9*33
Trace #108 at position 26.750000
$GPZDA,085300.03,09,10,2011,00,00*61
$GPRMC,085300.00,A,4611.965241,N,01258.224362,E,001.4,346.5,091011,0.2,E,A*32
$GPGGA,085301.00,4611.965659,N,01258.224179,E,1,05,2.8,141.02,M,46.25,M,,*68
$GPGLL,4611.965659,N,01258.224179,E,085301.00,A,A*61
$GPVTG,339.9,T,340.1,M,001.7,N,003.2,K,A*22
$GPGSV,2,1,08,02,38,080,44,09,20,151,,12,58,076,44,14,29,254,38*74
$GPGSV,2,2,08,25,76,333,43,29,51,222,47,30,32,290,37,31,24,313,31*77
$GPGSA,M,3,02,12,14,25,29,,,,,,,,4.0,2.8,2.9*33
Trace #109 at position 27.000000
$GPZDA,085300.03,09,10,2011,00,00*61
$GPRMC,085300.00,A,4611.965241,N,01258.224362,E,001.4,346.5,091011,0.2,E,A*32
$GPGGA,085301.00,4611.965659,N,01258.224179,E,1,05,2.8,141.02,M,46.25,M,,*68
$GPGLL,4611.965659,N,01258.224179,E,085301.00,A,A*61
$GPVTG,339.9,T,340.1,M,001.7,N,003.2,K,A*22
$GPGSV,2,1,08,02,38,080,44,09,20,151,,12,58,076,44,14,29,254,38*74
$GPGSV,2,2,08,25,76,333,43,29,51,222,47,30,32,290,37,31,24,313,31*77
$GPGSA,M,3,02,12,14,25,29,,,,,,,,4.0,2.8,2.9*33
Trace #110 at position 27.250000
$GPZDA,085301.03,09,10,2011,00,00*60
$GPRMC,085301.00,A,4611.965659,N,01258.224179,E,001.7,339.9,091011,0.2,E,A*31
$GPGGA,085302.00,4611.966049,N,01258.224006,E,1,05,2.8,140.99,M,46.25,M,,*65
$GPGLL,4611.966049,N,01258.224006,E,085302.00,A,A*6F
$GPVTG,345.5,T,345.6,M,001.3,N,002.3,K,A*23
$GPGSV,2,1,08,02,38,080,44,09,20,151,,12,58,076,44,14,29,254,38*74
$GPGSV,2,2,08,25,76,333,43,29,51,222,46,30,32,290,35,31,24,313,29*7D
$GPGSA,M,3,02,12,14,25,29,,,,,,,,4.0,2.8,2.9*33
Trace #111 at position 27.500000
$GPZDA,085301.03,09,10,2011,00,00*60
$GPRMC,085301.00,A,4611.965659,N,01258.224179,E,001.7,339.9,091011,0.2,E,A*31
$GPGGA,085302.00,4611.966049,N,01258.224006,E,1,05,2.8,140.99,M,46.25,M,,*65
$GPGLL,4611.966049,N,01258.224006,E,085302.00,A,A*6F
$GPVTG,345.5,T,345.6,M,001.3,N,002.3,K,A*23
$GPGSV,2,1,08,02,38,080,44,09,20,151,,12,58,076,44,14,29,254,38*74
$GPGSV,2,2,08,25,76,333,43,29,51,222,46,30,32,290,35,31,24,313,29*7D
$GPGSA,M,3,02,12,14,25,29,,,,,,,,4.0,2.8,2.9*33
Trace #112 at position 27.750000
$GPZDA,085301.03,09,10,2011,00,00*60
$GPRMC,085301.00,A,4611.965659,N,01258.224179,E,001.7,339.9,091011,0.2,E,A*31
$GPGGA,085302.00,4611.966049,N,01258.224006,E,1,05,2.8,140.99,M,46.25,M,,*65
$GPGLL,4611.966049,N,01258.224006,E,085302.00,A,A*6F
$GPVTG,345.5,T,345.6,M,001.3,N,002.3,K,A*23
$GPGSV,2,1,08,02,38,080,44,09,20,151,,12,58,076,44,14,29,254,38*74
$GPGSV,2,2,08,25,76,333,43,29,51,222,46,30,32,290,35,31,24,313,29*7D
$GPGSA,M,3,02,12,14,25,29,,,,,,,,4.0,2.8,2.9*33
Trace #113 at position 28.000000
$GPZDA,085302.03,09,10,2011,00,00*63
$GPRMC,085302.00,A,4611.966049,N,01258.224006,E,001.3,345.5,091011,0.2,E,A*3C
$GPGGA,085303.00,4611.966169,N,01258.223964,E,1,05,2.8,140.98,M,46.25,M,,*6C
$GPGLL,4611.966169,N,01258.223964,E,085303.00,A,A*67
$GPVTG,163.8,T,163.9,M,000.4,N,000.7,K,A*21
$GPGSV,2,1,08,02,38,080,44,09,20,151,32,12,58,076,44,14,29,254,36*7B
$GPGSV,2,2,08,25,76,333,42,29,51,222,48,30,32,290,35,31,24,313,29*72
$GPGSA,M,3,02,12,14,25,29,,,,,,,,4.0,2.8,2.9*33
Trace #114 at position 28.250000
$GPZDA,085302.03,09,10,2011,00,00*63
$GPRMC,085302.00,A,4611.966049,N,01258.224006,E,001.3,345.5,091011,0.2,E,A*3C
$GPGGA,085303.00,4611.966169,N,01258.223964,E,1,05,2.8,140.98,M,46.25,M,,*6C
$GPGLL,4611.966169,N,01258.223964,E,085303.00,A,A*67
$GPVTG,163.8,T,163.9,M,000.4,N,000.7,K,A*21
$GPGSV,2,1,08,02,38,080,44,09,20,151,32,12,58,076,44,14,29,254,36*7B
