Trace #1 at position 0.000000
$GPZDA,101430.02,08,10,2011,00,00*68
$GPRMC,101403.00,V,,,,,,,,,,N*7A
$GPGGA,,,,,,0,02,,,M,,M,,*64
$GPGLL,,,,,,V,N*64
$GPVTG,,T,,,,N,,K,N*61
$GPGSV,2,1,07,21,22,186,44,02,23,047,33,12,29,108,33,25,63,101,30*71
$GPGSV,2,2,07,29,84,304,37,30,67,306,37,31,50,288,41,,,,*49
$GPGSA,M,1,,,,,,,,,,,,,12.4,9.5,8.0*0F
Trace #2 at position 0.250000
$GPZDA,101432.02,08,10,2011,00,00*6A
$GPRMC,101403.00,V,,,,,,,,,,N*7A
$GPGGA,,,,,,0,02,,,M,,M,,*64
$GPGLL,,,,,,V,N*64
$GPVTG,,T,,,,N,,K,N*61
$GPGSV,2,1,07,21,22,186,44,02,23,047,33,12,29,108,34,25,63,101,30*76
$GPGSV,2,2,07,29,84,304,37,30,67,306,37,31,50,288,40,,,,*48
$GPGSA,M,1,,,,,,,,,,,,,12.4,9.5,8.0*0F
Trace #3 at position 0.500000
$GPZDA,101433.02,08,10,2011,00,00*6B
$GPRMC,101403.00,V,,,,,,,,,,N*7A
$GPGGA,101434.00,4611.967800,N,01258.211123,E,1,04,9.6,122.41,M,46.25,M,,*6B
$GPGLL,4611.967800,N,01258.211123,E,101434.00,A,A*64
$GPVTG,169.1,T,169.2,M,002.1,N,003.9,K,A*29
$GPGSV,2,1,07,21,22,186,35,02,23,047,40,12,29,108,34,25,63,101,37*73
$GPGSV,2,2,07,29,84,304,42,30,67,306,42,31,50,288,42,,,,*4A
$GPGSA,M,3,02,29,30,31,,,,,,,,,12.4,9.6,7.9*00
Trace #4 at position 0.750000
$GPZDA,101433.02,08,10,2011,00,00*6B
$GPRMC,101403.00,V,,,,,,,,,,N*7A
$GPGGA,101434.00,4611.967800,N,01258.211123,E,1,04,9.6,122.41,M,46.25,M,,*6B
$GPGLL,4611.967800,N,01258.211123,E,101434.00,A,A*64
$GPVTG,169.1,T,169.2,M,002.1,N,003.9,K,A*29
$GPGSV,2,1,07,21,22,186,35,02,23,047,40,12,29,108,34,25,63,101,37*73
$GPGSV,2,2,07,29,84,304,42,30,67,306,42,31,50,288,42,,,,*4A
$GPGSA,M,3,02,29,30,31,,,,,,,,,12.4,9.6,7.9*00
Trace #5 at position 1.000000
$GPZDA,101433.02,08,10,2011,00,00*6B
$GPRMC,101403.00,V,,,,,,,,,,N*7A
$GPGGA,101434.00,4611.967800,N,01258.211123,E,1,04,9.6,122.41,M,46.25,M,,*6B
$GPGLL,4611.967800,N,01258.211123,E,101434.00,A,A*64
$GPVTG,169.1,T,169.2,M,002.1,N,003.9,K,A*29
$GPGSV,2,1,07,21,22,186,35,02,23,047,40,12,29,108,34,25,63,101,37*73
$GPGSV,2,2,07,29,84,304,42,30,67,306,42,31,50,288,42,,,,*4A
$GPGSA,M,3,02,29,30,31,,,,,,,,,12.4,9.6,7.9*00
Trace #6 at position 1.250000
$GPZDA,101434.03,08,10,2011,00,00*6D
$GPRMC,101434.00,A,4611.967800,N,01258.211123,E,002.1,169.1,081011,0.2,E,A*3F
$GPGGA,101435.00,4611.968197,N,01258.211158,E,1,05,4.6,123.25,M,46.25,M,,*61
$GPGLL,4611.968197,N,01258.211158,E,101435.00,A,A*61
$GPVTG,160.3,T,160.5,M,001.5,N,002.8,K,A*2B
$GPGSV,2,1,07,21,22,186,34,02,23,047,39,12,29,108,34,25,63,101,40*7C
$GPGSV,2,2,07,29,84,304,41,30,67,306,41,31,50,288,39,,,,*46
$GPGSA,M,3,02,25,29,30,31,,,,,,,,7.4,4.6,5.7*32
Trace #7 at position 1.500000
$GPZDA,101434.03,08,10,2011,00,00*6D
$GPRMC,101434.00,A,4611.967800,N,01258.211123,E,002.1,169.1,081011,0.2,E,A*3F
$GPGGA,101435.00,4611.968197,N,01258.211158,E,1,05,4.6,123.25,M,46.25,M,,*61
$GPGLL,4611.968197,N,01258.211158,E,101435.00,A,A*61
$GPVTG,160.3,T,160.5,M,001.5,N,002.8,K,A*2B
$GPGSV,2,1,07,21,22,186,34,02,23,047,39,12,29,108,34,25,63,101,40*7C
$GPGSV,2,2,07,29,84,304,41,30,67,306,41,31,50,288,39,,,,*46
$GPGSA,M,3,02,25,29,30,31,,,,,,,,7.4,4.6,5.7*32
Trace #8 at position 1.750000
$GPZDA,101434.03,08,10,2011,00,00*6D
$GPRMC,101434.00,A,4611.967800,N,01258.211123,E,002.1,169.1,081011,0.2,E,A*3F
$GPGGA,101435.00,4611.968197,N,01258.211158,E,1,05,4.6,123.25,M,46.25,M,,*61
$GPGLL,4611.968197,N,01258.211158,E,101435.00,A,A*61
$GPVTG,160.3,T,160.5,M,001.5,N,002.8,K,A*2B
$GPGSV,2,1,07,21,22,186,34,02,23,047,39,12,29,108,34,25,63,101,40*7C
$GPGSV,2,2,07,29,84,304,41,30,67,306,41,31,50,288,39,,,,*46
$GPGSA,M,3,02,25,29,30,31,,,,,,,,7.4,4.6,5.7*32
Trace #9 at position 2.000000
$GPZDA,101435.03,08,10,2011,00,00*6C
$GPRMC,101435.00,A,4611.968197,N,01258.211158,E,001.5,160.3,081011,0.2,E,A*36
$GPGGA,101436.00,4611.968591,N,01258.211094,E,1,05,4.6,124.19,M,46.25,M,,*69
$GPGLL,4611.968591,N,01258.211094,E,101436.00,A,A*61
$GPVTG,189.1,T,189.3,M,001.4,N,002.6,K,A*20
$GPGSV,2,1,07,21,22,186,33,02,23,047,38,12,29,108,36,25,63,101,39*76
$GPGSV,2,2,07,29,84,304,42,30,67,306,41,31,50,288,40,,,,*4B
$GPGSA,M,3,02,25,29,30,31,,,,,,,,7.3,4.6,5.7*35
Trace #10 at position 2.250000
$GPZDA,101435.03,08,10,2011,00,00*6C
$GPRMC,101435.00,A,4611.968197,N,01258.211158,E,001.5,160.3,081011,0.2,E,A*36
$GPGGA,101436.00,4611.968591,N,01258.211094,E,1,05,4.6,124.19,M,46.25,M,,*69
$GPGLL,4611.968591,N,01258.211094,E,101436.00,A,A*61
$GPVTG,189.1,T,189.3,M,001.4,N,002.6,K,A*20
$GPGSV,2,1,07,21,22,186,33,02,23,047,38,12,29,108,36,25,63,101,39*76
$GPGSV,2,2,07,29,84,304,42,30,67,306,41,31,50,288,40,,,,*4B
$GPGSA,M,3,02,25,29,30,31,,,,,,,,7.3,4.6,5.7*35
Trace #11 at position 2.500000
$GPZDA,101435.03,08,10,2011,00,00*6C
$GPRMC,101435.00,A,4611.968197,N,01258.211158,E,001.5,160.3,081011,0.2,E,A*36
$GPGGA,101436.00,4611.968591,N,01258.211094,E,1,05,4.6,124.19,M,46.25,M,,*69
$GPGLL,4611.968591,N,01258.211094,E,101436.00,A,A*61
$GPVTG,189.1,T,189.3,M,001.4,N,002.6,K,A*20
$GPGSV,2,1,07,21,22,186,33,02,23,047,38,12,29,108,36,25,63,101,39*76
$GPGSV,2,2,07,29,84,304,42,30,67,306,41,31,50,288,40,,,,*4B
$GPGSA,M,3,02,25,29,30,31,,,,,,,,7.3,4.6,5.7*35
Trace #12 at position 2.750000
$GPZDA,101436.03,08,10,2011,00,00*6F
$GPRMC,101436.00,A,4611.968591,N,01258.211094,E,001.4,189.1,081011,0.2,E,A*32
$GPGGA,101437.00,4611.968904,N,01258.211066,E,1,05,4.6,125.06,M,46.25,M,,*6A
$GPGLL,4611.968904,N,01258.211066,E,101437.00,A,A*6D
$GPVTG,157.3,T,157.4,M,001.5,N,002.7,K,A*25
$GPGSV,2,1,07,21,22,186,33,02,23,047,39,12,29,108,34,25,63,101,40*7B
$GPGSV,2,2,07,29,84,304,42,30,67,306,41,31,50,288,40,,,,*4B
$GPGSA,M,3,02,25,29,30,31,,,,,,,,7.3,4.6,5.7*35
Trace #13 at position 3.000000
$GPZDA,101436.03,08,10,2011,00,00*6F
$GPRMC,101436.00,A,4611.968591,N,01258.211094,E,001.4,189.1,081011,0.2,E,A*32
$GPGGA,101437.00,4611.968904,N,01258.211066,E,1,05,4.6,125.06,M,46.25,M,,*6A
$GPGLL,4611.968904,N,01258.211066,E,101437.00,A,A*6D
$GPVTG,157.3,T,157.4,M,001.5,N,002.7,K,A*25
$GPGSV,2,1,07,21,22,186,33,02,23,047,39,12,29,108,34,25,63,101,40*7B
$GPGSV,2,2,07,29,84,304,42,30,67,306,41,31,50,288,40,,,,*4B
$GPGSA,M,3,02,25,29,30,31,,,,,,,,7.3,4.6,5.7*35
Trace #14 at position 3.250000
$GPZDA,101436.03,08,10,2011,00,00*6F
$GPRMC,101436.00,A,4611.968591,N,01258.211094,E,001.4,189.1,081011,0.2,E,A*32
$GPGGA,101437.00,4611.968904,N,01258.211066,E,1,05,4.6,125.06,M,46.25,M,,*6A
$GPGLL,4611.968904,N,01258.211066,E,101437.00,A,A*6D
$GPVTG,157.3,T,157.4,M,001.5,N,002.7,K,A*25
$GPGSV,2,1,07,21,22,186,33,02,23,047,39,12,29,108,34,25,63,101,40*7B
$GPGSV,2,2,07,29,84,304,42,30,67,306,41,31,50,288,40,,,,*4B
$GPGSA,M,3,02,25,29,30,31,,,,,,,,7.3,4.6,5.7*35
Trace #15 at position 3.500000
$GPZDA,101436.03,08,10,2011,00,00*6F
$GPRMC,101436.00,A,4611.968591,N,01258.211094,E,001.4,189.1,081011,0.2,E,A*32
$GPGGA,101437.00,4611.968904,N,01258.211066,E,1,05,4.6,125.06,M,46.25,M,,*6A
$GPGLL,4611.968904,N,01258.211066,E,101437.00,A,A*6D
$GPVTG,157.3,T,157.4,M,001.5,N,002.7,K,A*25
$GPGSV,2,1,07,21,22,186,33,02,23,047,39,12,29,108,34,25,63,101,40*7B
$GPGSV,2,2,07,29,84,304,42,30,67,306,41,31,50,288,40,,,,*4B
$GPGSA,M,3,02,25,29,30,31,,,,,,,,7.3,4.6,5.7*35
Trace #16 at position 3.750000
$GPZDA,101437.03,08,10,2011,00,00*6E
$GPRMC,101437.00,A,4611.968904,N,01258.211066,E,001.5,157.3,081011,0.2,E,A*3E
$GPGGA,101438.00,4611.969229,N,01258.211107,E,1,05,4.6,125.98,M,46.25,M,,*61
$GPGLL,4611.969229,N,01258.211107,E,101438.00,A,A*61
$GPVTG,175.3,T,175.5,M,000.7,N,001.2,K,A*21
$GPGSV,2,1,07,21,22,186,32,02,23,047,41,12,29,108,33,25,63,101,38*7D
$GPGSV,2,2,07,29,84,304,41,30,67,306,39,31,50,288,39,,,,*49
$GPGSA,M,3,02,25,29,30,31,,,,,,,,7.3,4.6,5.7*35
Trace #17 at position 4.000000
$GPZDA,101437.03,08,10,2011,00,00*6E
$GPRMC,101437.00,A,4611.968904,N,01258.211066,E,001.5,157.3,081011,0.2,E,A*3E
$GPGGA,101438.00,4611.969229,N,01258.211107,E,1,05,4.6,125.98,M,46.25,M,,*61
$GPGLL,4611.969229,N,01258.211107,E,101438.00,A,A*61
$GPVTG,175.3,T,175.5,M,000.7,N,001.2,K,A*21
$GPGSV,2,1,07,21,22,186,32,02,23,047,41,12,29,108,33,25,63,101,38*7D
$GPGSV,2,2,07,29,84,304,41,30,67,306,39,31,50,288,39,,,,*49
$GPGSA,M,3,02,25,29,30,31,,,,,,,,7.3,4.6,5.7*35
Trace #18 at position 4.250000
$GPZDA,101437.03,08,10,2011,00,00*6E
$GPRMC,101437.00,A,4611.968904,N,01258.211066,E,001.5,157.3,081011,0.2,E,A*3E
$GPGGA,101438.00,4611.969229,N,01258.211107,E,1,05,4.6,125.98,M,46.25,M,,*61
$GPGLL,4611.969229,N,01258.211107,E,101438.00,A,A*61
$GPVTG,175.3,T,175.5,M,000.7,N,001.2,K,A*21
$GPGSV,2,1,07,21,22,186,32,02,23,047,41,12,29,108,33,25,63,101,38*7D
$GPGSV,2,2,07,29,84,304,41,30,67,306,39,31,50,288,39,,,,*49
$GPGSA,M,3,02,25,29,30,31,,,,,,,,7.3,4.6,5.7*35
Trace #19 at position 4.500000
$GPZDA,101438.03,08,10,2011,00,00*61
$GPRMC,101438.00,A,4611.969229,N,01258.211107,E,000.7,175.3,081011,0.2,E,A*31
$GPGGA,101439.00,4611.969513,N,01258.211213,E,1,05,4.6,126.99,M,46.25,M,,*6A
$GPGLL,4611.969513,N,01258.211213,E,101439.00,A,A*68
$GPVTG,140.4,T,140.5,M,001.3,N,002.4,K,A*26
$GPGSV,2,1,07,21,22,186,32,02,23,047,39,12,29,108,32,25,63,101,37*7C
$GPGSV,2,2,07,29,84,304,40,30,67,306,38,31,50,288,40,,,,*47
$GPGSA,M,3,02,25,29,30,31,,,,,,,,7.3,4.6,5.7*35
Trace #20 at position 4.750000
$GPZDA,101438.03,08,10,2011,00,00*61
$GPRMC,101438.00,A,4611.969229,N,01258.211107,E,000.7,175.3,081011,0.2,E,A*31
$GPGGA,101439.00,4611.969513,N,01258.211213,E,1,05,4.6,126.99,M,46.25,M,,*6A
$GPGLL,4611.969513,N,01258.211213,E,101439.00,A,A*68
$GPVTG,140.4,T,140.5,M,001.3,N,002.4,K,A*26
$GPGSV,2,1,07,21,22,186,32,02,23,047,39,12,29,108,32,25,63,101,37*7C
$GPGSV,2,2,07,29,84,304,40,30,67,306,38,31,50,288,40,,,,*47
$GPGSA,M,3,02,25,29,30,31,,,,,,,,7.3,4.6,5.7*35
Trace #21 at position 5.000000
$GPZDA,101438.03,08,10,2011,00,00*61
$GPRMC,101438.00,A,4611.969229,N,01258.211107,E,000.7,175.3,081011,0.2,E,A*31
$GPGGA,101439.00,4611.969513,N,01258.211213,E,1,05,4.6,126.99,M,46.25,M,,*6A
$GPGLL,4611.969513,N,01258.211213,E,101439.00,A,A*68
$GPVTG,140.4,T,140.5,M,001.3,N,002.4,K,A*26
$GPGSV,2,1,07,21,22,186,32,02,23,047,39,12,29,108,32,25,63,101,37*7C
$GPGSV,2,2,07,29,84,304,40,30,67,306,38,31,50,288,40,,,,*47
$GPGSA,M,3,02,25,29,30,31,,,,,,,,7.3,4.6,5.7*35
Trace #22 at position 5.250000
$GPZDA,101438.03,08,10,2011,00,00*61
$GPRMC,101438.00,A,4611.969229,N,01258.211107,E,000.7,175.3,081011,0.2,E,A*31
$GPGGA,101439.00,4611.969513,N,01258.211213,E,1,05,4.6,126.99,M,46.25,M,,*6A
$GPGLL,4611.969513,N,01258.211213,E,101439.00,A,A*68
$GPVTG,140.4,T,140.5,M,001.3,N,002.4,K,A*26
$GPGSV,2,1,07,21,22,186,32,02,23,047,39,12,29,108,32,25,63,101,37*7C
$GPGSV,2,2,07,29,84,304,40,30,67,306,38,31,50,288,40,,,,*47
$GPGSA,M,3,02,25,29,30,31,,,,,,,,7.3,4.6,5.7*35
Trace #23 at position 5.500000
$GPZDA,101439.03,08,10,2011,00,00*60
$GPRMC,101439.00,A,4611.969513,N,01258.211213,E,001.3,140.4,081011,0.2,E,A*3C
$GPGGA,101440.00,4611.969659,N,01258.211443,E,1,05,4.6,127.82,M,46.25,M,,*61
$GPGLL,4611.969659,N,01258.211443,E,101440.00,A,A*68
$GPVTG,151.1,T,151.3,M,001.4,N,002.7,K,A*21
$GPGSV,2,1,07,21,22,186,34,02,23,047,39,12,29,108,31,25,63,101,38*76
$GPGSV,2,2,07,29,84,304,40,30,67,306,40,31,50,288,40,,,,*48
$GPGSA,M,3,02,25,29,30,31,,,,,,,,7.3,4.6,5.7*35
Trace #24 at position 5.750000
$GPZDA,101439.03,08,10,2011,00,00*60
$GPRMC,101439.00,A,4611.969513,N,01258.211213,E,001.3,140.4,081011,0.2,E,A*3C
$GPGGA,101440.00,4611.969659,N,01258.211443,E,1,05,4.6,127.82,M,46.25,M,,*61
$GPGLL,4611.969659,N,01258.211443,E,101440.00,A,A*68
$GPVTG,151.1,T,151.3,M,001.4,N,002.7,K,A*21
$GPGSV,2,1,07,21,22,186,34,02,23,047,39,12,29,108,31,25,63,101,38*76
$GPGSV,2,2,07,29,84,304,40,30,67,306,40,31,50,288,40,,,,*48
$GPGSA,M,3,02,25,29,30,31,,,,,,,,7.3,4.6,5.7*35
Trace #25 at position 6.000000
$GPZDA,101439.03,08,10,2011,00,00*60
$GPRMC,101439.00,A,4611.969513,N,01258.211213,E,001.3,140.4,081011,0.2,E,A*3C
$GPGGA,101440.00,4611.969659,N,01258.211443,E,1,05,4.6,127.82,M,46.25,M,,*61
$GPGLL,4611.969659,N,01258.211443,E,101440.00,A,A*68
$GPVTG,151.1,T,151.3,M,001.4,N,002.7,K,A*21
$GPGSV,2,1,07,21,22,186,34,02,23,047,39,12,29,108,31,25,63,101,38*76
$GPGSV,2,2,07,29,84,304,40,30,67,306,40,31,50,288,40,,,,*48
$GPGSA,M,3,02,25,29,30,31,,,,,,,,7.3,4.6,5.7*35
Trace #26 at position 6.250000
$GPZDA,101440.03,08,10,2011,00,00*6E
$GPRMC,101440.00,A,4611.969659,N,01258.211443,E,001.4,151.1,081011,0.2,E,A*3E
$GPGGA,101441.00,4611.969741,N,01258.211559,E,1,05,4.6,128.50,M,46.25,M,,*62
$GPGLL,4611.969741,N,01258.211559,E,101441.00,A,A*6B
$GPVTG,169.0,T,169.1,M,001.7,N,003.1,K,A*26
$GPGSV,2,1,07,21,22,186,32,02,23,047,40,12,29,108,32,25,63,101,39*7C
$GPGSV,2,2,07,29,84,304,41,30,67,306,39,31,50,288,40,,,,*47
$GPGSA,M,3,02,25,29,30,31,,,,,,,,7.3,4.6,5.7*35
Trace #27 at position 6.500000
$GPZDA,101440.03,08,10,2011,00,00*6E
$GPRMC,101440.00,A,4611.969659,N,01258.211443,E,001.4,151.1,081011,0.2,E,A*3E
$GPGGA,101441.00,4611.969741,N,01258.211559,E,1,05,4.6,128.50,M,46.25,M,,*62
$GPGLL,4611.969741,N,01258.211559,E,101441.00,A,A*6B
$GPVTG,169.0,T,169.1,M,001.7,N,003.1,K,A*26
$GPGSV,2,1,07,21,22,186,32,02,23,047,40,12,29,108,32,25,63,101,39*7C
$GPGSV,2,2,07,29,84,304,41,30,67,306,39,31,50,288,40,,,,*47
$GPGSA,M,3,02,25,29,30,31,,,,,,,,7.3,4.6,5.7*35
Trace #28 at position 6.750000
$GPZDA,101440.03,08,10,2011,00,00*6E
$GPRMC,101440.00,A,4611.969659,N,01258.211443,E,001.4,151.1,081011,0.2,E,A*3E
$GPGGA,101441.00,4611.969741,N,01258.211559,E,1,05,4.6,128.50,M,46.25,M,,*62
$GPGLL,4611.969741,N,01258.211559,E,101441.00,A,A*6B
$GPVTG,169.0,T,169.1,M,001.7,N,003.1,K,A*26
$GPGSV,2,1,07,21,22,186,32,02,23,047,40,12,29,108,32,25,63,101,39*7C
$GPGSV,2,2,07,29,84,304,41,30,67,306,39,31,50,288,40,,,,*47
$GPGSA,M,3,02,25,29,30,31,,,,,,,,7.3,4.6,5.7*35
Trace #29 at position 7.000000
$GPZDA,101440.03,08,10,2011,00,00*6E
$GPRMC,101440.00,A,4611.969659,N,01258.211443,E,001.4,151.1,081011,0.2,E,A*3E
$GPGGA,101441.00,4611.969741,N,01258.211559,E,1,05,4.6,128.50,M,46.25,M,,*62
$GPGLL,4611.969741,N,01258.211559,E,101441.00,A,A*6B
$GPVTG,169.0,T,169.1,M,001.7,N,003.1,K,A*26
$GPGSV,2,1,07,21,22,186,32,02,23,047,40,12,29,108,32,25,63,101,39*7C
$GPGSV,2,2,07,29,84,304,41,30,67,306,39,31,50,288,40,,,,*47
$GPGSA,M,3,02,25,29,30,31,,,,,,,,7.3,4.6,5.7*35
Trace #30 at position 7.250000
$GPZDA,101441.03,08,10,2011,00,00*6F
$GPRMC,101441.00,A,4611.969741,N,01258.211559,E,001.7,169.0,081011,0.2,E,A*34
$GPGGA,101442.00,4611.969677,N,01258.211650,E,1,05,4.6,129.05,M,46.25,M,,*6E
$GPGLL,4611.969677,N,01258.211650,E,101442.00,A,A*66
$GPVTG,164.7,T,164.9,M,001.8,N,003.4,K,A*23
$GPGSV,2,1,07,21,22,186,31,02,23,047,39,12,29,108,32,25,63,101,41*7E
$GPGSV,2,2,07,29,84,304,41,30,67,306,40,31,50,288,40,,,,*49
$GPGSA,M,3,02,25,29,30,31,,,,,,,,7.3,4.6,5.7*35
Trace #31 at position 7.500000
$GPZDA,101441.03,08,10,2011,00,00*6F
$GPRMC,101441.00,A,4611.969741,N,01258.211559,E,001.7,169.0,081011,0.2,E,A*34
$GPGGA,101442.00,4611.969677,N,01258.211650,E,1,05,4.6,129.05,M,46.25,M,,*6E
$GPGLL,4611.969677,N,01258.211650,E,101442.00,A,A*66
$GPVTG,164.7,T,164.9,M,001.8,N,003.4,K,A*23
$GPGSV,2,1,07,21,22,186,31,02,23,047,39,12,29,108,32,25,63,101,41*7E
$GPGSV,2,2,07,29,84,304,41,30,67,306,40,31,50,288,40,,,,*49
$GPGSA,M,3,02,25,29,30,31,,,,,,,,7.3,4.6,5.7*35
Trace #32 at position 7.750000
$GPZDA,101441.03,08,10,2011,00,00*6F
$GPRMC,101441.00,A,4611.969741,N,01258.211559,E,001.7,169.0,081011,0.2,E,A*34
$GPGGA,101442.00,4611.969677,N,01258.211650,E,1,05,4.6,129.05,M,46.25,M,,*6E
$GPGLL,4611.969677,N,01258.211650,E,101442.00,A,A*66
$GPVTG,164.7,T,164.9,M,001.8,N,003.4,K,A*23
$GPGSV,2,1,07,21,22,186,31,02,23,047,39,12,29,108,32,25,63,101,41*7E
$GPGSV,2,2,07,29,84,304,41,30,67,306,40,31,50,288,40,,,,*49
$GPGSA,M,3,02,25,29,30,31,,,,,,,,7.3,4.6,5.7*35
Trace #33 at position 8.000000
$GPZDA,101442.03,08,10,2011,00,00*6C
$GPRMC,101442.00,A,4611.969677,N,01258.211650,E,001.8,164.7,081011,0.2,E,A*3C
$GPGGA,101443.00,4611.969511,N,01258.211793,E,1,05,4.6,129.58,M,46.25,M,,*6A
$GPGLL,4611.969511,N,01258.211793,E,101443.00,A,A*6A
$GPVTG,165.2,T,165.3,M,002.0,N,003.7,K,A*24
$GPGSV,2,1,07,21,22,186,31,02,23,047,40,12,29,108,33,25,63,101,41*71
$GPGSV,2,2,07,29,84,304,41,30,67,306,38,31,50,288,41,,,,*47
$GPGSA,M,3,02,25,29,30,31,,,,,,,,7.3,4.6,5.7*35
Trace #34 at position 8.250000
$GPZDA,101442.03,08,10,2011,00,00*6C
$GPRMC,101442.00,A,4611.969677,N,01258.211650,E,001.8,164.7,081011,0.2,E,A*3C
$GPGGA,101443.00,4611.969511,N,01258.211793,E,1,05,4.6,129.58,M,46.25,M,,*6A
$GPGLL,4611.969511,N,01258.211793,E,101443.00,A,A*6A
$GPVTG,165.2,T,165.3,M,002.0,N,003.7,K,A*24
$GPGSV,2,1,07,21,22,186,31,02,23,047,40,12,29,108,33,25,63,101,41*71
$GPGSV,2,2,07,29,84,304,41,30,67,306,38,31,50,288,41,,,,*47
$GPGSA,M,3,02,25,29,30,31,,,,,,,,7.3,4.6,5.7*35
Trace #35 at position 8.500000
$GPZDA,101442.03,08,10,2011,00,00*6C
$GPRMC,101442.00,A,4611.969677,N,01258.211650,E,001.8,164.7,081011,0.2,E,A*3C
$GPGGA,101443.00,4611.969511,N,01258.211793,E,1,05,4.6,129.58,M,46.25,M,,*6A
$GPGLL,4611.969511,N,01258.211793,E,101443.00,A,A*6A
$GPVTG,165.2,T,165.3,M,002.0,N,003.7,K,A*24
$GPGSV,2,1,07,21,22,186,31,02,23,047,40,12,29,108,33,25,63,101,41*71
$GPGSV,2,2,07,29,84,304,41,30,67,306,38,31,50,288,41,,,,*47
$GPGSA,M,3,02,25,29,30,31,,,,,,,,7.3,4.6,5.7*35
Trace #36 at position 8.750000
$GPZDA,101443.03,08,10,2011,00,00*6D
$GPRMC,101443.00,A,4611.969511,N,01258.211793,E,002.0,165.2,081011,0.2,E,A*3F
$GPGGA,101444.00,4611.969356,N,01258.211951,E,1,05,4.6,130.10,M,46.25,M,,*6C
$GPGLL,4611.969356,N,01258.211951,E,101444.00,A,A*68
$GPVTG,159.7,T,159.9,M,001.5,N,002.8,K,A*23
$GPGSV,2,1,07,21,22,186,30,02,23,047,41,12,29,108,34,25,63,101,42*75
$GPGSV,2,2,07,29,84,304,40,30,67,306,40,31,50,288,40,,,,*48
$GPGSA,M,3,02,25,29,30,31,,,,,,,,7.3,4.6,5.7*35
Trace #37 at position 9.000000
$GPZDA,101443.03,08,10,2011,00,00*6D
$GPRMC,101443.00,A,4611.969511,N,01258.211793,E,002.0,165.2,081011,0.2,E,A*3F
$GPGGA,101444.00,4611.969356,N,01258.211951,E,1,05,4.6,130.10,M,46.25,M,,*6C
$GPGLL,4611.969356,N,01258.211951,E,101444.00,A,A*68
$GPVTG,159.7,T,159.9,M,001.5,N,002.8,K,A*23
$GPGSV,2,1,07,21,22,186,30,02,23,047,41,12,29,108,34,25,63,101,42*75
$GPGSV,2,2,07,29,84,304,40,30,67,306,40,31,50,288,40,,,,*48
$GPGSA,M,3,02,25,29,30,31,,,,,,,,7.3,4.6,5.7*35
Trace #38 at position 9.250000
$GPZDA,101443.03,08,10,2011,00,00*6D
$GPRMC,101443.00,A,4611.969511,N,01258.211793,E,002.0,165.2,081011,0.2,E,A*3F
$GPGGA,101444.00,4611.969356,N,01258.211951,E,1,05,4.6,130.10,M,46.25,M,,*6C
$GPGLL,4611.969356,N,01258.211951,E,101444.00,A,A*68
$GPVTG,159.7,T,159.9,M,001.5,N,002.8,K,A*23
$GPGSV,2,1,07,21,22,186,30,02,23,047,41,12,29,108,34,25,63,101,42*75
$GPGSV,2,2,07,29,84,304,40,30,67,306,40,31,50,288,40,,,,*48
$GPGSA,M,3,02,25,29,30,31,,,,,,,,7.3,4.6,5.7*35
Trace #39 at position 9.500000
$GPZDA,101443.03,08,10,2011,00,00*6D
$GPRMC,101443.00,A,4611.969511,N,01258.211793,E,002.0,165.2,081011,0.2,E,A*3F
$GPGGA,101444.00,4611.969356,N,01258.211951,E,1,05,4.6,130.10,M,46.25,M,,*6C
$GPGLL,4611.969356,N,01258.211951,E,101444.00,A,A*68
$GPVTG,159.7,T,159.9,M,001.5,N,002.8,K,A*23
$GPGSV,2,1,07,21,22,186,30,02,23,047,41,12,29,108,34,25,63,101,42*75
$GPGSV,2,2,07,29,84,304,40,30,67,306,40,31,50,288,40,,,,*48
$GPGSA,M,3,02,25,29,30,31,,,,,,,,7.3,4.6,5.7*35
Trace #40 at position 9.750000
$GPZDA,101444.03,08,10,2011,00,00*6A
$GPRMC,101444.00,A,4611.969356,N,01258.211951,E,001.5,159.7,081011,0.2,E,A*31
$GPGGA,101445.00,4611.969238,N,01258.212157,E,1,05,4.6,130.65,M,46.25,M,,*6B
$GPGLL,4611.969238,N,01258.212157,E,101445.00,A,A*6D
$GPVTG,151.4,T,151.5,M,001.5,N,002.8,K,A*2C
$GPGSV,2,1,07,21,22,186,,02,23,047,40,12,29,108,32,25,63,101,41*72
$GPGSV,2,2,07,29,84,304,40,30,67,306,40,31,50,288,40,,,,*48
$GPGSA,M,3,02,25,29,30,31,,,,,,,,7.3,4.6,5.7*35
Trace #41 at position 10.000000
$GPZDA,101444.03,08,10,2011,00,00*6A
$GPRMC,101444.00,A,4611.969356,N,01258.211951,E,001.5,159.7,081011,0.2,E,A*31
$GPGGA,101445.00,4611.969238,N,01258.212157,E,1,05,4.6,130.65,M,46.25,M,,*6B
$GPGLL,4611.969238,N,01258.212157,E,101445.00,A,A*6D
$GPVTG,151.4,T,151.5,M,001.5,N,002.8,K,A*2C
$GPGSV,2,1,07,21,22,186,,02,23,047,40,12,29,108,32,25,63,101,41*72
$GPGSV,2,2,07,29,84,304,40,30,67,306,40,31,50,288,40,,,,*48
$GPGSA,M,3,02,25,29,30,31,,,,,,,,7.3,4.6,5.7*35
Trace #42 at position 10.250000
$GPZDA,101444.03,08,10,2011,00,00*6A
$GPRMC,101444.00,A,4611.969356,N,01258.211951,E,001.5,159.7,081011,0.2,E,A*31
$GPGGA,101445.00,4611.969238,N,01258.212157,E,1,05,4.6,130.65,M,46.25,M,,*6B
$GPGLL,4611.969238,N,01258.212157,E,101445.00,A,A*6D
$GPVTG,151.4,T,151.5,M,001.5,N,002.8,K,A*2C
$GPGSV,2,1,07,21,22,186,,02,23,047,40,12,29,108,32,25,63,101,41*72
$GPGSV,2,2,07,29,84,304,40,30,67,306,40,31,50,288,40,,,,*48
$GPGSA,M,3,02,25,29,30,31,,,,,,,,7.3,4.6,5.7*35
Trace #43 at position 10.500000
$GPZDA,101445.03,08,10,2011,00,00*6B
$GPRMC,101445.00,A,4611.969238,N,01258.212157,E,001.5,151.4,081011,0.2,E,A*3F
$GPGGA,101446.00,4611.969126,N,01258.212348,E,1,05,4.6,131.16,M,46.25,M,,*6D
$GPGLL,4611.969126,N,01258.212348,E,101446.00,A,A*6E
$GPVTG,155.4,T,155.6,M,001.1,N,002.1,K,A*22
$GPGSV,2,1,07,21,22,186,29,02,23,047,41,12,29,108,34,25,63,101,42*7D
$GPGSV,2,2,07,29,84,305,40,30,67,306,40,31,50,288,40,,,,*49
$GPGSA,M,3,02,25,29,30,31,,,,,,,,7.3,4.6,5.7*35
Trace #44 at position 10.750000
$GPZDA,101445.03,08,10,2011,00,00*6B
$GPRMC,101445.00,A,4611.969238,N,01258.212157,E,001.5,151.4,081011,0.2,E,A*3F
$GPGGA,101446.00,4611.969126,N,01258.212348,E,1,05,4.6,131.16,M,46.25,M,,*6D
$GPGLL,4611.969126,N,01258.212348,E,101446.00,A,A*6E
$GPVTG,155.4,T,155.6,M,001.1,N,002.1,K,A*22
$GPGSV,2,1,07,21,22,186,29,02,23,047,41,12,29,108,34,25,63,101,42*7D
$GPGSV,2,2,07,29,84,305,40,30,67,306,40,31,50,288,40,,,,*49
$GPGSA,M,3,02,25,29,30,31,,,,,,,,7.3,4.6,5.7*35
Trace #45 at position 11.000000
$GPZDA,101445.03,08,10,2011,00,00*6B
$GPRMC,101445.00,A,4611.969238,N,01258.212157,E,001.5,151.4,081011,0.2,E,A*3F
$GPGGA,101446.00,4611.969126,N,01258.212348,E,1,05,4.6,131.16,M,46.25,M,,*6D
$GPGLL,4611.969126,N,01258.212348,E,101446.00,A,A*6E
$GPVTG,155.4,T,155.6,M,001.1,N,002.1,K,A*22
$GPGSV,2,1,07,21,22,186,29,02,23,047,41,12,29,108,34,25,63,101,42*7D
$GPGSV,2,2,07,29,84,305,40,30,67,306,40,31,50,288,40,,,,*49
$GPGSA,M,3,02,25,29,30,31,,,,,,,,7.3,4.6,5.7*35
Trace #46 at position 11.250000
$GPZDA,101445.03,08,10,2011,00,00*6B
$GPRMC,101445.00,A,4611.969238,N,01258.212157,E,001.5,151.4,081011,0.2,E,A*3F
$GPGGA,101446.00,4611.969126,N,01258.212348,E,1,05,4.6,131.16,M,46.25,M,,*6D
$GPGLL,4611.969126,N,01258.212348,E,101446.00,A,A*6E
$GPVTG,155.4,T,155.6,M,001.1,N,002.1,K,A*22
$GPGSV,2,1,07,21,22,186,29,02,23,047,41,12,29,108,34,25,63,101,42*7D
$GPGSV,2,2,07,29,84,305,40,30,67,306,40,31,50,288,40,,,,*49
$GPGSA,M,3,02,25,29,30,31,,,,,,,,7.3,4.6,5.7*35
Trace #47 at position 11.500000
$GPZDA,101446.03,08,10,2011,00,00*68
$GPRMC,101446.00,A,4611.969126,N,01258.212348,E,001.1,155.4,081011,0.2,E,A*3C
$GPGGA,101447.00,4611.969083,N,01258.212546,E,1,05,4.6,131.68,M,46.25,M,,*63
$GPGLL,4611.969083,N,01258.212546,E,101447.00,A,A*69
$GPVTG,121.1,T,121.2,M,000.9,N,001.6,K,A*2E
$GPGSV,2,1,07,21,22,186,28,02,23,047,40,12,29,108,33,25,63,101,41*79
$GPGSV,2,2,07,29,84,305,40,30,67,306,39,31,50,288,40,,,,*47
$GPGSA,M,3,02,25,29,30,31,,,,,,,,7.3,4.6,5.7*35
Trace #48 at position 11.750000
$GPZDA,101446.03,08,10,2011,00,00*68
$GPRMC,101446.00,A,4611.969126,N,01258.212348,E,001.1,155.4,081011,0.2,E,A*3C
$GPGGA,101447.00,4611.969083,N,01258.212546,E,1,05,4.6,131.68,M,46.25,M,,*63
$GPGLL,4611.969083,N,01258.212546,E,101447.00,A,A*69
$GPVTG,121.1,T,121.2,M,000.9,N,001.6,K,A*2E
$GPGSV,2,1,07,21,22,186,28,02,23,047,40,12,29,108,33,25,63,101,41*79
$GPGSV,2,2,07,29,84,305,40,30,67,306,39,31,50,288,40,,,,*47
$GPGSA,M,3,02,25,29,30,31,,,,,,,,7.3,4.6,5.7*35
Trace #49 at position 12.000000
$GPZDA,101446.03,08,10,2011,00,00*68
$GPRMC,101446.00,A,4611.969126,N,01258.212348,E,001.1,155.4,081011,0.2,E,A*3C
$GPGGA,101447.00,4611.969083,N,01258.212546,E,1,05,4.6,131.68,M,46.25,M,,*63
$GPGLL,4611.969083,N,01258.212546,E,101447.00,A,A*69
$GPVTG,121.1,T,121.2,M,000.9,N,001.6,K,A*2E
$GPGSV,2,1,07,21,22,186,28,02,23,047,40,12,29,108,33,25,63,101,41*79
$GPGSV,2,2,07,29,84,305,40,30,67,306,39,31,50,288,40,,,,*47
$GPGSA,M,3,02,25,29,30,31,,,,,,,,7.3,4.6,5.7*35
Trace #50 at position 12.250000
$GPZDA,101446.03,08,10,2011,00,00*68
$GPRMC,101446.00,A,4611.969126,N,01258.212348,E,001.1,155.4,081011,0.2,E,A*3C
$GPGGA,101447.00,4611.969083,N,01258.212546,E,1,05,4.6,131.68,M,46.25,M,,*63
$GPGLL,4611.969083,N,01258.212546,E,101447.00,A,A*69
$GPVTG,121.1,T,121.2,M,000.9,N,001.6,K,A*2E
$GPGSV,2,1,07,21,22,186,28,02,23,047,40,12,29,108,33,25,63,101,41*79
$GPGSV,2,2,07,29,84,305,40,30,67,306,39,31,50,288,40,,,,*47
$GPGSA,M,3,02,25,29,30,31,,,,,,,,7.3,4.6,5.7*35
Trace #51 at position 12.500000
$GPZDA,101447.03,08,10,2011,00,00*69
$GPRMC,101447.00,A,4611.969083,N,01258.212546,E,000.9,121.1,081011,0.2,E,A*34
$GPGGA,101448.00,4611.968911,N,01258.212738,E,1,05,4.6,132.10,M,46.25,M,,*68
$GPGLL,4611.968911,N,01258.212738,E,101448.00,A,A*6E
$GPVTG,165.3,T,165.5,M,001.7,N,003.1,K,A*21
$GPGSV,2,1,07,21,22,186,31,02,23,047,38,12,29,108,,25,63,101,40*7F
$GPGSV,2,2,07,29,84,305,41,30,67,306,39,31,50,288,39,,,,*48
$GPGSA,M,3,02,25,29,30,31,,,,,,,,7.3,4.6,5.7*35
Trace #52 at position 12.750000
$GPZDA,101447.03,08,10,2011,00,00*69
$GPRMC,101447.00,A,4611.969083,N,01258.212546,E,000.9,121.1,081011,0.2,E,A*34
$GPGGA,101448.00,4611.968911,N,01258.212738,E,1,05,4.6,132.10,M,46.25,M,,*68
$GPGLL,4611.968911,N,01258.212738,E,101448.00,A,A*6E
$GPVTG,165.3,T,165.5,M,001.7,N,003.1,K,A*21
$GPGSV,2,1,07,21,22,186,31,02,23,047,38,12,29,108,,25,63,101,40*7F
$GPGSV,2,2,07,29,84,305,41,30,67,306,39,31,50,288,39,,,,*48
$GPGSA,M,3,02,25,29,30,31,,,,,,,,7.3,4.6,5.7*35
Trace #53 at position 13.000000
$GPZDA,101447.03,08,10,2011,00,00*69
$GPRMC,101447.00,A,4611.969083,N,01258.212546,E,000.9,121.1,081011,0.2,E,A*34
$GPGGA,101448.00,4611.968911,N,01258.212738,E,1,05,4.6,132.10,M,46.25,M,,*68
$GPGLL,4611.968911,N,01258.212738,E,101448.00,A,A*6E
$GPVTG,165.3,T,165.5,M,001.7,N,003.1,K,A*21
$GPGSV,2,1,07,21,22,186,31,02,23,047,38,12,29,108,,25,63,101,40*7F
$GPGSV,2,2,07,29,84,305,41,30,67,306,39,31,50,288,39,,,,*48
$GPGSA,M,3,02,25,29,30,31,,,,,,,,7.3,4.6,5.7*35
Trace #54 at position 13.250000
$GPZDA,101448.03,08,10,2011,00,00*66
$GPRMC,101448.00,A,4611.968911,N,01258.212738,E,001.7,165.3,081011,0.2,E,A*3E
$GPGGA,101449.00,4611.968478,N,01258.212904,E,1,05,4.6,132.31,M,46.25,M,,*69
$GPGLL,4611.968478,N,01258.212904,E,101449.00,A,A*6C
$GPVTG,165.7,T,165.8,M,002.3,N,004.2,K,A*2B
$GPGSV,2,1,07,21,22,186,31,02,23,047,38,12,29,108,32,25,63,101,38*71
$GPGSV,2,2,07,29,84,305,39,30,67,306,39,31,50,288,40,,,,*49
$GPGSA,M,3,02,25,29,30,31,,,,,,,,7.3,4.6,5.7*35
Trace #55 at position 13.500000
$GPZDA,101448.03,08,10,2011,00,00*66
$GPRMC,101448.00,A,4611.968911,N,01258.212738,E,001.7,165.3,081011,0.2,E,A*3E
$GPGGA,101449.00,4611.968478,N,01258.212904,E,1,05,4.6,132.31,M,46.25,M,,*69
$GPGLL,4611.968478,N,01258.212904,E,101449.00,A,A*6C
$GPVTG,165.7,T,165.8,M,002.3,N,004.2,K,A*2B
$GPGSV,2,1,07,21,22,186,31,02,23,047,38,12,29,108,32,25,63,101,38*71
$GPGSV,2,2,07,29,84,305,39,30,67,306,39,31,50,288,40,,,,*49
$GPGSA,M,3,02,25,29,30,31,,,,,,,,7.3,4.6,5.7*35
Trace #56 at position 13.750000
$GPZDA,101448.03,08,10,2011,00,00*66
$GPRMC,101448.00,A,4611.968911,N,01258.212738,E,001.7,165.3,081011,0.2,E,A*3E
$GPGGA,101449.00,4611.968478,N,01258.212904,E,1,05,4.6,132.31,M,46.25,M,,*69
$GPGLL,4611.968478,N,01258.212904,E,101449.00,A,A*6C
$GPVTG,165.7,T,165.8,M,002.3,N,004.2,K,A*2B
$GPGSV,2,1,07,21,22,186,31,02,23,047,38,12,29,108,32,25,63,101,38*71
$GPGSV,2,2,07,29,84,305,39,30,67,306,39,31,50,288,40,,,,*49
$GPGSA,M,3,02,25,29,30,31,,,,,,,,7.3,4.6,5.7*35
Trace #57 at position 14.000000
$GPZDA,101448.03,08,10,2011,00,00*66
$GPRMC,101448.00,A,4611.968911,N,01258.212738,E,001.7,165.3,081011,0.2,E,A*3E
$GPGGA,101449.00,4611.968478,N,01258.212904,E,1,05,4.6,132.31,M,46.25,M,,*69
$GPGLL,4611.968478,N,01258.212904,E,101449.00,A,A*6C
$GPVTG,165.7,T,165.8,M,002.3,N,004.2,K,A*2B
$GPGSV,2,1,07,21,22,186,31,02,23,047,38,12,29,108,32,25,63,101,38*71
$GPGSV,2,2,07,29,84,305,39,30,67,306,39,31,50,288,40,,,,*49
$GPGSA,M,3,02,25,29,30,31,,,,,,,,7.3,4.6,5.7*35
Trace #58 at position 14.250000
$GPZDA,101448.03,08,10,2011,00,00*66
$GPRMC,101448.00,A,4611.968911,N,01258.212738,E,001.7,165.3,081011,0.2,E,A*3E
$GPGGA,101449.00,4611.968478,N,01258.212904,E,1,05,4.6,132.31,M,46.25,M,,*69
$GPGLL,4611.968478,N,01258.212904,E,101449.00,A,A*6C
$GPVTG,165.7,T,165.8,M,002.3,N,004.2,K,A*2B
$GPGSV,2,1,07,21,22,186,31,02,23,047,38,12,29,108,32,25,63,101,38*71
$GPGSV,2,2,07,29,84,305,39,30,67,306,39,31,50,288,40,,,,*49
$GPGSA,M,3,02,25,29,30,31,,,,,,,,7.3,4.6,5.7*35
Trace #59 at position 14.500000
$GPZDA,101449.03,08,10,2011,00,00*67
$GPRMC,101449.00,A,4611.968478,N,01258.212904,E,002.3,165.7,081011,0.2,E,A*3F
$GPGGA,101450.00,4611.967952,N,01258.213098,E,1,05,4.6,132.43,M,46.25,M,,*63
$GPGLL,4611.967952,N,01258.213098,E,101450.00,A,A*63
$GPVTG,166.5,T,166.7,M,002.3,N,004.3,K,A*27
$GPGSV,2,1,07,21,22,186,32,02,23,047,38,12,29,108,29,25,63,101,39*79
$GPGSV,2,2,07,29,84,305,39,30,67,306,39,31,50,288,39,,,,*47
$GPGSA,M,3,02,25,29,30,31,,,,,,,,7.3,4.6,5.7*35
Trace #60 at position 14.750000
$GPZDA,101449.03,08,10,2011,00,00*67
$GPRMC,101449.00,A,4611.968478,N,01258.212904,E,002.3,165.7,081011,0.2,E,A*3F
$GPGGA,101450.00,4611.967952,N,01258.213098,E,1,05,4.6,132.43,M,46.25,M,,*63
$GPGLL,4611.967952,N,01258.213098,E,101450.00,A,A*63
$GPVTG,166.5,T,166.7,M,002.3,N,004.3,K,A*27
$GPGSV,2,1,07,21,22,186,32,02,23,047,38,12,29,108,29,25,63,101,39*79
$GPGSV,2,2,07,29,84,305,39,30,67,306,39,31,50,288,39,,,,*47
$GPGSA,M,3,02,25,29,30,31,,,,,,,,7.3,4.6,5.7*35
Trace #61 at position 15.000000
$GPZDA,101449.03,08,10,2011,00,00*67
$GPRMC,101449.00,A,4611.968478,N,01258.212904,E,002.3,165.7,081011,0.2,E,A*3F
$GPGGA,101450.00,4611.967952,N,01258.213098,E,1,05,4.6,132.43,M,46.25,M,,*63
$GPGLL,4611.967952,N,01258.213098,E,101450.00,A,A*63
$GPVTG,166.5,T,166.7,M,002.3,N,004.3,K,A*27
$GPGSV,2,1,07,21,22,186,32,02,23,047,38,12,29,108,29,25,63,101,39*79
$GPGSV,2,2,07,29,84,305,39,30,67,306,39,31,50,288,39,,,,*47
$GPGSA,M,3,02,25,29,30,31,,,,,,,,7.3,4.6,5.7*35
Trace #62 at position 15.250000
$GPZDA,101449.03,08,10,2011,00,00*67
$GPRMC,101449.00,A,4611.968478,N,01258.212904,E,002.3,165.7,081011,0.2,E,A*3F
$GPGGA,101450.00,4611.967952,N,01258.213098,E,1,05,4.6,132.43,M,46.25,M,,*63
$GPGLL,4611.967952,N,01258.213098,E,101450.00,A,A*63
$GPVTG,166.5,T,166.7,M,002.3,N,004.3,K,A*27
$GPGSV,2,1,07,21,22,186,32,02,23,047,38,12,29,108,29,25,63,101,39*79
$GPGSV,2,2,07,29,84,305,39,30,67,306,39,31,50,288,39,,,,*47
$GPGSA,M,3,02,25,29,30,31,,,,,,,,7.3,4.6,5.7*35
Trace #63 at position 15.500000
$GPZDA,101450.03,08,10,2011,00,00*6F
$GPRMC,101450.00,A,4611.967952,N,01258.213098,E,002.3,166.5,081011,0.2,E,A*31
$GPGGA,101451.00,4611.967479,N,01258.213315,E,1,05,4.6,132.44,M,46.25,M,,*67
$GPGLL,4611.967479,N,01258.213315,E,101451.00,A,A*60
$GPVTG,159.7,T,159.9,M,001.9,N,003.6,K,A*20
$GPGSV,2,1,07,21,22,186,34,02,23,047,39,12,29,108,31,25,63,101,41*78
$GPGSV,2,2,07,29,84,305,40,30,67,306,39,31,50,288,40,,,,*47
$GPGSA,M,3,02,25,29,30,31,,,,,,,,7.3,4.6,5.7*35
Trace #64 at position 15.750000
$GPZDA,101450.03,08,10,2011,00,00*6F
$GPRMC,101450.00,A,4611.967952,N,01258.213098,E,002.3,166.5,081011,0.2,E,A*31
$GPGGA,101451.00,4611.967479,N,01258.213315,E,1,05,4.6,132.44,M,46.25,M,,*67
$GPGLL,4611.967479,N,01258.213315,E,101451.00,A,A*60
$GPVTG,159.7,T,159.9,M,001.9,N,003.6,K,A*20
$GPGSV,2,1,07,21,22,186,34,02,23,047,39,12,29,108,31,25,63,101,41*78
$GPGSV,2,2,07,29,84,305,40,30,67,306,39,31,50,288,40,,,,*47
$GPGSA,M,3,02,25,29,30,31,,,,,,,,7.3,4.6,5.7*35
Trace #65 at position 16.000000
$GPZDA,101450.03,08,10,2011,00,00*6F
$GPRMC,101450.00,A,4611.967952,N,01258.213098,E,002.3,166.5,081011,0.2,E,A*31
$GPGGA,101451.00,4611.967479,N,01258.213315,E,1,05,4.6,132.44,M,46.25,M,,*67
$GPGLL,4611.967479,N,01258.213315,E,101451.00,A,A*60
$GPVTG,159.7,T,159.9,M,001.9,N,003.6,K,A*20
$GPGSV,2,1,07,21,22,186,34,02,23,047,39,12,29,108,31,25,63,101,41*78
$GPGSV,2,2,07,29,84,305,40,30,67,306,39,31,50,288,40,,,,*47
$GPGSA,M,3,02,25,29,30,31,,,,,,,,7.3,4.6,5.7*35
Trace #66 at position 16.250000
$GPZDA,101451.03,08,10,2011,00,00*6E
$GPRMC,101451.00,A,4611.967479,N,01258.213315,E,001.9,159.7,081011,0.2,E,A*35
$GPGGA,101452.00,4611.967185,N,01258.213531,E,1,05,4.6,132.60,M,46.25,M,,*64
$GPGLL,4611.967185,N,01258.213531,E,101452.00,A,A*65
$GPVTG,144.6,T,144.8,M,000.9,N,001.7,K,A*22
$GPGSV,2,1,07,21,22,186,34,02,23,047,39,12,29,108,33,25,63,101,40*7B
$GPGSV,2,2,07,29,84,305,41,30,67,306,39,31,50,288,40,,,,*46
$GPGSA,M,3,02,25,29,30,31,,,,,,,,7.3,4.6,5.7*35
Trace #67 at position 16.500000
$GPZDA,101451.03,08,10,2011,00,00*6E
$GPRMC,101451.00,A,4611.967479,N,01258.213315,E,001.9,159.7,081011,0.2,E,A*35
$GPGGA,101452.00,4611.967185,N,01258.213531,E,1,05,4.6,132.60,M,46.25,M,,*64
$GPGLL,4611.967185,N,01258.213531,E,101452.00,A,A*65
$GPVTG,144.6,T,144.8,M,000.9,N,001.7,K,A*22
$GPGSV,2,1,07,21,22,186,34,02,23,047,39,12,29,108,33,25,63,101,40*7B
$GPGSV,2,2,07,29,84,305,41,30,67,306,39,31,50,288,40,,,,*46
$GPGSA,M,3,02,25,29,30,31,,,,,,,,7.3,4.6,5.7*35
Trace #68 at position 16.750000
$GPZDA,101451.03,08,10,2011,00,00*6E
$GPRMC,101451.00,A,4611.967479,N,01258.213315,E,001.9,159.7,081011,0.2,E,A*35
$GPGGA,101452.00,4611.967185,N,01258.213531,E,1,05,4.6,132.60,M,46.25,M,,*64
$GPGLL,4611.967185,N,01258.213531,E,101452.00,A,A*65
$GPVTG,144.6,T,144.8,M,000.9,N,001.7,K,A*22
$GPGSV,2,1,07,21,22,186,34,02,23,047,39,12,29,108,33,25,63,101,40*7B
$GPGSV,2,2,07,29,84,305,41,30,67,306,39,31,50,288,40,,,,*46
$GPGSA,M,3,02,25,29,30,31,,,,,,,,7.3,4.6,5.7*35
Trace #69 at position 17.000000
$GPZDA,101451.03,08,10,2011,00,00*6E
$GPRMC,101451.00,A,4611.967479,N,01258.213315,E,001.9,159.7,081011,0.2,E,A*35
$GPGGA,101452.00,4611.967185,N,01258.213531,E,1,05,4.6,132.60,M,46.25,M,,*64
$GPGLL,4611.967185,N,01258.213531,E,101452.00,A,A*65
$GPVTG,144.6,T,144.8,M,000.9,N,001.7,K,A*22
$GPGSV,2,1,07,21,22,186,34,02,23,047,39,12,29,108,33,25,63,101,40*7B
$GPGSV,2,2,07,29,84,305,41,30,67,306,39,31,50,288,40,,,,*46
$GPGSA,M,3,02,25,29,30,31,,,,,,,,7.3,4.6,5.7*35
Trace #70 at position 17.250000
$GPZDA,101452.03,08,10,2011,00,00*6D
$GPRMC,101452.00,A,4611.967185,N,01258.213531,E,000.9,144.6,081011,0.2,E,A*3C
$GPGGA,101453.00,4611.966879,N,01258.213678,E,1,05,4.6,132.84,M,46.25,M,,*6A
$GPGLL,4611.966879,N,01258.213678,E,101453.00,A,A*61
$GPVTG,171.0,T,171.2,M,001.7,N,003.1,K,A*25
$GPGSV,2,1,07,21,22,186,30,02,23,047,39,12,29,108,,25,63,101,40*7F
$GPGSV,2,2,07,29,84,305,40,30,67,306,39,31,50,288,40,,,,*47
$GPGSA,M,3,02,25,29,30,31,,,,,,,,7.3,4.6,5.7*35
Trace #71 at position 17.500000
$GPZDA,101452.03,08,10,2011,00,00*6D
$GPRMC,101452.00,A,4611.967185,N,01258.213531,E,000.9,144.6,081011,0.2,E,A*3C
$GPGGA,101453.00,4611.966879,N,01258.213678,E,1,05,4.6,132.84,M,46.25,M,,*6A
$GPGLL,4611.966879,N,01258.213678,E,101453.00,A,A*61
$GPVTG,171.0,T,171.2,M,001.7,N,003.1,K,A*25
$GPGSV,2,1,07,21,22,186,30,02,23,047,39,12,29,108,,25,63,101,40*7F
$GPGSV,2,2,07,29,84,305,40,30,67,306,39,31,50,288,40,,,,*47
$GPGSA,M,3,02,25,29,30,31,,,,,,,,7.3,4.6,5.7*35
Trace #72 at position 17.750000
$GPZDA,101452.03,08,10,2011,00,00*6D
$GPRMC,101452.00,A,4611.967185,N,01258.213531,E,000.9,144.6,081011,0.2,E,A*3C
$GPGGA,101453.00,4611.966879,N,01258.213678,E,1,05,4.6,132.84,M,46.25,M,,*6A
$GPGLL,4611.966879,N,01258.213678,E,101453.00,A,A*61
$GPVTG,171.0,T,171.2,M,001.7,N,003.1,K,A*25
$GPGSV,2,1,07,21,22,186,30,02,23,047,39,12,29,108,,25,63,101,40*7F
$GPGSV,2,2,07,29,84,305,40,30,67,306,39,31,50,288,40,,,,*47
$GPGSA,M,3,02,25,29,30,31,,,,,,,,7.3,4.6,5.7*35
Trace #73 at position 18.000000
$GPZDA,101452.03,08,10,2011,00,00*6D
$GPRMC,101452.00,A,4611.967185,N,01258.213531,E,000.9,144.6,081011,0.2,E,A*3C
$GPGGA,101453.00,4611.966879,N,01258.213678,E,1,05,4.6,132.84,M,46.25,M,,*6A
$GPGLL,4611.966879,N,01258.213678,E,101453.00,A,A*61
$GPVTG,171.0,T,171.2,M,001.7,N,003.1,K,A*25
$GPGSV,2,1,07,21,22,186,30,02,23,047,39,12,29,108,,25,63,101,40*7F
$GPGSV,2,2,07,29,84,305,40,30,67,306,39,31,50,288,40,,,,*47
$GPGSA,M,3,02,25,29,30,31,,,,,,,,7.3,4.6,5.7*35
Trace #74 at position 18.250000
$GPZDA,101453.03,08,10,2011,00,00*6C
$GPRMC,101453.00,A,4611.966879,N,01258.213678,E,001.7,171.0,081011,0.2,E,A*37
$GPGGA,101454.00,4611.966441,N,01258.213807,E,1,05,4.6,132.94,M,46.25,M,,*6D
$GPGLL,4611.966441,N,01258.213807,E,101454.00,A,A*67
$GPVTG,167.7,T,167.9,M,001.7,N,003.2,K,A*2A
$GPGSV,2,1,07,21,22,186,31,02,23,047,39,12,29,108,35,25,63,101,39*76
$GPGSV,2,2,07,29,84,305,40,30,67,306,40,31,50,288,41,,,,*48
$GPGSA,M,3,02,25,29,30,31,,,,,,,,7.3,4.6,5.7*35
Trace #75 at position 18.500000
$GPZDA,101453.03,08,10,2011,00,00*6C
$GPRMC,101453.00,A,4611.966879,N,01258.213678,E,001.7,171.0,081011,0.2,E,A*37
$GPGGA,101454.00,4611.966441,N,01258.213807,E,1,05,4.6,132.94,M,46.25,M,,*6D
$GPGLL,4611.966441,N,01258.213807,E,101454.00,A,A*67
$GPVTG,167.7,T,167.9,M,001.7,N,003.2,K,A*2A
$GPGSV,2,1,07,21,22,186,31,02,23,047,39,12,29,108,35,25,63,101,39*76
$GPGSV,2,2,07,29,84,305,40,30,67,306,40,31,50,288,41,,,,*48
$GPGSA,M,3,02,25,29,30,31,,,,,,,,7.3,4.6,5.7*35
Trace #76 at position 18.750000
$GPZDA,101453.03,08,10,2011,00,00*6C
$GPRMC,101453.00,A,4611.966879,N,01258.213678,E,001.7,171.0,081011,0.2,E,A*37
$GPGGA,101454.00,4611.966441,N,01258.213807,E,1,05,4.6,132.94,M,46.25,M,,*6D
$GPGLL,4611.966441,N,01258.213807,E,101454.00,A,A*67
$GPVTG,167.7,T,167.9,M,001.7,N,003.2,K,A*2A
$GPGSV,2,1,07,21,22,186,31,02,23,047,39,12,29,108,35,25,63,101,39*76
$GPGSV,2,2,07,29,84,305,40,30,67,306,40,31,50,288,41,,,,*48
$GPGSA,M,3,02,25,29,30,31,,,,,,,,7.3,4.6,5.7*35
Trace #77 at position 19.000000
$GPZDA,101453.03,08,10,2011,00,00*6C
$GPRMC,101453.00,A,4611.966879,N,01258.213678,E,001.7,171.0,081011,0.2,E,A*37
$GPGGA,101454.00,4611.966441,N,01258.213807,E,1,05,4.6,132.94,M,46.25,M,,*6D
$GPGLL,4611.966441,N,01258.213807,E,101454.00,A,A*67
$GPVTG,167.7,T,167.9,M,001.7,N,003.2,K,A*2A
$GPGSV,2,1,07,21,22,186,31,02,23,047,39,12,29,108,35,25,63,101,39*76
$GPGSV,2,2,07,29,84,305,40,30,67,306,40,31,50,288,41,,,,*48
$GPGSA,M,3,02,25,29,30,31,,,,,,,,7.3,4.6,5.7*35
Trace #78 at position 19.250000
$GPZDA,101454.03,08,10,2011,00,00*6B
$GPRMC,101454.00,A,4611.966441,N,01258.213807,E,001.7,167.7,081011,0.2,E,A*31
$GPGGA,101455.00,4611.965947,N,01258.213927,E,1,05,4.6,132.94,M,46.25,M,,*67
$GPGLL,4611.965947,N,01258.213927,E,101455.00,A,A*6D
$GPVTG,175.7,T,175.9,M,002.0,N,003.8,K,A*24
$GPGSV,2,1,07,21,22,186,32,02,23,047,38,12,29,108,34,25,63,101,38*74
$GPGSV,2,2,07,29,84,305,40,30,67,306,41,31,50,288,40,,,,*48
$GPGSA,M,3,02,25,29,30,31,,,,,,,,7.3,4.6,5.7*35
Trace #79 at position 19.500000
$GPZDA,101454.03,08,10,2011,00,00*6B
$GPRMC,101454.00,A,4611.966441,N,01258.213807,E,001.7,167.7,081011,0.2,E,A*31
$GPGGA,101455.00,4611.965947,N,01258.213927,E,1,05,4.6,132.94,M,46.25,M,,*67
$GPGLL,4611.965947,N,01258.213927,E,101455.00,A,A*6D
$GPVTG,175.7,T,175.9,M,002.0,N,003.8,K,A*24
$GPGSV,2,1,07,21,22,186,32,02,23,047,38,12,29,108,34,25,63,101,38*74
$GPGSV,2,2,07,29,84,305,40,30,67,306,41,31,50,288,40,,,,*48
$GPGSA,M,3,02,25,29,30,31,,,,,,,,7.3,4.6,5.7*35
Trace #80 at position 19.750000
$GPZDA,101454.03,08,10,2011,00,00*6B
$GPRMC,101454.00,A,4611.966441,N,01258.213807,E,001.7,167.7,081011,0.2,E,A*31
$GPGGA,101455.00,4611.965947,N,01258.213927,E,1,05,4.6,132.94,M,46.25,M,,*67
$GPGLL,4611.965947,N,01258.213927,E,101455.00,A,A*6D
$GPVTG,175.7,T,175.9,M,002.0,N,003.8,K,A*24
$GPGSV,2,1,07,21,22,186,32,02,23,047,38,12,29,108,34,25,63,101,38*74
$GPGSV,2,2,07,29,84,305,40,30,67,306,41,31,50,288,40,,,,*48
$GPGSA,M,3,02,25,29,30,31,,,,,,,,7.3,4.6,5.7*35
Trace #81 at position 20.000000
$GPZDA,101454.03,08,10,2011,00,00*6B
$GPRMC,101454.00,A,4611.966441,N,01258.213807,E,001.7,167.7,081011,0.2,E,A*31
$GPGGA,101455.00,4611.965947,N,01258.213927,E,1,05,4.6,132.94,M,46.25,M,,*67
$GPGLL,4611.965947,N,01258.213927,E,101455.00,A,A*6D
$GPVTG,175.7,T,175.9,M,002.0,N,003.8,K,A*24
$GPGSV,2,1,07,21,22,186,32,02,23,047,38,12,29,108,34,25,63,101,38*74
$GPGSV,2,2,07,29,84,305,40,30,67,306,41,31,50,288,40,,,,*48
$GPGSA,M,3,02,25,29,30,31,,,,,,,,7.3,4.6,5.7*35
Trace #82 at position 20.250000
$GPZDA,101455.03,08,10,2011,00,00*6A
$GPRMC,101455.00,A,4611.965947,N,01258.213927,E,002.0,175.7,081011,0.2,E,A*3C
$GPGGA,101456.00,4611.965448,N,01258.214000,E,1,05,4.5,133.04,M,46.25,M,,*66
$GPGLL,4611.965448,N,01258.214000,E,101456.00,A,A*67
$GPVTG,178.6,T,178.7,M,001.7,N,003.2,K,A*25
$GPGSV,2,1,07,21,22,186,32,02,23,047,38,12,29,108,34,25,63,101,40*7B
$GPGSV,2,2,07,29,84,305,40,30,67,306,41,31,50,288,40,,,,*48
$GPGSA,M,3,02,25,29,30,31,,,,,,,,7.2,4.5,5.6*36
Trace #83 at position 20.500000
$GPZDA,101455.03,08,10,2011,00,00*6A
$GPRMC,101455.00,A,4611.965947,N,01258.213927,E,002.0,175.7,081011,0.2,E,A*3C
$GPGGA,101456.00,4611.965448,N,01258.214000,E,1,05,4.5,133.04,M,46.25,M,,*66
$GPGLL,4611.965448,N,01258.214000,E,101456.00,A,A*67
$GPVTG,178.6,T,178.7,M,001.7,N,003.2,K,A*25
$GPGSV,2,1,07,21,22,186,32,02,23,047,38,12,29,108,34,25,63,101,40*7B
$GPGSV,2,2,07,29,84,305,40,30,67,306,41,31,50,288,40,,,,*48
$GPGSA,M,3,02,25,29,30,31,,,,,,,,7.2,4.5,5.6*36
Trace #84 at position 20.750000
$GPZDA,101455.03,08,10,2011,00,00*6A
$GPRMC,101455.00,A,4611.965947,N,01258.213927,E,002.0,175.7,081011,0.2,E,A*3C
$GPGGA,101456.00,4611.965448,N,01258.214000,E,1,05,4.5,133.04,M,46.25,M,,*66
$GPGLL,4611.965448,N,01258.214000,E,101456.00,A,A*67
$GPVTG,178.6,T,178.7,M,001.7,N,003.2,K,A*25
$GPGSV,2,1,07,21,22,186,32,02,23,047,38,12,29,108,34,25,63,101,40*7B
$GPGSV,2,2,07,29,84,305,40,30,67,306,41,31,50,288,40,,,,*48
$GPGSA,M,3,02,25,29,30,31,,,,,,,,7.2,4.5,5.6*36
Trace #85 at position 21.000000
$GPZDA,101456.03,08,10,2011,00,00*69
$GPRMC,101456.00,A,4611.965448,N,01258.214000,E,001.7,178.6,081011,0.2,E,A*3E
$GPGGA,101457.00,4611.964940,N,01258.214157,E,1,05,4.5,133.04,M,46.25,M,,*60
$GPGLL,4611.964940,N,01258.214157,E,101457.00,A,A*61
$GPVTG,165.8,T,166.0,M,002.1,N,003.9,K,A*21
$GPGSV,2,1,07,21,22,186,,02,23,047,40,12,29,108,34,25,63,101,41*74
$GPGSV,2,2,07,29,84,305,41,30,67,306,40,31,50,288,40,,,,*48
$GPGSA,M,3,02,25,29,30,31,,,,,,,,7.2,4.5,5.6*36
Trace #86 at position 21.250000
$GPZDA,101456.03,08,10,2011,00,00*69
$GPRMC,101456.00,A,4611.965448,N,01258.214000,E,001.7,178.6,081011,0.2,E,A*3E
$GPGGA,101457.00,4611.964940,N,01258.214157,E,1,05,4.5,133.04,M,46.25,M,,*60
$GPGLL,4611.964940,N,01258.214157,E,101457.00,A,A*61
$GPVTG,165.8,T,166.0,M,002.1,N,003.9,K,A*21
$GPGSV,2,1,07,21,22,186,,02,23,047,40,12,29,108,34,25,63,101,41*74
$GPGSV,2,2,07,29,84,305,41,30,67,306,40,31,50,288,40,,,,*48
$GPGSA,M,3,02,25,29,30,31,,,,,,,,7.2,4.5,5.6*36
Trace #87 at position 21.500000
$GPZDA,101456.03,08,10,2011,00,00*69
$GPRMC,101456.00,A,4611.965448,N,01258.214000,E,001.7,178.6,081011,0.2,E,A*3E
$GPGGA,101457.00,4611.964940,N,01258.214157,E,1,05,4.5,133.04,M,46.25,M,,*60
$GPGLL,4611.964940,N,01258.214157,E,101457.00,A,A*61
$GPVTG,165.8,T,166.0,M,002.1,N,003.9,K,A*21
$GPGSV,2,1,07,21,22,186,,02,23,047,40,12,29,108,34,25,63,101,41*74
$GPGSV,2,2,07,29,84,305,41,30,67,306,40,31,50,288,40,,,,*48
$GPGSA,M,3,02,25,29,30,31,,,,,,,,7.2,4.5,5.6*36
Trace #88 at position 21.750000
$GPZDA,101457.03,08,10,2011,00,00*68
$GPRMC,101457.00,A,4611.964940,N,01258.214157,E,002.1,165.8,081011,0.2,E,A*3F
$GPGGA,101458.00,4611.964551,N,01258.214348,E,1,05,4.5,133.01,M,46.25,M,,*6A
$GPGLL,4611.964551,N,01258.214348,E,101458.00,A,A*6E
$GPVTG,167.2,T,167.4,M,000.9,N,001.6,K,A*2B
$GPGSV,2,1,07,21,22,186,,02,23,047,39,12,29,108,34,25,63,101,43*78
$GPGSV,2,2,07,29,84,306,43,30,67,306,41,31,50,288,41,,,,*49
$GPGSA,M,3,02,25,29,30,31,,,,,,,,7.2,4.5,5.6*36
Trace #89 at position 22.000000
$GPZDA,101457.03,08,10,2011,00,00*68
$GPRMC,101457.00,A,4611.964940,N,01258.214157,E,002.1,165.8,081011,0.2,E,A*3F
$GPGGA,101458.00,4611.964551,N,01258.214348,E,1,05,4.5,133.01,M,46.25,M,,*6A
$GPGLL,4611.964551,N,01258.214348,E,101458.00,A,A*6E
$GPVTG,167.2,T,167.4,M,000.9,N,001.6,K,A*2B
$GPGSV,2,1,07,21,22,186,,02,23,047,39,12,29,108,34,25,63,101,43*78
$GPGSV,2,2,07,29,84,306,43,30,67,306,41,31,50,288,41,,,,*49
$GPGSA,M,3,02,25,29,30,31,,,,,,,,7.2,4.5,5.6*36
Trace #90 at position 22.250000
$GPZDA,101457.03,08,10,2011,00,00*68
$GPRMC,101457.00,A,4611.964940,N,01258.214157,E,002.1,165.8,081011,0.2,E,A*3F
$GPGGA,101458.00,4611.964551,N,01258.214348,E,1,05,4.5,133.01,M,46.25,M,,*6A
$GPGLL,4611.964551,N,01258.214348,E,101458.00,A,A*6E
$GPVTG,167.2,T,167.4,M,000.9,N,001.6,K,A*2B
$GPGSV,2,1,07,21,22,186,,02,23,047,39,12,29,108,34,25,63,101,43*78
$GPGSV,2,2,07,29,84,306,43,30,67,306,41,31,50,288,41,,,,*49
$GPGSA,M,3,02,25,29,30,31,,,,,,,,7.2,4.5,5.6*36
Trace #91 at position 22.500000
$GPZDA,101457.03,08,10,2011,00,00*68
$GPRMC,101457.00,A,4611.964940,N,01258.214157,E,002.1,165.8,081011,0.2,E,A*3F
$GPGGA,101458.00,4611.964551,N,01258.214348,E,1,05,4.5,133.01,M,46.25,M,,*6A
$GPGLL,4611.964551,N,01258.214348,E,101458.00,A,A*6E
$GPVTG,167.2,T,167.4,M,000.9,N,001.6,K,A*2B
$GPGSV,2,1,07,21,22,186,,02,23,047,39,12,29,108,34,25,63,101,43*78
$GPGSV,2,2,07,29,84,306,43,30,67,306,41,31,50,288,41,,,,*49
$GPGSA,M,3,02,25,29,30,31,,,,,,,,7.2,4.5,5.6*36
Trace #92 at position 22.750000
$GPZDA,101458.03,08,10,2011,00,00*67
$GPRMC,101458.00,A,4611.964551,N,01258.214348,E,000.9,167.2,081011,0.2,E,A*32
$GPGGA,101459.00,4611.964181,N,01258.214445,E,1,05,4.5,133.05,M,46.25,M,,*6C
$GPGLL,4611.964181,N,01258.214445,E,101459.00,A,A*6C
$GPVTG,181.1,T,181.3,M,001.8,N,003.3,K,A*28
$GPGSV,2,1,07,21,22,186,32,02,23,047,39,12,29,108,32,25,63,101,40*7C
$GPGSV,2,2,07,29,84,306,41,30,67,306,41,31,50,288,40,,,,*4A
$GPGSA,M,3,02,25,29,30,31,,,,,,,,7.2,4.5,5.6*36
Trace #93 at position 23.000000
$GPZDA,101458.03,08,10,2011,00,00*67
$GPRMC,101458.00,A,4611.964551,N,01258.214348,E,000.9,167.2,081011,0.2,E,A*32
$GPGGA,101459.00,4611.964181,N,01258.214445,E,1,05,4.5,133.05,M,46.25,M,,*6C
$GPGLL,4611.964181,N,01258.214445,E,101459.00,A,A*6C
$GPVTG,181.1,T,181.3,M,001.8,N,003.3,K,A*28
$GPGSV,2,1,07,21,22,186,32,02,23,047,39,12,29,108,32,25,63,101,40*7C
$GPGSV,2,2,07,29,84,306,41,30,67,306,41,31,50,288,40,,,,*4A
$GPGSA,M,3,02,25,29,30,31,,,,,,,,7.2,4.5,5.6*36
Trace #94 at position 23.250000
$GPZDA,101458.03,08,10,2011,00,00*67
$GPRMC,101458.00,A,4611.964551,N,01258.214348,E,000.9,167.2,081011,0.2,E,A*32
$GPGGA,101459.00,4611.964181,N,01258.214445,E,1,05,4.5,133.05,M,46.25,M,,*6C
$GPGLL,4611.964181,N,01258.214445,E,101459.00,A,A*6C
$GPVTG,181.1,T,181.3,M,001.8,N,003.3,K,A*28
$GPGSV,2,1,07,21,22,186,32,02,23,047,39,12,29,108,32,25,63,101,40*7C
$GPGSV,2,2,07,29,84,306,41,30,67,306,41,31,50,288,40,,,,*4A
$GPGSA,M,3,02,25,29,30,31,,,,,,,,7.2,4.5,5.6*36
Trace #95 at position 23.500000
$GPZDA,101459.03,08,10,2011,00,00*66
$GPRMC,101459.00,A,4611.964181,N,01258.214445,E,001.8,181.1,081011,0.2,E,A*3B
$GPGGA,101500.00,4611.963711,N,01258.214540,E,1,05,4.5,132.97,M,46.25,M,,*67
$GPGLL,4611.963711,N,01258.214540,E,101500.00,A,A*6D
$GPVTG,174.9,T,175.1,M,001.6,N,003.0,K,A*2E
$GPGSV,2,1,07,21,22,186,31,02,23,047,38,12,29,108,34,25,63,101,39*76
$GPGSV,2,2,07,29,84,306,39,30,67,306,40,31,50,288,39,,,,*4A
$GPGSA,M,3,02,25,29,30,31,,,,,,,,7.2,4.5,5.6*36
Trace #96 at position 23.750000
$GPZDA,101459.03,08,10,2011,00,00*66
$GPRMC,101459.00,A,4611.964181,N,01258.214445,E,001.8,181.1,081011,0.2,E,A*3B
$GPGGA,101500.00,4611.963711,N,01258.214540,E,1,05,4.5,132.97,M,46.25,M,,*67
$GPGLL,4611.963711,N,01258.214540,E,101500.00,A,A*6D
$GPVTG,174.9,T,175.1,M,001.6,N,003.0,K,A*2E
$GPGSV,2,1,07,21,22,186,31,02,23,047,38,12,29,108,34,25,63,101,39*76
$GPGSV,2,2,07,29,84,306,39,30,67,306,40,31,50,288,39,,,,*4A
$GPGSA,M,3,02,25,29,30,31,,,,,,,,7.2,4.5,5.6*36
Trace #97 at position 24.000000
$GPZDA,101459.03,08,10,2011,00,00*66
$GPRMC,101459.00,A,4611.964181,N,01258.214445,E,001.8,181.1,081011,0.2,E,A*3B
$GPGGA,101500.00,4611.963711,N,01258.214540,E,1,05,4.5,132.97,M,46.25,M,,*67
$GPGLL,4611.963711,N,01258.214540,E,101500.00,A,A*6D
$GPVTG,174.9,T,175.1,M,001.6,N,003.0,K,A*2E
$GPGSV,2,1,07,21,22,186,31,02,23,047,38,12,29,108,34,25,63,101,39*76
$GPGSV,2,2,07,29,84,306,39,30,67,306,40,31,50,288,39,,,,*4A
$GPGSA,M,3,02,25,29,30,31,,,,,,,,7.2,4.5,5.6*36
Trace #98 at position 24.250000
$GPZDA,101500.03,08,10,2011,00,00*6B
$GPRMC,101500.00,A,4611.963711,N,01258.214540,E,001.6,174.9,081011,0.2,E,A*36
$GPGGA,101501.00,4611.963244,N,01258.214652,E,1,05,4.5,132.92,M,46.25,M,,*66
$GPGLL,4611.963244,N,01258.214652,E,101501.00,A,A*69
$GPVTG,179.5,T,179.7,M,001.7,N,003.1,K,A*25
$GPGSV,2,1,07,21,22,186,31,02,23,047,39,12,29,108,29,25,63,101,40*75
$GPGSV,2,2,07,29,84,306,40,30,67,306,41,31,50,288,39,,,,*45
$GPGSA,M,3,02,25,29,30,31,,,,,,,,7.2,4.5,5.6*36
Trace #99 at position 24.500000
$GPZDA,101500.03,08,10,2011,00,00*6B
$GPRMC,101500.00,A,4611.963711,N,01258.214540,E,001.6,174.9,081011,0.2,E,A*36
$GPGGA,101501.00,4611.963244,N,01258.214652,E,1,05,4.5,132.92,M,46.25,M,,*66
$GPGLL,4611.963244,N,01258.214652,E,101501.00,A,A*69
$GPVTG,179.5,T,179.7,M,001.7,N,003.1,K,A*25
$GPGSV,2,1,07,21,22,186,31,02,23,047,39,12,29,108,29,25,63,101,40*75
$GPGSV,2,2,07,29,84,306,40,30,67,306,41,31,50,288,39,,,,*45
$GPGSA,M,3,02,25,29,30,31,,,,,,,,7.2,4.5,5.6*36
Trace #100 at position 24.750000
$GPZDA,101506.03,08,10,2011,00,00*6D
$GPRMC,101506.00,A,4611.959407,N,01258.215788,E,000.2,204.3,081011,0.2,E,A*31
$GPGGA,101507.00,4611.958871,N,01258.215903,E,1,04,9.7,127.83,M,46.25,M,,*64
$GPGLL,4611.958871,N,01258.215903,E,101507.00,A,A*61
$GPVTG,167.0,T,167.1,M,000.1,N,000.1,K,A*22
$GPGSV,2,1,07,21,22,186,29,02,23,047,37,12,29,108,31,25,63,101,35*79
$GPGSV,2,2,07,29,84,306,40,30,67,306,41,31,50,288,39,,,,*45
$GPGSA,M,3,02,29,30,31,,,,,,,,,12.5,9.7,7.9*00
Trace #101 at position 25.000000
$GPZDA,101506.03,08,10,2011,00,00*6D
$GPRMC,101506.00,A,4611.959407,N,01258.215788,E,000.2,204.3,081011,0.2,E,A*31
$GPGGA,101507.00,4611.958871,N,01258.215903,E,1,04,9.7,127.83,M,46.25,M,,*64
$GPGLL,4611.958871,N,01258.215903,E,101507.00,A,A*61
$GPVTG,167.0,T,167.1,M,000.1,N,000.1,K,A*22
$GPGSV,2,1,07,21,22,186,29,02,23,047,37,12,29,108,31,25,63,101,35*79
$GPGSV,2,2,07,29,84,306,40,30,67,306,41,31,50,288,39,,,,*45
$GPGSA,M,3,02,29,30,31,,,,,,,,,12.5,9.7,7.9*00
Trace #102 at position 25.250000
$GPZDA,101506.03,08,10,2011,00,00*6D
$GPRMC,101506.00,A,4611.959407,N,01258.215788,E,000.2,204.3,081011,0.2,E,A*31
$GPGGA,101507.00,4611.958871,N,01258.215903,E,1,04,9.7,127.83,M,46.25,M,,*64
$GPGLL,4611.958871,N,01258.215903,E,101507.00,A,A*61
$GPVTG,167.0,T,167.1,M,000.1,N,000.1,K,A*22
$GPGSV,2,1,07,21,22,186,29,02,23,047,37,12,29,108,31,25,63,101,35*79
$GPGSV,2,2,07,29,84,306,40,30,67,306,41,31,50,288,39,,,,*45
$GPGSA,M,3,02,29,30,31,,,,,,,,,12.5,9.7,7.9*00
Trace #103 at position 25.500000
$GPZDA,101507.03,08,10,2011,00,00*6C
$GPRMC,101507.00,A,4611.958871,N,01258.215903,E,000.1,167.0,081011,0.2,E,A*37
$GPGGA,101508.00,4611.958500,N,01258.216023,E,1,04,9.7,127.35,M,46.25,M,,*65
$GPGLL,4611.958500,N,01258.216023,E,101508.00,A,A*6D
$GPVTG,3.4,T,3.5,M,000.7,N,001.2,K,A*26
$GPGSV,2,1,07,21,22,186,31,02,23,047,39,12,29,108,34,25,63,101,38*76
$GPGSV,2,2,07,29,84,306,41,30,67,306,41,31,50,288,39,,,,*44
$GPGSA,M,3,02,29,30,31,,,,,,,,,12.5,9.7,7.9*00
Trace #104 at position 25.750000
$GPZDA,101507.03,08,10,2011,00,00*6C
$GPRMC,101507.00,A,4611.958871,N,01258.215903,E,000.1,167.0,081011,0.2,E,A*37
$GPGGA,101508.00,4611.958500,N,01258.216023,E,1,04,9.7,127.35,M,46.25,M,,*65
$GPGLL,4611.958500,N,01258.216023,E,101508.00,A,A*6D
$GPVTG,3.4,T,3.5,M,000.7,N,001.2,K,A*26
$GPGSV,2,1,07,21,22,186,31,02,23,047,39,12,29,108,34,25,63,101,38*76
$GPGSV,2,2,07,29,84,306,41,30,67,306,41,31,50,288,39,,,,*44
$GPGSA,M,3,02,29,30,31,,,,,,,,,12.5,9.7,7.9*00
Trace #105 at position 26.000000
$GPZDA,101507.03,08,10,2011,00,00*6C
$GPRMC,101507.00,A,4611.958871,N,01258.215903,E,000.1,167.0,081011,0.2,E,A*37
$GPGGA,101508.00,4611.958500,N,01258.216023,E,1,04,9.7,127.35,M,46.25,M,,*65
$GPGLL,4611.958500,N,01258.216023,E,101508.00,A,A*6D
$GPVTG,3.4,T,3.5,M,000.7,N,001.2,K,A*26
$GPGSV,2,1,07,21,22,186,31,02,23,047,39,12,29,108,34,25,63,101,38*76
$GPGSV,2,2,07,29,84,306,41,30,67,306,41,31,50,288,39,,,,*44
$GPGSA,M,3,02,29,30,31,,,,,,,,,12.5,9.7,7.9*00
Trace #106 at position 26.250000
$GPZDA,101507.03,08,10,2011,00,00*6C
$GPRMC,101507.00,A,4611.958871,N,01258.215903,E,000.1,167.0,081011,0.2,E,A*37
$GPGGA,101508.00,4611.958500,N,01258.216023,E,1,04,9.7,127.35,M,46.25,M,,*65
$GPGLL,4611.958500,N,01258.216023,E,101508.00,A,A*6D
$GPVTG,3.4,T,3.5,M,000.7,N,001.2,K,A*26
$GPGSV,2,1,07,21,22,186,31,02,23,047,39,12,29,108,34,25,63,101,38*76
$GPGSV,2,2,07,29,84,306,41,30,67,306,41,31,50,288,39,,,,*44
$GPGSA,M,3,02,29,30,31,,,,,,,,,12.5,9.7,7.9*00
Trace #107 at position 26.500000
$GPZDA,101508.03,08,10,2011,00,00*63
$GPRMC,101508.00,A,4611.958500,N,01258.216023,E,000.7,3.4,081011,0.2,E,A*3A
$GPGGA,101509.00,4611.958881,N,01258.216063,E,1,05,4.5,128.23,M,46.25,M,,*62
$GPGLL,4611.958881,N,01258.216063,E,101509.00,A,A*6C
$GPVTG,159.7,T,159.8,M,001.2,N,002.3,K,A*2E
$GPGSV,2,1,07,21,22,186,32,02,23,047,40,12,29,108,36,25,63,101,44*72
$GPGSV,2,2,07,29,84,306,41,30,67,306,41,31,50,288,41,,,,*4B
$GPGSA,M,3,02,25,29,30,31,,,,,,,,7.2,4.5,5.6*36
Trace #108 at position 26.750000
$GPZDA,101508.03,08,10,2011,00,00*63
$GPRMC,101508.00,A,4611.958500,N,01258.216023,E,000.7,3.4,081011,0.2,E,A*3A
$GPGGA,101509.00,4611.958881,N,01258.216063,E,1,05,4.5,128.23,M,46.25,M,,*62
$GPGLL,4611.958881,N,01258.216063,E,101509.00,A,A*6C
$GPVTG,159.7,T,159.8,M,001.2,N,002.3,K,A*2E
$GPGSV,2,1,07,21,22,186,32,02,23,047,40,12,29,108,36,25,63,101,44*72
$GPGSV,2,2,07,29,84,306,41,30,67,306,41,31,50,288,41,,,,*4B
$GPGSA,M,3,02,25,29,30,31,,,,,,,,7.2,4.5,5.6*36
Trace #109 at position 27.000000
$GPZDA,101508.03,08,10,2011,00,00*63
$GPRMC,101508.00,A,4611.958500,N,01258.216023,E,000.7,3.4,081011,0.2,E,A*3A
$GPGGA,101509.00,4611.958881,N,01258.216063,E,1,05,4.5,128.23,M,46.25,M,,*62
$GPGLL,4611.958881,N,01258.216063,E,101509.00,A,A*6C
$GPVTG,159.7,T,159.8,M,001.2,N,002.3,K,A*2E
$GPGSV,2,1,07,21,22,186,32,02,23,047,40,12,29,108,36,25,63,101,44*72
$GPGSV,2,2,07,29,84,306,41,30,67,306,41,31,50,288,41,,,,*4B
$GPGSA,M,3,02,25,29,30,31,,,,,,,,7.2,4.5,5.6*36
Trace #110 at position 27.250000
$GPZDA,101508.03,08,10,2011,00,00*63
$GPRMC,101508.00,A,4611.958500,N,01258.216023,E,000.7,3.4,081011,0.2,E,A*3A
$GPGGA,101509.00,4611.958881,N,01258.216063,E,1,05,4.5,128.23,M,46.25,M,,*62
$GPGLL,4611.958881,N,01258.216063,E,101509.00,A,A*6C
$GPVTG,159.7,T,159.8,M,001.2,N,002.3,K,A*2E
$GPGSV,2,1,07,21,22,186,32,02,23,047,40,12,29,108,36,25,63,101,44*72
$GPGSV,2,2,07,29,84,306,41,30,67,306,41,31,50,288,41,,,,*4B
$GPGSA,M,3,02,25,29,30,31,,,,,,,,7.2,4.5,5.6*36
Trace #111 at position 27.500000
$GPZDA,101509.03,08,10,2011,00,00*62
$GPRMC,101509.00,A,4611.958881,N,01258.216063,E,001.2,159.7,081011,0.2,E,A*32
$GPGGA,101510.00,4611.958804,N,01258.216305,E,1,05,4.5,128.80,M,46.25,M,,*6D
$GPGLL,4611.958804,N,01258.216305,E,101510.00,A,A*6A
$GPVTG,154.5,T,154.6,M,002.4,N,004.5,K,A*27
$GPGSV,2,1,07,21,22,186,32,02,23,046,39,12,29,108,35,25,63,101,40*7A
$GPGSV,2,2,07,29,84,307,40,30,67,306,41,31,50,288,39,,,,*44
$GPGSA,M,3,02,25,29,30,31,,,,,,,,7.2,4.5,5.6*36
Trace #112 at position 27.750000
$GPZDA,101509.03,08,10,2011,00,00*62
$GPRMC,101509.00,A,4611.958881,N,01258.216063,E,001.2,159.7,081011,0.2,E,A*32
$GPGGA,101510.00,4611.958804,N,01258.216305,E,1,05,4.5,128.80,M,46.25,M,,*6D
$GPGLL,4611.958804,N,01258.216305,E,101510.00,A,A*6A
$GPVTG,154.5,T,154.6,M,002.4,N,004.5,K,A*27
$GPGSV,2,1,07,21,22,186,32,02,23,046,39,12,29,108,35,25,63,101,40*7A
$GPGSV,2,2,07,29,84,307,40,30,67,306,41,31,50,288,39,,,,*44
$GPGSA,M,3,02,25,29,30,31,,,,,,,,7.2,4.5,5.6*36
Trace #113 at position 28.000000
$GPZDA,101509.03,08,10,2011,00,00*62
$GPRMC,101509.00,A,4611.958881,N,01258.216063,E,001.2,159.7,081011,0.2,E,A*32
$GPGGA,101510.00,4611.958804,N,01258.216305,E,1,05,4.5,128.80,M,46.25,M,,*6D
$GPGLL,4611.958804,N,01258.216305,E,101510.00,A,A*6A
$GPVTG,154.5,T,154.6,M,002.4,N,004.5,K,A*27
$GPGSV,2,1,07,21,22,186,32,02,23,046,39,12,29,108,35,25,63,101,40*7A
$GPGSV,2,2,07,29,84,307,40,30,67,306,41,31,50,288,39,,,,*44
$GPGSA,M,3,02,25,29,30,31,,,,,,,,7.2,4.5,5.6*36
Trace #114 at position 28.250000
$GPZDA,101509.03,08,10,2011,00,00*62
$GPRMC,101509.00,A,4611.958881,N,01258.216063,E,001.2,159.7,081011,0.2,E,A*32
$GPGGA,101510.00,4611.958804,N,01258.216305,E,1,05,4.5,128.80,M,46.25,M,,*6D
$GPGLL,4611.958804,N,01258.216305,E,101510.00,A,A*6A
$GPVTG,154.5,T,154.6,M,002.4,N,004.5,K,A*27
$GPGSV,2,1,07,21,22,186,32,02,23,046,39,12,29,108,35,25,63,101,40*7A
$GPGSV,2,2,07,29,84,307,40,30,67,306,41,31,50,288,39,,,,*44
$GPGSA,M,3,02,25,29,30,31,,,,,,,,7.2,4.5,5.6*36
Trace #115 at position 28.500000
$GPZDA,101510.03,08,10,2011,00,00*6A
$GPRMC,101510.00,A,4611.958804,N,01258.216305,E,002.4,154.5,081011,0.2,E,A*3E
$GPGGA,101511.00,4611.958579,N,01258.216521,E,1,05,4.5,129.20,M,46.25,M,,*60
$GPGLL,4611.958579,N,01258.216521,E,101511.00,A,A*6C
$GPVTG,171.4,T,171.5,M,001.9,N,003.5,K,A*2C
$GPGSV,2,1,07,21,22,186,27,02,23,046,39,12,29,108,36,25,63,101,39*73
$GPGSV,2,2,07,29,84,307,39,30,67,306,40,31,50,288,40,,,,*45
$GPGSA,M,3,02,25,29,30,31,,,,,,,,7.2,4.5,5.6*36
Trace #116 at position 28.750000
$GPZDA,101510.03,08,10,2011,00,00*6A
$GPRMC,101510.00,A,4611.958804,N,01258.216305,E,002.4,154.5,081011,0.2,E,A*3E
$GPGGA,101511.00,4611.958579,N,01258.216521,E,1,05,4.5,129.20,M,46.25,M,,*60
$GPGLL,4611.958579,N,01258.216521,E,101511.00,A,A*6C
$GPVTG,171.4,T,171.5,M,001.9,N,003.5,K,A*2C
$GPGSV,2,1,07,21,22,186,27,02,23,046,39,12,29,108,36,25,63,101,39*73
$GPGSV,2,2,07,29,84,307,39,30,67,306,40,31,50,288,40,,,,*45
$GPGSA,M,3,02,25,29,30,31,,,,,,,,7.2,4.5,5.6*36
Trace #117 at position 29.000000
$GPZDA,101510.03,08,10,2011,00,00*6A
$GPRMC,101510.00,A,4611.958804,N,01258.216305,E,002.4,154.5,081011,0.2,E,A*3E
$GPGGA,101511.00,4611.958579,N,01258.216521,E,1,05,4.5,129.20,M,46.25,M,,*60
$GPGLL,4611.958579,N,01258.216521,E,101511.00,A,A*6C
$GPVTG,171.4,T,171.5,M,001.9,N,003.5,K,A*2C
$GPGSV,2,1,07,21,22,186,27,02,23,046,39,12,29,108,36,25,63,101,39*73
$GPGSV,2,2,07,29,84,307,39,30,67,306,40,31,50,288,40,,,,*45
$GPGSA,M,3,02,25,29,30,31,,,,,,,,7.2,4.5,5.6*36
Trace #118 at position 29.250000
$GPZDA,101510.03,08,10,2011,00,00*6A
$GPRMC,101510.00,A,4611.958804,N,01258.216305,E,002.4,154.5,081011,0.2,E,A*3E
$GPGGA,101511.00,4611.958579,N,01258.216521,E,1,05,4.5,129.20,M,46.25,M,,*60
$GPGLL,4611.958579,N,01258.216521,E,101511.00,A,A*6C
