Trace #1 at position 0.000000
$GPZDA,081431.04,09,10,2011,00978221,N,01258.214750,E,000.3,182.3,091011,0.2,E,A*35
$GPGGA,081432.00,4611.978191,N,01258.214750,E,1,07,1.2,140.59,M,46.25,M,,*6E
$GPGLL,4611.978191,N,01258.214750,E,081432.00,A,A*63
$GPVTG,157.0,T,157.1,M,000.1,N,000.2,K,A*21
$GPGSV,2,1,08,02,34,100,39,04,21,052,41,09,37,145,,12,71,046,45*72
$GPGSV,2,2,08,14,36,273,43,25,63,296,47,29,33,214,44,30,18,280,40*74
$GPGSA,M,3,02,04,12,14,25,29,30,,,,,,2.1,1.2,1.7*37
Trace #2 at position 0.250000
$GPZDA,081434.04,09,10,2011,00,00*62
$GPRMC,081434.00,A,4611.978177,N,01258.214785,E,000.1,161.7,091011,0.2,E,A*33
$GPGGA,,,,,,0,03,,,M,,M,,*65
$GPGLL,,,,,,V,N*64
$GPVTG,,T,,,,N,,K,N*61
$GPGSV,2,1,08,02,34,100,33,04,21,052,36,09,37,145,,12,71,046,40*7D
$GPGSV,2,2,08,14,36,273,35,25,63,296,41,29,33,214,43,30,18,280,32*71
$GPGSA,M,1,,,,,,,,,,,,,2.8,1.8,2.2*3F
Trace #3 at position 0.500000
$GPZDA,081434.04,09,10,2011,00,00*62
$GPRMC,081434.00,A,4611.978177,N,01258.214785,E,000.1,161.7,091011,0.2,E,A*33
$GPGGA,,,,,,0,03,,,M,,M,,*65
$GPGLL,,,,,,V,N*64
$GPVTG,,T,,,,N,,K,N*61
$GPGSV,2,1,08,02,34,100,33,04,21,052,36,09,37,145,,12,71,046,40*7D
$GPGSV,2,2,08,14,36,273,35,25,63,296,41,29,33,214,43,30,18,280,32*71
$GPGSA,M,1,,,,,,,,,,,,,2.8,1.8,2.2*3F
Trace #4 at position 0.750000
$GPZDA,081435.02,09,10,2011,00,00*65
$GPRMC,081434.00,V,,,,,,,,,,N*77
$GPGGA,081436.00,4611.978124,N,01258.214798,E,1,05,1.8,140.73,M,46.25,M,,*60
$GPGLL,4611.978124,N,01258.214798,E,081436.00,A,A*6D
$GPVTG,225.8,T,225.9,M,000.1,N,000.2,K,A*21
$GPGSV,2,1,08,02,34,100,35,04,21,052,42,09,37,145,,12,71,046,44*7C
$GPGSV,2,2,08,14,36,273,41,25,63,296,45,29,33,214,41,30,18,280,37*71
$GPGSA,M,3,04,12,14,25,29,,,,,,,,2.8,1.8,2.2*33
Trace #5 at position 1.000000
$GPZDA,081436.03,09,10,2011,00,00*67
$GPRMC,081436.00,A,4611.978124,N,01258.214798,E,000.1,225.8,091011,0.2,E,A*37
$GPGGA,081437.00,4611.978119,N,01258.214807,E,1,05,1.8,140.84,M,46.25,M,,*6E
$GPGLL,4611.978119,N,01258.214807,E,081437.00,A,A*6B
$GPVTG,323.2,T,323.4,M,000.0,N,000.1,K,A*24
$GPGSV,2,1,08,02,34,100,35,04,21,052,42,09,37,145,,12,71,046,43*7B
$GPGSV,2,2,08,14,36,273,40,25,63,296,45,29,33,214,42,30,18,280,35*71
$GPGSA,M,3,04,12,14,25,29,,,,,,,,2.8,1.8,2.2*33
Trace #6 at position 1.250000
$GPZDA,081438.03,09,10,2011,00,00*69
$GPRMC,081438.00,A,4611.978137,N,01258.214829,E,000.1,345.1,091011,0.2,E,A*30
$GPGGA,081439.00,4611.978143,N,01258.214857,E,1,05,1.8,140.94,M,46.25,M,,*6B
$GPGLL,4611.978143,N,01258.214857,E,081439.00,A,A*6F
$GPVTG,169.8,T,170.0,M,000.0,N,000.0,K,A*23
$GPGSV,2,1,08,02,34,100,38,04,21,052,43,09,37,145,,12,71,046,43*77
$GPGSV,2,2,08,14,36,273,42,25,63,296,46,29,33,214,41,30,18,280,37*71
$GPGSA,M,3,04,12,14,25,29,,,,,,,,2.8,1.8,2.2*33
Trace #7 at position 1.500000
$GPZDA,081439.03,09,10,2011,00,00*68
$GPRMC,081439.00,A,4611.978143,N,01258.214857,E,000.0,169.8,091011,0.2,E,A*3F
$GPGGA,081440.00,4611.978112,N,01258.214899,E,1,05,1.8,140.94,M,46.25,M,,*63
$GPGLL,4611.978112,N,01258.214899,E,081440.00,A,A*67
$GPVTG,161.1,T,161.2,M,000.2,N,000.4,K,A*26
$GPGSV,2,1,08,02,34,100,38,04,21,052,43,09,37,145,,12,71,046,43*77
$GPGSV,2,2,08,14,36,273,43,25,63,296,46,29,33,214,40,30,18,280,36*70
$GPGSA,M,3,04,12,14,25,29,,,,,,,,2.8,1.8,2.2*33
Trace #8 at position 1.750000
$GPZDA,081440.03,09,10,2011,00,00*66
$GPRMC,081440.00,A,4611.978112,N,01258.214899,E,000.2,161.1,091011,0.2,E,A*34
$GPGGA,081441.00,4611.978006,N,01258.214966,E,1,05,1.8,140.95,M,46.25,M,,*66
$GPGLL,4611.978006,N,01258.214966,E,081441.00,A,A*63
$GPVTG,165.6,T,165.7,M,000.5,N,001.0,K,A*26
$GPGSV,2,1,08,02,34,100,32,04,21,052,43,09,37,145,,12,71,046,44*7A
$GPGSV,2,2,08,14,36,273,43,25,63,296,48,29,33,214,42,30,18,280,35*7F
$GPGSA,M,3,04,12,14,25,29,,,,,,,,2.8,1.8,2.2*33
Trace #9 at position 2.000000
$GPZDA,081441.03,09,10,2011,00,00*67
$GPRMC,081441.00,A,4611.978006,N,01258.214966,E,000.5,165.6,091011,0.2,E,A*34
$GPGGA,081442.00,4611.977845,N,01258.215064,E,1,05,1.8,141.06,M,46.25,M,,*64
$GPGLL,4611.977845,N,01258.215064,E,081442.00,A,A*6A
$GPVTG,157.8,T,158.0,M,000.6,N,001.1,K,A*22
$GPGSV,2,1,08,02,34,100,33,04,21,052,42,09,37,145,,12,71,046,43*7D
$GPGSV,2,2,08,14,36,273,43,25,63,296,47,29,33,214,41,30,18,280,39*7F
$GPGSA,M,3,04,12,14,25,29,,,,,,,,2.8,1.8,2.2*33
Trace #10 at position 2.250000
$GPZDA,081441.03,09,10,2011,00,00*67
$GPRMC,081441.00,A,4611.978006,N,01258.214966,E,000.5,165.6,091011,0.2,E,A*34
$GPGGA,081442.00,4611.977845,N,01258.215064,E,1,05,1.8,141.06,M,46.25,M,,*64
$GPGLL,4611.977845,N,01258.215064,E,081442.00,A,A*6A
$GPVTG,157.8,T,158.0,M,000.6,N,001.1,K,A*22
$GPGSV,2,1,08,02,34,100,33,04,21,052,42,09,37,145,,12,71,046,43*7D
$GPGSV,2,2,08,14,36,273,43,25,63,296,47,29,33,214,41,30,18,280,39*7F
$GPGSA,M,3,04,12,14,25,29,,,,,,,,2.8,1.8,2.2*33
Trace #11 at position 2.500000
$GPZDA,081441.03,09,10,2011,00,00*67
$GPRMC,081441.00,A,4611.978006,N,01258.214966,E,000.5,165.6,091011,0.2,E,A*34
$GPGGA,081442.00,4611.977845,N,01258.215064,E,1,05,1.8,141.06,M,46.25,M,,*64
$GPGLL,4611.977845,N,01258.215064,E,081442.00,A,A*6A
$GPVTG,157.8,T,158.0,M,000.6,N,001.1,K,A*22
$GPGSV,2,1,08,02,34,100,33,04,21,052,42,09,37,145,,12,71,046,43*7D
$GPGSV,2,2,08,14,36,273,43,25,63,296,47,29,33,214,41,30,18,280,39*7F
$GPGSA,M,3,04,12,14,25,29,,,,,,,,2.8,1.8,2.2*33
Trace #12 at position 2.750000
$GPZDA,081442.03,09,10,2011,00,00*64
$GPRMC,081442.00,A,4611.977845,N,01258.215064,E,000.6,157.8,091011,0.2,E,A*31
$GPGGA,081443.00,4611.977751,N,01258.215130,E,1,05,1.8,141.14,M,46.25,M,,*6C
$GPGLL,4611.977751,N,01258.215130,E,081443.00,A,A*61
$GPVTG,295.9,T,296.1,M,000.1,N,000.1,K,A*28
$GPGSV,2,1,08,02,34,100,33,04,21,052,43,09,37,145,,12,71,046,43*7C
$GPGSV,2,2,08,14,36,273,42,25,63,296,47,29,33,214,40,30,18,280,35*73
$GPGSA,M,3,04,12,14,25,29,,,,,,,,2.8,1.8,2.2*33
Trace #13 at position 3.000000
$GPZDA,081443.04,09,10,2011,00,00*62
$GPRMC,081443.00,A,4611.977751,N,01258.215130,E,000.1,295.9,0910$GPGGA,081444.00,4611.977712,N,01258.215111,E,1,05,1.8,141.13,M,46.25,M,,*68
$GPGLL,4611.977712,N,01258.215111,E,081444.00,A,A*62
$GPVTG,238.5,T,238.7,M,000.3,N,000.5,K,A*27
$GPGSV,2,1,08,02,34,100,32,04,21,052,42,09,37,145,,12,71,046,43*7C
$GPGSV,2,2,08,14,36,273,43,25,63,296,48,29,33,214,40,30,18,280,38*70
$GPGSA,M,3,04,12,14,25,29,,,,,,,,2.8,1.8,2.2*33
Trace #14 at position 3.250000
$GPZDA,081443.04,09,10,2011,00,00*62
$GPRMC,081443.00,A,4611.977751,N,01258.215130,E,000.1,295.9,0910$GPGGA,081444.00,4611.977712,N,01258.215111,E,1,05,1.8,141.13,M,46.25,M,,*68
$GPGLL,4611.977712,N,01258.215111,E,081444.00,A,A*62
$GPVTG,238.5,T,238.7,M,000.3,N,000.5,K,A*27
$GPGSV,2,1,08,02,34,100,32,04,21,052,42,09,37,145,,12,71,046,43*7C
$GPGSV,2,2,08,14,36,273,43,25,63,296,48,29,33,214,40,30,18,280,38*70
$GPGSA,M,3,04,12,14,25,29,,,,,,,,2.8,1.8,2.2*33
Trace #15 at position 3.500000
$GPZDA,081444.03,09,10,2011,00,00*62
$GPRMC,081444.00,A,4611.977712,N,01258.215111,E,000.3,238.5,091011,0.2,E,A*3B
$GPGGA,081445.00,4611.977657,N,01258.215141,E,1,05,1.8,141.13,M,46.25,M,,*6C
$GPGLL,4611.977657,N,01258.215141,E,081445.00,A,A*66
$GPVTG,111.9,T,112.0,M,000.2,N,000.4,K,A*2F
$GPGSV,2,1,08,02,34,100,32,04,21,052,41,09,37,145,,12,71,046,43*7F
$GPGSV,2,2,08,14,36,273,42,25,63,296,47,29,33,214,40,30,18,280,36*70
$GPGSA,M,3,04,12,14,25,29,,,,,,,,2.8,1.8,2.2*33
Trace #16 at position 3.750000
$GPZDA,081444.03,09,10,2011,00,00*62
$GPRMC,081444.00,A,4611.977712,N,01258.215111,E,000.3,238.5,091011,0.2,E,A*3B
$GPGGA,081445.00,4611.977657,N,01258.215141,E,1,05,1.8,141.13,M,46.25,M,,*6C
$GPGLL,4611.977657,N,01258.215141,E,081445.00,A,A*66
$GPVTG,111.9,T,112.0,M,000.2,N,000.4,K,A*2F
$GPGSV,2,1,08,02,34,100,32,04,21,052,41,09,37,145,,12,71,046,43*7F
$GPGSV,2,2,08,14,36,273,42,25,63,296,47,29,33,214,40,30,18,280,36*70
$GPGSA,M,3,04,12,14,25,29,,,,,,,,2.8,1.8,2.2*33
Trace #17 at position 4.000000
$GPZDA,081444.03,09,10,2011,00,00*62
$GPRMC,081444.00,A,4611.977712,N,01258.215111,E,000.3,238.5,091011,0.2,E,A*3B
$GPGGA,081445.00,4611.977657,N,01258.215141,E,1,05,1.8,141.13,M,46.25,M,,*6C
$GPGLL,4611.977657,N,01258.215141,E,081445.00,A,A*66
$GPVTG,111.9,T,112.0,M,000.2,N,000.4,K,A*2F
$GPGSV,2,1,08,02,34,100,32,04,21,052,41,09,37,145,,12,71,046,43*7F
$GPGSV,2,2,08,14,36,273,42,25,63,296,47,29,33,214,40,30,18,280,36*70
$GPGSA,M,3,04,12,14,25,29,,,,,,,,2.8,1.8,2.2*33
Trace #18 at position 4.250000
$GPZDA,081445.03,09,10,2011,00,00*63
$GPRMC,081445.00,A,4611.977657,N,01258.215141,E,000.2,111.9,091011,0.2,E,A*3A
$GPGGA,081446.00,4611.977617,N,01258.215197,E,1,05,1.8,141.15,M,46.25,M,,*66
$GPGLL,4611.977617,N,01258.215197,E,081446.00,A,A*6A
$GPVTG,269.9,T,270.0,M,000.1,N,000.1,K,A*22
$GPGSV,2,1,08,02,34,100,35,04,21,052,43,09,37,145,,12,71,046,43*7A
$GPGSV,2,2,08,14,36,273,42,25,63,296,47,29,33,214,43,30,18,280,37*72
$GPGSA,M,3,04,12,14,25,29,,,,,,,,2.8,1.8,2.2*33
Trace #19 at position 4.500000
$GPZDA,081445.03,09,10,2011,00,00*63
$GPRMC,081445.00,A,4611.977657,N,01258.215141,E,000.2,111.9,091011,0.2,E,A*3A
$GPGGA,081446.00,4611.977617,N,01258.215197,E,1,05,1.8,141.15,M,46.25,M,,*66
$GPGLL,4611.977617,N,01258.215197,E,081446.00,A,A*6A
$GPVTG,269.9,T,270.0,M,000.1,N,000.1,K,A*22
$GPGSV,2,1,08,02,34,100,35,04,21,052,43,09,37,145,,12,71,046,43*7A
$GPGSV,2,2,08,14,36,273,42,25,63,296,47,29,33,214,43,30,18,280,37*72
$GPGSA,M,3,04,12,14,25,29,,,,,,,,2.8,1.8,2.2*33
Trace #20 at position 4.750000
$GPZDA,081445.03,09,10,2011,00,00*63
$GPRMC,081445.00,A,4611.977657,N,01258.215141,E,000.2,111.9,091011,0.2,E,A*3A
$GPGGA,081446.00,4611.977617,N,01258.215197,E,1,05,1.8,141.15,M,46.25,M,,*66
$GPGLL,4611.977617,N,01258.215197,E,081446.00,A,A*6A
$GPVTG,269.9,T,270.0,M,000.1,N,000.1,K,A*22
$GPGSV,2,1,08,02,34,100,35,04,21,052,43,09,37,145,,12,71,046,43*7A
$GPGSV,2,2,08,14,36,273,42,25,63,296,47,29,33,214,43,30,18,280,37*72
$GPGSA,M,3,04,12,14,25,29,,,,,,,,2.8,1.8,2.2*33
Trace #21 at position 5.000000
$GPZDA,081445.03,09,10,2011,00,00*63
$GPRMC,081445.00,A,4611.977657,N,01258.215141,E,000.2,111.9,091011,0.2,E,A*3A
$GPGGA,081446.00,4611.977617,N,01258.215197,E,1,05,1.8,141.15,M,46.25,M,,*66
$GPGLL,4611.977617,N,01258.215197,E,081446.00,A,A*6A
$GPVTG,269.9,T,270.0,M,000.1,N,000.1,K,A*22
$GPGSV,2,1,08,02,34,100,35,04,21,052,43,09,37,145,,12,71,046,43*7A
$GPGSV,2,2,08,14,36,273,42,25,63,296,47,29,33,214,43,30,18,280,37*72
$GPGSA,M,3,04,12,14,25,29,,,,,,,,2.8,1.8,2.2*33
Trace #22 at position 5.250000
$GPZDA,081446.03,09,10,2011,00,00*60
$GPRMC,081446.00,A,4611.977617,N,01258.215197,E,000.1,269.9,091011,0.2,E,A*39
$GPGGA,081447.00,4611.977517,N,01258.215205,E,1,05,1.8,141.16,M,46.25,M,,*6F
$GPGLL,4611.977517,N,01258.215205,E,081447.00,A,A*60
$GPVTG,192.7,T,192.8,M,000.5,N,000.8,K,A*21
$GPGSV,2,1,08,02,34,100,35,04,21,052,42,09,37,145,,12,71,046,43*7B
$GPGSV,2,2,08,14,36,273,43,25,63,296,47,29,33,214,42,30,18,280,37*72
$GPGSA,M,3,04,12,14,25,29,,,,,,,,2.8,1.8,2.2*33
Trace #23 at position 5.500000
$GPZDA,081446.03,09,10,2011,00,00*60
$GPRMC,081446.00,A,4611.977617,N,01258.215197,E,000.1,269.9,091011,0.2,E,A*39
$GPGGA,081447.00,4611.977517,N,01258.215205,E,1,05,1.8,141.16,M,46.25,M,,*6F
$GPGLL,4611.977517,N,01258.215205,E,081447.00,A,A*60
$GPVTG,192.7,T,192.8,M,000.5,N,000.8,K,A*21
$GPGSV,2,1,08,02,34,100,35,04,21,052,42,09,37,145,,12,71,046,43*7B
$GPGSV,2,2,08,14,36,273,43,25,63,296,47,29,33,214,42,30,18,280,37*72
$GPGSA,M,3,04,12,14,25,29,,,,,,,,2.8,1.8,2.2*33
Trace #24 at position 5.750000
$GPZDA,081446.03,09,10,2011,00,00*60
$GPRMC,081446.00,A,4611.977617,N,01258.215197,E,000.1,269.9,091011,0.2,E,A*39
$GPGGA,081447.00,4611.977517,N,01258.215205,E,1,05,1.8,141.16,M,46.25,M,,*6F
$GPGLL,4611.977517,N,01258.215205,E,081447.00,A,A*60
$GPVTG,192.7,T,192.8,M,000.5,N,000.8,K,A*21
$GPGSV,2,1,08,02,34,100,35,04,21,052,42,09,37,145,,12,71,046,43*7B
$GPGSV,2,2,08,14,36,273,43,25,63,296,47,29,33,214,42,30,18,280,37*72
$GPGSA,M,3,04,12,14,25,29,,,,,,,,2.8,1.8,2.2*33
Trace #25 at position 6.000000
$GPZDA,081446.03,09,10,2011,00,00*60
$GPRMC,081446.00,A,4611.977617,N,01258.215197,E,000.1,269.9,091011,0.2,E,A*39
$GPGGA,081447.00,4611.977517,N,01258.215205,E,1,05,1.8,141.16,M,46.25,M,,*6F
$GPGLL,4611.977517,N,01258.215205,E,081447.00,A,A*60
$GPVTG,192.7,T,192.8,M,000.5,N,000.8,K,A*21
$GPGSV,2,1,08,02,34,100,35,04,21,052,42,09,37,145,,12,71,046,43*7B
$GPGSV,2,2,08,14,36,273,43,25,63,296,47,29,33,214,42,30,18,280,37*72
$GPGSA,M,3,04,12,14,25,29,,,,,,,,2.8,1.8,2.2*33
Trace #26 at position 6.250000
$GPZDA,081447.03,09,10,2011,00,00*61
$GPRMC,081447.00,A,4611.977517,N,01258.215205,E,000.5,192.7,091011,0.2,E,A*3E
$GPGGA,081448.00,4611.977258,N,01258.215251,E,1,05,1.8,141.21,M,46.25,M,,*69
$GPGLL,4611.977258,N,01258.215251,E,081448.00,A,A*62
$GPVTG,178.3,T,178.4,M,001.1,N,002.1,K,A*27
$GPGSV,2,1,08,02,34,100,37,04,21,052,41,09,37,145,,12,71,046,43*7A
$GPGSV,2,2,08,14,36,273,43,25,63,296,47,29,33,214,42,30,18,280,39*7C
$GPGSA,M,3,04,12,14,25,29,,,,,,,,2.8,1.8,2.2*33
Trace #27 at position 6.500000
$GPZDA,081447.03,09,10,2011,00,00*61
$GPRMC,081447.00,A,4611.977517,N,01258.215205,E,000.5,192.7,091011,0.2,E,A*3E
$GPGGA,081448.00,4611.977258,N,01258.215251,E,1,05,1.8,141.21,M,46.25,M,,*69
$GPGLL,4611.977258,N,01258.215251,E,081448.00,A,A*62
$GPVTG,178.3,T,178.4,M,001.1,N,002.1,K,A*27
$GPGSV,2,1,08,02,34,100,37,04,21,052,41,09,37,145,,12,71,046,43*7A
$GPGSV,2,2,08,14,36,273,43,25,63,296,47,29,33,214,42,30,18,280,39*7C
$GPGSA,M,3,04,12,14,25,29,,,,,,,,2.8,1.8,2.2*33
Trace #28 at position 6.750000
$GPZDA,081447.03,09,10,2011,00,00*61
$GPRMC,081447.00,A,4611.977517,N,01258.215205,E,000.5,192.7,091011,0.2,E,A*3E
$GPGGA,081448.00,4611.977258,N,01258.215251,E,1,05,1.8,141.21,M,46.25,M,,*69
$GPGLL,4611.977258,N,01258.215251,E,081448.00,A,A*62
$GPVTG,178.3,T,178.4,M,001.1,N,002.1,K,A*27
$GPGSV,2,1,08,02,34,100,37,04,21,052,41,09,37,145,,12,71,046,43*7A
$GPGSV,2,2,08,14,36,273,43,25,63,296,47,29,33,214,42,30,18,280,39*7C
$GPGSA,M,3,04,12,14,25,29,,,,,,,,2.8,1.8,2.2*33
Trace #29 at position 7.000000
$GPZDA,081448.04,09,10,2011,00,00*69
$GPRMC,081448.00,A,4611.977258,N,01258.215251,E,001.1,178.3,091011,0.2,E,A*39
$GPGGA,081449.00,4611.977043,N,01258.215208,E,1,06,1.5,141.20,M,46.25,M,,*63
$GPGLL,4611.977043,N,01258.215208,E,081449.00,A,A*67
$GPVTG,231.3,T,231.5,M,000.5,N,001.0,K,A*21
$GPGSV,2,1,08,02,34,100,38,04,21,052,41,09,37,145,,12,71,046,44*72
$GPGSV,2,2,08,14,36,273,43,25,63,296,47,29,33,214,42,30,18,280,40*72
$GPGSA,M,3,04,12,14,25,29,30,,,,,,,2.3,1.5,1.7*30
Trace #30 at position 7.250000
$GPZDA,081448.04,09,10,2011,00,00*69
$GPRMC,081448.00,A,4611.977258,N,01258.215251,E,001.1,178.3,091011,0.2,E,A*39
$GPGGA,081449.00,4611.977043,N,01258.215208,E,1,06,1.5,141.20,M,46.25,M,,*63
$GPGLL,4611.977043,N,01258.215208,E,081449.00,A,A*67
$GPVTG,231.3,T,231.5,M,000.5,N,001.0,K,A*21
$GPGSV,2,1,08,02,34,100,38,04,21,052,41,09,37,145,,12,71,046,44*72
$GPGSV,2,2,08,14,36,273,43,25,63,296,47,29,33,214,42,30,18,280,40*72
$GPGSA,M,3,04,12,14,25,29,30,,,,,,,2.3,1.5,1.7*30
Trace #31 at position 7.500000
$GPZDA,081448.04,09,10,2011,00,00*69
$GPRMC,081448.00,A,4611.977258,N,01258.215251,E,001.1,178.3,091011,0.2,E,A*39
$GPGGA,081449.00,4611.977043,N,01258.215208,E,1,06,1.5,141.20,M,46.25,M,,*63
$GPGLL,4611.977043,N,01258.215208,E,081449.00,A,A*67
$GPVTG,231.3,T,231.5,M,000.5,N,001.0,K,A*21
$GPGSV,2,1,08,02,34,100,38,04,21,052,41,09,37,145,,12,71,046,44*72
$GPGSV,2,2,08,14,36,273,43,25,63,296,47,29,33,214,42,30,18,280,40*72
$GPGSA,M,3,04,12,14,25,29,30,,,,,,,2.3,1.5,1.7*30
Trace #32 at position 7.750000
$GPZDA,081449.04,09,10,2011,00,00*68
$GPRMC,081449.00,A,4611.977043,N,01258.215208,E,000.5,231.3,091011,0.2,E,A*37
$GPGGA,081450.00,4611.976782,N,01258.215124,E,1,06,1.5,141.06,M,46.25,M,,*69
$GPGLL,4611.976782,N,01258.215124,E,081450.00,A,A*69
$GPVTG,192.2,T,192.3,M,001.6,N,002.9,K,A*2E
$GPGSV,2,1,08,02,34,100,36,04,21,052,43,09,37,145,,12,71,046,42*78
$GPGSV,2,2,08,14,36,273,43,25,63,296,47,29,33,214,43,30,18,280,38*7C
$GPGSA,M,3,04,12,14,25,29,30,,,,,,,2.3,1.5,1.7*30
Trace #33 at position 8.000000
$GPZDA,081449.04,09,10,2011,00,00*68
$GPRMC,081449.00,A,4611.977043,N,01258.215208,E,000.5,231.3,091011,0.2,E,A*37
$GPGGA,081450.00,4611.976782,N,01258.215124,E,1,06,1.5,141.06,M,46.25,M,,*69
$GPGLL,4611.976782,N,01258.215124,E,081450.00,A,A*69
$GPVTG,192.2,T,192.3,M,001.6,N,002.9,K,A*2E
$GPGSV,2,1,08,02,34,100,36,04,21,052,43,09,37,145,,12,71,046,42*78
$GPGSV,2,2,08,14,36,273,43,25,63,296,47,29,33,214,43,30,18,280,38*7C
$GPGSA,M,3,04,12,14,25,29,30,,,,,,,2.3,1.5,1.7*30
Trace #34 at position 8.250000
$GPZDA,081449.04,09,10,2011,00,00*68
$GPRMC,081449.00,A,4611.977043,N,01258.215208,E,000.5,231.3,091011,0.2,E,A*37
$GPGGA,081450.00,4611.976782,N,01258.215124,E,1,06,1.5,141.06,M,46.25,M,,*69
$GPGLL,4611.976782,N,01258.215124,E,081450.00,A,A*69
$GPVTG,192.2,T,192.3,M,001.6,N,002.9,K,A*2E
$GPGSV,2,1,08,02,34,100,36,04,21,052,43,09,37,145,,12,71,046,42*78
$GPGSV,2,2,08,14,36,273,43,25,63,296,47,29,33,214,43,30,18,280,38*7C
$GPGSA,M,3,04,12,14,25,29,30,,,,,,,2.3,1.5,1.7*30
Trace #35 at position 8.500000
$GPZDA,081450.04,09,10,2011,00,00*60
$GPRMC,081450.00,A,4611.976782,N,01258.215124,E,001.6,192.2,091011,0.2,E,A*30
$GPGGA,081451.00,4611.976390,N,01258.215220,E,1,06,1.5,140.83,M,46.25,M,,*64
$GPGLL,4611.976390,N,01258.215220,E,081451.00,A,A*68
$GPVTG,161.0,T,161.2,M,001.4,N,002.7,K,A*21
$GPGSV,2,1,08,02,34,100,36,04,21,052,42,09,37,145,,12,71,046,43*78
$GPGSV,2,2,08,14,36,273,42,25,63,296,48,29,33,214,43,30,18,280,37*7D
$GPGSA,M,3,04,12,14,25,29,30,,,,,,,2.3,1.5,1.7*30
Trace #36 at position 8.750000
$GPZDA,081450.04,09,10,2011,00,00*60
$GPRMC,081450.00,A,4611.976782,N,01258.215124,E,001.6,192.2,091011,0.2,E,A*30
$GPGGA,081451.00,4611.976390,N,01258.215220,E,1,06,1.5,140.83,M,46.25,M,,*64
$GPGLL,4611.976390,N,01258.215220,E,081451.00,A,A*68
$GPVTG,161.0,T,161.2,M,001.4,N,002.7,K,A*21
$GPGSV,2,1,08,02,34,100,36,04,21,052,42,09,37,145,,12,71,046,43*78
$GPGSV,2,2,08,14,36,273,42,25,63,296,48,29,33,214,43,30,18,280,37*7D
$GPGSA,M,3,04,12,14,25,29,30,,,,,,,2.3,1.5,1.7*30
Trace #37 at position 9.000000
$GPZDA,081450.04,09,10,2011,00,00*60
$GPRMC,081450.00,A,4611.976782,N,01258.215124,E,001.6,192.2,091011,0.2,E,A*30
$GPGGA,081451.00,4611.976390,N,01258.215220,E,1,06,1.5,140.83,M,46.25,M,,*64
$GPGLL,4611.976390,N,01258.215220,E,081451.00,A,A*68
$GPVTG,161.0,T,161.2,M,001.4,N,002.7,K,A*21
$GPGSV,2,1,08,02,34,100,36,04,21,052,42,09,37,145,,12,71,046,43*78
$GPGSV,2,2,08,14,36,273,42,25,63,296,48,29,33,214,43,30,18,280,37*7D
$GPGSA,M,3,04,12,14,25,29,30,,,,,,,2.3,1.5,1.7*30
Trace #38 at position 9.250000
$GPZDA,081450.04,09,10,2011,00,00*60
$GPRMC,081450.00,A,4611.976782,N,01258.215124,E,001.6,192.2,091011,0.2,E,A*30
$GPGGA,081451.00,4611.976390,N,01258.215220,E,1,06,1.5,140.83,M,46.25,M,,*64
$GPGLL,4611.976390,N,01258.215220,E,081451.00,A,A*68
$GPVTG,161.0,T,161.2,M,001.4,N,002.7,K,A*21
$GPGSV,2,1,08,02,34,100,36,04,21,052,42,09,37,145,,12,71,046,43*78
$GPGSV,2,2,08,14,36,273,42,25,63,296,48,29,33,214,43,30,18,280,37*7D
$GPGSA,M,3,04,12,14,25,29,30,,,,,,,2.3,1.5,1.7*30
Trace #39 at position 9.500000
$GPZDA,081451.03,09,10,2011,00,00*66
$GPRMC,081451.00,A,4611.976390,N,01258.215220,E,001.4,161.0,091011,0.2,E,A*3D
$GPGGA,081452.00,4611.975987,N,01258.215472,E,1,06,1.5,140.71,M,46.25,M,,*64
$GPGLL,4611.975987,N,01258.215472,E,081452.00,A,A*65
$GPVTG,164.0,T,164.1,M,001.7,N,003.1,K,A*26
$GPGSV,2,1,08,02,34,100,33,04,21,052,42,09,37,145,,12,71,046,42*7C
$GPGSV,2,2,08,14,36,273,43,25,63,296,47,29,33,214,41,30,18,280,38*7E
$GPGSA,M,3,04,12,14,25,29,30,,,,,,,2.3,1.5,1.7*30
Trace #40 at position 9.750000
$GPZDA,081451.03,09,10,2011,00,00*66
$GPRMC,081451.00,A,4611.976390,N,01258.215220,E,001.4,161.0,091011,0.2,E,A*3D
$GPGGA,081452.00,4611.975987,N,01258.215472,E,1,06,1.5,140.71,M,46.25,M,,*64
$GPGLL,4611.975987,N,01258.215472,E,081452.00,A,A*65
$GPVTG,164.0,T,164.1,M,001.7,N,003.1,K,A*26
$GPGSV,2,1,08,02,34,100,33,04,21,052,42,09,37,145,,12,71,046,42*7C
$GPGSV,2,2,08,14,36,273,43,25,63,296,47,29,33,214,41,30,18,280,38*7E
$GPGSA,M,3,04,12,14,25,29,30,,,,,,,2.3,1.5,1.7*30
Trace #41 at position 10.000000
$GPZDA,081451.03,09,10,2011,00,00*66
$GPRMC,081451.00,A,4611.976390,N,01258.215220,E,001.4,161.0,091011,0.2,E,A*3D
$GPGGA,081452.00,4611.975987,N,01258.215472,E,1,06,1.5,140.71,M,46.25,M,,*64
$GPGLL,4611.975987,N,01258.215472,E,081452.00,A,A*65
$GPVTG,164.0,T,164.1,M,001.7,N,003.1,K,A*26
$GPGSV,2,1,08,02,34,100,33,04,21,052,42,09,37,145,,12,71,046,42*7C
$GPGSV,2,2,08,14,36,273,43,25,63,296,47,29,33,214,41,30,18,280,38*7E
$GPGSA,M,3,04,12,14,25,29,30,,,,,,,2.3,1.5,1.7*30
Trace #42 at position 10.250000
$GPZDA,081451.03,09,10,2011,00,00*66
$GPRMC,081451.00,A,4611.976390,N,01258.215220,E,001.4,161.0,091011,0.2,E,A*3D
$GPGGA,081452.00,4611.975987,N,01258.215472,E,1,06,1.5,140.71,M,46.25,M,,*64
$GPGLL,4611.975987,N,01258.215472,E,081452.00,A,A*65
$GPVTG,164.0,T,164.1,M,001.7,N,003.1,K,A*26
$GPGSV,2,1,08,02,34,100,33,04,21,052,42,09,37,145,,12,71,046,42*7C
$GPGSV,2,2,08,14,36,273,43,25,63,296,47,29,33,214,41,30,18,280,38*7E
$GPGSA,M,3,04,12,14,25,29,30,,,,,,,2.3,1.5,1.7*30
Trace #43 at position 10.500000
$GPZDA,081451.03,09,10,2011,00,00*66
$GPRMC,081451.00,A,4611.976390,N,01258.215220,E,001.4,161.0,091011,0.2,E,A*3D
$GPGGA,081452.00,4611.975987,N,01258.215472,E,1,06,1.5,140.71,M,46.25,M,,*64
$GPGLL,4611.975987,N,01258.215472,E,081452.00,A,A*65
$GPVTG,164.0,T,164.1,M,001.7,N,003.1,K,A*26
$GPGSV,2,1,08,02,34,100,33,04,21,052,42,09,37,145,,12,71,046,42*7C
$GPGSV,2,2,08,14,36,273,43,25,63,296,47,29,33,214,41,30,18,280,38*7E
$GPGSA,M,3,04,12,14,25,29,30,,,,,,,2.3,1.5,1.7*30
Trace #44 at position 10.750000
$GPZDA,081451.03,09,10,2011,00,00*66
$GPRMC,081451.00,A,4611.976390,N,01258.215220,E,001.4,161.0,091011,0.2,E,A*3D
$GPGGA,081452.00,4611.975987,N,01258.215472,E,1,06,1.5,140.71,M,46.25,M,,*64
$GPGLL,4611.975987,N,01258.215472,E,081452.00,A,A*65
$GPVTG,164.0,T,164.1,M,001.7,N,003.1,K,A*26
$GPGSV,2,1,08,02,34,100,33,04,21,052,42,09,37,145,,12,71,046,42*7C
$GPGSV,2,2,08,14,36,273,43,25,63,296,47,29,33,214,41,30,18,280,38*7E
$GPGSA,M,3,04,12,14,25,29,30,,,,,,,2.3,1.5,1.7*30
Trace #45 at position 11.000000
$GPZDA,081452.03,09,10,2011,00,00*65
$GPRMC,081452.00,A,4611.975987,N,01258.215472,E,001.7,164.0,091011,0.2,E,A*36
$GPGGA,081453.00,4611.975536,N,01258.215651,E,1,06,1.5,140.64,M,46.25,M,,*64
$GPGLL,4611.975536,N,01258.215651,E,081453.00,A,A*61
$GPVTG,176.0,T,176.1,M,001.7,N,003.2,K,A*25
$GPGSV,2,1,08,02,34,100,,04,21,052,41,09,37,145,,12,71,046,42*7F
$GPGSV,2,2,08,14,36,273,43,2ZDA,081453.04,09,10,2011,00,00*63
$GPRMC,081453.00,A,4611.975536,N,01258.215651,E,001.7,176.0,091011,0.2,E,A*31
$GPGGA,081454.00,4611.975066,N,01258.215798,E,1,06,1.5,140.61,M,46.25,M,,*62
$GPGLL,4611.975066,N,01258.215798,E,081454.00,A,A*62
$GPVTG,171.5,T,171.7,M,001.8,N,003.4,K,A*2F
$GPGSV,2,1,08,02,34,100,30,04,21,052,40,09,37,145,31,12,71,046,43*7E
$GPGSV,2,2,08,14,36,273,42,25,63,296,45,29,33,214,41,30,18,280,37*72
$GPGSA,M,3,04,12,14,25,29,30,,,,,,,2.3,1.5,1.7*30
Trace #46 at position 11.250000
$GPZDA,081452.03,09,10,2011,00,00*65
$GPRMC,081452.00,A,4611.975987,N,01258.215472,E,001.7,164.0,091011,0.2,E,A*36
$GPGGA,081453.00,4611.975536,N,01258.215651,E,1,06,1.5,140.64,M,46.25,M,,*64
$GPGLL,4611.975536,N,01258.215651,E,081453.00,A,A*61
$GPVTG,176.0,T,176.1,M,001.7,N,003.2,K,A*25
$GPGSV,2,1,08,02,34,100,,04,21,052,41,09,37,145,,12,71,046,42*7F
$GPGSV,2,2,08,14,36,273,43,2ZDA,081453.04,09,10,2011,00,00*63
$GPRMC,081453.00,A,4611.975536,N,01258.215651,E,001.7,176.0,091011,0.2,E,A*31
$GPGGA,081454.00,4611.975066,N,01258.215798,E,1,06,1.5,140.61,M,46.25,M,,*62
$GPGLL,4611.975066,N,01258.215798,E,081454.00,A,A*62
$GPVTG,171.5,T,171.7,M,001.8,N,003.4,K,A*2F
$GPGSV,2,1,08,02,34,100,30,04,21,052,40,09,37,145,31,12,71,046,43*7E
$GPGSV,2,2,08,14,36,273,42,25,63,296,45,29,33,214,41,30,18,280,37*72
$GPGSA,M,3,04,12,14,25,29,30,,,,,,,2.3,1.5,1.7*30
Trace #47 at position 11.500000
$GPZDA,081452.03,09,10,2011,00,00*65
$GPRMC,081452.00,A,4611.975987,N,01258.215472,E,001.7,164.0,091011,0.2,E,A*36
$GPGGA,081453.00,4611.975536,N,01258.215651,E,1,06,1.5,140.64,M,46.25,M,,*64
$GPGLL,4611.975536,N,01258.215651,E,081453.00,A,A*61
$GPVTG,176.0,T,176.1,M,001.7,N,003.2,K,A*25
$GPGSV,2,1,08,02,34,100,,04,21,052,41,09,37,145,,12,71,046,42*7F
$GPGSV,2,2,08,14,36,273,43,2ZDA,081453.04,09,10,2011,00,00*63
$GPRMC,081453.00,A,4611.975536,N,01258.215651,E,001.7,176.0,091011,0.2,E,A*31
$GPGGA,081454.00,4611.975066,N,01258.215798,E,1,06,1.5,140.61,M,46.25,M,,*62
$GPGLL,4611.975066,N,01258.215798,E,081454.00,A,A*62
$GPVTG,171.5,T,171.7,M,001.8,N,003.4,K,A*2F
$GPGSV,2,1,08,02,34,100,30,04,21,052,40,09,37,145,31,12,71,046,43*7E
$GPGSV,2,2,08,14,36,273,42,25,63,296,45,29,33,214,41,30,18,280,37*72
$GPGSA,M,3,04,12,14,25,29,30,,,,,,,2.3,1.5,1.7*30
Trace #48 at position 11.750000
$GPZDA,081454.03,09,10,2011,0015798,E,001.8,171.5,091011,0.2,E,A*3F
$GPGGA,081455.00,4611.974606,N,01258.216056,E,1,06,1.5,140.59,M,46.25,M,,*6F
$GPGLL,4611.974606,N,01258.216056,E,081455.00,A,A*64
$GPVTG,157.9,T,158.0,M,001.8,N,003.4,K,A*2B
$GPGSV,2,1,08,02,34,100,30,04,21,052,41,09,37,145,31,12,71,046,41*7D
$GPGSV,2,2,08,14,36,273,43,25,63,296,46,29,33,214,40,30,18,280,37*71
$GPGSA,M,3,04,12,14,25,29,30,,,,,,,2.3,1.5,1.7*30
Trace #49 at position 12.000000
$GPZDA,081454.03,09,10,2011,0015798,E,001.8,171.5,091011,0.2,E,A*3F
$GPGGA,081455.00,4611.974606,N,01258.216056,E,1,06,1.5,140.59,M,46.25,M,,*6F
$GPGLL,4611.974606,N,01258.216056,E,081455.00,A,A*64
$GPVTG,157.9,T,158.0,M,001.8,N,003.4,K,A*2B
$GPGSV,2,1,08,02,34,100,30,04,21,052,41,09,37,145,31,12,71,046,41*7D
$GPGSV,2,2,08,14,36,273,43,25,63,296,46,29,33,214,40,30,18,280,37*71
$GPGSA,M,3,04,12,14,25,29,30,,,,,,,2.3,1.5,1.7*30
Trace #50 at position 12.250000
$GPZDA,081454.03,09,10,2011,0015798,E,001.8,171.5,091011,0.2,E,A*3F
$GPGGA,081455.00,4611.974606,N,01258.216056,E,1,06,1.5,140.59,M,46.25,M,,*6F
$GPGLL,4611.974606,N,01258.216056,E,081455.00,A,A*64
$GPVTG,157.9,T,158.0,M,001.8,N,003.4,K,A*2B
$GPGSV,2,1,08,02,34,100,30,04,21,052,41,09,37,145,31,12,71,046,41*7D
$GPGSV,2,2,08,14,36,273,43,25,63,296,46,29,33,214,40,30,18,280,37*71
$GPGSA,M,3,04,12,14,25,29,30,,,,,,,2.3,1.5,1.7*30
Trace #51 at position 12.500000
$GPZDA,081455.04,09,10,2011,00,00*65
$GPRMC,081455.00,A,4611.974606,N,01258.216056,E,001.8,157.9,091011,$GPGGA,081456.00,4611.974187,N,01258.216290,E,1,06,1.5,140.53,M,46.25,M,,*60
$GPGLL,4611.974187,N,01258.216290,E,081456.00,A,A*61
$GPVTG,172.9,T,173.1,M,001.6,N,002.9,K,A*26
$GPGSV,2,1,08,02,34,100,30,04,21,052,41,09,37,145,32,12,71,046,42*7D
$GPGSV,2,2,08,14,36,273,44,25,63,296,46,29,33,214,40,30,18,280,37*76
$GPGSA,M,3,04,12,14,25,29,30,,,,,,,2.3,1.5,1.7*30
Trace #52 at position 12.750000
$GPZDA,081455.04,09,10,2011,00,00*65
$GPRMC,081455.00,A,4611.974606,N,01258.216056,E,001.8,157.9,091011,$GPGGA,081456.00,4611.974187,N,01258.216290,E,1,06,1.5,140.53,M,46.25,M,,*60
$GPGLL,4611.974187,N,01258.216290,E,081456.00,A,A*61
$GPVTG,172.9,T,173.1,M,001.6,N,002.9,K,A*26
$GPGSV,2,1,08,02,34,100,30,04,21,052,41,09,37,145,32,12,71,046,42*7D
$GPGSV,2,2,08,14,36,273,44,25,63,296,46,29,33,214,40,30,18,280,37*76
$GPGSA,M,3,04,12,14,25,29,30,,,,,,,2.3,1.5,1.7*30
Trace #53 at position 13.000000
$GPZDA,081455.04,09,10,2011,00,00*65
$GPRMC,081455.00,A,4611.974606,N,01258.216056,E,001.8,157.9,091011,$GPGGA,081456.00,4611.974187,N,01258.216290,E,1,06,1.5,140.53,M,46.25,M,,*60
$GPGLL,4611.974187,N,01258.216290,E,081456.00,A,A*61
$GPVTG,172.9,T,173.1,M,001.6,N,002.9,K,A*26
$GPGSV,2,1,08,02,34,100,30,04,21,052,41,09,37,145,32,12,71,046,42*7D
$GPGSV,2,2,08,14,36,273,44,25,63,296,46,29,33,214,40,30,18,280,37*76
$GPGSA,M,3,04,12,14,25,29,30,,,,,,,2.3,1.5,1.7*30
Trace #54 at position 13.250000
$GPZDA,081455.04,09,10,2011,00,00*65
$GPRMC,081455.00,A,4611.974606,N,01258.216056,E,001.8,157.9,091011,$GPGGA,081456.00,4611.974187,N,01258.216290,E,1,06,1.5,140.53,M,46.25,M,,*60
$GPGLL,4611.974187,N,01258.216290,E,081456.00,A,A*61
$GPVTG,172.9,T,173.1,M,001.6,N,002.9,K,A*26
$GPGSV,2,1,08,02,34,100,30,04,21,052,41,09,37,145,32,12,71,046,42*7D
$GPGSV,2,2,08,14,36,273,44,25,63,296,46,29,33,214,40,30,18,280,37*76
$GPGSA,M,3,04,12,14,25,29,30,,,,,,,2.3,1.5,1.7*30
Trace #55 at position 13.500000
$GPZDA,081456.04,09,10,2011,00,00*66
$GPRMC,081456.00,A,4611.974187,N,01258.216290,E,001.6,172.9,091011,0.2,E,A*3D
$GPGGA,081457.00,4611.973767,N,01258.216584,E,1,06,1.5,140.48,M,46.25,M,,*66
$GPGLL,4611.973767,N,01258.216584,E,081457.00,A,A*6D
$GPVTG,148.0,T,148.1,M,002.0,N,003.6,K,A*25
$GPGSV,2,1,08,02,34,100,,04,21,052,40,09,37,145,33,12,71,046,43*7F
$GPGSV,2,2,08,14,36,273,42,25,63,296,46,29,33,214,41,30,18,280,37*71
$GPGSA,M,3,04,12,14,25,29,30,,,,,,,2.3,1.5,1.7*30
Trace #56 at position 13.750000
$GPZDA,081456.04,09,10,2011,00,00*66
$GPRMC,081456.00,A,4611.974187,N,01258.216290,E,001.6,172.9,091011,0.2,E,A*3D
$GPGGA,081457.00,4611.973767,N,01258.216584,E,1,06,1.5,140.48,M,46.25,M,,*66
$GPGLL,4611.973767,N,01258.216584,E,081457.00,A,A*6D
$GPVTG,148.0,T,148.1,M,002.0,N,003.6,K,A*25
$GPGSV,2,1,08,02,34,100,,04,21,052,40,09,37,145,33,12,71,046,43*7F
$GPGSV,2,2,08,14,36,273,42,25,63,296,46,29,33,214,41,30,18,280,37*71
$GPGSA,M,3,04,12,14,25,29,30,,,,,,,2.3,1.5,1.7*30
Trace #57 at position 14.000000
$GPZDA,081456.04,09,10,2011,00,00*66
$GPRMC,081456.00,A,4611.974187,N,01258.216290,E,001.6,172.9,091011,0.2,E,A*3D
$GPGGA,081457.00,4611.973767,N,01258.216584,E,1,06,1.5,140.48,M,46.25,M,,*66
$GPGLL,4611.973767,N,01258.216584,E,081457.00,A,A*6D
$GPVTG,148.0,T,148.1,M,002.0,N,003.6,K,A*25
$GPGSV,2,1,08,02,34,100,,04,21,052,40,09,37,145,33,12,71,046,43*7F
$GPGSV,2,2,08,14,36,273,42,25,63,296,46,29,33,214,41,30,18,280,37*71
$GPGSA,M,3,04,12,14,25,29,30,,,,,,,2.3,1.5,1.7*30
Trace #58 at position 14.250000
$GPZDA,081457.03,09,10,2011,00,00*60
$GPRMC,081457.00,A,4611.973767,N,01258.216584,E,002.0,148.0,091011,0.2,E,A*34
$GPGGA,081458.00,4611.973331,N,01258.216914,E,1,06,1.5,140.51,M,46.25,M,,*63
$GPGLL,4611.973331,N,01258.216914,E,081458.00,A,A*60
$GPVTG,163.2,T,163.3,M,001.7,N,003.2,K,A*25
$GPGSV,2,1,08,02,34,100,33,04,21,052,40,09,37,145,30,12,71,046,43*7C
$GPGSV,2,2,08,14,36,273,44,25,63,296,46,29,33,214,41,30,18,280,37*77
$GPGSA,M,3,04,12,14,25,29,30,,,,,,,2.3,1.5,1.7*30
Trace #59 at position 14.500000
$GPZDA,081457.03,09,10,2011,00,00*60
$GPRMC,081457.00,A,4611.973767,N,01258.216584,E,002.0,148.0,091011,0.2,E,A*34
$GPGGA,081458.00,4611.973331,N,01258.216914,E,1,06,1.5,140.51,M,46.25,M,,*63
$GPGLL,4611.973331,N,01258.216914,E,081458.00,A,A*60
$GPVTG,163.2,T,163.3,M,001.7,N,003.2,K,A*25
$GPGSV,2,1,08,02,34,100,33,04,21,052,40,09,37,145,30,12,71,046,43*7C
$GPGSV,2,2,08,14,36,273,44,25,63,296,46,29,33,214,41,30,18,280,37*77
$GPGSA,M,3,04,12,14,25,29,30,,,,,,,2.3,1.5,1.7*30
Trace #60 at position 14.750000
$GPZDA,081457.03,09,10,2011,00,00*60
$GPRMC,081457.00,A,4611.973767,N,01258.216584,E,002.0,148.0,091011,0.2,E,A*34
$GPGGA,081458.00,4611.973331,N,01258.216914,E,1,06,1.5,140.51,M,46.25,M,,*63
$GPGLL,4611.973331,N,01258.216914,E,081458.00,A,A*60
$GPVTG,163.2,T,163.3,M,001.7,N,003.2,K,A*25
$GPGSV,2,1,08,02,34,100,33,04,21,052,40,09,37,145,30,12,71,046,43*7C
$GPGSV,2,2,08,14,36,273,44,25,63,296,46,29,33,214,41,30,18,280,37*77
$GPGSA,M,3,04,12,14,25,29,30,,,,,,,2.3,1.5,1.7*30
Trace #61 at position 15.000000
$GPZDA,081457.03,09,10,2011,00,00*60
$GPRMC,081457.00,A,4611.973767,N,01258.216584,E,002.0,148.0,091011,0.2,E,A*34
$GPGGA,081458.00,4611.973331,N,01258.216914,E,1,06,1.5,140.51,M,46.25,M,,*63
$GPGLL,4611.973331,N,01258.216914,E,081458.00,A,A*60
$GPVTG,163.2,T,163.3,M,001.7,N,003.2,K,A*25
$GPGSV,2,1,08,02,34,100,33,04,21,052,40,09,37,145,30,12,71,046,43*7C
$GPGSV,2,2,08,14,36,273,44,25,63,296,46,29,33,214,41,30,18,280,37*77
$GPGSA,M,3,04,12,14,25,29,30,,,,,,,2.3,1.5,1.7*30
Trace #62 at position 15.250000
$GPZDA,081458.04,09,10,2011,00,00*68
$GPRMC,081458.00,A,4611.973331,N,01258.216914,E,001.7,163.2,091011,0.2,E,A*36
$GPGGA,081459.00,4611.972942,N,01258.217164,E,1,06,1.5,140.59,M,46.25,M,,*6B
$GPGLL,4611.972942,N,01258.217164,E,081459.00,A,A*60
$GPVTG,150.8,T,151.0,M,001.4,N,002.7,K,A*2A
$GPGSV,2,1,08,02,34,100,36,04,21,052,40,09,37,145,28,12,71,046,42*71
$GPGSV,2,2,08,14,36,273,43,25,63,296,46,29,33,214,42,30,18,280,37*73
$GPGSA,M,3,04,12,14,25,29,30,,,,,,,2.3,1.5,1.7*30
Trace #63 at position 15.500000
$GPZDA,081458.04,09,10,2011,00,00*68
$GPRMC,081458.00,A,4611.973331,N,01258.216914,E,001.7,163.2,091011,0.2,E,A*36
$GPGGA,081459.00,4611.972942,N,01258.217164,E,1,06,1.5,140.59,M,46.25,M,,*6B
$GPGLL,4611.972942,N,01258.217164,E,081459.00,A,A*60
$GPVTG,150.8,T,151.0,M,001.4,N,002.7,K,A*2A
$GPGSV,2,1,08,02,34,100,36,04,21,052,40,09,37,145,28,12,71,046,42*71
$GPGSV,2,2,08,14,36,273,43,25,63,296,46,29,33,214,42,30,18,280,37*73
$GPGSA,M,3,04,12,14,25,29,30,,,,,,,2.3,1.5,1.7*30
Trace #64 at position 15.750000
$GPZDA,081458.04,09,10,2011,00,00*68
$GPRMC,081458.00,A,4611.973331,N,01258.216914,E,001.7,163.2,091011,0.2,E,A*36
$GPGGA,081459.00,4611.972942,N,01258.217164,E,1,06,1.5,140.59,M,46.25,M,,*6B
$GPGLL,4611.972942,N,01258.217164,E,081459.00,A,A*60
$GPVTG,150.8,T,151.0,M,001.4,N,002.7,K,A*2A
$GPGSV,2,1,08,02,34,100,36,04,21,052,40,09,37,145,28,12,71,046,42*71
$GPGSV,2,2,08,14,36,273,43,25,63,296,46,29,33,214,42,30,18,280,37*73
$GPGSA,M,3,04,12,14,25,29,30,,,,,,,2.3,1.5,1.7*30
Trace #65 at position 16.000000
$GPZDA,081459.04,09,10,2011,00,00*69
$GPRMC,081459.00,A,4611.972942,N,01258.217164,E,001.4,150.8,091011,0.2,E,A*3F
$GPGGA,081500.00,4611.972635,N,01258.217435,E,1,06,1.5,140.61,M,46.25,M,,*63
$GPGLL,4611.972635,N,01258.217435,E,081500.00,A,A*63
$GPVTG,145.8,T,145.9,M,001.1,N,002.1,K,A*21
$GPGSV,2,1,08,02,34,100,32,04,21,052,42,09,37,145,32,12,71,046,45*7B
$GPGSV,2,2,08,14,36,273,43,25,63,296,46,29,33,214,44,30,18,280,37*75
$GPGSA,M,3,04,12,14,25,29,30,,,,,,,2.3,1.5,1.7*30
Trace #66 at position 16.250000
$GPZDA,081459.04,09,10,2011,00,00*69
$GPRMC,081459.00,A,4611.972942,N,01258.217164,E,001.4,150.8,091011,0.2,E,A*3F
$GPGGA,081500.00,4611.972635,N,01258.217435,E,1,06,1.5,140.61,M,46.25,M,,*63
$GPGLL,4611.972635,N,01258.217435,E,081500.00,A,A*63
$GPVTG,145.8,T,145.9,M,001.1,N,002.1,K,A*21
$GPGSV,2,1,08,02,34,100,32,04,21,052,42,09,37,145,32,12,71,046,45*7B
$GPGSV,2,2,08,14,36,273,43,25,63,296,46,29,33,214,44,30,18,280,37*75
$GPGSA,M,3,04,12,14,25,29,30,,,,,,,2.3,1.5,1.7*30
Trace #67 at position 16.500000
$GPZDA,081459.04,09,10,2011,00,00*69
$GPRMC,081459.00,A,4611.972942,N,01258.217164,E,001.4,150.8,091011,0.2,E,A*3F
$GPGGA,081500.00,4611.972635,N,01258.217435,E,1,06,1.5,140.61,M,46.25,M,,*63
$GPGLL,4611.972635,N,01258.217435,E,081500.00,A,A*63
$GPVTG,145.8,T,145.9,M,001.1,N,002.1,K,A*21
$GPGSV,2,1,08,02,34,100,32,04,21,052,42,09,37,145,32,12,71,046,45*7B
$GPGSV,2,2,08,14,36,273,43,25,63,296,46,29,33,214,44,30,18,280,37*75
$GPGSA,M,3,04,12,14,25,29,30,,,,,,,2.3,1.5,1.7*30
Trace #68 at position 16.750000
$GPZDA,081459.04,09,10,2011,00,00*69
$GPRMC,081459.00,A,4611.972942,N,01258.217164,E,001.4,150.8,091011,0.2,E,A*3F
$GPGGA,081500.00,4611.972635,N,01258.217435,E,1,06,1.5,140.61,M,46.25,M,,*63
$GPGLL,4611.972635,N,01258.217435,E,081500.00,A,A*63
$GPVTG,145.8,T,145.9,M,001.1,N,002.1,K,A*21
$GPGSV,2,1,08,02,34,100,32,04,21,052,42,09,37,145,32,12,71,046,45*7B
$GPGSV,2,2,08,14,36,273,43,25,63,296,46,29,33,214,44,30,18,280,37*75
$GPGSA,M,3,04,12,14,25,29,30,,,,,,,2.3,1.5,1.7*30
Trace #69 at position 17.000000
$GPZDA,081500.04,09,10,2011,00,00*64
$GPRMC,081500.00,A,4611.972635,N,01258.217435,E,001.1,145.8,091011,0.2,E,A*3D
$GPGGA,081501.00,4611.972272,N,01258.217708,E,1,06,1.5,140.60,M,46.25,M,,*69
$GPGLL,4611.972272,N,01258.217708,E,081501.00,A,A*68
$GPVTG,155.1,T,155.3,M,001.8,N,003.3,K,A*28
$GPGSV,2,1,08,02,34,100,32,04,21,052,40,09,37,145,31,12,71,046,44*7B
$GPGSV,2,2,08,14,36,273,42,25,63,296,45,29,33,214,43,30,18,280,37*70
$GPGSA,M,3,04,12,14,25,29,30,,,,,,,2.3,1.5,1.7*30
Trace #70 at position 17.250000
$GPZDA,081500.04,09,10,2011,00,00*64
$GPRMC,081500.00,A,4611.972635,N,01258.217435,E,001.1,145.8,091011,0.2,E,A*3D
$GPGGA,081501.00,4611.972272,N,01258.217708,E,1,06,1.5,140.60,M,46.25,M,,*69
$GPGLL,4611.972272,N,01258.217708,E,081501.00,A,A*68
$GPVTG,155.1,T,155.3,M,001.8,N,003.3,K,A*28
$GPGSV,2,1,08,02,34,100,32,04,21,052,40,09,37,145,31,12,71,046,44*7B
$GPGSV,2,2,08,14,36,273,42,25,63,296,45,29,33,214,43,30,18,280,37*70
$GPGSA,M,3,04,12,14,25,29,30,,,,,,,2.3,1.5,1.7*30
Trace #71 at position 17.500000
$GPZDA,081500.04,09,10,2011,00,00*64
$GPRMC,081500.00,A,4611.972635,N,01258.217435,E,001.1,145.8,091011,0.2,E,A*3D
$GPGGA,081501.00,4611.972272,N,01258.217708,E,1,06,1.5,140.60,M,46.25,M,,*69
$GPGLL,4611.972272,N,01258.217708,E,081501.00,A,A*68
$GPVTG,155.1,T,155.3,M,001.8,N,003.3,K,A*28
$GPGSV,2,1,08,02,34,100,32,04,21,052,40,09,37,145,31,12,71,046,44*7B
$GPGSV,2,2,08,14,36,273,42,25,63,296,45,29,33,214,43,30,18,280,37*70
$GPGSA,M,3,04,12,14,25,29,30,,,,,,,2.3,1.5,1.7*30
Trace #72 at position 17.750000
$GPZDA,081501.04,09,10,2011,00,00*65
$GPRMC,081501.00,A,4611.972272,N,01258.217708,E,001.8,155.1,091011,0.2,E,A*37
$GPGGA,081502.00,4611.971746,N,01258.218049,E,1,06,1.5,140.50,M,46.25,M,,*65
$GPGLL,4611.971746,N,01258.218049,E,081502.00,A,A*67
$GPVTG,154.2,T,154.4,M,002.4,N,004.5,K,A*22
$GPGSV,2,1,08,02,34,100,31,04,21,052,42,09,37,145,25,12,71,046,42*79
$GPGSV,2,2,08,14,36,273,43,25,63,296,46,29,33,214,43,30,18,280,37*72
$GPGSA,M,3,04,12,14,25,29,30,,,,,,,2.3,1.5,1.7*30
Trace #73 at position 18.000000
$GPZDA,081501.04,09,10,2011,00,00*65
$GPRMC,081501.00,A,4611.972272,N,01258.217708,E,001.8,155.1,091011,0.2,E,A*37
$GPGGA,081502.00,4611.971746,N,01258.218049,E,1,06,1.5,140.50,M,46.25,M,,*65
$GPGLL,4611.971746,N,01258.218049,E,081502.00,A,A*67
$GPVTG,154.2,T,154.4,M,002.4,N,004.5,K,A*22
$GPGSV,2,1,08,02,34,100,31,04,21,052,42,09,37,145,25,12,71,046,42*79
$GPGSV,2,2,08,14,36,273,43,25,63,296,46,29,33,214,43,30,18,280,37*72
$GPGSA,M,3,04,12,14,25,29,30,,,,,,,2.3,1.5,1.7*30
Trace #74 at position 18.250000
$GPZDA,081501.04,09,10,2011,00,00*65
$GPRMC,081501.00,A,4611.972272,N,01258.217708,E,001.8,155.1,091011,0.2,E,A*37
$GPGGA,081502.00,4611.971746,N,01258.218049,E,1,06,1.5,140.50,M,46.25,M,,*65
$GPGLL,4611.971746,N,01258.218049,E,081502.00,A,A*67
$GPVTG,154.2,T,154.4,M,002.4,N,004.5,K,A*22
$GPGSV,2,1,08,02,34,100,31,04,21,052,42,09,37,145,25,12,71,046,42*79
$GPGSV,2,2,08,14,36,273,43,25,63,296,46,29,33,214,43,30,18,280,37*72
$GPGSA,M,3,04,12,14,25,29,30,,,,,,,2.3,1.5,1.7*30
Trace #75 at position 18.500000
$GPZDA,081502.04,09,10,2011,00,00*66
$GPRMC,081502.00,A,4611.971746,N,01258.218049,E,002.4,154.2,091011,0.2,E,A*35
$GPGGA,081503.00,4611.971306,N,01258.218437,E,1,06,1.5,140.47,M,46.25,M,,*6F
$GPGLL,4611.971306,N,01258.218437,E,081503.00,A,A*6B
$GPVTG,132.3,T,132.5,M,001.5,N,002.8,K,A*2B
$GPGSV,2,1,08,02,34,100,31,04,21,052,43,09,37,145,,12,71,046,42*7F
$GPGSV,2,2,08,14,36,273,43,25,63,296,46,29,33,214,42,30,18,280,37*73
$GPGSA,M,3,04,12,14,25,29,30,,,,,,,2.3,1.5,1.7*30
Trace #76 at position 18.750000
$GPZDA,081502.04,09,10,2011,00,00*66
$GPRMC,081502.00,A,4611.971746,N,01258.218049,E,002.4,154.2,091011,0.2,E,A*35
$GPGGA,081503.00,4611.971306,N,01258.218437,E,1,06,1.5,140.47,M,46.25,M,,*6F
$GPGLL,4611.971306,N,01258.218437,E,081503.00,A,A*6B
$GPVTG,132.3,T,132.5,M,001.5,N,002.8,K,A*2B
$GPGSV,2,1,08,02,34,100,31,04,21,052,43,09,37,145,,12,71,046,42*7F
$GPGSV,2,2,08,14,36,273,43,25,63,296,46,29,33,214,42,30,18,280,37*73
$GPGSA,M,3,04,12,14,25,29,30,,,,,,,2.3,1.5,1.7*30
Trace #77 at position 19.000000
$GPZDA,081502.04,09,10,2011,00,00*66
$GPRMC,081502.00,A,4611.971746,N,01258.218049,E,002.4,154.2,091011,0.2,E,A*35
$GPGGA,081503.00,4611.971306,N,01258.218437,E,1,06,1.5,140.47,M,46.25,M,,*6F
$GPGLL,4611.971306,N,01258.218437,E,081503.00,A,A*6B
$GPVTG,132.3,T,132.5,M,001.5,N,002.8,K,A*2B
$GPGSV,2,1,08,02,34,100,31,04,21,052,43,09,37,145,,12,71,046,42*7F
$GPGSV,2,2,08,14,36,273,43,25,63,296,46,29,33,214,42,30,18,280,37*73
$GPGSA,M,3,04,12,14,25,29,30,,,,,,,2.3,1.5,1.7*30
Trace #78 at position 19.250000
$GPZDA,081502.04,09,10,2011,00,00*66
$GPRMC,081502.00,A,4611.971746,N,01258.218049,E,002.4,154.2,091011,0.2,E,A*35
$GPGGA,081503.00,4611.971306,N,01258.218437,E,1,06,1.5,140.47,M,46.25,M,,*6F
$GPGLL,4611.971306,N,01258.218437,E,081503.00,A,A*6B
$GPVTG,132.3,T,132.5,M,001.5,N,002.8,K,A*2B
$GPGSV,2,1,08,02,34,100,31,04,21,052,43,09,37,145,,12,71,046,42*7F
$GPGSV,2,2,08,14,36,273,43,25,63,296,46,29,33,214,42,30,18,280,37*73
$GPGSA,M,3,04,12,14,25,29,30,,,,,,,2.3,1.5,1.7*30
Trace #79 at position 19.500000
$GPZDA,081502.04,09,10,2011,00,00*66
$GPRMC,081502.00,A,4611.971746,N,01258.218049,E,002.4,154.2,091011,0.2,E,A*35
$GPGGA,081503.00,4611.971306,N,01258.218437,E,1,06,1.5,140.47,M,46.25,M,,*6F
$GPGLL,4611.971306,N,01258.218437,E,081503.00,A,A*6B
$GPVTG,132.3,T,132.5,M,001.5,N,002.8,K,A*2B
$GPGSV,2,1,08,02,34,100,31,04,21,052,43,09,37,145,,12,71,046,42*7F
$GPGSV,2,2,08,14,36,273,43,25,63,296,46,29,33,214,42,30,18,280,37*73
$GPGSA,M,3,04,12,14,25,29,30,,,,,,,2.3,1.5,1.7*30
Trace #80 at position 19.750000
$GPZDA,081503.04,09,10,2011,00,00*67
$GPRMC,081503.00,A,4611.971306,N,01258.218437,E,001.5,132.3,091011,0.2,E,A*3A
$GPGGA,081504.00,4611.970974,N,01258.218789,E,1,06,1.5,140.52,M,46.25,M,,*64
$GPGLL,4611.970974,N,01258.218789,E,081504.00,A,A*64
$GPVTG,142.5,T,142.6,M,001.6,N,003.0,K,A*24
$GPGSV,2,1,08,02,34,100,33,04,21,052,42,09,
$GPZDA,081504.04,09,10,2011,00,00*60
$GPRMC,081504.00,A,4611.970974,N,01258.218789,E,001.6,142.5,091011,0.2,E,A*37
$GPGGA,081505.00,4611.970561,N,01258.218986,E,1,06,1.5,140.52,M,46.25,M,,*6C
$GPGLL,4611.970561,N,01258.218986,E,081505.00,A,A*6C
$GPVTG,167.3,T,167.4,M,001.6,N,003.0,K,A*20
$GPGSV,2,1,08,02,34,100,33,04,21,052,41,09,37,145,,12,71,046,43*7E
$GPGSV,2,2,08,14,36,273,42,25,63,296,46,29,33,214,43,30,18,280,37*73
$GPGSA,M,3,04,12,14,25,29,30,,,,,,,2.3,1.5,1.7*30
Trace #81 at position 20.000000
$GPZDA,081503.04,09,10,2011,00,00*67
$GPRMC,081503.00,A,4611.971306,N,01258.218437,E,001.5,132.3,091011,0.2,E,A*3A
$GPGGA,081504.00,4611.970974,N,01258.218789,E,1,06,1.5,140.52,M,46.25,M,,*64
$GPGLL,4611.970974,N,01258.218789,E,081504.00,A,A*64
$GPVTG,142.5,T,142.6,M,001.6,N,003.0,K,A*24
$GPGSV,2,1,08,02,34,100,33,04,21,052,42,09,
$GPZDA,081504.04,09,10,2011,00,00*60
$GPRMC,081504.00,A,4611.970974,N,01258.218789,E,001.6,142.5,091011,0.2,E,A*37
$GPGGA,081505.00,4611.970561,N,01258.218986,E,1,06,1.5,140.52,M,46.25,M,,*6C
$GPGLL,4611.970561,N,01258.218986,E,081505.00,A,A*6C
$GPVTG,167.3,T,167.4,M,001.6,N,003.0,K,A*20
$GPGSV,2,1,08,02,34,100,33,04,21,052,41,09,37,145,,12,71,046,43*7E
$GPGSV,2,2,08,14,36,273,42,25,63,296,46,29,33,214,43,30,18,280,37*73
$GPGSA,M,3,04,12,14,25,29,30,,,,,,,2.3,1.5,1.7*30
Trace #82 at position 20.250000
$GPZDA,081505.03,09,10,20118.218986,E,001.6,167.3,091011,0.2,E,A*3E
$GPGGA,081506.00,4611.970082,N,01258.219095,E,1,06,1.5,140.50,M,46.25,M,,*6F
$GPGLL,4611.970082,N,01258.219095,E,081506.00,A,A*6D
$GPVTG,164.9,T,165.0,M,001.8,N,003.4,K,A*25
$GPGSV,2,1,08,02,34,100,34,04,21,052,41,09,37,145,,12,71,047,42*79
$GPGSV,2,2,08,14,36,273,42,25,63,296,47,29,33,214,41,30,18,280,38*7F
$GPGSA,M,3,04,12,14,25,29,30,,,,,,,2.3,1.5,1.7*30
Trace #83 at position 20.500000
$GPZDA,081505.03,09,10,20118.218986,E,001.6,167.3,091011,0.2,E,A*3E
$GPGGA,081506.00,4611.970082,N,01258.219095,E,1,06,1.5,140.50,M,46.25,M,,*6F
$GPGLL,4611.970082,N,01258.219095,E,081506.00,A,A*6D
$GPVTG,164.9,T,165.0,M,001.8,N,003.4,K,A*25
$GPGSV,2,1,08,02,34,100,34,04,21,052,41,09,37,145,,12,71,047,42*79
$GPGSV,2,2,08,14,36,273,42,25,63,296,47,29,33,214,41,30,18,280,38*7F
$GPGSA,M,3,04,12,14,25,29,30,,,,,,,2.3,1.5,1.7*30
Trace #84 at position 20.750000
$GPZDA,081505.03,09,10,20118.218986,E,001.6,167.3,091011,0.2,E,A*3E
$GPGGA,081506.00,4611.970082,N,01258.219095,E,1,06,1.5,140.50,M,46.25,M,,*6F
$GPGLL,4611.970082,N,01258.219095,E,081506.00,A,A*6D
$GPVTG,164.9,T,165.0,M,001.8,N,003.4,K,A*25
$GPGSV,2,1,08,02,34,100,34,04,21,052,41,09,37,145,,12,71,047,42*79
$GPGSV,2,2,08,14,36,273,42,25,63,296,47,29,33,214,41,30,18,280,38*7F
$GPGSA,M,3,04,12,14,25,29,30,,,,,,,2.3,1.5,1.7*30
Trace #85 at position 21.000000
$GPZDA,081506.03,09,10,2011,00,00*65
$GPRMC,081506.00,A,4611.970082,N,01258.219095,E,001.8,164.9,091011$GPGGA,081507.00,4611.969607,N,01258.219264,E,1,06,1.5,140.44,M,46.25,M,,*64
$GPGLL,4611.969607,N,01258.219264,E,081507.00,A,A*63
$GPVTG,157.6,T,157.7,M,001.7,N,003.2,K,A*25
$GPGSV,2,1,08,02,34,100,30,04,21,052,43,09,37,145,,12,71,047,43*7E
$GPGSV,2,2,08,14,36,273,43,25,63,296,46,29,33,214,41,30,18,280,39*7E
$GPGSA,M,3,04,12,14,25,29,30,,,,,,,2.3,1.5,1.7*30
Trace #86 at position 21.250000
$GPZDA,081506.03,09,10,2011,00,00*65
$GPRMC,081506.00,A,4611.970082,N,01258.219095,E,001.8,164.9,091011$GPGGA,081507.00,4611.969607,N,01258.219264,E,1,06,1.5,140.44,M,46.25,M,,*64
$GPGLL,4611.969607,N,01258.219264,E,081507.00,A,A*63
$GPVTG,157.6,T,157.7,M,001.7,N,003.2,K,A*25
$GPGSV,2,1,08,02,34,100,30,04,21,052,43,09,37,145,,12,71,047,43*7E
$GPGSV,2,2,08,14,36,273,43,25,63,296,46,29,33,214,41,30,18,280,39*7E
$GPGSA,M,3,04,12,14,25,29,30,,,,,,,2.3,1.5,1.7*30
Trace #87 at position 21.500000
$GPZDA,081506.03,09,10,2011,00,00*65
$GPRMC,081506.00,A,4611.970082,N,01258.219095,E,001.8,164.9,091011$GPGGA,081507.00,4611.969607,N,01258.219264,E,1,06,1.5,140.44,M,46.25,M,,*64
$GPGLL,4611.969607,N,01258.219264,E,081507.00,A,A*63
$GPVTG,157.6,T,157.7,M,001.7,N,003.2,K,A*25
$GPGSV,2,1,08,02,34,100,30,04,21,052,43,09,37,145,,12,71,047,43*7E
$GPGSV,2,2,08,14,36,273,43,25,63,296,46,29,33,214,41,30,18,280,39*7E
$GPGSA,M,3,04,12,14,25,29,30,,,,,,,2.3,1.5,1.7*30
Trace #88 at position 21.750000
$GPZDA,081507.03,09,10,2011,00,00*64
$GPRMC,081507.00,A,4611.969607,N,01258.219264,E,001.7,157.6,091011,0.2,E,A*36
$GPGGA,081508.00,4611.969248,N,01258.219374,E,1,06,1.5,140.42,M,46.25,M,,*62
$GPGLL,4611.969248,N,01258.219374,E,081508.00,A,A*63
$GPVTG,172.8,T,172.9,M,000.9,N,001.6,K,A*2C
$GPGSV,2,1,08,02,34,100,33,04,21,052,44,09,37,145,,12,71,047,43*7A
$GPGSV,2,2,08,14,36,273,43,25,63,296,46,29,33,214,42,30,18,280,38*7C
$GPGSA,M,3,04,12,14,25,29,30,,,,,,,2.3,1.5,1.7*30
Trace #89 at position 22.000000
$GPZDA,081507.03,09,10,2011,00,00*64
$GPRMC,081507.00,A,4611.969607,N,01258.219264,E,001.7,157.6,091011,0.2,E,A*36
$GPGGA,081508.00,4611.969248,N,01258.219374,E,1,06,1.5,140.42,M,46.25,M,,*62
$GPGLL,4611.969248,N,01258.219374,E,081508.00,A,A*63
$GPVTG,172.8,T,172.9,M,000.9,N,001.6,K,A*2C
$GPGSV,2,1,08,02,34,100,33,04,21,052,44,09,37,145,,12,71,047,43*7A
$GPGSV,2,2,08,14,36,273,43,25,63,296,46,29,33,214,42,30,18,280,38*7C
$GPGSA,M,3,04,12,14,25,29,30,,,,,,,2.3,1.5,1.7*30
Trace #90 at position 22.250000
$GPZDA,081507.03,09,10,2011,00,00*64
$GPRMC,081507.00,A,4611.969607,N,01258.219264,E,001.7,157.6,091011,0.2,E,A*36
$GPGGA,081508.00,4611.969248,N,01258.219374,E,1,06,1.5,140.42,M,46.25,M,,*62
$GPGLL,4611.969248,N,01258.219374,E,081508.00,A,A*63
$GPVTG,172.8,T,172.9,M,000.9,N,001.6,K,A*2C
$GPGSV,2,1,08,02,34,100,33,04,21,052,44,09,37,145,,12,71,047,43*7A
$GPGSV,2,2,08,14,36,273,43,25,63,296,46,29,33,214,42,30,18,280,38*7C
$GPGSA,M,3,04,12,14,25,29,30,,,,,,,2.3,1.5,1.7*30
Trace #91 at position 22.500000
$GPZDA,081508.04,09,10,2011,00,00*6C
$GPRMC,081508.00,A,4611.969248,N,01258.219374,E,000.9,172.8,091011,0.2,E,A*30
$GPGGA,081509.00,4611.968893,N,01258.219471,E,1,06,1.5,140.39,M,46.25,M,,*60
$GPGLL,4611.968893,N,01258.219471,E,081509.00,A,A*6D
$GPVTG,161.0,T,161.1,M,001.6,N,003.0,K,A*26
$GPGSV,2,1,08,02,34,100,,04,21,052,43,09,37,145,,12,71,047,42*7C
$GPGSV,2,2,08,14,36,273,43,25,63,296,47,29,33,214,41,30,18,280,37*71
$GPGSA,M,3,04,12,14,25,29,30,,,,,,,2.3,1.5,1.7*30
Trace #92 at position 22.750000
$GPZDA,081508.04,09,10,2011,00,00*6C
$GPRMC,081508.00,A,4611.969248,N,01258.219374,E,000.9,172.8,091011,0.2,E,A*30
$GPGGA,081509.00,4611.968893,N,01258.219471,E,1,06,1.5,140.39,M,46.25,M,,*60
$GPGLL,4611.968893,N,01258.219471,E,081509.00,A,A*6D
$GPVTG,161.0,T,161.1,M,001.6,N,003.0,K,A*26
$GPGSV,2,1,08,02,34,100,,04,21,052,43,09,37,145,,12,71,047,42*7C
$GPGSV,2,2,08,14,36,273,43,25,63,296,47,29,33,214,41,30,18,280,37*71
$GPGSA,M,3,04,12,14,25,29,30,,,,,,,2.3,1.5,1.7*30
Trace #93 at position 23.000000
$GPZDA,081508.04,09,10,2011,00,00*6C
$GPRMC,081508.00,A,4611.969248,N,01258.219374,E,000.9,172.8,091011,0.2,E,A*30
$GPGGA,081509.00,4611.968893,N,01258.219471,E,1,06,1.5,140.39,M,46.25,M,,*60
$GPGLL,4611.968893,N,01258.219471,E,081509.00,A,A*6D
$GPVTG,161.0,T,161.1,M,001.6,N,003.0,K,A*26
$GPGSV,2,1,08,02,34,100,,04,21,052,43,09,37,145,,12,71,047,42*7C
$GPGSV,2,2,08,14,36,273,43,25,63,296,47,29,33,214,41,30,18,280,37*71
$GPGSA,M,3,04,12,14,25,29,30,,,,,,,2.3,1.5,1.7*30
Trace #94 at position 23.250000
$GPZDA,081509.03,09,10,2011,00,00*6A
$GPRMC,081509.00,A,4611.968893,N,01258.219471,E,001.6,161.0,091011,0.2,E,A*3A
$GPGGA,081510.00,4611.968437,N,01258.219632,E,1,06,1.5,140.24,M,46.25,M,,*63
$GPGLL,4611.968437,N,01258.219632,E,081510.00,A,A*62
$GPVTG,166.0,T,166.2,M,001.7,N,003.2,K,A*26
$GPGSV,2,1,08,02,34,100,35,04,21,052,43,09,37,145,,12,71,047,43*7B
$GPGSV,2,2,08,14,36,273,43,25,63,296,47,29,33,214,42,30,18,280,38*7D
$GPGSA,M,3,04,12,14,25,29,30,,,,,,,2.3,1.5,1.7*30
Trace #95 at position 23.500000
$GPZDA,081509.03,09,10,2011,00,00*6A
$GPRMC,081509.00,A,4611.968893,N,01258.219471,E,001.6,161.0,091011,0.2,E,A*3A
$GPGGA,081510.00,4611.968437,N,01258.219632,E,1,06,1.5,140.24,M,46.25,M,,*63
$GPGLL,4611.968437,N,01258.219632,E,081510.00,A,A*62
$GPVTG,166.0,T,166.2,M,001.7,N,003.2,K,A*26
$GPGSV,2,1,08,02,34,100,35,04,21,052,43,09,37,145,,12,71,047,43*7B
$GPGSV,2,2,08,14,36,273,43,25,63,296,47,29,33,214,42,30,18,280,38*7D
$GPGSA,M,3,04,12,14,25,29,30,,,,,,,2.3,1.5,1.7*30
Trace #96 at position 23.750000
$GPZDA,081509.03,09,10,2011,00,00*6A
$GPRMC,081509.00,A,4611.968893,N,01258.219471,E,001.6,161.0,091011,0.2,E,A*3A
$GPGGA,081510.00,4611.968437,N,01258.219632,E,1,06,1.5,140.24,M,46.25,M,,*63
$GPGLL,4611.968437,N,01258.219632,E,081510.00,A,A*62
$GPVTG,166.0,T,166.2,M,001.7,N,003.2,K,A*26
$GPGSV,2,1,08,02,34,100,35,04,21,052,43,09,37,145,,12,71,047,43*7B
$GPGSV,2,2,08,14,36,273,43,25,63,296,47,29,33,214,42,30,18,280,38*7D
$GPGSA,M,3,04,12,14,25,29,30,,,,,,,2.3,1.5,1.7*30
Trace #97 at position 24.000000
$GPZDA,081510.03,09,10,2011,00,00*62
$GPRMC,081510.00,A,4611.968437,N,01258.219632,E,001.7,166.0,091011,0.2,E,A*33
$GPGGA,081511.00,4611.967945,N,01258.219912,E,1,06,1.5,140.09,M,46.25,M,,*67
$GPGLL,4611.967945,N,01258.219912,E,081511.00,A,A*69
$GPVTG,147.9,T,148.0,M,002.2,N,004.1,K,A*20
$GPGSV,2,1,08,02,34,100,37,04,21,052,42,09,37,145,,12,71,047,43*78
$GPGSV,2,2,08,14,36,273,43,25,63,296,47,29,33,214,42,30,18,280,38*7D
$GPGSA,M,3,04,12,14,25,29,30,,,,,,,2.3,1.5,1.7*30
Trace #98 at position 24.250000
$GPZDA,081510.03,09,10,2011,00,00*62
$GPRMC,081510.00,A,4611.968437,N,01258.219632,E,001.7,166.0,091011,0.2,E,A*33
$GPGGA,081511.00,4611.967945,N,01258.219912,E,1,06,1.5,140.09,M,46.25,M,,*67
$GPGLL,4611.967945,N,01258.219912,E,081511.00,A,A*69
$GPVTG,147.9,T,148.0,M,002.2,N,004.1,K,A*20
$GPGSV,2,1,08,02,34,100,37,04,21,052,42,09,37,145,,12,71,047,43*78
$GPGSV,2,2,08,14,36,273,43,25,63,296,47,29,33,214,42,30,18,280,38*7D
$GPGSA,M,3,04,12,14,25,29,30,,,,,,,2.3,1.5,1.7*30
Trace #99 at position 24.500000
$GPZDA,081510.03,09,10,2011,00,00*62
$GPRMC,081510.00,A,4611.968437,N,01258.219632,E,001.7,166.0,091011,0.2,E,A*33
$GPGGA,081511.00,4611.967945,N,01258.219912,E,1,06,1.5,140.09,M,46.25,M,,*67
$GPGLL,4611.967945,N,01258.219912,E,081511.00,A,A*69
$GPVTG,147.9,T,148.0,M,002.2,N,004.1,K,A*20
$GPGSV,2,1,08,02,34,100,37,04,21,052,42,09,37,145,,12,71,047,43*78
$GPGSV,2,2,08,14,36,273,43,25,63,296,47,29,33,214,42,30,18,280,38*7D
$GPGSA,M,3,04,12,14,25,29,30,,,,,,,2.3,1.5,1.7*30
Trace #100 at position 24.750000
$GPZDA,081511.03,09,10,2011,00,00*63
$GPRMC,081511.00,A,4611.967945,N,01258.219912,E,002.2,147.9,091011,0.2,E,A*34
$GPGGA,081512.00,4611.967527,N,01258.220267,E,1,06,1.5,140.07,M,46.25,M,,*61
$GPGLL,4611.967527,N,01258.220267,E,081512.00,A,A*61
$GPVTG,142.1,T,142.2,M,001.5,N,002.8,K,A*2E
$GPGSV,2,1,08,02,34,100,37,04,21,052,43,09,37,145,,12,71,047,42*78
$GPGSV,2,2,08,14,36,273,43,25,63,296,46,29,34,214,42,30,18,280,37*74
$GPGSA,M,3,04,12,14,25,29,30,,,,,,,2.3,1.5,1.7*30
Trace #101 at position 25.000000
$GPZDA,081511.03,09,10,2011,00,00*63
$GPRMC,081511.00,A,4611.967945,N,01258.219912,E,002.2,147.9,091011,0.2,E,A*34
$GPGGA,081512.00,4611.967527,N,01258.220267,E,1,06,1.5,140.07,M,46.25,M,,*61
$GPGLL,4611.967527,N,01258.220267,E,081512.00,A,A*61
$GPVTG,142.1,T,142.2,M,001.5,N,002.8,K,A*2E
$GPGSV,2,1,08,02,34,100,37,04,21,052,43,09,37,145,,12,71,047,42*78
$GPGSV,2,2,08,14,36,273,43,25,63,296,46,29,34,214,42,30,18,280,37*74
$GPGSA,M,3,04,12,14,25,29,30,,,,,,,2.3,1.5,1.7*30
Trace #102 at position 25.250000
$GPZDA,081511.03,09,10,2011,00,00*63
$GPRMC,081511.00,A,4611.967945,N,01258.219912,E,002.2,147.9,091011,0.2,E,A*34
$GPGGA,081512.00,4611.967527,N,01258.220267,E,1,06,1.5,140.07,M,46.25,M,,*61
$GPGLL,4611.967527,N,01258.220267,E,081512.00,A,A*61
$GPVTG,142.1,T,142.2,M,001.5,N,002.8,K,A*2E
$GPGSV,2,1,08,02,34,100,37,04,21,052,43,09,37,145,,12,71,047,42*78
$GPGSV,2,2,08,14,36,273,43,25,63,296,46,29,34,214,42,30,18,280,37*74
$GPGSA,M,3,04,12,14,25,29,30,,,,,,,2.3,1.5,1.7*30
Trace #103 at position 25.500000
$GPZDA,081512.04,09,10,2011,00,00*67
$GPRMC,081512.00,A,4611.967527,N,01258.220267,E,001.5,142.1,091011,0.2,E,A*35
$GPGGA,081513.00,4611.967166,N,01258.220470,E,1,06,1.5,140.15,M,46.25,M,,*62
$GPGLL,4611.967166,N,01258.220470,E,081513.00,A,A*61
$GPVTG,163.7,T,163.8,M,001.5,N,002.8,K,A*22
$GPGSV,2,1,08,02,34,100,33,04,21,052,43,09,37,145,,12,71,047,42*7C
$GPGSV,2,2,08,14,36,273,43,25,63,296,47,29,34,214,41,30,18,280,38*79
$GPGSA,M,3,04,12,14,25,29,30,,,,,,,2.3,1.5,1.7*30
Trace #104 at position 25.750000
$GPZDA,081512.04,09,10,2011,00,00*67
$GPRMC,081512.00,A,4611.967527,N,01258.220267,E,001.5,142.1,091011,0.2,E,A*35
$GPGGA,081513.00,4611.967166,N,01258.220470,E,1,06,1.5,140.15,M,46.25,M,,*62
$GPGLL,4611.967166,N,01258.220470,E,081513.00,A,A*61
$GPVTG,163.7,T,163.8,M,001.5,N,002.8,K,A*22
$GPGSV,2,1,08,02,34,100,33,04,21,052,43,09,37,145,,12,71,047,42*7C
$GPGSV,2,2,08,14,36,273,43,25,63,296,47,29,34,214,41,30,18,280,38*79
$GPGSA,M,3,04,12,14,25,29,30,,,,,,,2.3,1.5,1.7*30
Trace #105 at position 26.000000
$GPZDA,081512.04,09,10,2011,00,00*67
$GPRMC,081512.00,A,4611.967527,N,01258.220267,E,001.5,142.1,091011,0.2,E,A*35
$GPGGA,081513.00,4611.967166,N,01258.220470,E,1,06,1.5,140.15,M,46.25,M,,*62
$GPGLL,4611.967166,N,01258.220470,E,081513.00,A,A*61
$GPVTG,163.7,T,163.8,M,001.5,N,002.8,K,A*22
$GPGSV,2,1,08,02,34,100,33,04,21,052,43,09,37,145,,12,71,047,42*7C
$GPGSV,2,2,08,14,36,273,43,25,63,296,47,29,34,214,41,30,18,280,38*79
$GPGSA,M,3,04,12,14,25,29,30,,,,,,,2.3,1.5,1.7*30
Trace #106 at position 26.250000
$GPZDA,081512.04,09,10,2011,00,00*67
$GPRMC,081512.00,A,4611.967527,N,01258.220267,E,001.5,142.1,091011,0.2,E,A*35
$GPGGA,081513.00,4611.967166,N,01258.220470,E,1,06,1.5,140.15,M,46.25,M,,*62
$GPGLL,4611.967166,N,01258.220470,E,081513.00,A,A*61
$GPVTG,163.7,T,163.8,M,001.5,N,002.8,K,A*22
$GPGSV,2,1,08,02,34,100,33,04,21,052,43,09,37,145,,12,71,047,42*7C
$GPGSV,2,2,08,14,36,273,43,25,63,296,47,29,34,214,41,30,18,280,38*79
$GPGSA,M,3,04,12,14,25,29,30,,,,,,,2.3,1.5,1.7*30
Trace #107 at position 26.500000
$GPZDA,081513.04,09,10,2011,00,00*66
$GPRMC,081513.00,A,4611.967166,N,01258.220470,E,001.5,163.7,091011,0.2,E,A*30
$GPGGA,081514.00,4611.966738,N,01258.220463,E,1,06,1.5,140.19,M,46.25,M,,*67
$GPGLL,4611.966738,N,01258.220463,E,081514.00,A,A*68
$GPVTG,186.1,T,186.3,M,001.7,N,003.1,K,A*25
$GPGSV,2,1,08,02,34,100,33,04,21,052,43,09,37,145,,12,71,047,42*7C
$GPGSV,2,2,08,14,36,273,43,25,63,296,46,29,34,214,42,30,18,280,37*74
$GPGSA,M,3,04,12,14,25,29,30,,,,,,,2.3,1.5,1.7*30
Trace #108 at position 26.750000
$GPZDA,081513.04,09,10,2011,00,00*66
$GPRMC,081513.00,A,4611.967166,N,01258.220470,E,001.5,163.7,091011,0.2,E,A*30
$GPGGA,081514.00,4611.966738,N,01258.220463,E,1,06,1.5,140.19,M,46.25,M,,*67
$GPGLL,4611.966738,N,01258.220463,E,081514.00,A,A*68
$GPVTG,186.1,T,186.3,M,001.7,N,003.1,K,A*25
$GPGSV,2,1,08,02,34,100,33,04,21,052,43,09,37,145,,12,71,047,42*7C
$GPGSV,2,2,08,14,36,273,43,25,63,296,46,29,34,214,42,30,18,280,37*74
$GPGSA,M,3,04,12,14,25,29,30,,,,,,,2.3,1.5,1.7*30
Trace #109 at position 27.000000
$GPZDA,081513.04,09,10,2011,00,00*66
$GPRMC,081513.00,A,4611.967166,N,01258.220470,E,001.5,163.7,091011,0.2,E,A*30
$GPGGA,081514.00,4611.966738,N,01258.220463,E,1,06,1.5,140.19,M,46.25,M,,*67
$GPGLL,4611.966738,N,01258.220463,E,081514.00,A,A*68
$GPVTG,186.1,T,186.3,M,001.7,N,003.1,K,A*25
$GPGSV,2,1,08,02,34,100,33,04,21,052,43,09,37,145,,12,71,047,42*7C
$GPGSV,2,2,08,14,36,273,43,25,63,296,46,29,34,214,42,30,18,280,37*74
$GPGSA,M,3,04,12,14,25,29,30,,,,,,,2.3,1.5,1.7*30
Trace #110 at position 27.250000
$GPZDA,081514.04,09,10,2011,00,00*61
$GPRMC,081514.00,A,4611.966738,N,01258.220463,E,001.7,186.1,091011,0.2,E,A*36
$GPGGA,081515.00,4611.966326,N,01258.220519,E,1,06,1.5,140.15,M,46.25,M,,*6D
$GPGLL,4611.966326,N,01258.220519,E,081515.00,A,A*6E
$GPVTG,153.7,T,153.8,M,001.6,N,003.0,K,A*28
$GPGSV,2,1,08,02,34,100,35,04,21,052,42,09,37,145,,12,71,047,42*7B
$GPGSV,2,2,08,14,36,273,43,25,63,296,46,29,34,214,40,30,18,280,36*77
$GPGSA,M,3,04,12,14,25,29,30,,,,,,,2.3,1.5,1.7*30
Trace #111 at position 27.500000
$GPZDA,081514.04,09,10,2011,00,00*61
$GPRMC,081514.00,A,4611.966738,N,01258.220463,E,001.7,186.1,091011,0.2,E,A*36
$GPGGA,081515.00,4611.966326,N,01258.220519,E,1,06,1.5,140.15,M,46.25,M,,*6D
$GPGLL,4611.966326,N,01258.220519,E,081515.00,A,A*6E
$GPVTG,153.7,T,153.8,M,001.6,N,003.0,K,A*28
$GPGSV,2,1,08,02,34,100,35,04,21,052,42,09,37,145,,12,71,047,42*7B
$GPGSV,2,2,08,14,36,273,43,25,63,296,46,29,34,214,40,30,18,280,36*77
$GPGSA,M,3,04,12,14,25,29,30,,,,,,,2.3,1.5,1.7*30
Trace #112 at position 27.750000
$GPZDA,081514.04,09,10,2011,00,00*61
$GPRMC,081514.00,A,4611.966738,N,01258.220463,E,001.7,186.1,091011,0.2,E,A*36
$GPGGA,081515.00,4611.966326,N,01258.220519,E,1,06,1.5,140.15,M,46.25,M,,*6D
$GPGLL,4611.966326,N,01258.220519,E,081515.00,A,A*6E
$GPVTG,153.7,T,153.8,M,001.6,N,003.0,K,A*28
$GPGSV,2,1,08,02,34,100,35,04,21,052,42,09,37,145,,12,71,047,42*7B
$GPGSV,2,2,08,14,36,273,43,25,63,296,46,29,34,214,40,30,18,280,36*77
$GPGSA,M,3,04,12,14,25,29,30,,,,,,,2.3,1.5,1.7*30
Trace #113 at position 28.000000
$GPZDA,081515.03,09,10,2011,00,00*67
$GPRMC,081515.00,A,4611.966326,N,01258.220519,E,001.6,153.7,091011,0.2,E,A*3F
