Trace #1 at position 0.000000
$GPZDA,121354.03,06,10,2011,00,00*60
$GPRMC,121354.00,A,4611.946563,N,01258.218596,E,000.1,297.8,061011$GPGGA,121355.00,4611.946564,N,01258.218598,E,1,05,3.4,132.85,M,46.25,M,,*68
$GPGLL,4611.946564,N,01258.218598,E,121355.00,A,A*67
$GPVTG,299.0,T,299.2,M,000.0,N,000.1,K,A*20
$GPGSV,3,1,10,05,14,040,33,16,30,309,,31,29,222,39,18,16,149,*73
$GPGSV,3,2,10,29,44,073,42,30,54,155,43,21,73,169,42,25,16,138,*71
$GPGSV,3,3,10,03,11,277,,06,26,276,,,,,,,,,*78
$GPGSA,M,3,05,31,29,30,21,,,,,,,,4.6,3.4,3.1*35
Trace #2 at position 0.250000
$GPZDA,121404.03,06,10,201$GPGGA,121405.00,4611.946475,N,01258.218696,E,1,05,3.4,132.72,M,46.25,M,,*6E
$GPGLL,4611.946475,N,01258.218696,E,121405.00,A,A*69
$GPVTG,178.4,T,178.6,M,000.2,N,000.4,K,A*27
$GPGSV,3,1,10,05,14,040,38,16,30,309,,31,29,222,35,18,16,149,*74
$GPGSV,3,2,10,29,44,073,41,30,54,155,43,21,73,169,41,25,16,138,*71
$GPGSV,3,3,10,03,11,277,,06,26,276,,,,,,,,,*78
$GPGSA,M,3,05,31,29,30,21,,,,,,,,4.6,3.4,3.1*35
Trace #3 at position 0.500000
$GPZDA,121405.03,06,10,2011,00,00*63
$GPRMC,121405.00,A,4611.946475,N,01258.218696,E,000.2,178.4,061011$GPGGA,121406.00,4611.946450,N,01258.218693,E,1,05,3.4,132.65,M,46.25,M,,*69
$GPGLL,4611.946450,N,01258.218693,E,121406.00,A,A*68
$GPVTG,241.4,T,241.6,M,000.0,N,000.1,K,A*20
$GPGSV,3,1,10,05,14,040,37,16,30,309,,31,29,222,35,18,16,149,*7B
$GPGSV,3,2,10,29,44,073,41,30,54,155,44,21,73,169,42,25,16,138,*75
$GPGSV,3,3,10,03,11,277,,06,26,276,,,,,,,,,*78
$GPGSA,M,3,05,31,29,30,21,,,,,,,,4.6,3.4,3.1*35
Trace #4 at position 0.750000
$GPZDA,121406.03,06,10,2011,00,00*60
$GPRMC,121406.00,A,4611.946450,N,01258.218693,E,000.0,241.4,061011$GPGGA,121407.00,4611.946443,N,01258.218708,E,1,05,3.4,132.70,M,46.25,M,,*6D
$GPGLL,4611.946443,N,01258.218708,E,121407.00,A,A*68
$GPVTG,136.5,T,136.7,M,000.2,N,000.3,K,A*20
$GPGSV,3,1,10,05,14,040,33,16,30,309,,31,29,222,35,18,16,149,*7F
$GPGSV,3,2,10,29,44,073,41,30,54,155,44,21,73,169,42,25,16,138,*75
$GPGSV,3,3,10,03,11,277,,06,26,276,,,,,,,,,*78
$GPGSA,M,3,05,31,29,30,21,,,,,,,,4.6,3.4,3.1*35
Trace #5 at position 1.000000
$GPZDA,121406.03,06,10,2011,00,00*60
$GPRMC,121406.00,A,4611.946450,N,01258.218693,E,000.0,241.4,061011$GPGGA,121407.00,4611.946443,N,01258.218708,E,1,05,3.4,132.70,M,46.25,M,,*6D
$GPGLL,4611.946443,N,01258.218708,E,121407.00,A,A*68
$GPVTG,136.5,T,136.7,M,000.2,N,000.3,K,A*20
$GPGSV,3,1,10,05,14,040,33,16,30,309,,31,29,222,35,18,16,149,*7F
$GPGSV,3,2,10,29,44,073,41,30,54,155,44,21,73,169,42,25,16,138,*75
$GPGSV,3,3,10,03,11,277,,06,26,276,,,,,,,,,*78
$GPGSA,M,3,05,31,29,30,21,,,,,,,,4.6,3.4,3.1*35
Trace #6 at position 1.250000
$GPZDA,121407.03,06,10,2011,00,00*61
$GPRMC,121407.00,A,4611.946443,N,01258.218708,E,000.2,136.5,061011$GPGGA,121408.00,4611.946206,N,01258.218856,E,1,05,3.4,133.13,M,46.25,M,,*65
$GPGLL,4611.946206,N,01258.218856,E,121408.00,A,A*64
$GPVTG,158.7,T,158.9,M,001.8,N,003.4,K,A*23
$GPGSV,3,1,10,05,14,040,,16,30,309,,31,29,222,33,18,16,149,*79
$GPGSV,3,2,10,29,44,073,37,30,54,155,44,21,73,169,40,25,16,138,*76
$GPGSV,3,3,10,03,11,277,,06,26,276,,,,,,,,,*78
$GPGSA,M,3,05,31,29,30,21,,,,,,,,4.6,3.4,3.1*35
Trace #7 at position 1.500000
$GPZDA,121408.04,06,10,2011,00,00*69
$GPRMC,121408.00,A,4611.946206,N,01258.218856,E,001.8,158.7,061011,0$GPGGA,121409.00,4611.945787,N,01258.219078,E,1,05,3.4,133.93,M,46.25,M,,*66
$GPGLL,4611.945787,N,01258.219078,E,121409.00,A,A*6F
$GPVTG,160.0,T,160.2,M,001.6,N,002.9,K,A*2D
$GPGSV,3,1,10,05,14,040,,16,30,309,,31,29,222,35,18,16,149,*7F
$GPGSV,3,2,10,29,44,073,35,30,54,155,43,21,73,169,39,25,16,138,*7D
$GPGSV,3,3,10,03,11,277,,06,26,276,,,,,,,,,*78
$GPGSA,M,3,05,31,29,30,21,,,,,,,,4.6,3.4,3.1*35
Trace #8 at position 1.750000
$GPZDA,121409.03,06,10,2011,00,00*6F
$GPRMC,121409.00,A,4611.945787,N,01258.219078,E,001.6,160.0,061011,0$GPGGA,121410.00,4611.945683,N,01258.219165,E,1,04,3.7,134.11,M,46.25,M,,*69
$GPGLL,4611.945683,N,01258.219165,E,121410.00,A,A*6F
$GPVTG,43.5,T,43.7,M,000.2,N,000.4,K,A*27
$GPGSV,3,1,10,05,14,040,,16,30,309,,31,29,222,36,18,16,149,*7C
$GPGSV,3,2,10,29,44,073,38,30,54,155,43,21,73,169,41,25,16,138,*7F
$GPGSV,3,3,10,03,11,277,,06,26,276,,,,,,,,,*78
$GPGSA,M,3,31,29,30,21,,,,,,,,,5.1,3.7,3.5*31
Trace #9 at position 2.000000
$GPZDA,121409.03,06,10,2011,00,00*6F
$GPRMC,121409.00,A,4611.945787,N,01258.219078,E,001.6,160.0,061011,0$GPGGA,121410.00,4611.945683,N,01258.219165,E,1,04,3.7,134.11,M,46.25,M,,*69
$GPGLL,4611.945683,N,01258.219165,E,121410.00,A,A*6F
$GPVTG,43.5,T,43.7,M,000.2,N,000.4,K,A*27
$GPGSV,3,1,10,05,14,040,,16,30,309,,31,29,222,36,18,16,149,*7C
$GPGSV,3,2,10,29,44,073,38,30,54,155,43,21,73,169,41,25,16,138,*7F
$GPGSV,3,3,10,03,11,277,,06,26,276,,,,,,,,,*78
$GPGSA,M,3,31,29,30,21,,,,,,,,,5.1,3.7,3.5*31
Trace #10 at position 2.250000
$GPZDA,121410.03,06,10,2011,00,00*67
$GPRMC,121410.00,A,4611.945683,N,01258.219165,E,000.2,43.5,061011,0.2,E,$GPGGA,121411.00,4611.945871,N,01258.219104,E,1,04,3.7,133.97,M,46.25,M,,*65
$GPGLL,4611.945871,N,01258.219104,E,121411.00,A,A*6A
$GPVTG,345.6,T,345.7,M,000.7,N,001.3,K,A*27
$GPGSV,3,1,10,05,14,040,,16,30,309,,31,29,222,37,18,16,149,*7D
$GPGSV,3,2,10,29,44,073,41,30,54,155,43,21,73,169,41,25,16,138,*71
$GPGSV,3,3,10,03,11,277,,06,26,276,,,,,,,,,*78
$GPGSA,M,3,31,29,30,21,,,,,,,,,5.1,3.7,3.5*31
Trace #11 at position 2.500000
$GPZDA,121411.03,06,10,2011,00,00*66
$GPRMC,121411.00,A,4611.945871,N,01258.219104,E,000.7,345.6,061011,0.2,,K,N*61
$GPGSV,3,1,10,05,14,040,,16,30,309,,31,29,222,29,18,16,149,*72
$GPGSV,3,2,10,29,44,073,40,30,54,155,43,21,73,169,41,25,16,138,*70
$GPGSV,3,3,10,03,11,277,,06,26,276,,,,,,,,,*78
$GPGSA,M,1,,,,,,,,,,,,,5.1,3.7,3.5*3A
Trace #12 at position 2.750000
$GPZDA,121411.03,06,10,2011,00,00*66
$GPRMC,121411.00,A,4611.945871,N,01258.219104,E,000.7,345.6,061011,0.2,,K,N*61
$GPGSV,3,1,10,05,14,040,,16,30,309,,31,29,222,29,18,16,149,*72
$GPGSV,3,2,10,29,44,073,40,30,54,155,43,21,73,169,41,25,16,138,*70
$GPGSV,3,3,10,03,11,277,,06,26,276,,,,,,,,,*78
$GPGSA,M,1,,,,,,,,,,,,,5.1,3.7,3.5*3A
Trace #13 at position 3.000000
$GPZDA,121412.02,06,10,2011,00,00*64
$GPRMC,121411.00,V,,,,,,,,,,N*7B
$GPGGA,,,,,,0,03,,,M,,M,,*65
$GPGLL,,,,,,V,N*64
$GPVTG,,T,,,,N,,K,N*61
$GPGSV,3,1,10,05,14,040,,16,30,309,,31,29,222,33,18,16,149,*79
$GPGSV,3,2,10,29,44,073,39,30,54,155,43,21,73,169,41,25,16,138,*7E
$GPGSV,3,3,10,03,11,277,,06,26,276,,,,,,,,,*78
$GPGSA,M,1,,,,,,,,,,,,,5.1,3.7,3.5*3A
Trace #14 at position 3.250000
$GPZDA,121413.02,06,10,2011,00,00*65
$GPRMC,121411.00,V,,,,,,,,,,N*7B
$GPGGA,,,,,,0,03,,,M,,M,,*65
$GPGLL,,,,,,V,N*64
$GPVTG,,T,,,,N,,K,N*61
$GPGSV,3,1,10,05,14,040,35,16,30,309,,31,29,222,28,18,16,149,*75
$GPGSV,3,2,10,29,44,073,40,30,54,155,42,21,73,169,41,25,16,138,*71
$GPGSV,3,3,10,03,11,277,,06,26,276,,,,,,,,,*78
$GPGSA,M,1,,,,,,,,,,,,,5.1,3.7,3.5*3A
Trace #15 at position 3.500000
$GPZDA,121414.02,06,10,2011,00,00*62
$GPRMC,121411.00,V,,,,,,,,,,N*7B
$GPGGA,,,,,,0,03,,,M,,M,,*65
$GPGLL,,,,,,V,N*64
$GPVTG,,T,,,,N,,K,N*61
$GPGSV,3,1,10,05,14,040,36,16,30,309,,31,29,222,33,18,16,149,*7C
$GPGSV,3,2,10,29,44,073,40,30,54,155,44,21,73,169,41,25,16,138,*77
$GPGSV,3,3,10,03,11,277,,06,26,276,,,,,,,,,*78
$GPGSA,M,1,,,,,,,,,,,,,5.1,3.7,3.5*3A
Trace #16 at position 3.750000
$GPZDA,121414.02,06,10,2011,00,00*62
$GPRMC,121411.00,V,,,,,,,,,,N*7B
$GPGGA,,,,,,0,03,,,M,,M,,*65
$GPGLL,,,,,,V,N*64
$GPVTG,,T,,,,N,,K,N*61
$GPGSV,3,1,10,05,14,040,36,16,30,309,,31,29,222,33,18,16,149,*7C
$GPGSV,3,2,10,29,44,073,40,30,54,155,44,21,73,169,41,25,16,138,*77
$GPGSV,3,3,10,03,11,277,,06,26,276,,,,,,,,,*78
$GPGSA,M,1,,,,,,,,,,,,,5.1,3.7,3.5*3A
Trace #17 at position 4.000000
$GPZDA,121415.02,06,10,2011,00,00*63
$GPRMC,121411.00,V,,,,,,,,,,N*7B
$GPGGA,121416.00,4611.946637,N,01258.218801,E,1,04,3.7,134.00,M,46.25,M,,*69
$GPGLL,4611.946637,N,01258.218801,E,121416.00,A,A*6F
$GPVTG,353.1,T,353.2,M,000.3,N,000.6,K,A*25
$GPGSV,3,1,10,05,14,040,35,16,30,309,,31,29,222,36,18,16,149,*7A
$GPGSV,3,2,10,29,44,073,40,30,54,155,43,21,73,169,41,25,16,138,*70
$GPGSV,3,3,10,03,11,277,,06,26,276,,,,,,,,,*78
$GPGSA,M,3,31,29,30,21,,,,,,,,,5.1,3.7,3.5*31
Trace #18 at position 4.250000
$GPZDA,121415.02,06,10,2011,00,00*63
$GPRMC,121411.00,V,,,,,,,,,,N*7B
$GPGGA,121416.00,4611.946637,N,01258.218801,E,1,04,3.7,134.00,M,46.25,M,,*69
$GPGLL,4611.946637,N,01258.218801,E,121416.00,A,A*6F
$GPVTG,353.1,T,353.2,M,000.3,N,000.6,K,A*25
$GPGSV,3,1,10,05,14,040,35,16,30,309,,31,29,222,36,18,16,149,*7A
$GPGSV,3,2,10,29,44,073,40,30,54,155,43,21,73,169,41,25,16,138,*70
$GPGSV,3,3,10,03,11,277,,06,26,276,,,,,,,,,*78
$GPGSA,M,3,31,29,30,21,,,,,,,,,5.1,3.7,3.5*31
Trace #19 at position 4.500000
$GPZDA,121415.02,06,10,2011,00,00*63
$GPRMC,121411.00,V,,,,,,,,,,N*7B
$GPGGA,121416.00,4611.946637,N,01258.218801,E,1,04,3.7,134.00,M,46.25,M,,*69
$GPGLL,4611.946637,N,01258.218801,E,121416.00,A,A*6F
$GPVTG,353.1,T,353.2,M,000.3,N,000.6,K,A*25
$GPGSV,3,1,10,05,14,040,35,16,30,309,,31,29,222,36,18,16,149,*7A
$GPGSV,3,2,10,29,44,073,40,30,54,155,43,21,73,169,41,25,16,138,*70
$GPGSV,3,3,10,03,11,277,,06,26,276,,,,,,,,,*78
$GPGSA,M,3,31,29,30,21,,,,,,,,,5.1,3.7,3.5*31
Trace #20 at position 4.750000
$GPZDA,121416.03,06,10,2011,00,00*61
$GPRMC,121416.00,A,4611.946637,N,01258.218801,E,000.3,353.1,061011,0.2,E,A*31
$GPGGA,121417.00,4611.946887,N,01258.218695,E,1,05,3.3,133.70,M,46.25,M,,*6B
$GPGLL,4611.946887,N,01258.218695,E,121417.00,A,A*68
$GPVTG,13.7,T,13.9,M,000.6,N,001.1,K,A*2B
$GPGSV,3,1,10,05,14,040,37,16,30,309,,31,29,222,30,18,16,149,*7E
$GPGSV,3,2,10,29,44,073,40,30,54,155,43,21,73,169,42,25,16,138,*73
$GPGSV,3,3,10,03,11,277,,06,26,276,31,,,,,,,,*7A
$GPGSA,M,3,05,31,29,30,21,,,,,,,,4.5,3.3,3.1*31
Trace #21 at position 5.000000
$GPZDA,121416.03,06,10,2011,00,00*61
$GPRMC,121416.00,A,4611.946637,N,01258.218801,E,000.3,353.1,061011,0.2,E,A*31
$GPGGA,121417.00,4611.946887,N,01258.218695,E,1,05,3.3,133.70,M,46.25,M,,*6B
$GPGLL,4611.946887,N,01258.218695,E,121417.00,A,A*68
$GPVTG,13.7,T,13.9,M,000.6,N,001.1,K,A*2B
$GPGSV,3,1,10,05,14,040,37,16,30,309,,31,29,222,30,18,16,149,*7E
$GPGSV,3,2,10,29,44,073,40,30,54,155,43,21,73,169,42,25,16,138,*73
$GPGSV,3,3,10,03,11,277,,06,26,276,31,,,,,,,,*7A
$GPGSA,M,3,05,31,29,30,21,,,,,,,,4.5,3.3,3.1*31
Trace #22 at position 5.250000
$GPZDA,121417.03,06,10,2011,00,00*60
$GPRMC,121417.00,A,4611.946887,N,01258.218695,E,000.6,13.7,061011,0.2,E,A*02
$GPGGA,121418.00,4611.947223,N,01258.218546,E,1,05,3.3,133.40,M,46.25,M,,*6F
$GPGLL,4611.947223,N,01258.218546,E,121418.00,A,A*6F
$GPVTG,344.3,T,344.5,M,001.2,N,002.1,K,A*25
$GPGSV,3,1,10,05,14,040,36,16,30,309,,31,29,222,33,18,16,149,*7C
$GPGSV,3,2,10,29,44,073,40,30,54,155,43,21,73,169,41,25,16,138,*70
$GPGSV,3,3,10,03,11,277,,06,26,276,32,,,,,,,,*79
$GPGSA,M,3,05,31,29,30,21,,,,,,,,4.5,3.3,3.1*31
Trace #23 at position 5.500000
$GPZDA,121417.03,06,10,2011,00,00*60
$GPRMC,121417.00,A,4611.946887,N,01258.218695,E,000.6,13.7,061011,0.2,E,A*02
$GPGGA,121418.00,4611.947223,N,01258.218546,E,1,05,3.3,133.40,M,46.25,M,,*6F
$GPGLL,4611.947223,N,01258.218546,E,121418.00,A,A*6F
$GPVTG,344.3,T,344.5,M,001.2,N,002.1,K,A*25
$GPGSV,3,1,10,05,14,040,36,16,30,309,,31,29,222,33,18,16,149,*7C
$GPGSV,3,2,10,29,44,073,40,30,54,155,43,21,73,169,41,25,16,138,*70
$GPGSV,3,3,10,03,11,277,,06,26,276,32,,,,,,,,*79
$GPGSA,M,3,05,31,29,30,21,,,,,,,,4.5,3.3,3.1*31
Trace #24 at position 5.750000
$GPZDA,121418.04,06,10,2011,00,00*68
$GPRMC,121418.00,A,4611.947223,N,01258.218546,E,001.2,344.3,061011,0.2,E,A*35
$GPGGA,121419.00,4611.947645,N,01258.218364,E,1,05,3.3,133.10,M,46.25,M,,*69
$GPGLL,4611.947645,N,01258.218364,E,121419.00,A,A*6C
$GPVTG,356.8,T,357.0,M,001.3,N,002.5,K,A*2F
$GPGSV,3,1,10,05,14,040,34,16,30,309,,31,29,222,34,18,16,149,*79
$GPGSV,3,2,10,29,44,073,40,30,54,155,43,21,73,169,41,25,16,138,*70
$GPGSV,3,3,10,03,11,277,,06,26,276,31,,,,,,,,*7A
$GPGSA,M,3,05,31,29,30,21,,,,,,,,4.5,3.3,3.1*31
Trace #25 at position 6.000000
$GPZDA,121419.03,06,10,2011,00,00*6E
$GPRMC,121419.00,A,4611.947645,N,01258.218364,E,001.3,356.8,061011,0.2,E,A*3F
$GPGGA,121420.00,4611.947930,N,01258.218169,E,1,04,4.1,132.75,M,46.25,M,,*67
$GPGLL,4611.947930,N,01258.218169,E,121420.00,A,A*64
$GPVTG,9.6,T,9.8,M,000.4,N,000.8,K,A*21
$GPGSV,3,1,10,05,14,040,35,16,30,309,,31,29,222,35,18,16,149,*79
$GPGSV,3,2,10,29,44,073,40,30,54,155,43,21,73,169,40,25,16,138,*71
$GPGSV,3,3,10,03,11,277,,06,26,276,31,,,,,,,,*7A
$GPGSA,M,3,05,29,30,21,,,,,,,,,5.9,4.1,4.3*3E
Trace #26 at position 6.250000
$GPZDA,121419.03,06,10,2011,00,00*6E
$GPRMC,121419.00,A,4611.947645,N,01258.218364,E,001.3,356.8,061011,0.2,E,A*3F
$GPGGA,121420.00,4611.947930,N,01258.218169,E,1,04,4.1,132.75,M,46.25,M,,*67
$GPGLL,4611.947930,N,01258.218169,E,121420.00,A,A*64
$GPVTG,9.6,T,9.8,M,000.4,N,000.8,K,A*21
$GPGSV,3,1,10,05,14,040,35,16,30,309,,31,29,222,35,18,16,149,*79
$GPGSV,3,2,10,29,44,073,40,30,54,155,43,21,73,169,40,25,16,138,*71
$GPGSV,3,3,10,03,11,277,,06,26,276,31,,,,,,,,*7A
$GPGSA,M,3,05,29,30,21,,,,,,,,,5.9,4.1,4.3*3E
Trace #27 at position 6.500000
$GPZDA,121420.03,06,10,2011,00,00*64
$GPRMC,121420.00,A,4611.947930,N,01258.218169,E,000.4,9.6,061011,0.2,E,A*36
$GPGGA,121421.00,4611.948168,N,01258.218042,E,1,05,3.3,132.69,M,46.25,M,,*6D
$GPGLL,4611.948168,N,01258.218042,E,121421.00,A,A*67
$GPVTG,346.3,T,346.4,M,000.9,N,001.6,K,A*2A
$GPGSV,3,1,10,05,14,040,36,16,30,309,,31,29,222,33,18,16,149,*7C
$GPGSV,3,2,10,29,44,073,40,30,54,155,44,21,73,169,41,25,16,138,*77
$GPGSV,3,3,10,03,11,277,,06,26,276,32,,,,,,,,*79
$GPGSA,M,3,05,31,29,30,21,,,,,,,,4.5,3.3,3.1*31
Trace #28 at position 6.750000
$GPZDA,121420.03,06,10,2011,00,00*64
$GPRMC,121420.00,A,4611.947930,N,01258.218169,E,000.4,9.6,061011,0.2,E,A*36
$GPGGA,121421.00,4611.948168,N,01258.218042,E,1,05,3.3,132.69,M,46.25,M,,*6D
$GPGLL,4611.948168,N,01258.218042,E,121421.00,A,A*67
$GPVTG,346.3,T,346.4,M,000.9,N,001.6,K,A*2A
$GPGSV,3,1,10,05,14,040,36,16,30,309,,31,29,222,33,18,16,149,*7C
$GPGSV,3,2,10,29,44,073,40,30,54,155,44,21,73,169,41,25,16,138,*77
$GPGSV,3,3,10,03,11,277,,06,26,276,32,,,,,,,,*79
$GPGSA,M,3,05,31,29,30,21,,,,,,,,4.5,3.3,3.1*31
Trace #29 at position 7.000000
$GPZDA,121420.03,06,10,2011,00,00*64
$GPRMC,121420.00,A,4611.947930,N,01258.218169,E,000.4,9.6,061011,0.2,E,A*36
$GPGGA,121421.00,4611.948168,N,01258.218042,E,1,05,3.3,132.69,M,46.25,M,,*6D
$GPGLL,4611.948168,N,01258.218042,E,121421.00,A,A*67
$GPVTG,346.3,T,346.4,M,000.9,N,001.6,K,A*2A
$GPGSV,3,1,10,05,14,040,36,16,30,309,,31,29,222,33,18,16,149,*7C
$GPGSV,3,2,10,29,44,073,40,30,54,155,44,21,73,169,41,25,16,138,*77
$GPGSV,3,3,10,03,11,277,,06,26,276,32,,,,,,,,*79
$GPGSA,M,3,05,31,29,30,21,,,,,,,,4.5,3.3,3.1*31
Trace #30 at position 7.250000
$GPZDA,121421.03,06,10,2011,00,00*65
$GPRMC,121421.00,A,4611.948168,N,01258.218042,E,000.9,346.3,061011,0.2,E,A*35
$GPGGA,121422.00,4611.948452,N,01258.217875,E,1,05,3.3,132.69,M,46.25,M,,*61
$GPGLL,4611.948452,N,01258.217875,E,121422.00,A,A*6B
$GPVTG,346.0,T,346.2,M,000.8,N,001.5,K,A*2D
$GPGSV,3,1,10,05,14,040,32,16,30,309,,31,29,222,35,18,16,149,*7E
$GPGSV,3,2,10,29,44,073,40,30,54,155,42,21,73,169,41,25,16,138,*71
$GPGSV,3,3,10,03,11,277,,06,26,276,,,,,,,,,*78
$GPGSA,M,3,05,31,29,30,21,,,,,,,,4.5,3.3,3.1*31
Trace #31 at position 7.500000
$GPZDA,121421.03,06,10,2011,00,00*65
$GPRMC,121421.00,A,4611.948168,N,01258.218042,E,000.9,346.3,061011,0.2,E,A*35
$GPGGA,121422.00,4611.948452,N,01258.217875,E,1,05,3.3,132.69,M,46.25,M,,*61
$GPGLL,4611.948452,N,01258.217875,E,121422.00,A,A*6B
$GPVTG,346.0,T,346.2,M,000.8,N,001.5,K,A*2D
$GPGSV,3,1,10,05,14,040,32,16,30,309,,31,29,222,35,18,16,149,*7E
$GPGSV,3,2,10,29,44,073,40,30,54,155,42,21,73,169,41,25,16,138,*71
$GPGSV,3,3,10,03,11,277,,06,26,276,,,,,,,,,*78
$GPGSA,M,3,05,31,29,30,21,,,,,,,,4.5,3.3,3.1*31
Trace #32 at position 7.750000
$GPZDA,121422.03,06,10,2011,00,00*66
$GPRMC,121422.00,A,4611.948452,N,01258.217875,E,000.8,346.0,061011,0.2,E,A*3B
$GPGGA,121423.00,4611.948702,N,01258.217677,E,1,05,3.3,132.76,M,46.25,M,,*64
$GPGLL,4611.948702,N,01258.217677,E,121423.00,A,A*60
$GPVTG,324.8,T,325.0,M,000.7,N,001.3,K,A*2F
$GPGSV,3,1,10,05,14,040,32,16,30,309,,31,29,222,36,18,16,149,*7D
$GPGSV,3,2,10,29,44,073,39,30,54,155,44,21,73,169,41,25,16,138,*79
$GPGSV,3,3,10,03,11,277,,06,26,276,32,,,,,,,,*79
$GPGSA,M,3,05,31,29,30,21,,,,,,,,4.5,3.3,3.1*31
Trace #33 at position 8.000000
$GPZDA,121423.04,06,10,2011,00,00*60
$GPRMC,121423.00,A,4611.948702,N,01258.217677,E,000.7,324.8,061011,0.2,E,A*33
$GPGGA,121424.00,4611.948954,N,01258.217466,E,1,05,3.3,132.73,M,46.25,M,,*69
$GPGLL,4611.948954,N,01258.217466,E,121424.00,A,A*68
$GPVTG,339.6,T,339.8,M,000.9,N,001.6,K,A*23
$GPGSV,3,1,10,05,14,040,33,16,30,309,,31,29,222,33,18,16,149,*79
$GPGSV,3,2,10,29,44,073,40,30,54,155,44,21,73,169,40,25,16,138,*76
$GPGSV,3,3,10,03,11,277,,06,26,276,31,,,,,,,,*7A
$GPGSA,M,3,05,31,29,30,21,,,,,,,,4.5,3.3,3.1*31
Trace #34 at position 8.250000
$GPZDA,121423.04,06,10,2011,00,00*60
$GPRMC,121423.00,A,4611.948702,N,01258.217677,E,000.7,324.8,061011,0.2,E,A*33
$GPGGA,121424.00,4611.948954,N,01258.217466,E,1,05,3.3,132.73,M,46.25,M,,*69
$GPGLL,4611.948954,N,01258.217466,E,121424.00,A,A*68
$GPVTG,339.6,T,339.8,M,000.9,N,001.6,K,A*23
$GPGSV,3,1,10,05,14,040,33,16,30,309,,31,29,222,33,18,16,149,*79
$GPGSV,3,2,10,29,44,073,40,30,54,155,44,21,73,169,40,25,16,138,*76
$GPGSV,3,3,10,03,11,277,,06,26,276,31,,,,,,,,*7A
$GPGSA,M,3,05,31,29,30,21,,,,,,,,4.5,3.3,3.1*31
Trace #35 at position 8.500000
$GPZDA,121424.03,06,10,2011,00,00*60
$GPRMC,121424.00,A,4611.948954,N,01258.217466,E,000.9,339.6,061011,0.2,E,A*37
$GPGGA,121425.00,4,306.6,M,001.0,N,001.8,K,A*29
$GPGSV,3,1,10,05,14,040,34,16,30,309,,31,29,222,32,18,16,149,*7F
$GPGSV,3,2,10,29,44,073,40,30,54,155,42,21,73,169,41,25,16,138,*71
$GPGSV,3,3,10,03,11,277,,06,26,276,,,,,,,,,*78
$GPGSA,M,3,05,31,29,30,21,,,,,,,,4.5,3.3,3.1*31
Trace #36 at position 8.750000
$GPZDA,121425.03,06,10,2011,00,00*61
$GPRMC,121425.00,A,4611.949203,N,01258.217195,E,001.0,306.4,061011,0.2,E,A*31
$GPGGA,121426.00,4611.949499,N,01258.216972,E,1,05,3.3,132.44,M,46.25,M,,*6B
$GPGLL,4611.949499,N,01258.216972,E,121426.00,A,A*6E
$4,073,40,30,54,155,43,21,73,169,41,25,16,138,*70
$GPGSV,3,3,10,03,11,277,,06,26,276,32,,,,,,,,*79
$GPGSA,M,3,05,31,29,30,21,,,,,,,,4.5,3.3,3.1*31
Trace #37 at position 9.000000
$GPZDA,121425.03,06,10,2011,00,00*61
$GPRMC,121425.00,A,4611.949203,N,01258.217195,E,001.0,306.4,061011,0.2,E,A*31
$GPGGA,121426.00,4611.949499,N,01258.216972,E,1,05,3.3,132.44,M,46.25,M,,*6B
$GPGLL,4611.949499,N,01258.216972,E,121426.00,A,A*6E
$4,073,40,30,54,155,43,21,73,169,41,25,16,138,*70
$GPGSV,3,3,10,03,11,277,,06,26,276,32,,,,,,,,*79
$GPGSA,M,3,05,31,29,30,21,,,,,,,,4.5,3.3,3.1*31
Trace #38 at position 9.250000
$GPZDA,121426.03,06,10,2011,00,00*62
$GPRMC,121426.00,A,4611.949499,N,01258.216972,E,001.2,352.2,061011,0.2,E,A*32
$GPGGA,121427.00,4611.949915,N,01258.216904,E,1,05,3.3,132.09,M,46.25,M,,*6B
$GPGLL,4611.949915,N,01258.216904,E,121427.00,A,A*67
$GPVTG,0.0,T,0.2,M,001.6,N,002.9,K,A*2D
$GPGSV,3,1,10,05,14,040,,16,30,309,,31,29,222,35,18,16,149,*7F
$GPGSV,3,V,3,3,10,03,11,277,,06,26,276,32,,,,,,,,*79
$GPGSA,M,3,05,31,29,30,21,,,,,,,,4.5,3.3,3.1*31
Trace #39 at position 9.500000
$GPZDA,121426.03,06,10,2011,00,00*62
$GPRMC,121426.00,A,4611.949499,N,01258.216972,E,001.2,352.2,061011,0.2,E,A*32
$GPGGA,121427.00,4611.949915,N,01258.216904,E,1,05,3.3,132.09,M,46.25,M,,*6B
$GPGLL,4611.949915,N,01258.216904,E,121427.00,A,A*67
$GPVTG,0.0,T,0.2,M,001.6,N,002.9,K,A*2D
$GPGSV,3,1,10,05,14,040,,16,30,309,,31,29,222,35,18,16,149,*7F
$GPGSV,3,V,3,3,10,03,11,277,,06,26,276,32,,,,,,,,*79
$GPGSA,M,3,05,31,29,30,21,,,,,,,,4.5,3.3,3.1*31
Trace #40 at position 9.750000
$GPZDA,121426.03,06,10,2011,00,00*62
$GPRMC,121426.00,A,4611.949499,N,01258.216972,E,001.2,352.2,061011,0.2,E,A*32
$GPGGA,121427.00,4611.949915,N,01258.216904,E,1,05,3.3,132.09,M,46.25,M,,*6B
$GPGLL,4611.949915,N,01258.216904,E,121427.00,A,A*67
$GPVTG,0.0,T,0.2,M,001.6,N,002.9,K,A*2D
$GPGSV,3,1,10,05,14,040,,16,30,309,,31,29,222,35,18,16,149,*7F
$GPGSV,3,V,3,3,10,03,11,277,,06,26,276,32,,,,,,,,*79
$GPGSA,M,3,05,31,29,30,21,,,,,,,,4.5,3.3,3.1*31
Trace #41 at position 10.000000
$GPZDA,121427.03,06,10,2011,00,00*63
$GPRMC,121427.00,A,4611.949915,N,01258.216904,E,001.6,0.0,061011,0.2,E,A*39
$GPGGA,121428.00,4611.950233,N,01258.216787,E,1,04,3.7,131.89,M,46.25,M,,*68
$GPGLL,4611.950233,N,01258.216787,E,121428.00,A,A*6A
$GPVTG,331.7,T,331.9,M,001.2,N,002.2,K,A*2E
$GPGSV,3,1,10,05,14,040,33,16,30,309,,31,29,222,31,18,16,149,*7B
$GPGSV,3,2,10,29,44,073,41,30,54,155,43,21,73,169,41,25,16,1A,4611.950233,N,01258.216787,E,001.2,331.7,061011,0.2,E,A*36
$GPGGA,121429.00,4611.950486,N,01258.216546,E,1,05,3.3,131.72,M,46.25,M,,*6F
$GPGLL,4611.950486,N,01258.216546,E,121429.00,A,A*6C
$GPVTG,321.5,T,321.7,M,000.8,N,001.6,K,A*2E
$GPGSV,3,1,10,05,14,040,34,16,30,309,,31,29,222,35,18,16,149,*78
$GPGSV,3,2,10,29,44,073,40,30,54,155,43,21,73,169,41,25,16,138,*70
$GPGSV,3,3,10,03,11,277,,06,26,276,31,,,,,,,,*7A
$GPGSA,M,3,05,31,29,30,21,,,,,,,,4.5,3.3,3.1*31
Trace #42 at position 10.250000
$GPZDA,121429.03,06,10,2011,00,00*6D
$G$GPGGA,121430.00,4611.950682,N,01258.216364,E,1,05,3.3,131.63,M,46.25,M,,*67
$GPGLL,4611.950682,N,01258.216364,E,121430.00,A,A*64
$GPVTG,328.7,T,328.9,M,000.7,N,001.3,K,A*28
$GPGSV,3,1,10,05,14,040,35,16,30,309,,31,29,222,34,18,16,149,*78
$GPGSV,3,2,10,29,44,073,40,30,54,155,43,21,73,169,40,25,16,138,*71
$GPGSV,3,3,10,03,11,277,,06,26,276,32,,,,,,,,*79
$GPGSA,M,3,05,31,29,30,21,,,,,,,,4.5,3.3,3.1*31
Trace #43 at position 10.500000
$GPZDA,121429.03,06,10,2011,00,00*6D
$G$GPGGA,121430.00,4611.950682,N,01258.216364,E,1,05,3.3,131.63,M,46.25,M,,*67
$GPGLL,4611.950682,N,01258.216364,E,121430.00,A,A*64
$GPVTG,328.7,T,328.9,M,000.7,N,001.3,K,A*28
$GPGSV,3,1,10,05,14,040,35,16,30,309,,31,29,222,34,18,16,149,*78
$GPGSV,3,2,10,29,44,073,40,30,54,155,43,21,73,169,40,25,16,138,*71
$GPGSV,3,3,10,03,11,277,,06,26,276,32,,,,,,,,*79
$GPGSA,M,3,05,31,29,30,21,,,,,,,,4.5,3.3,3.1*31
Trace #44 at position 10.750000
$GPZDA,121430.03,06,10,2011,00,00*65
$GPRMC,121430.00,A,4611.950682,N,01258.216364,E,000.7,328.7,0610$GPGGA,121431.00,4611.950927,N,01258.216391,E,1,05,3.3,131.82,M,46.25,M,,*63
$GPGLL,4611.950927,N,01258.216391,E,121431.00,A,A*6F
$GPVTG,18.6,T,18.8,M,001.1,N,002.0,K,A*2F
$GPGSV,3,1,10,05,14,040,32,16,30,309,,31,29,222,34,18,16,149,*7F
$GPGSV,3,2,10,29,44,073,40,30,54,155,42,21,73,169,41,25,16,138,*71
$GPGSV,3,3,10,03,11,277,,06,26,276,30,,,,,,,,*7B
$GPGSA,M,3,05,31,29,30,21,,,,,,,,4.5,3.3,3.0*30
Trace #45 at position 11.000000
$GPZDA,121430.03,06,10,2011,00,00*65
$GPRMC,121430.00,A,4611.950682,N,01258.216364,E,000.7,328.7,0610$GPGGA,121431.00,4611.950927,N,01258.216391,E,1,05,3.3,131.82,M,46.25,M,,*63
$GPGLL,4611.950927,N,01258.216391,E,121431.00,A,A*6F
$GPVTG,18.6,T,18.8,M,001.1,N,002.0,K,A*2F
$GPGSV,3,1,10,05,14,040,32,16,30,309,,31,29,222,34,18,16,149,*7F
$GPGSV,3,2,10,29,44,073,40,30,54,155,42,21,73,169,41,25,16,138,*71
$GPGSV,3,3,10,03,11,277,,06,26,276,30,,,,,,,,*7B
$GPGSA,M,3,05,31,29,30,21,,,,,,,,4.5,3.3,3.0*30
Trace #46 at position 11.250000
$GPZDA,121431.03,06,10,2011,00,00*64
$GPRMC,121431.00,A,4611.950927,N,01258.216391,E,001.1,18.6,061011,$GPGGA,121432.00,4611.951152,N,01258.216421,E,1,05,3.3,132.11,M,46.25,M,,*6E
$GPGLL,4611.951152,N,01258.216421,E,121432.00,A,A*6B
$GPVTG,328.7,T,328.9,M,000.5,N,001.0,K,A*29
$GPGSV,3,1,10,05,14,040,32,16,30,309,,31,29,222,35,18,16,149,*7E
$GPGSV,3,2,10,29,44,073,40,30,54,155,43,21,73,169,41,25,16,138,*70
$GPGSV,3,3,10,03,11,277,,06,26,276,30,,,,,,,,*7B
$GPGSA,M,3,05,31,29,30,21,,,,,,,,4.5,3.3,3.0*30
Trace #47 at position 11.500000
$GPZDA,121431.03,06,10,2011,00,00*64
$GPRMC,121431.00,A,4611.950927,N,01258.216391,E,001.1,18.6,061011,$GPGGA,121432.00,4611.951152,N,01258.216421,E,1,05,3.3,132.11,M,46.25,M,,*6E
$GPGLL,4611.951152,N,01258.216421,E,121432.00,A,A*6B
$GPVTG,328.7,T,328.9,M,000.5,N,001.0,K,A*29
$GPGSV,3,1,10,05,14,040,32,16,30,309,,31,29,222,35,18,16,149,*7E
$GPGSV,3,2,10,29,44,073,40,30,54,155,43,21,73,169,41,25,16,138,*70
$GPGSV,3,3,10,03,11,277,,06,26,276,30,,,,,,,,*7B
$GPGSA,M,3,05,31,29,30,21,,,,,,,,4.5,3.3,3.0*30
Trace #48 at position 11.750000
$GPZDA,121432.03,06,10,2011,00,00*67
$GPRMC,121432.00,A,4611.951152,N,01258.216421,E,000.5,328.7,0610$GPGGA,121433.00,4611.951337,N,01258.216182,E,1,05,3.3,132.15,M,46.25,M,,*66
$GPGLL,4611.951337,N,01258.216182,E,121433.00,A,A*67
$GPVTG,306.0,T,306.2,M,001.3,N,002.4,K,A*25
$GPGSV,3,1,10,05,14,040,34,16,30,309,,31,29,222,35,18,16,149,*78
$GPGSV,3,2,10,29,44,073,39,30,54,155,43,21,73,169,41,25,16,138,*7E
$GPGSV,3,3,10,03,11,277,,06,26,276,33,,,,,,,,*78
$GPGSA,M,3,05,31,29,30,21,,,,,,,,4.5,3.3,3.0*30
Trace #49 at position 12.000000
$GPZDA,121432.03,06,10,2011,00,00*67
$GPRMC,121432.00,A,4611.951152,N,01258.216421,E,000.5,328.7,0610$GPGGA,121433.00,4611.951337,N,01258.216182,E,1,05,3.3,132.15,M,46.25,M,,*66
$GPGLL,4611.951337,N,01258.216182,E,121433.00,A,A*67
$GPVTG,306.0,T,306.2,M,001.3,N,002.4,K,A*25
$GPGSV,3,1,10,05,14,040,34,16,30,309,,31,29,222,35,18,16,149,*78
$GPGSV,3,2,10,29,44,073,39,30,54,155,43,21,73,169,41,25,16,138,*7E
$GPGSV,3,3,10,03,11,277,,06,26,276,33,,,,,,,,*78
$GPGSA,M,3,05,31,29,30,21,,,,,,,,4.5,3.3,3.0*30
Trace #50 at position 12.250000
$GPZDA,121433.03,06,10,2011,00,00*66
$GPRMC,121433.00,A,4611.951337,N,01258.216182,E,001.3,306.0,0610$GPGGA,121434.00,4611.951569,N,01258.216032,E,1,05,3.3,132.18,M,46.25,M,,*6B
$GPGLL,4611.951569,N,01258.216032,E,121434.00,A,A*67
$GPVTG,9.1,T,9.2,M,000.8,N,001.6,K,A*2F
$GPGSV,3,1,10,05,14,040,32,16,30,309,,31,29,222,34,18,16,149,*7F
$GPGSV,3,2,10,29,44,073,40,30,54,155,43,21,73,169,41,25,16,138,*70
$GPGSV,3,3,10,03,11,277,,06,26,276,,,,,,,,,*78
$GPGSA,M,3,05,31,29,30,21,,,,,,,,4.5,3.3,3.0*30
Trace #51 at position 12.500000
$GPZDA,121434.03,06,10,2011,00,00*61
$GPRMC,121434.00,A,4611.951569,N,01258.216032,E,000.8,9.1,061011,0.2,E$GPGGA,121435.00,4611.951847,N,01258.215876,E,1,06,1.7,132.17,M,46.25,M,,*6A
$GPGLL,4611.951847,N,01258.215876,E,121435.00,A,A*6C
$GPVTG,341.4,T,341.6,M,000.4,N,000.7,K,A*22
$GPGSV,3,1,10,05,14,040,31,16,30,309,,31,29,222,35,18,16,149,*7D
$GPGSV,3,2,10,29,44,073,40,30,54,155,43,21,73,169,40,25,16,138,*71
$GPGSV,3,3,10,03,11,277,,06,26,276,31,,,,,,,,*7A
$GPGSA,M,3,05,31,29,30,21,06,,,,,,,3.1,1.7,2.5*37
Trace #52 at position 12.750000
$GPZDA,121435.04,06,10,2011,00,00*67
$GPRMC,121435.00,A,4611.951847,N,01258.215876,E,000.4,341.4,061258.215569,E,1,06,1.7,132.13,M,46.25,M,,*6A
$GPGLL,4611.952095,N,01258.215569,E,121436.00,A,A*68
$GPVTG,310.0,T,310.1,M,001.0,N,001.8,K,A*2A
$GPGSV,3,1,10,05,14,040,30,16,30,309,,31,29,222,32,18,16,149,*7B
$GPGSV,3,2,10,29,44,073,40,30,54,155,43,21,73,169,41,25,16,138,*70
$GPGSV,3,3,10,03,11,277,,06,26,276,32,,,,,,,,*79
$GPGSA,M,3,05,31,29,30,21,06,,,,,,,3.1,1.7,2.5*37
Trace #53 at position 13.000000
$GPZDA,121435.04,06,10,2011,00,00*67
$GPRMC,121435.00,A,4611.951847,N,01258.215876,E,000.4,341.4,061258.215569,E,1,06,1.7,132.13,M,46.25,M,,*6A
$GPGLL,4611.952095,N,01258.215569,E,121436.00,A,A*68
$GPVTG,310.0,T,310.1,M,001.0,N,001.8,K,A*2A
$GPGSV,3,1,10,05,14,040,30,16,30,309,,31,29,222,32,18,16,149,*7B
$GPGSV,3,2,10,29,44,073,40,30,54,155,43,21,73,169,41,25,16,138,*70
$GPGSV,3,3,10,03,11,277,,06,26,276,32,,,,,,,,*79
$GPGSA,M,3,05,31,29,30,21,06,,,,,,,3.1,1.7,2.5*37
Trace #54 at position 13.250000
$GPZDA,121436.03,06,10,2011,00,00*63
$GPRMC,121436.00,A,4611.952095,N,01258.215569,E,001.0,310.0,061011,0.2,E,A*32
$GPGGA,121437.0*60
$GPVTG,5.2,T,5.3,M,000.5,N,001.0,K,A*26
$GPGSV,3,1,10,05,14,040,32,16,30,309,,31,29,222,35,18,16,149,*7E
$GPGSV,3,2,10,29,44,073,40,30,54,155,43,21,73,169,40,25,16,138,*71
$GPGSV,3,3,10,03,11,277,,06,26,276,32,,,,,,,,*79
$GPGSA,M,3,05,31,29,30,21,06,,,,,,,3.1,1.7,2.5*37
Trace #55 at position 13.500000
$GPZDA,121437.03,06,10,2011,00,00*62
$GPRMC,121437.00,A,4611.952359,N,01258.215321,E,000.5,5.2,061011,0.2,E,A*3B
$GPGGA,121438.00,4611.952697,N,01258.215252,E,1,06,1.7,132.36,M,46.25,M,,*68
$GPGLL,4611.952697,N,01258.215252,E,1243,21,73,169,41,25,16,138,*71
$GPGSV,3,3,10,03,11,277,,06,26,276,31,,,,,,,,*7A
$GPGSA,M,3,05,31,29,30,21,06,,,,,,,3.1,1.7,2.5*37
Trace #56 at position 13.750000
$GPZDA,121438.04,06,10,2011,00,00*6A
$GPRMC,121438.00,A,4611.952697,N,01258.215252,E,001.3,8.7,061011,0.2,E,A*39
$GPGGA,121439.00,4611.953022,N,01258.215172,E,1,06,1.7,132.24,M,46.25,M,,*62
$GPGLL,4611.953022,N,01258.215172,E,121439.00,A,A*64
$GPVTG,359.1,T,359.2,M,000.6,N,001.1,K,A*26
$GPGSV,3,1,10,05,14,040,31,16,30,309,,31,29,222,34,18,16,149,*7C
$GPGSV,3,2,10,29,44,07$GPGSA,M,3,05,31,29,30,21,06,,,,,,,3.1,1.7,2.5*37
Trace #57 at position 14.000000
$GPZDA,121438.04,06,10,2011,00,00*6A
$GPRMC,121438.00,A,4611.952697,N,01258.215252,E,001.3,8.7,061011,0.2,E,A*39
$GPGGA,121439.00,4611.953022,N,01258.215172,E,1,06,1.7,132.24,M,46.25,M,,*62
$GPGLL,4611.953022,N,01258.215172,E,121439.00,A,A*64
$GPVTG,359.1,T,359.2,M,000.6,N,001.1,K,A*26
$GPGSV,3,1,10,05,14,040,31,16,30,309,,31,29,222,34,18,16,149,*7C
$GPGSV,3,2,10,29,44,07$GPGSA,M,3,05,31,29,30,21,06,,,,,,,3.1,1.7,2.5*37
Trace #58 at position 14.250000
$GPZDA,121438.04,06,10,2011,00,00*6A
$GPRMC,121438.00,A,4611.952697,N,01258.215252,E,001.3,8.7,061011,0.2,E,A*39
$GPGGA,121439.00,4611.953022,N,01258.215172,E,1,06,1.7,132.24,M,46.25,M,,*62
$GPGLL,4611.953022,N,01258.215172,E,121439.00,A,A*64
$GPVTG,359.1,T,359.2,M,000.6,N,001.1,K,A*26
$GPGSV,3,1,10,05,14,040,31,16,30,309,,31,29,222,34,18,16,149,*7C
$GPGSV,3,2,10,29,44,07$GPGSA,M,3,05,31,29,30,21,06,,,,,,,3.1,1.7,2.5*37
Trace #59 at position 14.500000
$GPZDA,121439.04,06,10,2011,00,00*6B
$GPRMC,121439.00,A,4611.953022,N,01258.215172,E,000.6,359.1,061011,0.2,E,A*35
$GPGGA,121440.00,4611.953285,N,01258.215003,E,1,06,1.7,131.98,M,46.25,M,,*60
$GPGLL,4611.953285,N,01258.215003,E,121440.00,A,A*62
$GPVTG,341.6,T,341.8,M,000.8,N,001.6,K,A*22
$GPGSV,3,1,10,05,14,040,31,16,30,309,,31,29,222,35,18,16,149,*7D
$GPGSV,3,2,10,29,44,073,40,30,54,155,43,21,73,169,41,25,16,138,*70
$GPGSV,3,3,10,03,11,277,,06,26,270.03,06,10,2011,00,00*62
$GPRMC,121440.00,A,4611.953285,N,01258.215003,E,000.8,341.6,061011,0.2,E,A*33
$GPGGA,121441.00,4611.953571,N,01258.214844,E,1,06,1.7,131.94,M,46.25,M,,*6B
$GPGLL,4611.953571,N,01258.214844,E,121441.00,A,A*65
$GPVTG,358.6,T,358.7,M,000.9,N,001.6,K,A*2C
$GPGSV,3,1,10,05,14,040,30,16,30,309,,31,29,222,34,18,16,149,*7D
$GPGSV,3,2,10,29,44,073,40,30,54,155,44,21,73,169,40,25,16,138,*76
$GPGSV,3,3,10,03,11,277,,06,26,276,32,,,,,,,,*79
$GPGSA,M,3,05,31,29,30,21,06,,,,,,,3.1,1.7,2.511.953571,N,01258.214844,E,000.9,358.6,061011,0.2,E,A*3D
Trace #60 at position 14.750000
$GPGGA,121442.00,4611.953822,N,01258.214735,E,1,06,1.7,132.25,M,46.25,M,,*63
$GPGLL,4611.953822,N,01258.214735,E,121442.00,A,A*64
$GPVTG,358.1,T,358.2,M,000.6,N,001.1,K,A*26
$GPGSV,3,1,10,05,14,040,32,16,30,309,,31,29,222,37,18,16,149,*7C
$GPGSV,3,2,10,29,44,073,40,30,54,155,44,21,73,169,41,25,16,138,*77
$GPGSV,3,3,10,03,11,277,,06,26,276,33,,,,,,,,*78
$GPGSA,M,3,05,31,29,30,21,06,,,,,,,3.1,1.7,2.5*37
Trace #61 at position 15.000000
$GPZDA,121442.03,06,10,2011,00,00*60
$GPR$GPGGA,121443.00,4611.954000,N,01258.214881,E,1,05,3.3,132.32,M,46.25,M,,*6E
$GPGLL,4611.954000,N,01258.214881,E,121443.00,A,A*6A
$GPVTG,16.0,T,16.2,M,001.3,N,002.4,K,A*25
$GPGSV,3,1,10,05,14,040,34,16,30,309,,31,29,222,33,18,16,149,*7E
$GPGSV,3,2,10,29,43,073,39,30,54,155,43,21,73,169,40,25,16,138,*78
$GPGSV,3,3,10,03,11,277,,06,26,276,28,,,,,,,,*72
$GPGSA,M,3,05,31,29,30,21,,,,,,,,4.5,3.3,3.0*30
Trace #62 at position 15.250000
$GPZDA,121442.03,06,10,2011,00,00*60
$GPR$GPGGA,121443.00,4611.954000,N,01258.214881,E,1,05,3.3,132.32,M,46.25,M,,*6E
$GPGLL,4611.954000,N,01258.214881,E,121443.00,A,A*6A
$GPVTG,16.0,T,16.2,M,001.3,N,002.4,K,A*25
$GPGSV,3,1,10,05,14,040,34,16,30,309,,31,29,222,33,18,16,149,*7E
$GPGSV,3,2,10,29,43,073,39,30,54,155,43,21,73,169,40,25,16,138,*78
$GPGSV,3,3,10,03,11,277,,06,26,276,28,,,,,,,,*72
$GPGSA,M,3,05,31,29,30,21,,,,,,,,4.5,3.3,3.0*30
Trace #63 at position 15.500000
$GPZDA,121443.04,06,10,2011,00,00*66
$GPRMC,121443.00,A,4611.954000,N,01258.214881,E,001.3,16.0,061011,$GPGGA,121444.00,4611.954259,N,01258.214971,E,1,05,3.3,132.51,M,46.25,M,,*6C
$GPGLL,4611.954259,N,01258.214971,E,121444.00,A,A*6D
$GPVTG,350.8,T,350.9,M,001.2,N,002.3,K,A*20
$GPGSV,3,1,10,05,14,040,33,16,30,309,,31,29,222,33,18,16,149,*79
$GPGSV,3,2,10,29,43,073,40,30,54,155,41,21,73,169,40,25,16,138,*74
$GPGSV,3,3,10,03,11,277,,06,26,276,29,,,,,,,,*73
$GPGSA,M,3,05,31,29,30,21,,,,,,,,4.5,3.3,3.0*30
Trace #64 at position 15.750000
$GPZDA,121443.04,06,10,2011,00,00*66
$GPRMC,121443.00,A,4611.954000,N,01258.214881,E,001.3,16.0,061011,$GPGGA,121444.00,4611.954259,N,01258.214971,E,1,05,3.3,132.51,M,46.25,M,,*6C
$GPGLL,4611.954259,N,01258.214971,E,121444.00,A,A*6D
$GPVTG,350.8,T,350.9,M,001.2,N,002.3,K,A*20
$GPGSV,3,1,10,05,14,040,33,16,30,309,,31,29,222,33,18,16,149,*79
$GPGSV,3,2,10,29,43,073,40,30,54,155,41,21,73,169,40,25,16,138,*74
$GPGSV,3,3,10,03,11,277,,06,26,276,29,,,,,,,,*73
$GPGSA,M,3,05,31,29,30,21,,,,,,,,4.5,3.3,3.0*30
Trace #65 at position 16.000000
$GPZDA,121444.03,06,10,2011,00,00*66
$GPRMC,121444.00,A,4611.954259,N,01258.214971,E,001.2,350.8,0610$GPGGA,121445.00,4611.954468,N,01258.215041,E,1,05,3.3,132.72,M,46.25,M,,*63
$GPGLL,4611.954468,N,01258.215041,E,121445.00,A,A*63
$GPVTG,19.8,T,19.9,M,001.0,N,001.8,K,A*2A
$GPGSV,3,1,10,05,14,040,32,16,30,309,,31,29,222,35,18,16,149,*7E
$GPGSV,3,2,10,29,43,073,39,30,54,155,43,21,73,169,40,25,16,138,*78
$GPGSV,3,3,10,03,11,277,,06,26,276,31,,,,,,,,*7A
$GPGSA,M,3,05,31,29,30,21,,,,,,,,4.5,3.3,3.0*30
Trace #66 at position 16.250000
$GPZDA,121444.03,06,10,2011,00,00*66
$GPRMC,121444.00,A,4611.954259,N,01258.214971,E,001.2,350.8,0610$GPGGA,121445.00,4611.954468,N,01258.215041,E,1,05,3.3,132.72,M,46.25,M,,*63
$GPGLL,4611.954468,N,01258.215041,E,121445.00,A,A*63
$GPVTG,19.8,T,19.9,M,001.0,N,001.8,K,A*2A
$GPGSV,3,1,10,05,14,040,32,16,30,309,,31,29,222,35,18,16,149,*7E
$GPGSV,3,2,10,29,43,073,39,30,54,155,43,21,73,169,40,25,16,138,*78
$GPGSV,3,3,10,03,11,277,,06,26,276,31,,,,,,,,*7A
$GPGSA,M,3,05,31,29,30,21,,,,,,,,4.5,3.3,3.0*30
Trace #67 at position 16.500000
$GPZDA,121445.03,06,10,2011,00,00*67
$GPRMC,121445.00,A,4611.954468,N,01258.215041,E,001.0,19.8,061011,$GPGGA,121446.00,4611.954572,N,01258.215066,E,1,05,3.3,132.71,M,46.25,M,,*6C
$GPGLL,4611.954572,N,01258.215066,E,121446.00,A,A*6F
$GPVTG,318.5,T,318.7,M,000.5,N,000.9,K,A*2D
$GPGSV,3,1,10,05,14,040,33,16,30,309,,31,29,222,35,18,16,149,*7F
$GPGSV,3,2,10,29,43,073,40,30,54,155,43,21,73,169,39,25,16,138,*78
$GPGSV,3,3,10,03,11,277,,06,26,276,31,,,,,,,,*7A
$GPGSA,M,3,05,31,29,30,21,,,,,,,,4.5,3.3,3.0*30
Trace #68 at position 16.750000
$GPZDA,121446.03,06,10,2011,00,00*64
$GPRMC,121446.00,A,4611.954572,N,01258.215066,E,000.5,318.5,0610$GPGGA,121447.00,4611.954641,N,01258.214930,E,1,05,3.3,132.70,M,46.25,M,,*64
$GPGLL,4611.954641,N,01258.214930,E,121447.00,A,A*66
$GPVTG,317.3,T,317.5,M,000.7,N,001.4,K,A*27
$GPGSV,3,1,10,05,14,040,34,16,30,309,,31,29,222,36,18,16,149,*7B
$GPGSV,3,2,10,29,43,073,40,30,54,155,44,21,73,169,39,25,16,138,*7F
$GPGSV,3,3,10,03,11,277,,06,26,276,30,,,,,,,,*7B
$GPGSA,M,3,05,31,29,30,21,,,,,,,,4.5,3.3,3.0*30
Trace #69 at position 17.000000
$GPZDA,121446.03,06,10,2011,00,00*64
$GPRMC,121446.00,A,4611.954572,N,01258.215066,E,000.5,318.5,0610$GPGGA,121447.00,4611.954641,N,01258.214930,E,1,05,3.3,132.70,M,46.25,M,,*64
$GPGLL,4611.954641,N,01258.214930,E,121447.00,A,A*66
$GPVTG,317.3,T,317.5,M,000.7,N,001.4,K,A*27
$GPGSV,3,1,10,05,14,040,34,16,30,309,,31,29,222,36,18,16,149,*7B
$GPGSV,3,2,10,29,43,073,40,30,54,155,44,21,73,169,39,25,16,138,*7F
$GPGSV,3,3,10,03,11,277,,06,26,276,30,,,,,,,,*7B
$GPGSA,M,3,05,31,29,30,21,,,,,,,,4.5,3.3,3.0*30
Trace #70 at position 17.250000
$GPZDA,121447.03,06,10,2011,00,00*65
$GPRMC,121447.00,A,4611.954641,N,01258.214930,E,000.7,317.3,061005,3.3,132.75,M,46.25,M,,*6A
$GPGLL,4611.954713,N,01258.214787,E,121448.00,A,A*6D
$GPVTG,306.4,T,306.5,M,000.5,N,001.0,K,A*26
$GPGSV,3,1,10,05,14,040,33,16,30,309,,31,29,222,37,18,16,149,*7D
$GPGSV,3,2,10,29,43,073,38,30,54,155,43,21,73,169,41,25,16,138,*78
$GPGSV,3,3,10,03,11,277,,06,26,276,30,,,,,,,,*7B
$GPGSA,M,3,05,31,29,30,21,,,,,,,,4.5,3.3,3.0*30
Trace #71 at position 17.500000
$GPZDA,121447.03,06,10,2011,00,00*65
$GPRMC,121447.00,A,4611.954641,N,01258.214930,E,000.7,317.3,061005,3.3,132.75,M,46.25,M,,*6A
$GPGLL,4611.954713,N,01258.214787,E,121448.00,A,A*6D
$GPVTG,306.4,T,306.5,M,000.5,N,001.0,K,A*26
$GPGSV,3,1,10,05,14,040,33,16,30,309,,31,29,222,37,18,16,149,*7D
$GPGSV,3,2,10,29,43,073,38,30,54,155,43,21,73,169,41,25,16,138,*78
$GPGSV,3,3,10,03,11,277,,06,26,276,30,,,,,,,,*7B
$GPGSA,M,3,05,31,29,30,21,,,,,,,,4.5,3.3,3.0*30
Trace #72 at position 17.750000
$GPZDA,121448.03,06,10,2011,00,00*6A
$GPRMC,121448.00,A,4611.954713,N,01258.214787,E,000.5,306.4,061011,0.2,E,A*30
$GPGGA,121449.00,4611.954816,N,01,121449.00,A,A*68
$GPVTG,1.8,T,2.0,M,000.7,N,001.3,K,A*2D
$GPGSV,3,1,10,05,14,040,33,16,30,309,,31,29,222,,18,16,149,*79
$GPGSV,3,2,10,29,43,073,41,30,54,155,43,21,73,169,41,25,16,138,*76
$GPGSV,3,3,10,03,11,277,,06,26,276,29,,,,,,,,*73
$GPGSA,M,3,05,31,29,30,21,,,,,,,,4.5,3.3,3.0*30
Trace #73 at position 18.000000
$GPZDA,121449.03,06,10,2011,00,00*6B
$GPRMC,121449.00,A,4611.954816,N,01258.214745,E,000.7,1.8,061011,0.2,E,A*3F
$GPGGA,121450.00,4611.954977,N,01258.214429,E,1,04,4.0,132.50,M,46.25,M,,*6A
$GPGLL,4611.954977,N,01258.2149,*79
$GPGSV,3,2,10,29,43,073,38,30,54,155,44,21,73,169,40,25,16,138,*7E
$GPGSV,3,3,10,03,11,277,,06,26,276,29,,,,,,,,*73
$GPGSA,M,3,05,29,30,21,,,,,,,,,5.9,4.0,4.3*3F
Trace #74 at position 18.250000
$GPZDA,121449.03,06,10,2011,00,00*6B
$GPRMC,121449.00,A,4611.954816,N,01258.214745,E,000.7,1.8,061011,0.2,E,A*3F
$GPGGA,121450.00,4611.954977,N,01258.214429,E,1,04,4.0,132.50,M,46.25,M,,*6A
$GPGLL,4611.954977,N,01258.2149,*79
$GPGSV,3,2,10,29,43,073,38,30,54,155,44,21,73,169,40,25,16,138,*7E
$GPGSV,3,3,10,03,11,277,,06,26,276,29,,,,,,,,*73
$GPGSA,M,3,05,29,30,21,,,,,,,,,5.9,4.0,4.3*3F
Trace #75 at position 18.500000
$GPZDA,121450.03,06,10,2011,00,00*63
$GPRMC,121450.00,A,4611.954977,N,01258.214429,E,001.3,314.2,061011,0.2,E,A*30
$GPGGA,121451.00,4611.955166,N,01258.213993,E,1,04,4.0,131.71,M,46.25,M,,*69
$GPGLL,4611.955166,N,01258.213993,E,121451.00,A,A*6C
$GPVTG,320.1,T,320.3,M,001.1,N,002.1,K,A*22
$GPGSV,3,1,10,05,14,039,,16,30,309,,31,29,223,168,41,25,16,138,*76
$GPGSV,3,3,10,03,11,277,,06,26,276,,,,,,,,,*78
$GPGSA,M,3,05,29,30,21,,,,,,,,,5.9,4.0,4.3*3F
Trace #76 at position 18.750000
$GPZDA,121451.03,06,10,2011,00,00*62
$GPRMC,121451.00,A,4611.955166,N,01258.213993,E,001.1,320.1,061011,0.2,E,A*35
$GPGGA,121452.00,4611.955409,N,01258.213623,E,1,04,4.0,130.82,M,46.25,M,,*6F
$GPGLL,4611.955409,N,01258.213623,E,121452.00,A,A*67
$GPVTG,333.8,T,334.0,M,001.4,N,002.6,K,A*2D
$GPGSV,3,1,10,05,14,039,,16,30,309,,31,29,222,34,18,16,149,*70
$GPGSV,3,2,10,29,43,073,40,30,54,15
$GPGSA,M,3,05,29,30,21,,,,,,,,,5.9,4.0,4.3*3F
Trace #77 at position 19.000000
$GPZDA,121451.03,06,10,2011,00,00*62
$GPRMC,121451.00,A,4611.955166,N,01258.213993,E,001.1,320.1,061011,0.2,E,A*35
$GPGGA,121452.00,4611.955409,N,01258.213623,E,1,04,4.0,130.82,M,46.25,M,,*6F
$GPGLL,4611.955409,N,01258.213623,E,121452.00,A,A*67
$GPVTG,333.8,T,334.0,M,001.4,N,002.6,K,A*2D
$GPGSV,3,1,10,05,14,039,,16,30,309,,31,29,222,34,18,16,149,*70
$GPGSV,3,2,10,29,43,073,40,30,54,15
$GPGSA,M,3,05,29,30,21,,,,,,,,,5.9,4.0,4.3*3F
Trace #78 at position 19.250000
$GPZDA,121451.03,06,10,2011,00,00*62
$GPRMC,121451.00,A,4611.955166,N,01258.213993,E,001.1,320.1,061011,0.2,E,A*35
$GPGGA,121452.00,4611.955409,N,01258.213623,E,1,04,4.0,130.82,M,46.25,M,,*6F
$GPGLL,4611.955409,N,01258.213623,E,121452.00,A,A*67
$GPVTG,333.8,T,334.0,M,001.4,N,002.6,K,A*2D
$GPGSV,3,1,10,05,14,039,,16,30,309,,31,29,222,34,18,16,149,*70
$GPGSV,3,2,10,29,43,073,40,30,54,15
$GPGSA,M,3,05,29,30,21,,,,,,,,,5.9,4.0,4.3*3F
Trace #79 at position 19.500000
$GPZDA,121451.03,06,10,2011,00,00*62
$GPRMC,121451.00,A,4611.955166,N,01258.213993,E,001.1,320.1,061011,0.2,E,A*35
$GPGGA,121452.00,4611.955409,N,01258.213623,E,1,04,4.0,130.82,M,46.25,M,,*6F
$GPGLL,4611.955409,N,01258.213623,E,121452.00,A,A*67
$GPVTG,333.8,T,334.0,M,001.4,N,002.6,K,A*2D
$GPGSV,3,1,10,05,14,039,,16,30,309,,31,29,222,34,18,16,149,*70
$GPGSV,3,2,10,29,43,073,40,30,54,15
$GPGSA,M,3,05,29,30,21,,,,,,,,,5.9,4.0,4.3*3F
Trace #80 at position 19.750000
$GPZDA,121452.03,06,10,2011,00,00*61
$GPRMC,121452.00,A,4611.955409,N,01258.213623,E,001.4,333.8,061011,0.2,E,A*30
$GPGGA,121453.00,4611.955700,N,01258.213538,E,1,05,3.3,130.79,M,46.25,M,,*6C
$GPGLL,4611.955700,N,01258.213538,E,121453.00,A,A*65
$GPVTG,340.0,T,340.2,M,001.1,N,002.0,K,A*23
$GPGSV,3,1,10,05,14,039,32,16,30,309,,31,29,222,34,18,16,149,*71
$GPGSV,3,2,10,29,43,073,39,30,54,155,43,21,73,168,41,25,16,138,*78
$GPGSV,3,3,10,03,11,277,,06,26,276,3700,N,01258.213538,E,001.1,340.0,061011,0.2,E,A*3B
$GPGGA,121454.00,4611.955807,N,01258.213584,E,1,04,3.7,131.22,M,46.25,M,,*6E
$GPGLL,4611.955807,N,01258.213584,E,121454.00,A,A*6D
$GPVTG,340.7,T,340.9,M,000.6,N,001.1,K,A*2B
$GPGSV,3,1,10,05,14,039,33,16,30,309,,31,29,222,37,18,16,149,*73
$GPGSV,3,2,10,29,43,073,39,30,54,155,44,21,73,168,41,25,16,138,*7F
$GPGSV,3,3,10,03,11,277,,06,26,276,,,,,,,,,*78
$GPGSA,M,3,31,29,30,21,,,,,,,,,5.0,3.7,3.5*30
Trace #81 at position 20.000000
$GPZDA,121452.03,06,10,2011,00,00*61
$GPRMC,121452.00,A,4611.955409,N,01258.213623,E,001.4,333.8,061011,0.2,E,A*30
$GPGGA,121453.00,4611.955700,N,01258.213538,E,1,05,3.3,130.79,M,46.25,M,,*6C
$GPGLL,4611.955700,N,01258.213538,E,121453.00,A,A*65
$GPVTG,340.0,T,340.2,M,001.1,N,002.0,K,A*23
$GPGSV,3,1,10,05,14,039,32,16,30,309,,31,29,222,34,18,16,149,*71
$GPGSV,3,2,10,29,43,073,39,30,54,155,43,21,73,168,41,25,16,138,*78
$GPGSV,3,3,10,03,11,277,,06,26,276,3700,N,01258.213538,E,001.1,340.0,061011,0.2,E,A*3B
$GPGGA,121454.00,4611.955807,N,01258.213584,E,1,04,3.7,131.22,M,46.25,M,,*6E
$GPGLL,4611.955807,N,01258.213584,E,121454.00,A,A*6D
$GPVTG,340.7,T,340.9,M,000.6,N,001.1,K,A*2B
$GPGSV,3,1,10,05,14,039,33,16,30,309,,31,29,222,37,18,16,149,*73
$GPGSV,3,2,10,29,43,073,39,30,54,155,44,21,73,168,41,25,16,138,*7F
$GPGSV,3,3,10,03,11,277,,06,26,276,,,,,,,,,*78
$GPGSA,M,3,31,29,30,21,,,,,,,,,5.0,3.7,3.5*30
Trace #82 at position 20.250000
$GPZDA,121454.03,06,10,2011,00,00*67
$GPRMC,121454.00$GPGGA,121455.00,4611.955932,N,01258.213407,E,1,04,4.0,131.06,M,46.25,M,,*64
$GPGLL,4611.955932,N,01258.213407,E,121455.00,A,A*61
$GPVTG,329.9,T,330.1,M,000.7,N,001.4,K,A*21
$GPGSV,3,1,10,05,14,039,32,16,30,309,,31,29,222,33,18,16,149,*76
$GPGSV,3,2,10,29,43,073,40,30,54,155,44,21,73,168,41,25,16,138,*71
$GPGSV,3,3,10,03,11,277,,06,26,276,,,,,,,,,*78
$GPGSA,M,3,05,29,30,21,,,,,,,,,5.9,4.0,4.3*3F
Trace #83 at position 20.500000
$GPZDA,121454.03,06,10,2011,00,00*67
$GPRMC,121454.00$GPGGA,121455.00,4611.955932,N,01258.213407,E,1,04,4.0,131.06,M,46.25,M,,*64
$GPGLL,4611.955932,N,01258.213407,E,121455.00,A,A*61
$GPVTG,329.9,T,330.1,M,000.7,N,001.4,K,A*21
$GPGSV,3,1,10,05,14,039,32,16,30,309,,31,29,222,33,18,16,149,*76
$GPGSV,3,2,10,29,43,073,40,30,54,155,44,21,73,168,41,25,16,138,*71
$GPGSV,3,3,10,03,11,277,,06,26,276,,,,,,,,,*78
$GPGSA,M,3,05,29,30,21,,,,,,,,,5.9,4.0,4.3*3F
Trace #84 at position 20.750000
$GPZDA,121455.03,06,10,2011,00,00*66
$GPRMC,121455.00,A,4611.955932,N,01258.213407,E,000.7,329.9,061011,0$GPGGA,121456.00,4611.956122,N,01258.213323,E,1,05,3.3,131.07,M,46.25,M,,*68
$GPGLL,4611.956122,N,01258.213323,E,121456.00,A,A*69
$GPVTG,317.1,T,317.2,M,001.0,N,001.8,K,A*28
$GPGSV,3,1,10,05,14,039,32,16,30,309,,31,29,222,33,18,16,149,*76
$GPGSV,3,2,10,29,43,073,40,30,54,155,44,21,73,168,41,25,16,138,*71
$GPGSV,3,3,10,03,11,277,,06,26,276,29,,,,,,,,*73
$GPGSA,M,3,05,31,29,30,21,,,,,,,,4.4,3.3,3.0*31
Trace #85 at position 21.000000
$GPZDA,121456.03,06,10,2011,00,00*65
$GPRMC,121456.00,A,4611.956122,N,01258.213323,E,001.0,317.1,0610$GPGGA,121457.00,4611.956378,N,01258.213360,E,1,05,3.3,131.11,M,46.25,M,,*64
$GPGLL,4611.956378,N,01258.213360,E,121457.00,A,A*62
$GPVTG,14.9,T,15.1,M,001.2,N,002.2,K,A*29
$GPGSV,3,1,10,05,14,039,31,16,30,309,,31,29,222,33,18,16,149,*75
$GPGSV,3,2,10,29,43,073,39,30,54,155,43,21,73,168,40,25,16,138,*79
$GPGSV,3,3,10,03,11,277,,06,26,276,28,,,,,,,,*72
$GPGSA,M,3,05,31,29,30,21,,,,,,,,4.4,3.3,3.0*31
Trace #86 at position 21.250000
$GPZDA,121456.03,06,10,2011,00,00*65
$GPRMC,121456.00,A,4611.956122,N,01258.213323,E,001.0,317.1,0610$GPGGA,121457.00,4611.956378,N,01258.213360,E,1,05,3.3,131.11,M,46.25,M,,*64
$GPGLL,4611.956378,N,01258.213360,E,121457.00,A,A*62
$GPVTG,14.9,T,15.1,M,001.2,N,002.2,K,A*29
$GPGSV,3,1,10,05,14,039,31,16,30,309,,31,29,222,33,18,16,149,*75
$GPGSV,3,2,10,29,43,073,39,30,54,155,43,21,73,168,40,25,16,138,*79
$GPGSV,3,3,10,03,11,277,,06,26,276,28,,,,,,,,*72
$GPGSA,M,3,05,31,29,30,21,,,,,,,,4.4,3.3,3.0*31
Trace #87 at position 21.500000
$GPZDA,121457.03,06,10,2011,00,00*64
$GPRMC,121457.00,A,4611.956378,N,01258.213360,E,001.2,14.9,061011,$GPGGA,121458.00,4611.956661,N,01258.213419,E,1,05,3.3,131.22,M,46.25,M,,*6F
$GPGLL,4611.956661,N,01258.213419,E,121458.00,A,A*69
$GPVTG,333.9,T,334.1,M,001.1,N,002.1,K,A*2F
$GPGSV,3,1,10,05,14,039,,16,30,309,,31,29,222,35,18,16,149,*71
$GPGSV,3,2,10,29,43,073,39,30,54,155,44,21,73,168,40,25,16,138,*7E
$GPGSV,3,3,10,03,11,277,,06,26,276,31,,,,,,,,*7A
$GPGSA,M,3,05,31,29,30,21,,,,,,,,4.4,3.3,3.0*31
Trace #88 at position 21.750000
$GPZDA,121457.03,06,10,2011,00,00*64
$GPRMC,121457.00,A,4611.956378,N,01258.213360,E,001.2,14.9,061011,$GPGGA,121458.00,4611.956661,N,01258.213419,E,1,05,3.3,131.22,M,46.25,M,,*6F
$GPGLL,4611.956661,N,01258.213419,E,121458.00,A,A*69
$GPVTG,333.9,T,334.1,M,001.1,N,002.1,K,A*2F
$GPGSV,3,1,10,05,14,039,,16,30,309,,31,29,222,35,18,16,149,*71
$GPGSV,3,2,10,29,43,073,39,30,54,155,44,21,73,168,40,25,16,138,*7E
$GPGSV,3,3,10,03,11,277,,06,26,276,31,,,,,,,,*7A
$GPGSA,M,3,05,31,29,30,21,,,,,,,,4.4,3.3,3.0*31
Trace #89 at position 22.000000
$GPZDA,121458.03,06,10,2011,00,00*6B
$GPRMC,121458.00,A,4611.956661,N,01258.213419,E,001.1,333.9,061011$GPGGA,121459.00,4611.956777,N,01258.213467,E,1,04,3.7,131.88,M,46.25,M,,*64
$GPGLL,4611.956777,N,01258.213467,E,121459.00,A,A*67
$GPVTG,15.7,T,15.9,M,000.5,N,001.0,K,A*29
$GPGSV,3,1,10,05,14,039,32,16,30,309,,31,29,222,30,18,16,149,*75
$GPGSV,3,2,10,29,43,073,39,30,54,155,42,21,73,168,40,25,16,138,*78
$GPGSV,3,3,10,03,11,277,,06,26,276,31,,,,,,,,*7A
$GPGSA,M,3,31,29,30,21,,,,,,,,,5.0,3.7,3.4*31
Trace #90 at position 22.250000
$GPZDA,121459.03,06,10,2011,00,00*6A
$GPRMC,121459.00,A,4611.956777,N,01258.213467,E,000.5,15.7,061011,0.$GPGGA,,,,,,0,03,,,M,,M,,*65
$GPGLL,,,,,,V,N*64
$GPVTG,,T,,,,N,,K,N*61
$GPGSV,3,1,10,05,14,039,30,16,30,309,,31,29,222,,18,16,149,*74
$GPGSV,3,2,10,29,43,073,39,30,54,155,42,21,73,168,40,25,16,138,*78
$GPGSV,3,3,10,03,11,277,,06,26,276,29,,,,,,,,*73
$GPGSA,M,1,,,,,,,,,,,,,5.0,3.7,3.4*3A
Trace #91 at position 22.500000
$GPZDA,121459.03,06,10,2011,00,00*6A
$GPRMC,121459.00,A,4611.956777,N,01258.213467,E,000.5,15.7,061011,0.$GPGGA,,,,,,0,03,,,M,,M,,*65
$GPGLL,,,,,,V,N*64
$GPVTG,,T,,,,N,,K,N*61
$GPGSV,3,1,10,05,14,039,30,16,30,309,,31,29,222,,18,16,149,*74
$GPGSV,3,2,10,29,43,073,39,30,54,155,42,21,73,168,40,25,16,138,*78
$GPGSV,3,3,10,03,11,277,,06,26,276,29,,,,,,,,*73
$GPGSA,M,1,,,,,,,,,,,,,5.0,3.7,3.4*3A
Trace #92 at position 22.750000
$GPZDA,121500.02,06,10,2011,00,00*66
$GPRMC,121459.00,V,,,,,,,,,,N*77
$GPGGA,121501.00,4611.957106,N,01258.213497,E,1,04,3.7,133.04,M,46.25,M,,*60
$GPGLL,4611.957106,N,01258.213497,E,121501.00,A,A*65
$GPVTG,340.7,T,340.9,M,001.0,N,001.9,K,A*24
$GPGSV,3,1,10,05,14,039,31,16,30,309,,31,29,222,31,18,16,149,*77
$GPGSV,3,2,10,29,43,073,40,30,54,155,43,21,73,168,41,25,16,138,*76
$GPGSV,3,3,10,03,11,277,,06,26,276,29,,,,,,,,*73
$GPGSA,M,3,31,29,30,21,,,,,,,,,5.0,3.7,3.4*31
Trace #93 at position 23.000000
$GPZDA,121500.02,06,10,2011,00,00*66
$GPRMC,121459.00,V,,,,,,,,,,N*77
$GPGGA,121501.00,4611.957106,N,01258.213497,E,1,04,3.7,133.04,M,46.25,M,,*60
$GPGLL,4611.957106,N,01258.213497,E,121501.00,A,A*65
$GPVTG,340.7,T,340.9,M,001.0,N,001.9,K,A*24
$GPGSV,3,1,10,05,14,039,31,16,30,309,,31,29,222,31,18,16,149,*77
$GPGSV,3,2,10,29,43,073,40,30,54,155,43,21,73,168,41,25,16,138,*76
$GPGSV,3,3,10,03,11,277,,06,26,276,29,,,,,,,,*73
$GPGSA,M,3,31,29,30,21,,,,,,,,,5.0,3.7,3.4*31
Trace #94 at position 23.250000
$GPZDA,121501.03,06,10,2011,00,00*66
$GPRMC,121501.00,A,4611.957106,N,01258.213497,E,001.0,340.7,061011,0.2,E,A*3D
$GPGGA,121502.00,4611.957372,N,01258.213419,E,1,05,3.2,133.22,M,46.25,M,,*64
$GPGLL,4611.957372,N,01258.213419,E,121502.00,A,A*61
$GPVTG,342.2,T,342.4,M,001.0,N,001.9,K,A*2C
$GPGSV,3,1,10,05,14,039,33,16,30,309,,31,29,222,33,18,16,149,*77
$GPGSV,3,2,10,29,43,073,40,30,54,155,43,21,73,168,40,25,16,138,*77
$GPGSV,3,3,10,03,11,277,,06,26,276,31,,,,,,,,*7A
$GPGSA,M,3,05,31,29,30,21,,,,,,,,4.4,3.2,3.0*30
Trace #95 at position 23.500000
$GPZDA,121501.03,06,10,2011,00,00*66
$GPRMC,121501.00,A,4611.957106,N,01258.213497,E,001.0,340.7,061011,0.2,E,A*3D
$GPGGA,121502.00,4611.957372,N,01258.213419,E,1,05,3.2,133.22,M,46.25,M,,*64
$GPGLL,4611.957372,N,01258.213419,E,121502.00,A,A*61
$GPVTG,342.2,T,342.4,M,001.0,N,001.9,K,A*2C
$GPGSV,3,1,10,05,14,039,33,16,30,309,,31,29,222,33,18,16,149,*77
$GPGSV,3,2,10,29,43,073,40,30,54,155,43,21,73,168,40,25,16,138,*77
$GPGSV,3,3,10,03,11,277,,06,26,276,31,,,,,,,,*7A
$GPGSA,M,3,05,31,29,30,21,,,,,,,,4.4,3.2,3.0*30
Trace #96 at position 23.750000
$GPZDA,121503.03,06,10,2011,00,00*64
$GPRMC,121503.00,A,4611.957611,N,01258.213276,E,001.1,319.1,061011,0.2,E,A*3C
$GPGGA,121504.00,4611.957853,N,01258.213165,E,1,05,3.2,133.35,M,46.25,M,,*62
$GPGLL,4611.957853,N,01258.213165,E,121504.00,A,A*61
$G
Trace #97 at position 24.000000
$GPGSV,3,3,10,03,11,277,,06,26,276,31,,,,,,,,*7A
$GPGSA,M,3,05,31,29,30,21,,,,,,,,4.4,3.2,3.0*30
Trace #98 at position 24.250000
$GPGSV,3,3,10,03,11,277,,06,26,276,31,,,,,,,,*7A
$GPGSA,M,3,05,31,29,30,21,,,,,,,,4.4,3.2,3.0*30
Trace #99 at position 24.500000
$GPGSV,3,3,10,03,11,277,,06,26,276,31,,,,,,,,*7A
$GPGSA,M,3,05,31,29,30,21,,,,,,,,4.4,3.2,3.0*30
Trace #100 at position 24.750000
$GPGSV,3,3,10,03,11,277,,06,26,276,31,,,,,,,,*7A
$GPGSA,M,3,05,31,29,30,21,,,,,,,,4.4,3.2,3.0*30
Trace #101 at position 25.000000
$GPGSV,3,3,10,03,11,277,,06,26,276,31,,,,,,,,*7A
$GPGSA,M,3,05,31,29,30,21,,,,,,,,4.4,3.2,3.0*30
Trace #102 at position 25.250000
$GPZDA,121511.03,06,10,2011,00,00*67
$GPRMC,121511.00,A,4611.959420,N,01258.212521,E,001.0,1.9,061011,0.2,E$GPGGA,121512.00,4611.959607,N,01258.212344,E,1,04,4.0,132.96,M,46.25,M,,*68
$GPGLL,4611.959607,N,01258.212344,E,121512.00,A,A*67
$GPVTG,335.3,T,335.4,M,000.7,N,001.2,K,A*20
$GPGSV,3,1,10,05,14,039,35,16,30,309,,31,29,222,31,18,16,149,*73
$GPGSV,3,2,10,29,43,073,40,30,53,155,43,21,73,168,40,25,16,138,*70
$GPGSV,3,3,10,03,11,277,,06,26,276,,,,,,,,,*78
$GPGSA,M,3,05,29,30,21,,,,,,,,,5.8,4.0,4.3*3E
Trace #103 at position 25.500000
$GPZDA,121511.03,06,10,2011,00,00*67
$GPRMC,121511.00,A,4611.959420,N,01258.212521,E,001.0,1.9,061011,0.2,E$GPGGA,121512.00,4611.959607,N,01258.212344,E,1,04,4.0,132.96,M,46.25,M,,*68
$GPGLL,4611.959607,N,01258.212344,E,121512.00,A,A*67
$GPVTG,335.3,T,335.4,M,000.7,N,001.2,K,A*20
$GPGSV,3,1,10,05,14,039,35,16,30,309,,31,29,222,31,18,16,149,*73
$GPGSV,3,2,10,29,43,073,40,30,53,155,43,21,73,168,40,25,16,138,*70
$GPGSV,3,3,10,03,11,277,,06,26,276,,,,,,,,,*78
$GPGSA,M,3,05,29,30,21,,,,,,,,,5.8,4.0,4.3*3E
Trace #104 at position 25.750000
$GPZDA,121512.03,06,10,2011,00,00*64
$GPRMC,121512.00,A,4611.959607,N,01258.212344,E,000.7,335.3,061011,0$GPGGA,121513.00,4611.959752,N,01258.212269,E,1,05,3.2,132.89,M,46.25,M,,*6C
$GPGLL,4611.959752,N,01258.212269,E,121513.00,A,A*69
$GPVTG,329.5,T,329.7,M,000.6,N,001.1,K,A*27
$GPGSV,3,1,10,05,14,039,32,16,30,309,,31,29,222,30,18,16,149,*75
$GPGSV,3,2,10,29,43,073,39,30,53,155,42,21,73,168,40,25,16,138,*7F
$GPGSV,3,3,10,03,11,277,,06,26,276,,,,,,,,,*78
$GPGSA,M,3,05,31,29,30,21,,,,,,,,4.4,3.2,3.0*30
Trace #105 at position 26.000000
$GPZDA,121513.04,06,10,2011,00,00*62
$GPRMC,121513.00,A,4611.959752,N,01258.212269,E,000.6,329.5,061011$GPGGA,121514.00,4611.959831,N,01258.212321,E,1,05,3.2,132.98,M,46.25,M,,*6C
$GPGLL,4611.959831,N,01258.212321,E,121514.00,A,A*69
$GPVTG,68.0,T,68.1,M,000.5,N,000.9,K,A*2E
$GPGSV,3,1,10,05,14,039,35,16,30,309,,31,29,222,35,18,16,149,*77
$GPGSV,3,2,10,29,43,073,40,30,53,155,44,21,73,168,39,25,16,138,*79
$GPGSV,3,3,10,03,11,277,,06,26,276,,,,,,,,,*78
$GPGSA,M,3,05,31,29,30,21,,,,,,,,4.4,3.2,3.0*30
Trace #106 at position 26.250000
$GPZDA,121513.04,06,10,2011,00,00*62
$GPRMC,121513.00,A,4611.959752,N,01258.212269,E,000.6,329.5,061011$GPGGA,121514.00,4611.959831,N,01258.212321,E,1,05,3.2,132.98,M,46.25,M,,*6C
$GPGLL,4611.959831,N,01258.212321,E,121514.00,A,A*69
$GPVTG,68.0,T,68.1,M,000.5,N,000.9,K,A*2E
$GPGSV,3,1,10,05,14,039,35,16,30,309,,31,29,222,35,18,16,149,*77
$GPGSV,3,2,10,29,43,073,40,30,53,155,44,21,73,168,39,25,16,138,*79
$GPGSV,3,3,10,03,11,277,,06,26,276,,,,,,,,,*78
$GPGSA,M,3,05,31,29,30,21,,,,,,,,4.4,3.2,3.0*30
Trace #107 at position 26.500000
$GPZDA,121514.03,06,10,2011,00,00*62
$GPRMC,121514.00,A,4611.959831,N,01258.212321,E,000.5,68.0,061011,0.46.25,M,,*62
$GPGLL,4611.959822,N,01258.212455,E,121515.00,A,A*6E
$GPVTG,118.6,T,118.7,M,000.2,N,000.5,K,A*25
$GPGSV,3,1,10,05,14,039,34,16,30,309,,31,29,222,33,18,16,149,*70
$GPGSV,3,2,10,29,43,073,38,30,53,155,43,21,73,168,39,25,16,138,*71
$GPGSV,3,3,10,03,11,277,,06,26,276,,,,,,,,,*78
$GPGSA,M,3,05,31,29,30,21,,,,,,,,4.4,3.2,3.0*30
Trace #108 at position 26.750000
$GPZDA,121515.03,06,10,2011,00,00*63
$GPRMC,121515.00,A,4611.959822,N,01258.212455,E,000.2,118.6,061011,0.2,E,A*3B
$GPGGA,121516.00,4611.959801,N,01258.212467,E,1,05,71
$GPGSV,3,3,10,03,11,277,,06,26,276,,,,,,,,,*78
$GPGSA,M,3,05,31,29,30,21,,,,,,,,4.4,3.2,3.0*30
Trace #109 at position 27.000000
$GPZDA,121515.03,06,10,2011,00,00*63
$GPRMC,121515.00,A,4611.959822,N,01258.212455,E,000.2,118.6,061011,0.2,E,A*3B
$GPGGA,121516.00,4611.959801,N,01258.212467,E,1,05,71
$GPGSV,3,3,10,03,11,277,,06,26,276,,,,,,,,,*78
$GPGSA,M,3,05,31,29,30,21,,,,,,,,4.4,3.2,3.0*30
Trace #110 at position 27.250000
$GPZDA,121515.03,06,10,2011,00,00*63
$GPRMC,121515.00,A,4611.959822,N,01258.212455,E,000.2,118.6,061011,0.2,E,A*3B
$GPGGA,121516.00,4611.959801,N,01258.212467,E,1,05,71
$GPGSV,3,3,10,03,11,277,,06,26,276,,,,,,,,,*78
$GPGSA,M,3,05,31,29,30,21,,,,,,,,4.4,3.2,3.0*30
Trace #111 at position 27.500000
$GPZDA,121516.03,06,10,2011,00,00*60
$GPRMC,121516.00,A,4611.959801,N,01258.212467,E,000.2,305.7,061011,0.2,E,A*37
$GPGGA,121517.00,4611.959787,N,01258.212337,E,1,05,3.2,132.90,M,46.25,M,,*62
$GPGLL,4611.959787,N,01258.212337,E,121517.00,A,A*6F
$GPVTG,263.3,T,263.5,M,000.5,N,001.0,K,A*21
$GPGSV,3,1,10,05,14,039,34,16,30,309,,31,29,222,31,18,16,149,*72
$GPGSV,3,2,10,29,43,073,41,30,53,155,41,21,73,168,4,,4.4,3.2,3.0*30
$GPZDA,121517.03,06,10,2011,00,00*61
$GPRMC,121517.00,A,4611.959787,N,01258.212337,E,000.5,263.3,061011,0.2,E,A*37
$GPGGA,121518.00,4611.959742,N,01258.212227,E,1,05,3.2,132.50,M,46.25,M,,*68
$GPGLL,4611.959742,N,01258.212227,E,121518.00,A,A*69
$GPVTG,211.1,T,211.2,M,000.2,N,000.4,K,A*26
$GPGSV,3,1,10,05,14,039,36,16,30,309,,31,29,222,31,18,16,149,*70
$GPGSV,3,2,10,29,43,073,39,30,53,155,42,21,73,168,39,25,16,138,*71
$GPGSV,3,3,10,03,11,277,,06,26,276,,,,,,,,,*78
$GPGSA,M,3,05,31,2742,N,01258.212227,E,000.2,211.1,061011,0.2,E,A*31
Trace #112 at position 27.750000
$GPZDA,121516.03,06,10,2011,00,00*60
$GPRMC,121516.00,A,4611.959801,N,01258.212467,E,000.2,305.7,061011,0.2,E,A*37
$GPGGA,121517.00,4611.959787,N,01258.212337,E,1,05,3.2,132.90,M,46.25,M,,*62
$GPGLL,4611.959787,N,01258.212337,E,121517.00,A,A*6F
$GPVTG,263.3,T,263.5,M,000.5,N,001.0,K,A*21
$GPGSV,3,1,10,05,14,039,34,16,30,309,,31,29,222,31,18,16,149,*72
$GPGSV,3,2,10,29,43,073,41,30,53,155,41,21,73,168,4,,4.4,3.2,3.0*30
$GPZDA,121517.03,06,10,2011,00,00*61
$GPRMC,121517.00,A,4611.959787,N,01258.212337,E,000.5,263.3,061011,0.2,E,A*37
$GPGGA,121518.00,4611.959742,N,01258.212227,E,1,05,3.2,132.50,M,46.25,M,,*68
$GPGLL,4611.959742,N,01258.212227,E,121518.00,A,A*69
$GPVTG,211.1,T,211.2,M,000.2,N,000.4,K,A*26
$GPGSV,3,1,10,05,14,039,36,16,30,309,,31,29,222,31,18,16,149,*70
$GPGSV,3,2,10,29,43,073,39,30,53,155,42,21,73,168,39,25,16,138,*71
$GPGSV,3,3,10,03,11,277,,06,26,276,,,,,,,,,*78
$GPGSA,M,3,05,31,2742,N,01258.212227,E,000.2,211.1,061011,0.2,E,A*31
Trace #113 at position 28.000000
$GPGGA,121519.00,4611.959800,N,01258.212220,E,1,05,3.2,132.29,M,46.25,M,,*69
$GPGLL,4611.959800,N,01258.212220,E,121519.00,A,A*66
$GPVTG,0.6,T,0.7,M,000.6,N,001.1,K,A*24
$GPGSV,3,1,10,05,14,039,36,16,30,309,,31,29,222,34,18,16,149,*75
$GPGSV,3,2,10,29,43,073,41,30,53,155,44,21,73,168,40,25,16,138,*76
$GPGSV,3,3,10,03,11,277,,06,26,276,,,,,,,,,*78
$GPGSA,M,3,05,31,29,30,21,,,,,,,,4.4,3.2,3.0*30
Trace #114 at position 28.250000
$GPZDA,121519.03,06,10,2011,00,00*6F
$GPRMC,121519.00,A$GPGGA,121520.00,4611.959872,N,01258.212231,E,1,05,3.2,132.45,M,46.25,M,,*6C
$GPGLL,4611.959872,N,01258.212231,E,121520.00,A,A*69
$GPVTG,183.4,T,183.6,M,000.2,N,000.3,K,A*20
$GPGSV,3,1,10,05,14,039,36,16,30,309,,31,29,222,33,18,16,149,*72
$GPGSV,3,2,10,29,43,073,40,30,53,155,44,21,73,168,40,25,16,138,*77
$GPGSV,3,3,10,03,11,277,,06,26,276,,,,,,,,,*78
$GPGSA,M,3,05,31,29,30,21,,,,,,,,4.4,3.2,3.0*30
Trace #115 at position 28.500000
$GPZDA,121519.03,06,10,2011,00,00*6F
$GPRMC,121519.00,A$GPGGA,121520.00,4611.959872,N,01258.212231,E,1,05,3.2,132.45,M,46.25,M,,*6C
$GPGLL,4611.959872,N,01258.212231,E,121520.00,A,A*69
$GPVTG,183.4,T,183.6,M,000.2,N,000.3,K,A*20
$GPGSV,3,1,10,05,14,039,36,16,30,309,,31,29,222,33,18,16,149,*72
$GPGSV,3,2,10,29,43,073,40,30,53,155,44,21,73,168,40,25,16,138,*77
$GPGSV,3,3,10,03,11,277,,06,26,276,,,,,,,,,*78
$GPGSA,M,3,05,31,29,30,21,,,,,,,,4.4,3.2,3.0*30
Trace #116 at position 28.750000
$GPZDA,121520.03,06,10,2011,00,00*65
$GPRMC,121520.00,A,4611.959872,N,01258.212231,E,000.2,183.4,061011$GPGGA,121521.00,4611.959994,N,01258.212055,E,1,05,3.2,132.40,M,46.25,M,,*61
$GPGLL,4611.959994,N,01258.212055,E,121521.00,A,A*61
$GPVTG,315.5,T,315.7,M,001.2,N,002.2,K,A*22
$GPGSV,3,1,10,05,14,039,35,16,30,309,,31,29,222,,18,16,149,*71
$GPGSV,3,2,10,29,43,073,41,30,53,155,44,21,73,168,41,25,16,138,*77
$GPGSV,3,3,10,03,11,277,,06,26,276,,,,,,,,,*78
