Trace #1 at position 0.000000
$GPZDA,082637.03,08,10,2011,00,00*66
$GPRMC,082637.00,A,4611.974755,N,01258.200867,E,000.0,318.4,081011,0.2,E,A*32
$GPGGA,082638.00,4611.974721,N,01258.200614,E,1,04,7.1,149.12,M,46.25,M,,*60
$GPGLL,4611.974721,N,01258.200614,E,082638.00,A,A*6D
$GPVTG,276.8,T,276.9,M,000.3,N,000.5,K,A*24
$GPGSV,2,1,08,04,20,049,38,02,36,096,,09,33,146,,12,68,054,38*77
$GPGSV,2,2,08,14,35,269,43,25,66,301,47,29,37,215,44,30,22,282,43*7B
$GPGSA,M,3,14,25,29,30,,,,,,,,,10.5,7.1,7.8*09
Trace #2 at position 0.250000
$GPZDA,082642.03,08,10,2011,00,00*64
$GPRMC,082642.00,A,4611.975022,N,01258.201958,E,000.0,339.0,081011,0.2,E,A*3D
$GPGGA,082643.00,4611.975067,N,01258.202201,E,1,05,2.5,146.86,M,46.25,M,,*68
$GPGLL,4611.975067,N,01258.202201,E,082643.00,A,A*67
$GPVTG,26.5,T,26.6,M,000.0,N,000.0,K,A*20
$GPGSV,2,1,08,04,20,049,38,02,36,096,,09,33,146,,12,68,054,40*78
$GPGSV,2,2,08,14,35,269,44,25,66,301,47,29,37,215,45,30,22,282,43*7D
$GPGSA,M,3,12,14,25,29,30,,,,,,,,4.9,2.5,4.2*3B
Trace #3 at position 0.500000
$GPZDA,082643.03,08,10,2011,00,00*65
$GPRMC,082643.00,A,4611.975067,N,01258.202201,E,000.0,26.5,081011,0.2,E,A*01
$GPGGA,082644.00,4611.975112,N,01258.202424,E,1,05,2.5,146.55,M,46.25,M,,*63
$GPGLL,4611.975112,N,01258.202424,E,082644.00,A,A*62
$GPVTG,50.2,T,50.4,M,000.1,N,000.1,K,A*25
$GPGSV,2,1,08,04,20,049,39,02,36,096,,09,33,146,,12,68,054,40*79
$*7C
$GPGSA,M,3,12,14,25,29,30,,,,,,,,4.9,2.5,4.2*3B
Trace #4 at position 0.750000
$GPZDA,082643.03,08,10,2011,00,00*65
$GPRMC,082643.00,A,4611.975067,N,01258.202201,E,000.0,26.5,081011,0.2,E,A*01
$GPGGA,082644.00,4611.975112,N,01258.202424,E,1,05,2.5,146.55,M,46.25,M,,*63
$GPGLL,4611.975112,N,01258.202424,E,082644.00,A,A*62
$GPVTG,50.2,T,50.4,M,000.1,N,000.1,K,A*25
$GPGSV,2,1,08,04,20,049,39,02,36,096,,09,33,146,,12,68,054,40*79
$*7C
$GPGSA,M,3,12,14,25,29,30,,,,,,,,4.9,2.5,4.2*3B
Trace #5 at position 1.000000
$GPZDA,082644.03,08,10,2011,00,00*62
$GPRMC,082644.00,A,4611.975112,N,01258.202424,E,000.1,50.2,081011,0.2,E,A*03
$GPGGA,082645.00,4611.975148,N,01258.202640,E,1,05,2.5,146.22,M,46.25,M,,*6D
$GPGLL,4611.975148,N,01258.202640,E,082645.00,A,A*6C
$GPVTG,91.5,T,91.7,M,000.1,N,000.2,K,A*22
$GPGSV,2,1,08,04,20,049,39,02,36,096,,09,33,146,,12,68,054,40*79
$GPGSV,2,2,08,14,35,269,44,25,66,301,47,29,37,215,43,30,22,282,43*7B
$GPGSA,M,3,12,14,25,29,30,,,,,,03,08,10,2011,00,00*63
Trace #6 at position 1.250000
$GPRMC,082645.00,A,4611.975148,N,01258.202640,E,000.1,91.5,081011,0.2,E,A*07
$GPGGA,082646.00,4611.975180,N,01258.202810,E,1,05,2.5,145.99,M,46.25,M,,*62
$GPGLL,4611.975180,N,01258.202810,E,082646.00,A,A*60
$GPVTG,306.9,T,307.1,M,000.1,N,000.1,K,A*2A
$GPGSV,2,1,08,04,20,049,38,02,36,096,,09,33,146,,12,68,054,40*78
$GPGSV,2,2,08,14,35,269,43,25,66,301,47,29,37,215,44,30,22,282,43*7B
$GPGSA,M,3,12,14,25,29,30,,,,,,,,4.9,2.5,4.2*3B
Trace #7 at position 1.500000
$GPZDA,082646.03,08,10,2011,00,00*60
$GPRMC,0825180,N,01258.202810,E,000.1,306.9,081011,0.2,E,A*3A
$GPGGA,082647.00,4611.975216,N,01258.202956,E,1,05,2.5,145.81,M,46.25,M,,*65
$GPGLL,4611.975216,N,01258.202956,E,082647.00,A,A*6E
$GPVTG,61.0,T,61.1,M,000.1,N,000.3,K,A*20
$GPGSV,2,1,08,04,20,049,37,02,36,096,33,09,33,146,,12,68,054,40*77
$GPGSV,2,2,08,14,35,269,42,25,66,301,47,29,37,215,44,30,22,282,43*7A
$GPGSA,M,3,12,14,25,29,30,,,,,,,,4.9,2.5,4.2*3B
Trace #8 at position 1.750000
$GPZDA,082647.03,08,10,2011,00,00*61
$GPRMC,082647.00,A,4611.975216,N,01258.202956,E,000.1,61.0,$GPGGA,082648.00,4611.975238,N,01258.203080,E,1,05,2.5,145.64,M,46.25,M,,*6E
$GPGLL,4611.975238,N,01258.203080,E,082648.00,A,A*6E
$GPVTG,249.9,T,250.1,M,000.1,N,000.2,K,A*20
$GPGSV,2,1,08,04,20,049,39,02,36,096,32,09,33,146,,12,68,054,40*78
$GPGSV,2,2,08,14,35,269,43,25,66,301,47,29,37,215,44,30,22,282,42*7A
$GPGSA,M,3,12,14,25,29,30,,,,,,,,4.9,2.5,4.2*3B
Trace #9 at position 2.000000
$GPZDA,082648.04,08,10,2011,00,00*69
$GPRMC,082648.00,A,4611.975238,N,01258.203080,E,000.1,249.9,081011,0.2,E,A*3E
$GPGGA,082649.00,4611.975119,N,01258.203137,E,1,05,2.5,145.49,M,46.25,M,,*6D
$GPGLL,4611.975119,N,01258.203137,E,082649.00,A,A*62
$GPVTG,190.7,T,190.9,M,001.0,N,001.8,K,A*25
$GPGSV,2,1,08,04,20,049,27,02,36,096,36,09,33,146,,12,68,054,39*7D
$GPGSV,2,2,08,14,35,269,42,25,66,301,47,29,37,215,43,30,22,282,41*7F
$GPGSA,M,3,12,14,25,29,30,,,,,,,,4.9,2.5,4.2*3B
Trace #10 at position 2.250000
$GPZDA,082649.03,08,10,2011,00,00*6F
$GPRMC,082649.00,A,4611.975119,N,01258.203137,E,001.0,190.7,081011,0.2,E,A*3B
$GPGGA,082650.00,4611.974938,N,01258.203274,E,1,05,2.5,145.34,M,46.25,M,,*61
$GPGLL,4611.974938,N,01258.203274,E,082650.00,A,A*64
$GPVTG,146.8,T,147.0,M,000.6,N,001.2,K,A*2F
$GPGSV,2,1,08,04,20,049,31,02,36,096,33,09,33,146,31,12,68,054,38*7C
$GPGSV,2,2,08,14,35,269,43,25,66,301,48,29,37,215,43,30,22,282,42*72
$GPGSA,M,3,12,14,25,29,30,,,,,,,,4.9,2.5,4.2*3B
Trace #11 at position 2.500000
$GPZDA,082649.03,08,10,2011,00,00*6F
$GPRMC,082649.00,A,4611.975119,N,01258.203137,E,001.0,190.7,081011,0.2,E,A*3B
$GPGGA,082650.00,4611.974938,N,01258.203274,E,1,05,2.5,145.34,M,46.25,M,,*61
$GPGLL,4611.974938,N,01258.203274,E,082650.00,A,A*64
$GPVTG,146.8,T,147.0,M,000.6,N,001.2,K,A*2F
$GPGSV,2,1,08,04,20,049,31,02,36,096,33,09,33,146,31,12,68,054,38*7C
$GPGSV,2,2,08,14,35,269,43,25,66,301,48,29,37,215,43,30,22,282,42*72
$GPGSA,M,3,12,14,25,29,30,,,,,,,,4.9,2.5,4.2*3B
Trace #12 at position 2.750000
$GPZDA,082650.03,08,10,2011,00,00*67
$GPRMC,082650.00,A,4611.974938,N,01258.203274,E,000.6,146.8,081011,0.2,E,A*3E
$GPGGA,082651.00,4611.974796,N,01258.203487,E,1,05,2.5,145.28,M,46.25,M,,*6D
$GPGLL,4611.974796,N,01258.203487,E,082651.00,A,A*65
$GPVTG,153.9,T,154.1,M,000.7,N,001.2,K,A*28
$GPGSV,2,1,08,04,20,049,34,02,36,096,35,09,33,146,33,12,68,054,38*7D
$GPGSV,2,2,08,14,35,269,43,25,66,301,48,29,37,215,43,30,22,282,43*73
$GPGSA,M,3,12,14,25,29,30,,,,,,,,4.9,2.5,4.2*3B
Trace #13 at position 3.000000
$GPZDA,082650.03,08,10,2011,00,00*67
$GPRMC,082650.00,A,4611.974938,N,01258.203274,E,000.6,146.8,081011,0.2,E,A*3E
$GPGGA,082651.00,4611.974796,N,01258.203487,E,1,05,2.5,145.28,M,46.25,M,,*6D
$GPGLL,4611.974796,N,01258.203487,E,082651.00,A,A*65
$GPVTG,153.9,T,154.1,M,000.7,N,001.2,K,A*28
$GPGSV,2,1,08,04,20,049,34,02,36,096,35,09,33,146,33,12,68,054,38*7D
$GPGSV,2,2,08,14,35,269,43,25,66,301,48,29,37,215,43,30,22,282,43*73
$GPGSA,M,3,12,14,25,29,30,,,,,,,,4.9,2.5,4.2*3B
Trace #14 at position 3.250000
$GPZDA,082651.03,08,10,2011,00,00*66
$GPRMC,082651.00,A,4611.974796,N,01258.203487,E,000.7,153.9,081011,0.2,E,A*3B
$GPGGA,082652.00,4611.974685,N,01258.203692,E,1,05,2.5,145.25,M,46.25,M,,*66
$GPGLL,4611.974685,N,01258.203692,E,082652.00,A,A*63
$GPVTG,121.3,T,121.5,M,000.4,N,000.8,K,A*29
$GPGSV,2,1,08,04,20,049,35,02,36,096,34,09,33,146,35,12,68,054,38*7B
$GPGSV,2,2,08,14,35,269,44,25,66,301,48,29,37,215,44,30,22,282,44*74
$GPGSA,M,3,12,14,25,29,30,,,,,,,,4.9,2.5,4.2*3B
Trace #15 at position 3.500000
$GPZDA,082652.03,08,10,2011,00,00*65
$GPRMC,082652.00,A,4611.974685,N,01258.203692,E,000.4,121.3,081011,0.2,E,A*31
$GPGGA,082653.00,4611.974543,N,01258.203937,E,1,05,2.5,145.12,M,46.25,M,,*6A
$GPGLL,4611.974543,N,01258.203937,E,082653.00,A,A*6B
$GPVTG,144.6,T,144.8,M,001.0,N,001.9,K,A*24
$GPGSV,2,1,08,04,20,049,38,02,36,096,33,09,33,146,33,12,68,054,39*76
$GPGSV,2,2,08,14,35,269,43,25,66,301,47,29,37,215,42,30,22,282,44*7A
$GPGSA,M,3,12,14,25,29,30,,,,,,,,4.9,2.5,4.2*3B
Trace #16 at position 3.750000
$GPZDA,082653.04,08,10,2011,00,00*63
$GPRMC,082653.00,A,4611.974543,N,01258.203937,E,001.0,144.6,081011,0.2,E,A*3A
$GPGGA,082654.00,4611.974430,N,01258.204118,E,1,05,2.5,145.00,M,46.25,M,,*69
$GPGLL,4611.974430,N,01258.204118,E,082654.00,A,A*6B
$GPVTG,99.5,T,99.6,M,000.2,N,000.3,K,A*21
$GPGSV,2,1,08,04,20,049,38,02,36,096,36,09,33,146,34,12,68,054,39*74
$GPGSV,2,2,08,14,35,269,43,25,66,301,47,29,37,215,42,30,22,282,41*7F
$GPGSA,M,3,12,14,25,29,30,,,,,,,,4.9,2.5,4.2*3B
Trace #17 at position 4.000000
$GPZDA,082653.04,08,10,2011,00,00*63
$GPRMC,082653.00,A,4611.974543,N,01258.203937,E,001.0,144.6,081011,0.2,E,A*3A
$GPGGA,082654.00,4611.974430,N,01258.204118,E,1,05,2.5,145.00,M,46.25,M,,*69
$GPGLL,4611.974430,N,01258.204118,E,082654.00,A,A*6B
$GPVTG,99.5,T,99.6,M,000.2,N,000.3,K,A*21
$GPGSV,2,1,08,04,20,049,38,02,36,096,36,09,33,146,34,12,68,054,39*74
$GPGSV,2,2,08,14,35,269,43,25,66,301,47,29,37,215,42,30,22,282,41*7F
$GPGSA,M,3,12,14,25,29,30,,,,,,,,4.9,2.5,4.2*3B
Trace #18 at position 4.250000
$GPZDA,082654.03,08,10,2011,00,00*63
$GPRMC,082654.00,A,4611.974430,N,01258.204118,E,000.2,99.5,081011,0.2,E,A*0B
$GPGGA,082655.00,4611.974387,N,01258.204313,E,1,06,1.6,144.59,M,46.25,M,,*64
$GPGLL,4611.974387,N,01258.204313,E,082655.00,A,A*68
$GPVTG,162.5,T,162.7,M,000.5,N,001.0,K,A*25
$GPGSV,2,1,08,04,20,049,39,02,36,096,35,09,33,146,34,12,68,054,40*78
$GPGSV,2,2,08,14,35,269,42,25,66,301,48,29,37,215,41,30,22,282,41*72
$GPGSA,M,3,04,12,14,25,29,30,,,,,,,2.4,1.6,1.8*3B
Trace #19 at position 4.500000
$GPZDA,082654.03,08,10,2011,00,00*63
$GPRMC,082654.00,A,4611.974430,N,01258.204118,E,000.2,99.5,081011,0.2,E,A*0B
$GPGGA,082655.00,4611.974387,N,01258.204313,E,1,06,1.6,144.59,M,46.25,M,,*64
$GPGLL,4611.974387,N,01258.204313,E,082655.00,A,A*68
$GPVTG,162.5,T,162.7,M,000.5,N,001.0,K,A*25
$GPGSV,2,1,08,04,20,049,39,02,36,096,35,09,33,146,34,12,68,054,40*78
$GPGSV,2,2,08,14,35,269,42,25,66,301,48,29,37,215,41,30,22,282,41*72
$GPGSA,M,3,04,12,14,25,29,30,,,,,,,2.4,1.6,1.8*3B
Trace #20 at position 4.750000
$GPZDA,082655.04,08,10,2011,00,00*65
$GPRMC,082655.00,A,4611.974387,N,01258.204313,E,000.5,162.5,081011,0.2,E,A*3A
$GPGGA,082656.00,4611.974239,N,01258.204519,E,1,06,1.6,144.25,M,46.25,M,,*64
$GPGLL,4611.974239,N,01258.204519,E,082656.00,A,A*63
$GPVTG,156.9,T,157.1,M,000.8,N,001.5,K,A*26
$GPGSV,2,1,08,04,20,049,39,02,36,096,36,09,33,146,32,12,68,054,40*7D
$GPGSV,2,2,08,14,35,269,43,25,66,301,48,29,37,215,41,30,22,282,43*71
$GPGSA,M,3,04,12,14,25,29,30,,,,,,,2.4,1.6,1.8*3B
Trace #21 at position 5.000000
$GPZDA,082656.03,08,10,2011,00,00*61
$GPRMC,082656.00,A,4611.974239,N,01258.204519,E,000.8,156.9,081011,0.2,E,A*37
$GPGGA,082657.00,4611.974055,N,01258.204679,E,1,06,1.6,143.94,M,46.25,M,,*65
$GPGLL,4611.974055,N,01258.204679,E,082657.00,A,A*6F
$GPVTG,179.1,T,179.3,M,000.8,N,001.4,K,A*2C
$GPGSV,2,1,08,04,20,049,38,02,36,096,34,09,33,146,27,12,68,054,41*7B
$GPGSV,2,2,08,14,35,269,44,25,66,301,48,29,37,215,42,30,22,282,43*75
$GPGSA,M,3,04,12,14,25,29,30,,,,,,,2.4,1.6,1.8*3B
Trace #22 at position 5.250000
$GPZDA,082656.03,08,10,2011,00,00*61
$GPRMC,082656.00,A,4611.974239,N,01258.204519,E,000.8,156.9,081011,0.2,E,A*37
$GPGGA,082657.00,4611.974055,N,01258.204679,E,1,06,1.6,143.94,M,46.25,M,,*65
$GPGLL,4611.974055,N,01258.204679,E,082657.00,A,A*6F
$GPVTG,179.1,T,179.3,M,000.8,N,001.4,K,A*2C
$GPGSV,2,1,08,04,20,049,38,02,36,096,34,09,33,146,27,12,68,054,41*7B
$GPGSV,2,2,08,14,35,269,44,25,66,301,48,29,37,215,42,30,22,282,43*75
$GPGSA,M,3,04,12,14,25,29,30,,,,,,,2.4,1.6,1.8*3B
Trace #23 at position 5.500000
$GPZDA,082656.03,08,10,2011,00,00*61
$GPRMC,082656.00,A,4611.974239,N,01258.204519,E,000.8,156.9,081011,0.2,E,A*37
$GPGGA,082657.00,4611.974055,N,01258.204679,E,1,06,1.6,143.94,M,46.25,M,,*65
$GPGLL,4611.974055,N,01258.204679,E,082657.00,A,A*6F
$GPVTG,179.1,T,179.3,M,000.8,N,001.4,K,A*2C
$GPGSV,2,1,08,04,20,049,38,02,36,096,34,09,33,146,27,12,68,054,41*7B
$GPGSV,2,2,08,14,35,269,44,25,66,301,48,29,37,215,42,30,22,282,43*75
$GPGSA,M,3,04,12,14,25,29,30,,,,,,,2.4,1.6,1.8*3B
Trace #24 at position 5.750000
$GPZDA,082656.03,08,10,2011,00,00*61
$GPRMC,082656.00,A,4611.974239,N,01258.204519,E,000.8,156.9,081011,0.2,E,A*37
$GPGGA,082657.00,4611.974055,N,01258.204679,E,1,06,1.6,143.94,M,46.25,M,,*65
$GPGLL,4611.974055,N,01258.204679,E,082657.00,A,A*6F
$GPVTG,179.1,T,179.3,M,000.8,N,001.4,K,A*2C
$GPGSV,2,1,08,04,20,049,38,02,36,096,34,09,33,146,27,12,68,054,41*7B
$GPGSV,2,2,08,14,35,269,44,25,66,301,48,29,37,215,42,30,22,282,43*75
$GPGSA,M,3,04,12,14,25,29,30,,,,,,,2.4,1.6,1.8*3B
Trace #25 at position 6.000000
$GPZDA,082657.03,08,10,2011,00,00*60
$GPRMC,082657.00,A,4611.974055,N,01258.204679,E,000.8,179.1,081011,0.2,E,A*3E
$GPGGA,082658.00,4611.973908,N,01258.204878,E,1,06,1.6,143.68,M,46.25,M,,*60
$GPGLL,4611.973908,N,01258.204878,E,082658.00,A,A*69
$GPVTG,126.6,T,126.7,M,000.7,N,001.3,K,A*27
$GPGSV,2,1,08,04,20,049,39,02,36,096,34,09,33,146,28,12,68,054,41*75
$GPGSV,2,2,08,14,35,269,45,25,66,301,48,29,3,29,30,,,,,,,2.4,1.6,1.8*3B
$GPZDA,082658.04,08,10,2011,00,00*68
$GPRMC,082658.00,A,4611.973908,N,01258.204878,E,000.7,126.6,081011,0.2,E,A*3A
$GPGGA,082659.00,4611.973815,N,01258.205018,E,1,06,1.6,143.44,M,46.25,M,,*6D
$GPGLL,4611.973815,N,01258.205018,E,082659.00,A,A*6A
$GPVTG,213.6,T,213.8,M,000.4,N,000.8,K,A*21
$GPGSV,2,1,08,04,20,049,40,02,36,096,34,09,33,146,31,12,68,054,42*70
$GPGSV,2,2,08,14,35,269,44,25,66,301,48,29,37,215,42,30,22,282,43*75
$GPGSA,M,3,04,12,14,25,29,30,,,,,,,2.4,1.6,1.8*3B973815,N,01258.205018,E,000.4,213.6,081011,0.2,E,A*3F
Trace #26 at position 6.250000
$GPGGA,082700.00,4611.973664,N,01258.205071,E,1,06,1.6,143.19,M,46.25,M,,*6F
$GPGLL,4611.973664,N,01258.205071,E,082700.00,A,A*60
$GPVTG,173.2,T,173.4,M,000.8,N,001.5,K,A*29
$GPGSV,2,1,08,04,20,049,39,02,36,096,35,09,33,146,32,12,68,054,41*7F
$GPGSV,2,2,08,14,35,269,45,25,66,301,48,29,37,215,43,30,22,282,43*75
$GPGSA,M,3,04,12,14,25,29,30,,,,,,,2.4,1.6,1.8*3B
Trace #27 at position 6.500000
$GPZDA,082700.03,08,10,2011,00,00*63
$GPRMC,082700.00,A,4611.973664,N,01258.205071,E,000$GPGGA,082701.00,4611.973439,N,01258.205183,E,1,06,1.6,142.98,M,46.25,M,,*60
$GPGLL,4611.973439,N,01258.205183,E,082701.00,A,A*67
$GPVTG,175.5,T,175.7,M,000.9,N,001.7,K,A*2E
$GPGSV,2,1,08,04,20,049,40,02,36,096,35,09,33,146,33,12,68,054,40*71
$GPGSV,2,2,08,14,35,269,44,25,66,301,48,29,37,215,42,30,22,282,43*75
$GPGSA,M,3,04,12,14,25,29,30,,,,,,,2.4,1.6,1.8*3B
Trace #28 at position 6.750000
$GPZDA,082700.03,08,10,2011,00,00*63
$GPRMC,082700.00,A,4611.973664,N,01258.205071,E,000$GPGGA,082701.00,4611.973439,N,01258.205183,E,1,06,1.6,142.98,M,46.25,M,,*60
$GPGLL,4611.973439,N,01258.205183,E,082701.00,A,A*67
$GPVTG,175.5,T,175.7,M,000.9,N,001.7,K,A*2E
$GPGSV,2,1,08,04,20,049,40,02,36,096,35,09,33,146,33,12,68,054,40*71
$GPGSV,2,2,08,14,35,269,44,25,66,301,48,29,37,215,42,30,22,282,43*75
$GPGSA,M,3,04,12,14,25,29,30,,,,,,,2.4,1.6,1.8*3B
Trace #29 at position 7.000000
$GPZDA,082701.03,08,10,2011,00,00*62
$GPRMC,082701.00,A,4611.973439,N,01258.205183,E,000.9,175.5,081011,0.2,E,A*3F
$GPGGA,082702.00,4611.973202,N,01258.205299,E,1,06,1.6,142.81,M,46.25,M,,*6D
$GPGLL,4611.973202,N,01258.205299,E,082702.00,A,A*62
$GPVTG,170.9,T,171.0,M,000.9,N,001.6,K,A*25
$GPGSV,2,1,08,04,20,049,40,02,36,096,36,09,33,146,33,12,68,054,40*72
$GPGSV,2,2,08,14,35,269,43,25,66,301,48,29,37,215,42,30,22,282,42*73
$GPGSA,M,3,04,12,14,25,29,30,,,,,,,2.4,1.6,1.8*3B
Trace #30 at position 7.250000
$GPZDA,082701.03,08,10,2011,00,00*62
$GPRMC,082701.00,A,4611.973439,N,01258.205183,E,000.9,175.5,081011,0.2,E,A*3F
$GPGGA,082702.00,4611.973202,N,01258.205299,E,1,06,1.6,142.81,M,46.25,M,,*6D
$GPGLL,4611.973202,N,01258.205299,E,082702.00,A,A*62
$GPVTG,170.9,T,171.0,M,000.9,N,001.6,K,A*25
$GPGSV,2,1,08,04,20,049,40,02,36,096,36,09,33,146,33,12,68,054,40*72
$GPGSV,2,2,08,14,35,269,43,25,66,301,48,29,37,215,42,30,22,282,42*73
$GPGSA,M,3,04,12,14,25,29,30,,,,,,,2.4,1.6,1.8*3B
Trace #31 at position 7.500000
$GPZDA,082702.03,08,10,2011,00,00*61
$GPRMC,082702.00,A,4611.973202,N,01258.205299,E,000.9,170.9,081011,0.2,E,A*33
$GPGGA,082703.00,4611.973027,N,01258.205452,E,1,06,1.6,142.70,M,46.25,M,,*66
$GPGLL,4611.973027,N,01258.205452,E,082703.00,A,A*67
$GPVTG,147.8,T,147.9,M,000.5,N,001.0,K,A*26
$GPGSV,2,1,08,04,20,049,40,02,36,096,35,09,33,146,30,12,68,054,38*7D
$GPGSV,2,2,08,14,35,269,44,25,66,301,48,29,37,215,41,30,22,282,43*76
$GPGSA,M,3,04,12,14,25,29,30,,,,,,,2.4,1.6,1.8*3B
Trace #32 at position 7.750000
$GPZDA,082702.03,08,10,2011,00,00*61
$GPRMC,082702.00,A,4611.973202,N,01258.205299,E,000.9,170.9,081011,0.2,E,A*33
$GPGGA,082703.00,4611.973027,N,01258.205452,E,1,06,1.6,142.70,M,46.25,M,,*66
$GPGLL,4611.973027,N,01258.205452,E,082703.00,A,A*67
$GPVTG,147.8,T,147.9,M,000.5,N,001.0,K,A*26
$GPGSV,2,1,08,04,20,049,40,02,36,096,35,09,33,146,30,12,68,054,38*7D
$GPGSV,2,2,08,14,35,269,44,25,66,301,48,29,37,215,41,30,22,282,43*76
$GPGSA,M,3,04,12,14,25,29,30,,,,,,,2.4,1.6,1.8*3B
Trace #33 at position 8.000000
$GPZDA,082703.04,08,10,2011,00,00*67
$GPRMC,082703.00,A,4611.973027,N,01258.205452,E,000.5,147.8,081011,0.2,E,A*3F
$GPGGA,082704.00,4611.972864,N,01258.205672,E,1,06,1.6,142.63,M,46.25,M,,*6D
$GPGLL,4611.972864,N,01258.205672,E,082704.00,A,A*6E
$GPVTG,142.4,T,142.6,M,000.9,N,001.7,K,A*2E
$GPGSV,2,1,08,04,20,049,39,02,36,096,35,09,33,146,32,12,68,054,39*70
$GPGSV,2,2,08,14,35,269,44,25,66,301,49,29,37,215,42,30,22,282,44*73
$GPGSA,M,3,04,12,14,25,29,30,,,,,,,2.4,1.6,1.8*3B
Trace #34 at position 8.250000
$GPZDA,082704.03,08,10,2011,00,00*67
$GPRMC,082704.00,A,4611.972864,N,01258.205672,E,000.9,142.4,081011,0.2,E,A*33
$GPGGA,082705.00,4611.972665,N,01258.205893,E,1,06,1.6,142.54,M,46.25,M,,*66
$GPGLL,4611.972665,N,01258.205893,E,082705.00,A,A*61
$GPVTG,150.1,T,150.3,M,000.8,N,001.4,K,A*2C
$GPGSV,2,1,08,04,20,049,37,02,36,096,36,09,33,146,30,12,68,054,42*73
$GPGSV,2,2,08,14,35,269,44,25,66,301,49,29,37,215,43,30,22,282,43*75
$GPGSA,M,3,04,12,14,25,29,30,,,,,,,2.4,1.6,1.8*3B
Trace #35 at position 8.500000
$GPZDA,082704.03,08,10,2011,00,00*67
$GPRMC,082704.00,A,4611.972864,N,01258.205672,E,000.9,142.4,081011,0.2,E,A*33
$GPGGA,082705.00,4611.972665,N,01258.205893,E,1,06,1.6,142.54,M,46.25,M,,*66
$GPGLL,4611.972665,N,01258.205893,E,082705.00,A,A*61
$GPVTG,150.1,T,150.3,M,000.8,N,001.4,K,A*2C
$GPGSV,2,1,08,04,20,049,37,02,36,096,36,09,33,146,30,12,68,054,42*73
$GPGSV,2,2,08,14,35,269,44,25,66,301,49,29,37,215,43,30,22,282,43*75
$GPGSA,M,3,04,12,14,25,29,30,,,,,,,2.4,1.6,1.8*3B
Trace #36 at position 8.750000
$GPZDA,082705.03,08,10,2011,00,00*66
$GPRMC,082705.00,A,4611.972665,N,01258.205893,E,000.8,150.1,081011,0.2,E,A*3B
$GPGGA,082706.00,4611.972435,N,01258.206048,E,1,06,1.6,142.45,M,46.25,M,,*6F
$GPGLL,4611.972435,N,01258.206048,E,082706.00,A,A*68
$GPVTG,164.3,T,164.5,M,001.0,N,001.9,K,A*2C
$GPGSV,2,1,08,04,20,049,38,02,36,096,36,09,33,146,30,12,68,054,41*7F
$GPGSV,2,2,08,14,35,269,44,25,66,301,49,29,37,215,42,30,22,282,44*73
$GPGSA,M,3,04,12,14,25,29,30,,,,,,,2.4,1.6,1.8*3B
Trace #37 at position 9.000000
$GPZDA,082706.03,08,10,2011,00,00*65
$GPRMC,082706.00,A,4611.972435,N,01258.206048,E,001.0,164.3,081011,0.2,E,A*3E
$GPGGA,082707.00,4611.972199,N,01258.206237,E,1,06,1.6,142.33,M,46.25,M,,*66
$GPGLL,4611.972199,N,01258.206237,E,082707.00,A,A*60
$GPVTG,140.0,T,140.1,M,001.0,N,001.8,K,A*2A
$GPGSV,2,1,08,04,20,049,38,02,36,096,37,09,33,146,30,12,68,054,41*7E
$GPGSV,2,2,08,14,35,269,43,25,66,301,49,29,37,215,43,30,22,282,44*75
$GPGSA,M,3,04,12,14,25,29,30,,,,,,,2.4,1.6,1.8*3B
Trace #38 at position 9.250000
$GPZDA,082706.03,08,10,2011,00,00*65
$GPRMC,082706.00,A,4611.972435,N,01258.206048,E,001.0,164.3,081011,0.2,E,A*3E
$GPGGA,082707.00,4611.972199,N,01258.206237,E,1,06,1.6,142.33,M,46.25,M,,*66
$GPGLL,4611.972199,N,01258.206237,E,082707.00,A,A*60
$GPVTG,140.0,T,140.1,M,001.0,N,001.8,K,A*2A
$GPGSV,2,1,08,04,20,049,38,02,36,096,37,09,33,146,30,12,68,054,41*7E
$GPGSV,2,2,08,14,35,269,43,25,66,301,49,29,37,215,43,30,22,282,44*75
$GPGSA,M,3,04,12,14,25,29,30,,,,,,,2.4,1.6,1.8*3B
Trace #39 at position 9.500000
$GPZDA,082707.03,08,10,2011,00,00*64
$GPRMC,082707.00,A,4611.972199,N,01258.206237,E,001.0,140.0,081011,0.2,E,A*33
$GPGGA,082708.00,4611.971960,N,01258.206382,E,1,06,1.6,142.26,M,46.25,M,,*6F
$GPGLL,4611.971960,N,01258.206382,E,082708.00,A,A*6D
$GPVTG,174.3,T,174.5,M,001.0,N,001.9,K,A*2C
$GPGSV,2,1,08,04,20,049,38,02,36,096,37,09,33,146,31,12,68,054,41*7F
$GPGSV,2,2,08,14,35,269,44,25,66,301,49,29,37,215,43,30,22,282,43*75
$GPGSA,M,3,04,12,14,25,29,30,,,,,,,2.4,1.6,1.8*3B
Trace #40 at position 9.750000
$GPZDA,082707.03,08,10,2011,00,00*64
$GPRMC,082707.00,A,4611.972199,N,01258.206237,E,001.0,140.0,081011,0.2,E,A*33
$GPGGA,082708.00,4611.971960,N,01258.206382,E,1,06,1.6,142.26,M,46.25,M,,*6F
$GPGLL,4611.971960,N,01258.206382,E,082708.00,A,A*6D
$GPVTG,174.3,T,174.5,M,001.0,N,001.9,K,A*2C
$GPGSV,2,1,08,04,20,049,38,02,36,096,37,09,33,146,31,12,68,054,41*7F
$GPGSV,2,2,08,14,35,269,44,25,66,301,49,29,37,215,43,30,22,282,43*75
$GPGSA,M,3,04,12,14,25,29,30,,,,,,,2.4,1.6,1.8*3B
Trace #41 at position 10.000000
$GPZDA,082708.04,08,10,2011,00,00*6C
$GPRMC,082708.00,A,4611.971960,N,01258.206382,E,001.0,174.3,081011,0.2,E,A*3A
$GPGGA,082709.00,4611.971706,N,01258.206548,E,1,06,1.6,142.18,M,46.25,M,,*6D
$GPGLL,4611.971706,N,01258.206548,E,082709.00,A,A*62
$GPVTG,136.6,T,136.7,M,001.1,N,002.1,K,A*21
$GPGSV,2,1,08,04,20,049,39,02,36,096,37,09,33,146,32,12,68,054,41*7D
$GPGSV,2,2,08,14,35,269,44,25,66,301,48,29,37,215,43,30,22,282,43*74
$GPGSA,M,3,04,12,14,25,29,30,,,,,,,2.4,1.6,1.8*3B
Trace #42 at position 10.250000
$GPZDA,082709.04,08,10,2011,00,00*6D
$GPRMC,082709.00,A,4611.971706,N,01258.206548,E,001.1,136.6,081011,0.2,E,A*37
$GPGGA,082710.00,4611.971473,N,01258.206726,E,1,06,1.6,142.04,M,46.25,M,,*63
$GPGLL,4611.971473,N,01258.206726,E,082710.00,A,A*61
$GPVTG,165.9,T,166.1,M,000.9,N,001.7,K,A*27
$GPGSV,2,1,08,04,20,049,40,02,36,096,38,09,33,146,32,12,68,055,40*,10,2011,00,00*62
$GPRMC,082710.00,A,4611.971473,N,01258.206726,E,000.9,165.9,081011,0.2,E,A*34
$GPGGA,082711.00,4611.971270,N,01258.206764,E,1,06,1.6,141.96,M,46.25,M,,*69
$GPGLL,4611.971270,N,01258.206764,E,082711.00,A,A*63
$GPVTG,174.7,T,174.8,M,000.6,N,001.2,K,A*29
$GPGSV,2,1,08,04,20,049,37,02,36,096,38,09,33,146,36,12,68,055,40*78
$GPGSV,2,2,08,14,35,269,44,25,66,301,49,29,37,215,43,30,22,282,43*75
$GPGSA,M,3,04,12,14,25,29,30,,,,,,,2.4,1.6,1.8*3B
Trace #43 at position 10.500000
$GPZDA,082709.04,08,10,2011,00,00*6D
$GPRMC,082709.00,A,4611.971706,N,01258.206548,E,001.1,136.6,081011,0.2,E,A*37
$GPGGA,082710.00,4611.971473,N,01258.206726,E,1,06,1.6,142.04,M,46.25,M,,*63
$GPGLL,4611.971473,N,01258.206726,E,082710.00,A,A*61
$GPVTG,165.9,T,166.1,M,000.9,N,001.7,K,A*27
$GPGSV,2,1,08,04,20,049,40,02,36,096,38,09,33,146,32,12,68,055,40*,10,2011,00,00*62
$GPRMC,082710.00,A,4611.971473,N,01258.206726,E,000.9,165.9,081011,0.2,E,A*34
$GPGGA,082711.00,4611.971270,N,01258.206764,E,1,06,1.6,141.96,M,46.25,M,,*69
$GPGLL,4611.971270,N,01258.206764,E,082711.00,A,A*63
$GPVTG,174.7,T,174.8,M,000.6,N,001.2,K,A*29
$GPGSV,2,1,08,04,20,049,37,02,36,096,38,09,33,146,36,12,68,055,40*78
$GPGSV,2,2,08,14,35,269,44,25,66,301,49,29,37,215,43,30,22,282,43*75
$GPGSA,M,3,04,12,14,25,29,30,,,,,,,2.4,1.6,1.8*3B
Trace #44 at position 10.750000
$GPZDA,082711.04,08,10,2011,00,00*64
$GPRMC,006764,E,000.6,174.7,081011,0.2,E,A*37
$GPGGA,082712.00,4611.971063,N,01258.206767,E,1,06,1.6,141.92,M,46.25,M,,*6D
$GPGLL,4611.971063,N,01258.206767,E,082712.00,A,A*63
$GPVTG,181.6,T,181.8,M,001.0,N,001.8,K,A*25
$GPGSV,2,1,08,04,20,049,39,02,36,096,34,09,33,146,37,12,68,055,40*7B
$GPGSV,2,2,08,14,35,269,45,25,66,301,48,29,37,215,43,30,22,282,44*72
$GPGSA,M,3,04,12,14,25,29,30,,,,,,,2.4,1.6,1.8*3B
Trace #45 at position 11.000000
$GPZDA,082712.03,08,10,2011,00,00*60
$GPRMC,082712.00,A,4611.971063,N,01258.206767,E,001.0,181.6,081011,$GPGGA,082713.00,4611.970897,N,01258.206770,E,1,05,2.5,142.23,M,46.25,M,,*62
$GPGLL,4611.970897,N,01258.206770,E,082713.00,A,A*66
$GPVTG,92.7,T,92.8,M,000.5,N,001.0,K,A*28
$GPGSV,2,1,08,04,20,049,36,02,36,096,36,09,33,146,36,12,68,055,39*79
$GPGSV,2,2,08,14,35,269,44,25,66,301,48,29,37,215,43,30,22,282,43*74
$GPGSA,M,3,12,14,25,29,30,,,,,,,,4.9,2.5,4.2*3B
Trace #46 at position 11.250000
$GPZDA,082712.03,08,10,2011,00,00*60
$GPRMC,082712.00,A,4611.971063,N,01258.206767,E,001.0,181.6,081011,$GPGGA,082713.00,4611.970897,N,01258.206770,E,1,05,2.5,142.23,M,46.25,M,,*62
$GPGLL,4611.970897,N,01258.206770,E,082713.00,A,A*66
$GPVTG,92.7,T,92.8,M,000.5,N,001.0,K,A*28
$GPGSV,2,1,08,04,20,049,36,02,36,096,36,09,33,146,36,12,68,055,39*79
$GPGSV,2,2,08,14,35,269,44,25,66,301,48,29,37,215,43,30,22,282,43*74
$GPGSA,M,3,12,14,25,29,30,,,,,,,,4.9,2.5,4.2*3B
Trace #47 at position 11.500000
$GPZDA,082713.04,08,10,2011,00,00*66
$GPRMC,082713.00,A,4611.970897,N,01258.206770,E,000.5,92.7,081011,0.2,E,A*08
$GPGGA,082714.00,4611.970764,N,01258.206902,E,1,05,2.5,142.46,M,46.25,M,,*6E
$GPGLL,4611.970764,N,01258.206902,E,082714.00,A,A*69
$GPVTG,135.1,T,135.2,M,000.9,N,001.7,K,A*2F
$GPGSV,2,1,08,04,20,049,36,02,36,096,34,09,33,146,37,12,68,055,40*74
$GPGSV,2,2,08,14,35,269,44,25,66,301,48,29,37,215,43,30,22,282,42*75
$GPGSA,M,3,12,14,25,29,30,,,,,,,,4.9,2.5,4.2*3B
Trace #48 at position 11.750000
$GPZDA,082714.03,08,10,2011,00,00*66
$GPRMC,082714.00,A,4611.970764,N,01258.206902,E,000.9,135.1,081011,0.2,E,A*31
$GPGGA,082715.00,4611.970545,N,01258.206949,E,1,05,2.5,142.64,M,46.25,M,,*61
$GPGLL,4611.970545,N,01258.206949,E,082715.00,A,A*66
$GPVTG,172.2,T,172.4,M,000.7,N,001.3,K,A*20
$GPGSV,2,1,08,04,20,049,36,02,36,096,37,09,33,146,36,12,68,055,41*77
$GPGSV,2,2,08,14,35,269,44,25,66,301,48,29,37,215,43,30,22,282,43*74
$GPGSA,M,3,12,14,25,29,30,,,,,,,,4.9,2.5,4.2*3B
Trace #49 at position 12.000000
$GPZDA,082715.03,08,10,2011,00,00*67
$GPRMC,082715.00,A,4611.970545,N,01258.206949,E,000.7,172.2,081011,0.2,E,A*30
$GPGGA,082716.00,4611.970313,N,01258.206839,E,1,05,2.5,142.84,M,46.25,M,,*6F
$GPGLL,4611.970313,N,01258.206839,E,082716.00,A,A*66
$GPVTG,198.0,T,198.2,M,000.9,N,001.6,K,A*2F
$GPGSV,2,1,08,04,20,049,38,02,36,096,36,09,33,146,36,12,68,055,42*7B
$GPGSV,2,2,08,14,35,269,44,25,66,301,48,29,37,215,43,30,22,282,43*74
$GPGSA,M,3,12,14,25,29,30,,,,,,,,4.9,2.5,4.2*3B
Trace #50 at position 12.250000
$GPZDA,082715.03,08,10,2011,00,00*67
$GPRMC,082715.00,A,4611.970545,N,01258.206949,E,000.7,172.2,081011,0.2,E,A*30
$GPGGA,082716.00,4611.970313,N,01258.206839,E,1,05,2.5,142.84,M,46.25,M,,*6F
$GPGLL,4611.970313,N,01258.206839,E,082716.00,A,A*66
$GPVTG,198.0,T,198.2,M,000.9,N,001.6,K,A*2F
$GPGSV,2,1,08,04,20,049,38,02,36,096,36,09,33,146,36,12,68,055,42*7B
$GPGSV,2,2,08,14,35,269,44,25,66,301,48,29,37,215,43,30,22,282,43*74
$GPGSA,M,3,12,14,25,29,30,,,,,,,,4.9,2.5,4.2*3B
Trace #51 at position 12.500000
$GPZDA,082716.03,08,10,2011,00,00*64
$GPRMC,082716.00,A,4611.970313,N,01258.206839,E,000.9,198.0,081011,0.2,E,A*38
$GPGGA,082717.00,4611.970073,N,01258.206833,E,1,05,2.5,143.01,M,46.25,M,,*6D
$GPGLL,4611.970073,N,01258.206833,E,082717.00,A,A*68
$GPVTG,146.4,T,146.6,M,001.0,N,001.8,K,A*29
$GPGSV,2,1,08,04,20,049,36,02,36,096,34,09,33,146,36,12,68,055,42*77
$GPGSV,2,2,08,14,35,269,45,25,66,301,48,29,37,215,43,30,22,282,43*75
$GPGSA,M,3,12,14,25,29,30,,,,,,,,4.9,2.5,4.2*3B
Trace #52 at position 12.750000
$GPZDA,082716.03,08,10,2011,00,00*64
$GPRMC,082716.00,A,4611.970313,N,01258.206839,E,000.9,198.0,081011,0.2,E,A*38
$GPGGA,082717.00,4611.970073,N,01258.206833,E,1,05,2.5,143.01,M,46.25,M,,*6D
$GPGLL,4611.970073,N,01258.206833,E,082717.00,A,A*68
$GPVTG,146.4,T,146.6,M,001.0,N,001.8,K,A*29
$GPGSV,2,1,08,04,20,049,36,02,36,096,34,09,33,146,36,12,68,055,42*77
$GPGSV,2,2,08,14,35,269,45,25,66,301,48,29,37,215,43,30,22,282,43*75
$GPGSA,M,3,12,14,25,29,30,,,,,,,,4.9,2.5,4.2*3B
Trace #53 at position 13.000000
$GPZDA,082717.03,08,10,2011,00,00*65
$GPRMC,082717.00,A,4611.970073,N,01258.206833,E,001.0,146.4,081011,0.2,E,A*39
$GPGGA,082718.00,4611.969879,N,01258.206851,E,1,05,2.5,143.14,M,46.25,M,,*68
$GPGLL,4611.969879,N,01258.206851,E,082718.00,A,A*69
$GPVTG,202.9,T,203.1,M,000.5,N,000.9,K,A*26
$GPGSV,2,1,08,04,20,049,36,02,36,096,36,09,33,147,30,12,68,055,41*71
$GPGSV,2,2,08,14,35,268,44,25,66,301,48,29,37,216,44,30,22,282,43*71
$GPGSA,M,3,12,14,25,29,30,,,,,,,,4.9,2.5,4.2*3B
Trace #54 at position 13.250000
$GPZDA,082718.03,08,10,2011,00,00*6A
$GPRMC,082718.00,A,4611.969879,N,01258.206851,E,000.5,202.9,081011,0.2,E,A*32
$GPGGA,082719.00,4611.969658,N,01258.206804,E,1,05,2.5,143.28,M,46.25,M,,*6B
$GPGLL,4611.969658,N,01258.206804,E,082719.00,A,A*65
$GPVTG,171.9,T,172.1,M,001.1,N,002.0,K,A*2A
$GPGSV,2,1,08,04,20,049,38,02,36,096,35,09,33,147,34,12,68,055,41*78
$GPGSV,2,2,08,14,35,268,44,25,66,301,48,29,37,216,43,30,22,282,43*76
$GPGSA,M,3,12,14,25,29,30,,,,,,,,4.9,2.5,4.2*3B
Trace #55 at position 13.500000
$GPZDA,082719.03,08,10,2011,00,00*6B
$GPRMC,082719.00,A,4611.969658,N,01258.206804,E,001.1,171.9,081011,0.2,E,A*3C
$GPGGA,082720.00,4611.969455,N,01258.206860,E,1,05,2.5,143.44,M,46.25,M,,*66
$GPGLL,4611.969455,N,01258.206860,E,082720.00,A,A*62
$GPVTG,141.8,T,142.0,M,000.5,N,000.9,K,A*24
$GPGSV,2,1,08,04,20,049,36,02,36,096,35,09,33,147,34,12,68,055,40*77
$GPGSV,2,2,08,14,35,268,44,25,66,301,47,29,37,216,42,30,22,282,43*78
$GPGSA,M,3,12,14,25,29,30,,,,,,,,4.9,2.5,4.2*3B
Trace #56 at position 13.750000
$GPZDA,082719.03,08,10,2011,00,00*6B
$GPRMC,082719.00,A,4611.969658,N,01258.206804,E,001.1,171.9,081011,0.2,E,A*3C
$GPGGA,082720.00,4611.969455,N,01258.206860,E,1,05,2.5,143.44,M,46.25,M,,*66
$GPGLL,4611.969455,N,01258.206860,E,082720.00,A,A*62
$GPVTG,141.8,T,142.0,M,000.5,N,000.9,K,A*24
$GPGSV,2,1,08,04,20,049,36,02,36,096,35,09,33,147,34,12,68,055,40*77
$GPGSV,2,2,08,14,35,268,44,25,66,301,47,29,37,216,42,30,22,282,43*78
$GPGSA,M,3,12,14,25,29,30,,,,,,,,4.9,2.5,4.2*3B
Trace #57 at position 14.000000
$GPZDA,082719.03,08,10,2011,00,00*6B
$GPRMC,082719.00,A,4611.969658,N,01258.206804,E,001.1,171.9,081011,0.2,E,A*3C
$GPGGA,082720.00,4611.969455,N,01258.206860,E,1,05,2.5,143.44,M,46.25,M,,*66
$GPGLL,4611.969455,N,01258.206860,E,082720.00,A,A*62
$GPVTG,141.8,T,142.0,M,000.5,N,000.9,K,A*24
$GPGSV,2,1,08,04,20,049,36,02,36,096,35,09,33,147,34,12,68,055,40*77
$GPGSV,2,2,08,14,35,268,44,25,66,301,47,29,37,216,42,30,22,282,43*78
$GPGSA,M,3,12,14,25,29,30,,,,,,,,4.9,2.5,4.2*3B
Trace #58 at position 14.250000
$GPZDA,082720.03,08,10,2011,00,00*61
$GPRMC,082720.00,A,4611.969455,N,01258.206860,E,000.5,141.8,081011,0.2,E,A*3C
$GPGGA,082721.00,4611.969327,N,01258.206838,E,1,05,2.5,143.60,M,46.25,M,,*6E
$GPGLL,4611.969327,N,01258.206838,E,082721.00,A,A*6C
$GPVTG,212.2,T,212.4,M,000.6,N,001.0,K,A*22
$GPGSV,2,1,08,04,20,049,36,02,36,096,35,09,33,147,35,12,68.03,08,10,2011,00,00*60
$GPRMC,082721.00,A,4611.969327,N,01258.206838,E,000.6,212.2,081011,0.2,E,A*3E
$GPGGA,082722.00,4611.969151,N,01258.206935,E,1,05,2.5,143.70,M,46.25,M,,*63
$GPGLL,4611.969151,N,01258.206935,E,082722.00,A,A*60
$GPVTG,129.6,T,129.8,M,001.2,N,002.2,K,A*2E
$GPGSV,2,1,08,04,20,049,37,02,36,096,36,09,33,147,34,12,68,055,42*77
$GPGSV,2,2,08,14,35,268,45,25,66,301,48,29,37,216,42,30,22,282,43*76
$GPGSA,M,3,12,14,25,29,30,,,,,,,,4.9,2.5,4.2*3B
Trace #59 at position 14.500000
$GPZDA,082720.03,08,10,2011,00,00*61
$GPRMC,082720.00,A,4611.969455,N,01258.206860,E,000.5,141.8,081011,0.2,E,A*3C
$GPGGA,082721.00,4611.969327,N,01258.206838,E,1,05,2.5,143.60,M,46.25,M,,*6E
$GPGLL,4611.969327,N,01258.206838,E,082721.00,A,A*6C
$GPVTG,212.2,T,212.4,M,000.6,N,001.0,K,A*22
$GPGSV,2,1,08,04,20,049,36,02,36,096,35,09,33,147,35,12,68.03,08,10,2011,00,00*60
$GPRMC,082721.00,A,4611.969327,N,01258.206838,E,000.6,212.2,081011,0.2,E,A*3E
$GPGGA,082722.00,4611.969151,N,01258.206935,E,1,05,2.5,143.70,M,46.25,M,,*63
$GPGLL,4611.969151,N,01258.206935,E,082722.00,A,A*60
$GPVTG,129.6,T,129.8,M,001.2,N,002.2,K,A*2E
$GPGSV,2,1,08,04,20,049,37,02,36,096,36,09,33,147,34,12,68,055,42*77
$GPGSV,2,2,08,14,35,268,45,25,66,301,48,29,37,216,42,30,22,282,43*76
$GPGSA,M,3,12,14,25,29,30,,,,,,,,4.9,2.5,4.2*3B
Trace #60 at position 14.750000
$GPZDA,082722.03,08,10,2011,00,00*63
$GPR611.969151,N,01258.206935,E,001.2,129.6,081011,0.2,E,A*38
$GPGGA,082723.00,4611.968918,N,01258.207182,E,1,05,2.5,143.70,M,46.25,M,,*63
$GPGLL,4611.968918,N,01258.207182,E,082723.00,A,A*60
$GPVTG,148.0,T,148.2,M,001.1,N,001.9,K,A*29
$GPGSV,2,1,08,04,20,049,37,02,36,096,34,09,33,147,35,12,68,055,41*77
$GPGSV,2,2,08,14,35,268,44,25,66,301,48,29,37,216,43,30,22,282,43*76
$GPGSA,M,3,12,14,25,29,30,,,,,,,,4.9,2.5,4.2*3B
Trace #61 at position 15.000000
$GPZDA,082722.03,08,10,2011,00,00*63
$GPR611.969151,N,01258.206935,E,001.2,129.6,081011,0.2,E,A*38
$GPGGA,082723.00,4611.968918,N,01258.207182,E,1,05,2.5,143.70,M,46.25,M,,*63
$GPGLL,4611.968918,N,01258.207182,E,082723.00,A,A*60
$GPVTG,148.0,T,148.2,M,001.1,N,001.9,K,A*29
$GPGSV,2,1,08,04,20,049,37,02,36,096,34,09,33,147,35,12,68,055,41*77
$GPGSV,2,2,08,14,35,268,44,25,66,301,48,29,37,216,43,30,22,282,43*76
$GPGSA,M,3,12,14,25,29,30,,,,,,,,4.9,2.5,4.2*3B
Trace #62 at position 15.250000
$GPZDA,082723.04,08,10,2011,00,00*65
$GPRMC,082723.00,A,4611.968918,N,01258.207182,E,0$GPGGA,082724.00,4611.968697,N,01258.207203,E,1,05,2.5,143.84,M,46.25,M,,*6D
$GPGLL,4611.968697,N,01258.207203,E,082724.00,A,A*65
$GPVTG,201.3,T,201.5,M,000.7,N,001.3,K,A*20
$GPGSV,2,1,08,04,20,049,36,02,36,096,35,09,33,147,33,12,68,055,41*71
$GPGSV,2,2,08,14,35,268,44,25,66,301,48,29,37,216,42,30,22,282,44*70
$GPGSA,M,3,12,14,25,29,30,,,,,,,,4.9,2.5,4.3*3A
Trace #63 at position 15.500000
$GPZDA,082724.03,08,10,2011,00,00*65
$GPRMC,082724.00,A,4611.968697,N,01258.207203,E,000.7,201.3,081011,0.2,E,A*35
$GPGGA,082725.00,4611.968618,N,01258.207309,E,1,05,2.5,144.07,M,46.25,M,,*6C
$GPGLL,4611.968618,N,01258.207309,E,082725.00,A,A*68
$GPVTG,80.1,T,80.2,M,001.0,N,001.8,K,A*28
$GPGSV,2,1,08,04,20,049,34,02,36,096,36,09,33,147,33,12,68,055,40*71
$GPGSV,2,2,08,14,35,268,44,25,66,301,49,29,37,216,44,30,22,282,44*77
$GPGSA,M,3,12,14,25,29,30,,,,,,,,4.9,2.5,4.3*3A
Trace #64 at position 15.750000
$GPZDA,082724.03,08,10,2011,00,00*65
$GPRMC,082724.00,A,4611.968697,N,01258.207203,E,000.7,201.3,081011,0.2,E,A*35
$GPGGA,082725.00,4611.968618,N,01258.207309,E,1,05,2.5,144.07,M,46.25,M,,*6C
$GPGLL,4611.968618,N,01258.207309,E,082725.00,A,A*68
$GPVTG,80.1,T,80.2,M,001.0,N,001.8,K,A*28
$GPGSV,2,1,08,04,20,049,34,02,36,096,36,09,33,147,33,12,68,055,40*71
$GPGSV,2,2,08,14,35,268,44,25,66,301,49,29,37,216,44,30,22,282,44*77
$GPGSA,M,3,12,14,25,29,30,,,,,,,,4.9,2.5,4.3*3A
Trace #65 at position 16.000000
$GPZDA,082725.03,08,10,2011,00,00*64
$GPRMC,082725.00,A,4611.968618,N,01258.207309,E,001.0,80.1,081011,0.2,E,A*07
$GPGGA,082726.00,4611.968517,N,01258.207554,E,1,05,2.5,144.13,M,46.25,M,,*68
$GPGLL,4611.968517,N,01258.207554,E,082726.00,A,A*69
$GPVTG,141.6,T,141.7,M,000.9,N,001.7,K,A*2D
$GPGSV,2,1,08,04,20,049,36,02,36,096,35,09,33,147,31,12,68,055,41*73
$GPGSV,2,2,08,14,35,268,44,25,66,302,48,29,37,216,43,30,22,282,43*75
$GPGSA,M,3,12,14,25,29,30,,,,,,,,4.9,2.5,4.3*3A
Trace #66 at position 16.250000
$GPZDA,082725.03,08,10,2011,00,00*64
$GPRMC,082725.00,A,4611.968618,N,01258.207309,E,001.0,80.1,081011,0.2,E,A*07
$GPGGA,082726.00,4611.968517,N,01258.207554,E,1,05,2.5,144.13,M,46.25,M,,*68
$GPGLL,4611.968517,N,01258.207554,E,082726.00,A,A*69
$GPVTG,141.6,T,141.7,M,000.9,N,001.7,K,A*2D
$GPGSV,2,1,08,04,20,049,36,02,36,096,35,09,33,147,31,12,68,055,41*73
$GPGSV,2,2,08,14,35,268,44,25,66,302,48,29,37,216,43,30,22,282,43*75
$GPGSA,M,3,12,14,25,29,30,,,,,,,,4.9,2.5,4.3*3A
Trace #67 at position 16.500000
$GPZDA,082726.03,08,10,2011,00,00*67
$GPRMC,082726.00,A,4611.968517,N,01258.207554,E,000.9,141.6,081011,0.2,E,A*35
$GPGGA,082727.00,4611.968246,N,01258.207767,E,1,05,2.5,144.11,M,46.25,M,,*6A
$GPGLL,4611.968246,N,01258.207767,E,082727.00,A,A*69
$GPVTG,140.5,T,140.7,M,001.4,N,002.6,K,A*20
$GPGSV,2,1,08,04,20,049,36,02,36,096,35,09,33,147,31,12,68,055,40*72
$GPGSV,2,2,08,14,35,268,44,25,66,302,47,29,37,216,43,30,22,282,43*7A
$GPGSA,M,3,12,14,25,29,30,,,,,,,,4.9,2.5,4.3*3A
Trace #68 at position 16.750000
$GPZDA,082726.03,08,10,2011,00,00*67
$GPRMC,082726.00,A,4611.968517,N,01258.207554,E,000.9,141.6,081011,0.2,E,A*35
$GPGGA,082727.00,4611.968246,N,01258.207767,E,1,05,2.5,144.11,M,46.25,M,,*6A
$GPGLL,4611.968246,N,01258.207767,E,082727.00,A,A*69
$GPVTG,140.5,T,140.7,M,001.4,N,002.6,K,A*20
$GPGSV,2,1,08,04,20,049,36,02,36,096,35,09,33,147,31,12,68,055,40*72
$GPGSV,2,2,08,14,35,268,44,25,66,302,47,29,37,216,43,30,22,282,43*7A
$GPGSA,M,3,12,14,25,29,30,,,,,,,,4.9,2.5,4.3*3A
Trace #69 at position 17.000000
$GPZDA,082727.03,08,10,2011,00,00*66
$GPRMC,082727.00,A,4611.968246,N,01258.207767,E,001.4,140.5,081011,0.2,E,A*3B
$GPGGA,082728.00,4611.967997,N,01258.207935,E,1,05,2.5,144.17,M,46.25,M,,*62
$GPGLL,4611.967997,N,01258.207935,E,082728.00,A,A*67
$GPVTG,147.0,T,147.2,M,000.7,N,001.4,K,A*23
$GPGSV,2,1,08,04,20,049,37,02,36,096,35,09,33,147,32,12,68,055,40*70
$GPGSV,2,2,08,14,35,268,44,25,66,302,48,29,37,216,43,30,22,282,43*75
$GPGSA,M,3,12,14,25,29,30,,,,,,,,4.9,2.5,4.3*3A
Trace #70 at position 17.250000
$GPZDA,082727.03,08,10,2011,00,00*66
$GPRMC,082727.00,A,4611.968246,N,01258.207767,E,001.4,140.5,081011,0.2,E,A*3B
$GPGGA,082728.00,4611.967997,N,01258.207935,E,1,05,2.5,144.17,M,46.25,M,,*62
$GPGLL,4611.967997,N,01258.207935,E,082728.00,A,A*67
$GPVTG,147.0,T,147.2,M,000.7,N,001.4,K,A*23
$GPGSV,2,1,08,04,20,049,37,02,36,096,35,09,33,147,32,12,68,055,40*70
$GPGSV,2,2,08,14,35,268,44,25,66,302,48,29,37,216,43,30,22,282,43*75
$GPGSA,M,3,12,14,25,29,30,,,,,,,,4.9,2.5,4.3*3A
Trace #71 at position 17.500000
$GPZDA,082728.04,08,10,2011,00,00*6E
$GPRMC,082728.00,A,4611.967997,N,01258.207935,E,000.7,147.0,081011,0.2,E,A*35
$GPGGA,082729.00,4611.967783,N,01258.207947,E,1,05,2.5,144.20,M,46.25,M,,*69
$GPGLL,4611.967783,N,01258.207947,E,082729.00,A,A*68
$GPVTG,174.6,T,174.8,M,000.8,N,001.5,K,A*21
$GPGSV,2,1,08,04,20,049,38,02,36,096,35,09,33,147,31,12,68,055,39*72
$GPGSV,2,2,08,14,35,268,44,25,66,302,49,29,37,216,43,30,22,282,44*73
$GPGSA,M,3,12,14,25,29,30,,,,,,,,4.9,2.5,4.3*3A
Trace #72 at position 17.750000
$GPZDA,082729.03,08,10,2011,00,00*68
$GPRMC,082729.00,A,4611.967783,N,01258.207947,E,000.8,174.6,081011,0.2,E,A*33
$GPGGA,082730.00,4611.967588,N,01258.207926,E,1,05,2.5,144.22,M,46.25,M,,*6D
$GPGLL,4611.967588,N,01258.207926,E,082730.00,A,A*6E
$GPVTG,159.4,T,159.5,M,000.5,N,000.9,K,A*2E
$GPGSV,2,1,08,04,20,049,39,02,36,096,37,09,33,147,31,12,68,055,41*7E
$GPGSV,2,2,08,14,35,268,44,25,66,302,48,29,37,216,43,30,22,282,43*75
$GPGSA,M,3,12,14,25,29,30,,,,,,,,4.9,2.5,4.3*3A
Trace #73 at position 18.000000
$GPZDA,082730.03,08,10,2011,00,00*60
$GPRMC,082730.00,A,4611.967588,N,01258.207926,E,000.5,159.4,081011,0.2,E,A*35
$GPGGA,082731.00,4611.967406,N,01258.207997,E,1,05,2.5,144.34,M,46.25,M,,*66
$GPGLL,4611.967406,N,01258.207997,E,082731.00,A,A*62
$GPVTG,144.6,T,144.8,M,000.9,N,001.6,K,A*23
$GPGSV,2,1,08,04,20,049,38,02,36,096,37,09,33,147,32,12,68,055,40*7D
$GPGSV,2,2,08,14,35,268,45,25,66,302,49,29,37,216,44,30,22,282,43*72
$GPGSA,M,3,12,14,25,29,30,,,,,,,,4.9,2.5,4.3*3A
Trace #74 at position 18.250000
$GPZDA,082730.03,08,10,2011,00,00*60
$GPRMC,082730.00,A,4611.967588,N,01258.207926,E,000.5,159.4,081011,0.2,E,A*35
$GPGGA,082731.00,4611.967406,N,01258.207997,E,1,05,2.5,144.34,M,46.25,M,,*66
$GPGLL,4611.967406,N,01258.207997,E,082731.00,A,A*62
$GPVTG,144.6,T,144.8,M,000.9,N,001.6,K,A*23
$GPGSV,2,1,08,04,20,049,38,02,36,096,37,09,33,147,32,12,68,055,40*7D
$GPGSV,2,2,08,14,35,268,45,25,66,302,49,29,37,216,44,30,22,282,43*72
$GPGSA,M,3,12,14,25,29,30,,,,,,,,4.9,2.5,4.3*3A
Trace #75 at position 18.500000
$GPZDA,082730.03,08,10,2011,00,00*60
$GPRMC,082730.00,A,4611.967588,N,01258.207926,E,000.5,159.4,081011,0.2,E,A*35
$GPGGA,082731.00,4611.967406,N,01258.207997,E,1,05,2.5,144.34,M,46.25,M,,*66
$GPGLL,4611.967406,N,01258.207997,E,082731.00,A,A*62
$GPVTG,144.6,T,144.8,M,000.9,N,001.6,K,A*23
$GPGSV,2,1,08,04,20,049,38,02,36,096,37,09,33,147,32,12,68,055,40*7D
$GPGSV,2,2,08,14,35,268,45,25,66,302,49,29,37,216,44,30,22,282,43*72
$GPGSA,M,3,12,14,25,29,30,,,,,,,,4.9,2.5,4.3*3A
Trace #76 at position 18.750000
$GPZDA,082731.03,08,10,2011,00,00*61
$GPRMC,082731.00,A,4611.967406,N,01258.207997,E,000.9,144.6,081011,0.2,E,A*3B
$GPGGA,082732.00,4611.967199,N,01258.208086,E,1,05,2.5,144.46,M,46.25,M,,*65
$GPGLL,4611.967199,N,01258.208086,E,082732.00,A,A*64
$GPVTG,156.9,T,157.1,M,000.7,N,001.2,K,A*2E
$GPGSV,2,1,08,04,20,049,38,02,36,096,37,09,33,147,33,12,68.03,08,10,2011,00,00*62
$GPRMC,082732.00,A,4611.967199,N,01258.208086,E,000.7,156.9,081011,0.2,E,A*3F
$GPGGA,082733.00,4611.967028,N,01258.208151,E,1,05,2.5,144.58,M,46.25,M,,*6B
$GPGLL,4611.967028,N,01258.208151,E,082733.00,A,A*65
$GPVTG,139.1,T,139.3,M,000.5,N,001.0,K,A*25
$GPGSV,2,1,08,04,20,049,38,02,36,096,38,09,33,147,34,12,68,055,40*74
$GPGSV,2,2,08,14,35,268,44,25,66,302,49,29,37,216,44,30,22,282,43*73
$GPGSA,M,3,12,14,25,29,30,,,,,,,,4.9,2.5,4.3*3A
Trace #77 at position 19.000000
$GPZDA,082733.04,08,10,2011,00,00*64
$GPR5,139.1,081011,0.2,E,A*3D
$GPGGA,082734.00,4611.966822,N,01258.208294,E,1,05,2.5,144.64,M,46.25,M,,*6A
$GPGLL,4611.966822,N,01258.208294,E,082734.00,A,A*6B
$GPVTG,140.6,T,140.8,M,001.1,N,002.0,K,A*2F
$GPGSV,2,1,08,04,20,049,37,02,36,096,36,09,33,147,32,12,68,055,41*72
$GPGSV,2,2,08,14,35,268,44,25,66,302,49,29,37,216,43,30,22,282,44*73
$GPGSA,M,3,12,14,25,29,30,,,,,,,,4.9,2.5,4.3*3A
Trace #78 at position 19.250000
$GPZDA,082734.03,08,10,2011,00,00*64
$GPRMC,082734.00,A,4611.966822,N,01258.208294,E,001.1,140.6,081011,0.2,E,A*3F
$GPGGA,082735.00,4611.966575,N,01258.208494,E,1,05,2.5,144.63,M,46.25,M,,*65
$GPGLL,4611.966575,N,01258.208494,E,082735.00,A,A*63
$GPVTG,135.3,T,135.4,M,001.0,N,001.9,K,A*2D
$GPGSV,2,1,08,04,20,049,37,02,36,096,37,09,33,147,33,12,68,055,41*72
$GPGSV,2,2,08,14,35,268,45,25,66,302,49,29,37,216,43,30,22,282,44*72
$GPGSA,M,3,12,14,25,29,30,,,,,,,,4.9,2.5,4.3*3A
Trace #79 at position 19.500000
$GPZDA,082735.03,08,10,2011,00,00*65
$GPRMC,082735.00,A,4611.966575,N,01258.208494,E,001.0,135.3,081011,0.2,E,A*31
$GPGGA,082736.00,4611.966305,N,01258.208549,E,1,05,2.5,144.64,M,46.25,M,,*61
$GPGLL,4611.966305,N,01258.208549,E,082736.00,A,A*60
$GPVTG,184.8,T,185.0,M,001.1,N,002.0,K,A*28
$GPGSV,2,1,08,04,20,049,38,02,36,096,38,09,33,147,32,12,68,055,40*72
$GPGSV,2,2,08,14,35,268,45,25,66,302,48,29,37,216,45,30,22,282,45*74
$GPGSA,M,3,12,14,25,29,30,,,,,,,,4.9,2.5,4.3*3A
Trace #80 at position 19.750000
$GPZDA,082735.03,08,10,2011,00,00*65
$GPRMC,082735.00,A,4611.966575,N,01258.208494,E,001.0,135.3,081011,0.2,E,A*31
$GPGGA,082736.00,4611.966305,N,01258.208549,E,1,05,2.5,144.64,M,46.25,M,,*61
$GPGLL,4611.966305,N,01258.208549,E,082736.00,A,A*60
$GPVTG,184.8,T,185.0,M,001.1,N,002.0,K,A*28
$GPGSV,2,1,08,04,20,049,38,02,36,096,38,09,33,147,32,12,68,055,40*72
$GPGSV,2,2,08,14,35,268,45,25,66,302,48,29,37,216,45,30,22,282,45*74
$GPGSA,M,3,12,14,25,29,30,,,,,,,,4.9,2.5,4.3*3A
Trace #81 at position 20.000000
$GPZDA,082736.03,08,10,2011,00,00*66
$GPRMC,082736.00,A,4611.966305,N,01258.208549,E,001.1,184.8,081011,0.2,E,A*32
$GPGGA,082737.00,4611.966041,N,01258.208440,E,1,05,2.5,144.59,M,46.25,M,,*65
$GPGLL,4611.966041,N,01258.208440,E,082737.00,A,A*6A
$GPVTG,196.3,T,196.5,M,000.8,N,001.5,K,A*29
$GPGSV,2,1,08,04,20,049,38,02,36,096,37,09,33,147,34,12,68,055,39*75
$GPGSV,2,2,08,14,35,268,45,25,66,302,48,29,37,216,44,30,22,282,45*75
$GPGSA,M,3,12,14,25,29,30,,,,,,,,4.9,2.5,4.3*3A
Trace #82 at position 20.250000
$GPZDA,082737.03,08,10,2011,00,00*67
$GPRMC,082737.00,A,4611.966041,N,01258.208440,E,000.8,196.3,081011,0.2,E,A*38
$GPGGA,082738.00,4611.965890,N,01258.208409,E,1,05,2.5,144.55,M,46.25,M,,*6C
$GPGLL,4611.965890,N,01258.208409,E,082738.00,A,A*6F
$GPVTG,134.5,T,134.7,M,000.4,N,000.7,K,A*22
$GPGSV,2,1,08,04,20,049,35,02,36,096,39,09,33,147,35,12,68,055,39*77
$GPGSV,2,2,08,14,35,268,45,25,66,302,48,29,37,216,45,30,22,282,45*74
$GPGSA,M,3,12,14,25,29,30,,,,,,,,4.9,2.5,4.3*3A
Trace #83 at position 20.500000
$GPZDA,082737.03,08,10,2011,00,00*67
$GPRMC,082737.00,A,4611.966041,N,01258.208440,E,000.8,196.3,081011,0.2,E,A*38
$GPGGA,082738.00,4611.965890,N,01258.208409,E,1,05,2.5,144.55,M,46.25,M,,*6C
$GPGLL,4611.965890,N,01258.208409,E,082738.00,A,A*6F
$GPVTG,134.5,T,134.7,M,000.4,N,000.7,K,A*22
$GPGSV,2,1,08,04,20,049,35,02,36,096,39,09,33,147,35,12,68,055,39*77
$GPGSV,2,2,08,14,35,268,45,25,66,302,48,29,37,216,45,30,22,282,45*74
$GPGSA,M,3,12,14,25,29,30,,,,,,,,4.9,2.5,4.3*3A
Trace #84 at position 20.750000
$GPZDA,082738.04,08,10,2011,00,00*6F
$GPRMC,082738.00,A,4611.965890,N,01258.208409,E,000.4,134.5,081011,0.2,E,A*3F
$GPGGA,082739.00,4611.965733,N,01258.208537,E,1,05,2.5,144.52,M,46.25,M,,*60
$GPGLL,4611.965733,N,01258.208537,E,082739.00,A,A*64
$GPVTG,141.7,T,141.9,M,001.0,N,001.8,K,A*25
$GPGSV,2,1,08,04,20,049,32,02,36,096,38,09,33,147,32,12,68,055,40*78
$GPGSV,2,2,08,14,35,268,46,25,66,302,49,29,37,216,46,30,22,282,45*75
$GPGSA,M,3,12,14,25,29,30,,,,,,,,4.9,2.5,4.3*3A
Trace #85 at position 21.000000
$GPZDA,082739.04,08,10,2011,00,00*6E
$GPRMC,082739.00,A,4611.965733,N,01258.208537,E,001.0,141.7,081011,0.2,E,A*31
$GPGGA,082740.00,4611.965555,N,01258.208670,E,1,05,2.5,144.48,M,46.25,M,,*67
$GPGLL,4611.965555,N,01258.208670,E,082740.00,A,A*68
$GPVTG,143.7,T,143.9,M,000.5,N,001.0,K,A*29
$GPGSV,2,1,08,04,20,049,34,02,36,096,38,09,33,147,36,12,68,055,40*7A
$GPGSV,2,2,08,14,35,268,46,25,66,302,49,29,37,216,44,30,22,282,46*74
$GPGSA,M,3,12,14,25,29,30,,,,,,,,4.9,2.5,4.3*3A
Trace #86 at position 21.250000
$GPZDA,082739.04,08,10,2011,00,00*6E
$GPRMC,082739.00,A,4611.965733,N,01258.208537,E,001.0,141.7,081011,0.2,E,A*31
$GPGGA,082740.00,4611.965555,N,01258.208670,E,1,05,2.5,144.48,M,46.25,M,,*67
$GPGLL,4611.965555,N,01258.208670,E,082740.00,A,A*68
$GPVTG,143.7,T,143.9,M,000.5,N,001.0,K,A*29
$GPGSV,2,1,08,04,20,049,34,02,36,096,38,09,33,147,36,12,68,055,40*7A
$GPGSV,2,2,08,14,35,268,46,25,66,302,49,29,37,216,44,30,22,282,46*74
$GPGSA,M,3,12,14,25,29,30,,,,,,,,4.9,2.5,4.3*3A
Trace #87 at position 21.500000
$GPZDA,082740.03,08,10,2011,00,00*67
$GPRMC,082740.00,A,4611.965555,N,01258.208670,E,000.5,143.7,081011,0.2,E,A*3B
$GPGGA,082741.00,4611.965479,N,01258.208800,E,1,05,2.5,144.50,M,46.25,M,,*69
$GPGLL,4611.965479,N,01258.208800,E,082741.00,A,A*6F
$GPVTG,85.6,T,85.8,M,000.6,N,001.2,K,A*28
$GPGSV,2,1,08,04,20,049,36,02,36,096,38,09,33,147,36,12,68,055,40*78
$GPGSV,2,2,08,14,35,268,44,25,66,302,48,29,37,216,44,30,22,282,43*72
$GPGSA,M,3,12,14,25,29,30,,,,,,,,4.9,2.5,4.3*3A
Trace #88 at position 21.750000
$GPZDA,082741.03,08,10,2011,00,00*66
$GPRMC,082741.00,A,4611.965479,N,01258.208800,E,000.6,85.6,081011,0.2,E,A*05
$GPGGA,082742.00,4611.965302,N,01258.208913,E,1,05,2.5,144.50,M,46.25,M,,*62
$GPGLL,4611.965302,N,01258.208913,E,082742.00,A,A*64
$GPVTG,167.9,T,168.1,M,001.2,N,002.2,K,A*27
$GPGSV,2,1,08,04,20,049,34,02,36,096,38,09,33,147,34,12,68,055,39*76
$GPGSV,2,2,08,14,35,268,45,25,66,302,48,29,37,216,45,30,22,282,45*74
$GPGSA,M,3,12,14,25,29,30,,,,,,,,4.9,2.5,4.3*3A
Trace #89 at position 22.000000
$GPZDA,082742.03,08,10,2011,00,00*65
$GPRMC,082742.00,A,4611.965302,N,01258.208913,E,001.2,167.9,081011,0.2,E,A*39
$GPGGA,082743.00,4611.965057,N,01258.208961,E,1,05,2.5,144.49,M,46.25,M,,*6D
$GPGLL,4611.965057,N,01258.208961,E,082743.00,A,A*63
$GPVTG,150.9,T,151.1,M,000.5,N,001.0,K,A*2E
$GPGSV,2,1,08,04,20,049,,02,36,096,38,09,33,147,36,12,68,055,41*7C
$GPGSV,2,2,08,14,35,268,45,25,66,302,48,29,37,216,45,30,22,282,46*77
$GPGSA,M,3,12,14,25,29,30,,,,,,,,4.9,2.5,4.3*3A
Trace #90 at position 22.250000
$GPZDA,082743.03,08,10,2011,00,00*64
$GPRMC,082743.00,A,4611.965057,N,01258.208961,E,000.5,150.9,081011,0.2,E,A*3C
$GPGGA,082744.00,4611.964932,N,01258.209069,E,1,05,2.5,144.49,M,46.25,M,,*61
$GPGLL,4611.964932,N,01258.209069,E,082744.00,A,A*6F
$GPVTG,109.4,T,109.6,M,000.6,N,001.1,K,A*27
$GPGSV,2,1,08,04,20,049,33,02,36,096,38,09,33,147,35,12,68,055,38*71
$GPGSV,2,2,08,14,35,2
$GPGSA,M,3,12,14,25,29,30,,,,,,,,4.9,2.5,4.3*3A
Trace #91 at position 22.500000
$GPZDA,082744.03,08,10,2011,00,00*63
$GPRMC,082744.00,A,4611.964932,N,01258.209069,E,000.6,109.4,081011,0.2,E,A*32
$GPGGA,082745.00,4611.964712,N,01258.209214,E,1,05,2.5,144.37,M,46.25,M,,*6D
$GPGLL,4611.964712,N,01258.209214,E,082745.00,A,A*6A
$GPVTG,157.3,T,157.5,M,001.3,N,002.4,K,A*21
$GPGSV,2,1,08,04,20,049,33,02,36,096,38,09,33,147,33,12,68,055,40*78
$GPGSV,2,2,08,14,35,268,45,25,66,302,48,29,37,216,45,30,22,282,45*74
$GPGSA,M,3,12,14,25,29,30,,,C,082745.00,A,4611.964712,N,01258.209214,E,001.3,157.3,081011,0.2,E,A*3F
Trace #92 at position 22.750000
$GPGGA,082746.00,4611.964381,N,01258.209424,E,1,05,2.5,144.17,M,46.25,M,,*67
$GPGLL,4611.964381,N,01258.209424,E,082746.00,A,A*62
$GPVTG,139.7,T,139.8,M,001.5,N,002.7,K,A*2D
$GPGSV,2,1,08,04,20,049,31,02,36,096,36,09,33,147,35,12,68,055,38*7D
$GPGSV,2,2,08,14,35,268,44,25,66,302,49,29,37,216,45,30,22,282,46*77
$GPGSA,M,3,12,14,25,29,30,,,,,,,,4.9,2.5,4.3*3A
Trace #93 at position 23.000000
$GPGGA,082746.00,4611.964381,N,01258.209424,E,1,05,2.5,144.17,M,46.25,M,,*67
$GPGLL,4611.964381,N,01258.209424,E,082746.00,A,A*62
$GPVTG,139.7,T,139.8,M,001.5,N,002.7,K,A*2D
$GPGSV,2,1,08,04,20,049,31,02,36,096,36,09,33,147,35,12,68,055,38*7D
$GPGSV,2,2,08,14,35,268,44,25,66,302,49,29,37,216,45,30,22,282,46*77
$GPGSA,M,3,12,14,25,29,30,,,,,,,,4.9,2.5,4.3*3A
Trace #94 at position 23.250000
$GPZDA,082747.03,08,10,2011,00,00*60
$GPRMC,082747.00,A,4611.964166,N,01258.209464,E,000.5,220.4,081011,0.2,E,A*3A
$GPGGA,082748.00,4611.964111,N,01258.209334,E,1,05,2.5,144.18,M,46.25,M,,*6B
$GPGLL,4611.964111,N,01258.209334,E,082748.00,A,A*61
$GPVTG,343.4,T,343.5,M,000.1,N,000.2,K,A*21
$GPGSV,2,1,08,04,20,049,32,02,36,096,38,09,33,147,36,12,68,055,38*73
$GPGSV,2,2,08,14,35,268,44,25,66,302,48,29,37,216,44,30,22,282,47*76
$GPGSA,M,3,12,14,25,29,30,,,,,,,,4.9,2.5,4.3*3A
Trace #95 at position 23.500000
$GPZDA,082748.03,08,10,2011,00,00*6F
$GPRMC,082748.00,A,4611.964111,N,01258.209334,E,000.1,343.4,081011,0.2,E,A*37
$GPGGA,082749.00,4611.963996,N,01258.209087,E,1,05,2.5,144.27,M,46.25,M,,*6D
$GPGLL,4611.963996,N,01258.209087,E,082749.00,A,A*6B
$GPVTG,234.7,T,234.8,M,001.4,N,002.5,K,A*2E
$GPGSV,2,1,08,04,20,049,29,02,36,096,36,09,33,147,32,12,68,055,40*7C
$GPGSV,2,2,08,14,35,268,44,25,66,302,49,29,37,216,46,30,22,282,46*74
$GPGSA,M,3,12,14,25,29,30,,,,,,,,4.9,2.5,4.3*3A
Trace #96 at position 23.750000
$GPZDA,082749.03,08,10,2011,00,00*6E
$GPRMC,082749.00,A,4611.963996,N,01258.209087,E,001.4,234.7,081011,0.2,E,A*3B
$GPGGA,082750.00,4611.963791,N,01258.208867,E,1,05,2.5,144.12,M,46.25,M,,*6D
$GPGLL,4611.963791,N,01258.208867,E,082750.00,A,A*6D
$GPVTG,191.4,T,191.6,M,000.6,N,001.2,K,A*24
$GPGSV,2,1,08,04,20,049,36,02,36,096,38,09,33,147,35,12,68,055,40*7B
$GPGSV,2,2,08,14,35,268,44,25,66,302,49,29,37,216,45,30,22,282,45*74
$GPGSA,M,3,12,14,25,29,30,,,,,,,,4.9,2.5,4.3*3A
Trace #97 at position 24.000000
$GPZDA,082750.03,08,10,2011,00,00*66
$GPRMC,082750.00,A,4611.963791,N,01258.208867,E,000.6,191.4,081011,0.2,E,A*31
$GPGGA,082751.00,4611.963683,N,01258.208936,E,1,05,2.5,144.07,M,46.25,M,,*6F
$GPGLL,4611.963683,N,01258.208936,E,082751.00,A,A*6B
$GPVTG,95.9,T,96.0,M,000.3,N,000.6,K,A*2C
$GPGSV,2,1,08,04,20,049,33,02,36,096,39,09,33,147,33,12,68,055,40*79
$GPGSV,2,2,08,14,35,268,45,25,66,302,49,29,37,216,46,30,22,282,45*76
$GPGSA,M,3,12,14,25,29,30,,,,,,,,4.9,2.5,4.3*3A
Trace #98 at position 24.250000
$GPZDA,082752.03,08,10,2011,00,00*64
$GPRMC,082752.00,A,4611.963523,N,01258.209096,E,001.0,156.5,081011,0.2,E,A*32
$GPGGA,082753.00,4611.963337,N,01258.209264,E,1,06,1.6,143.97,M,46.25,M,,*67
$GPGLL,4611.963337,N,01258.209264,E,082753.00,A,A*6E
$GPVTG,144.7,T,144.8,M,000.4,N,000.6,K,A*2E
$GPGSV,2,1,08,04,20,049,33,02,36,096,40,09,33,147,32,12,68,055,40*76
$GPGSV,2,2,08,14,35,268,45,25,66,302,48,29,37,216,46,30,22,282,46*74
$GPGSA,M,3,02,12,14,25,29,30,,,,,,,2.9,1.6,2.4*3F
Trace #99 at position 24.500000
$GPZDA,082752.03,08,10,2011,00,00*64
$GPRMC,082752.00,A,4611.963523,N,01258.209096,E,001.0,156.5,081011,0.2,E,A*32
$GPGGA,082753.00,4611.963337,N,01258.209264,E,1,06,1.6,143.97,M,46.25,M,,*67
$GPGLL,4611.963337,N,01258.209264,E,082753.00,A,A*6E
$GPVTG,144.7,T,144.8,M,000.4,N,000.6,K,A*2E
$GPGSV,2,1,08,04,20,049,33,02,36,096,40,09,33,147,32,12,68,055,40*76
$GPGSV,2,2,08,14,35,268,45,25,66,302,48,29,37,216,46,30,22,282,46*74
$GPGSA,M,3,02,12,14,25,29,30,,,,,,,2.9,1.6,2.4*3F
Trace #100 at position 24.750000
$GPZDA,082753.04,08,10,2011,00,00*62
$GPRMC,082753.00,A,4611.963337,N,01258.209264,E,000.4,144.7,081011,0.2,E,A*3B
$GPGGA,082754.00,4611.963218,N,01258.209318,E,1,06,1.6,143.86,M,46.25,M,,*66
$GPGLL,4611.963218,N,01258.209318,E,082754.00,A,A*6F
$GPVTG,194.9,T,195.1,M,000.5,N,000.9,K,A*26
$GPGSV,2,1,08,04,20,049,30,02,36,096,36,09,33,147,35,12,68,055,40*73
$GPGSV,2,2,08,14,35,268,44,25,66,302,48,29,37,216,45,30,22,282,46*76
$GPGSA,M,3,02,12,14,25,29,30,,,,,,,2.9,1.6,2.4*3F
Trace #101 at position 25.000000
$GPZDA,082754.04,08,10,2011,00,00*65
$GPRMC,082754.00,A,4611.963218,N,01258.209318,E,000.5,194.9,081011,0.2,E,A*38
$GPGGA,082755.00,4611.963054,N,01258.209356,E,1,06,1.6,143.71,M,46.25,M,,*6F
$GPGLL,4611.963054,N,01258.209356,E,082755.00,A,A*6E
$GPVTG,172.9,T,173.1,M,000.7,N,001.2,K,A*2E
$GPGSV,2,1,08,04,20,049,31,02,36,096,38,09,33,147,36,12,68,055,41*7E
$GPGSV,2,2,08,14,35,268,44,25,66,302,48,29,37,216,46,30,22,282,46*75
$GPGSA,M,3,02,12,14,25,29,30,,,,,,,2.9,1.6,2.4*3F
Trace #102 at position 25.250000
$GPGGA,082759.00,4611.962643,N,01258.209719,E,1,06,1.6,143.51,M,46.25,M,,*6F
$GPGLL,4611.962643,N,01258.209719,E,082759.00,A,A*6C
$GPVTG,194.3,T,194.5,M,000.1,N,000.1,K,A*25
$GPGSV,2,1,08,04,20,049,33,02,36,096,40,09,33,147,34,12,68,055,39*7E
$GPGSV,2,2,08,14,35,268,44,25,66,302,47,29,38,216,44,30,22,282,45*74
$GPGSA,M,3,02,12,14,25,29,30,,,,,,,2.9,1.6,2.4*3F
Trace #103 at position 25.500000
$GPZDA,082759.03,08,10,2011,00,00*6F
$GPRMC,082759.00,A,4611.962643,N,01258.209719,E,000.1,194.3,081011,0.2,E,A*35
$GPGGA,082800.00,4611.962527,N,01258.209809,E,1,05,2.5,143.58,M,46.25,M,,*69
$GPGLL,4611.962527,N,01258.209809,E,082800.00,A,A*60
$GPVTG,138.1,T,138.2,M,000.9,N,001.8,K,A*20
$GPGSV,2,1,08,04,20,049,29,02,36,096,36,09,33,147,36,12,68,055,41*79
$GPGSV,2,2,08,14,35,268,45,25,66,302,48,29,38,216,44,30,22,282,45*7A
$GPGSA,M,3,12,14,25,29,30,,,,,,,,4.9,2.5,4.3*3A
Trace #104 at position 25.750000
$GPZDA,082800.04,08,10,2011,00,00*6B
$GPRMC,082800.00,A,4611.962527,N,01258.209809,E,000.9,138.1,081011,0.2,E,A*35
$GPGGA,082801.00,4611.962316,N,01258.209905,E,1,05,2.5,143.70,M,46.25,M,,*6B
$GPGLL,4611.962316,N,01258.209905,E,082801.00,A,A*68
$GPVTG,177.9,T,178.1,M,000.8,N,001.5,K,A*28
$GPGSV,2,1,08,04,20,049,34,02,36,096,36,09,33,147,35,12,68,055,38*78
$GPGSV,2,2,08,14,35,268,44,25,66,302,47,29,38,216,45,30,22,282,44*74
$GPGSA,M,3,12,14,25,29,30,,,,,,,,4.9,2.5,4.3*3A
Trace #105 at position 26.000000
$GPZDA,082800.04,08,10,2011,00,00*6B
$GPRMC,082800.00,A,4611.962527,N,01258.209809,E,000.9,138.1,081011,0.2,E,A*35
$GPGGA,082801.00,4611.962316,N,01258.209905,E,1,05,2.5,143.70,M,46.25,M,,*6B
$GPGLL,4611.962316,N,01258.209905,E,082801.00,A,A*68
$GPVTG,177.9,T,178.1,M,000.8,N,001.5,K,A*28
$GPGSV,2,1,08,04,20,049,34,02,36,096,36,09,33,147,35,12,68,055,38*78
$GPGSV,2,2,08,14,35,268,44,25,66,302,47,29,38,216,45,30,22,282,44*74
$GPGSA,M,3,12,14,25,29,30,,,,,,,,4.9,2.5,4.3*3A
Trace #106 at position 26.250000
$GPZDA,082801.03,08,10,2011,00,00*6D
$GPRMC,082801.00,A,4611.962316,N,01258.209905,E,000.8,177.9,081011,0.2,E,A*3F
$GPGGA,082802.00,4611.962234,N,01258.209917,E,1,06,1.6,143.75,M,46.25,M,,*6C
$GPGLL,4611.962234,N,01258.209917,E,082802.00,A,A*69
$GPVTG,351.7,T,351.9,M,000.3,N,000.5,K,A*2B
$GPGSV,2,1,08,04,20,049,33,02,36,096,41,09,33,147,36,12,68,055,40*73
$GPGSV,2,2,08,14,35,268,45,25,66,302,48,29,38,216,45,30,22,283,45*7A
$GPGSA,M,3,02,12,14,25,29,30,,,,,,,2.9,1.6,2.4*3F
Trace #107 at position 26.500000
$GPZDA,082801.03,08,10,2011,00,00*6D
$GPRMC,082801.00,A,4611.962316,N,01258.209905,E,000.8,177.9,081011,0.2,E,A*3F
$GPGGA,082802.00,4611.962234,N,01258.209917,E,1,06,1.6,143.75,M,46.25,M,,*6C
$GPGLL,4611.962234,N,01258.209917,E,082802.00,A,A*69
$GPVTG,351.7,T,351.9,M,000.3,N,000.5,K,A*2B
$GPGSV,2,1,08,04,20,049,33,02,36,096,41,09,33,147,36,12,68,055,40*73
$GPGSV,2,2,08,14,35,268,45,25,66,302,48,29,38,216,45,30,22,283,45*7A
$GPGSA,M,3,02,12,14,25,29,30,,,,,,,2.9,1.6,2.4*3F
Trace #108 at position 26.750000
$GPZDA,082802.04,08,10,2011,00,00*69
$GPRMC,082802.00,A,4611.962234,N,01258.209917,E,000.3,351.7,081011,0.2,E,A*3D
$GPGGA,082803.00,4611.962265,N,01258.209909,E,1,06,1.6,143.77,M,46.25,M,,*64
$GPGLL,4611.962265,N,01258.209909,E,082803.00,A,A*63
$GPVTG,305.4,T,305.5,M,000.1,N,000.2,K,A*21
$GPGSV,2,1,08,04,20,049,29,02,36,096,37,09,33,147,36,12,68,055,40*79
$GPGSV,2,2,08,14,35,268,44,25,66,302,49,29,38,216,45,30,22,283,45*7A
$GPGSA,M,3,02,12,14,25,29,30,,,,,,,2.9,1.6,2.4*3F
Trace #109 at position 27.000000
$GPZDA,082803.04,08,10,2011,00,00*68
$GPRMC,082803.00,A,4611.962265,N,01258.209909,E,000.1,305.4,081011,0.2,E,A*37
$GPGGA,082804.00,4611.962256,N,01258.209861,E,1,05,2.5,143.79,M,46.25,M,,*61
$GPGLL,4611.962256,N,01258.209861,E,082804.00,A,A*6B
$GPVTG,267.7,T,267.9,M,000.0,N,000.1,K,A*2C
$GPGSV,2,1,08,04,20,049,31,02,36,096,27,09,33,147,37,12,68,055,41*71
$GPGSV,2,2,08,14,35,268,45,25,66,302,48,29,38,216,45,30,22,283,46*79
$GPGSA,M,3,12,14,25,29,30,,,,,,,,4.9,2.5,4.3*3A
Trace #110 at position 27.250000
$GPZDA,082803.04,08,10,2011,00,00*68
$GPRMC,082803.00,A,4611.962265,N,01258.209909,E,000.1,305.4,081011,0.2,E,A*37
$GPGGA,082804.00,4611.962256,N,01258.209861,E,1,05,2.5,143.79,M,46.25,M,,*61
$GPGLL,4611.962256,N,01258.209861,E,082804.00,A,A*6B
$GPVTG,267.7,T,267.9,M,000.0,N,000.1,K,A*2C
$GPGSV,2,1,08,04,20,049,31,02,36,096,27,09,33,147,37,12,68,055,41*71
$GPGSV,2,2,08,14,35,268,45,25,66,302,48,29,38,216,45,30,22,283,46*79
$GPGSA,M,3,12,14,25,29,30,,,,,,,,4.9,2.5,4.3*3A
Trace #111 at position 27.500000
$GPZDA,082804.03,08,10,2011,00,00*68
$GPRMC,082804.00,A,4611.962256,N,01258.209861,E,000.0,267.7,081011,0.2,E,A*38
$GPGGA,082805.00,4611.962238,N,01258.209844,E,1,05,2.5,143.79,M,46.25,M,,*6F
$GPGLL,4611.962238,N,01258.209844,E,082805.00,A,A*65
$GPVTG,118.5,T,118.7,M,000.1,N,000.1,K,A*21
$GPGSV,2,1,08,04,20,049,32,02,36,096,34,09,33,147,37,12,68,055,41*70
$GPGSV,2,2,08,14,35,268,44,25,66,302,49,29,38,216,45,30,22,283,46*79
$GPGSA,M,3,12,14,25,29,30,,,,,,,,4.9,2.5,4.3*3A
Trace #112 at position 27.750000
$GPZDA,082805.03,08,10,2011,00,00*69
$GPRMC,082805.00,A,4611.962238,N,01258.209844,E,000.1,118.5,081011,0.2,E,A*3E
$GPGGA,082806.00,4611.962135,N,01258.209882,E,1,05,2.5,143.77,M,46.25,M,,*66
$GPGLL,4611.962135,N,01258.209882,E,082806.00,A,A*62
$GPVTG,157.8,T,158.0,M,000.6,N,001.1,K,A*22
$GPGSV,2,1,08,04,20,049,32,02,36,096,39,09,33,147,35,12,68,055,40*7E
$GPGSV,2,2,08,14,35,268,45,25,66,302,49,29,38,216,46,30,22,283,46*7B
$GPGSA,M,3,12,14,25,29,30,,,,,,,,4.9,2.5,4.3*3A
