Trace #1 at position 0.000000
$GPZDA,093707.03,08,10,2011,00,00*64
$GPRMC,093707.00,A,4611.952077,N,01258.218972,E,000.1,64.7,081011,0.2,E,A*05
$GPGGA,093708.00,4611.952073,N,01258.218998,E,1,04,3.7,139.27,M,46.25,M,,*67
$GPGLL,4611.952073,N,01258.218998,E,093708.00,A,A*69
$GPVTG,6.1,T,6.3,M,000.0,N,000.0,K,A*21
$GPGSV,2,1,07,02,34,059,48,12,43,094,52,14,16,239,,25,76,062,51*7A
$GPGSV,2,2,07,29,70,238,41,30,50,300,31,31,40,306,35,,,,*4C
$GPGSA,M,3,02,12,25,29,,,,,,,,,6.8,3.7,5.6*3A
Trace #2 at position 0.250000
$GPZDA,093747.03,08,10,2011,00,00*60
$GPRMC,093747.00,A,4611.951627,N,01258.219403,E,000.1,174.3,081011,0.2,E,A*3F
$GPGGA,093748.00,4611.951616,N,01258.219406,E,1,05,2.8,139.12,M,46.25,M,,*67
$GPGLL,4611.951616,N,01258.219406,E,093748.00,A,A*60
$GPVTG,201.7,T,201.9,M,000.1,N,000.1,K,A*2D
$GPGSV,2,1,07,02,34,059,46,12,43,095,50,14,16,239,29,25,76,064,49*73
$GPGSV,2,2,07,29,70,238,44,30,50,300,,31,40,306,40,,,,*49
$GPGSA,M,3,02,12,25,29,31,,,,,,,,5.1,2.8,4.3*38
Trace #3 at position 0.500000
$GPZDA,093748.03,08,10,2011,00,00*6F
$GPRMC,093748.00,A,4611.951616,N,01258.219406,E,000.1,201.7,081011,0.2,E,A*32
$GPGGA,093749.00,4611.951621,N,01258.219408,E,1,05,2.8,139.06,M,46.25,M,,*69
$GPGLL,4611.951621,N,01258.219408,E,093749.00,A,A*6B
$GPVTG,354.7,T,354.8,M,000.1,N,000.1,K,A*2C
$GPGSV,2,1,07,02,34,059,46,12,43,095,50,14,16,239,31,25,76,064,48*7B
$GPGSV,2,2,07,29,70,238,44,30,50,300,,31,40,306,38,,,,*46
$GPGSA,M,3,02,12,25,29,31,,,,,,,,5.1,2.8,4.3*38
Trace #4 at position 0.750000
$GPZDA,093750.03,08,10,2011,00,00*66
$GPRMC,093750.00,A,4611.951629,N,01258.219415,E,000.0,176.7,081011,0.2,E,A*37
$GPGGA,093751.00,4611.951632,N,01258.219420,E,1,05,2.8,139.03,M,46.25,M,,*6D
$GPGLL,4611.951632,N,01258.219420,E,093751.00,A,A*6A
$GPVTG,334.6,T,334.7,M,000.0,N,000.0,K,A*22
$GPGSV,2,1,07,02,34,059,45,12,43,095,49,14,16,239,32,25,76,064,47*7C
$GPGSV,2,2,07,29,70,238,44,30,50,300,,31,40,306,37,,,,*49
$GPGSA,M,3,02,12,25,29,31,,,,,,,,5.1,2.8,4.3*38
Trace #5 at position 1.000000
$GPZDA,093751.03,08,10,2011,00,00*67
$GPRMC,093751.00,A,4611.951632,N,01258.219420,E,000.0,334.6,081011,0.2,E,A*3F
$GPGGA,093752.00,4611.951629,N,01258.219423,E,1,05,2.8,139.02,M,46.25,M,,*66
$GPGLL,4611.951629,N,01258.219423,E,093752.00,A,A*60
$GPVTG,186.3,T,186.5,M,000.1,N,000.1,K,A*25
$GPGSV,2,1,07,02,34,059,45,12,43,095,50,14,16,239,29,25,76,064,49*70
$GPGSV,2,2,07,29,70,238,43,30,50,300,,31,40,306,39,,,,*40
$GPGSA,M,3,02,12,25,29,31,,,,,,,,5.1,2.8,4.3*38
Trace #6 at position 1.250000
$GPZDA,093752.03,08,10,2011,00,00*64
$GPRMC,093752.00,A,4611.951629,N,01258.219423,E,000.1,186.3,081011,0.2,E,A*3A
$GPGGA,093753.00,4611.951646,N,01258.219427,E,1,04,3.7,139.07,M,46.25,M,,*60
$GPGLL,4611.951646,N,01258.219427,E,093753.00,A,A*6C
$GPVTG,5.0,T,5.1,M,000.1,N,000.2,K,A*21
$GPGSV,2,1,07,02,34,059,47,12,43,095,49,14,16,239,30,25,76,064,47*7C
$GPGSV,2,2,07,29,70,238,43,30,50,300,,31,40,306,35,,,,*4C
$GPGSA,M,3,02,12,25,29,,,,,,,,,6.8,3.7,5.7*3B
Trace #7 at position 1.500000
$GPZDA,093754.03,08,10,2011,00,00*62
$GPRMC,093754.00,A,4611.951707,N,01258.219408,E,000.2,336.2,081011,0.2,E,A*33
$GPGGA,093755.00,4611.951804,N,01258.219368,E,1,04,3.7,139.14,M,46.25,M,,*60
$GPGLL,4611.951804,N,01258.219368,E,093755.00,A,A*6E
$GPVTG,344.9,T,345.0,M,000.4,N,000.7,K,A*28
$GPGSV,2,1,07,02,34,059,45,12,42,095,50,14,16,239,28,25,76,064,48*71
$GPGSV,2,2,07,29,70,238,42,30,50,300,,31,40,306,38,,,,*40
$GPGSA,M,3,02,12,25,29,,,,,,,,,6.8,3.7,5.7*3B
Trace #8 at position 1.750000
$GPZDA,093755.03,08,10,2011,00,00*63
$GPRMC,093755.00,A,4611.951804,N,01258.219368,E,000.4,344.9,081011,0.2,E,A*37
$GPGGA,093756.00,4611.951904,N,01258.219334,E,1,04,3.7,139.12,M,46.25,M,,*6D
$GPGLL,4611.951904,N,01258.219334,E,093756.00,A,A*65
$GPVTG,348.9,T,349.1,M,000.3,N,000.5,K,A*2C
$GPGSV,2,1,07,02,34,059,46,12,42,095,49,14,16,239,29,25,76,064,48*7B
$GPGSV,2,2,07,29,70,238,44,30,50,300,,31,40,306,35,,,,*4B
$GPGSA,M,3,02,12,25,29,,,,,,,,,6.8,3.7,5.7*3B
Trace #9 at position 2.000000
$GPZDA,093756.03,08,10,2011,00,00*60
$GPRMC,093756.00,A,4611.951904,N,01258.219334,E,000.3,348.9,081011,0.2,E,A*37
$GPGGA,093757.00,4611.952025,N,01258.219271,E,1,04,3.7,139.07,M,46.25,M,,*61
$GPGLL,4611.952025,N,01258.219271,E,093757.00,A,A*6D
$GPVTG,335.6,T,335.7,M,000.6,N,001.1,K,A*24
$GPGSV,2,1,07,02,34,059,44,12,42,095,49,14,16,239,31,25,76,064,48*70
$GPGSV,2,2,07,29,70,238,44,30,50,300,35,31,40,306,37,,,,*4F
$GPGSA,M,3,02,12,25,29,,,,,,,,,6.8,3.7,5.7*3B
Trace #10 at position 2.250000
$GPZDA,093757.03,08,10,2011,00,00*61
$GPRMC,093757.00,A,4611.952025,N,01258.219271,E,000.6,335.6,081011,0.2,E,A*3F
$GPGGA,093758.00,4611.952133,N,01258.219245,E,1,04,3.7,139.02,M,46.25,M,,*6A
$GPGLL,4611.952133,N,01258.219245,E,093758.00,A,A*63
$GPVTG,33.5,T,33.7,M,000.2,N,000.4,K,A*27
$GPGSV,2,1,07,02,34,059,46,12,42,095,50,14,16,239,30,25,76,064,48*7B
$GPGSV,2,2,07,29,70,238,42,30,50,300,33,31,40,306,35,,,,*4D
$GPGSA,M,3,02,12,25,29,,,,,,,,,6.8,3.7,5.7*3B
Trace #11 at position 2.500000
$GPZDA,093757.03,08,10,2011,00,00*61
$GPRMC,093757.00,A,4611.952025,N,01258.219271,E,000.6,335.6,081011,0.2,E,A*3F
$GPGGA,093758.00,4611.952133,N,01258.219245,E,1,04,3.7,139.02,M,46.25,M,,*6A
$GPGLL,4611.952133,N,01258.219245,E,093758.00,A,A*63
$GPVTG,33.5,T,33.7,M,000.2,N,000.4,K,A*27
$GPGSV,2,1,07,02,34,059,46,12,42,095,50,14,16,239,30,25,76,064,48*7B
$GPGSV,2,2,07,29,70,238,42,30,50,300,33,31,40,306,35,,,,*4D
$GPGSA,M,3,02,12,25,29,,,,,,,,,6.8,3.7,5.7*3B
Trace #12 at position 2.750000
$GPZDA,093759.03,08,10,2011,00,00*6F
$GPRMC,093759.00,A,4611.952252,N,01258.219190,E,000.7,329.2,081011,0.2,E,A*37
$GPGGA,093800.00,4611.952363,N,01258.219077,E,1,04,3.7,139.02,M,46.25,M,,*6C
$GPGLL,4611.952363,N,01258.219077,E,093800.00,A,A*65
$GPVTG,311.2,T,311.4,M,000.2,N,000.5,K,A*22
$GPGSV,2,1,07,02,34,059,46,12,42,095,49,14,16,239,31,25,76,064,47*7D
$GPGSV,2,2,07,29,70,238,42,30,50,300,38,31,40,306,32,,,,*41
$GPGSA,M,3,02,12,25,29,,,,,,,,,6.8,3.7,5.7*3B
Trace #13 at position 3.000000
$GPZDA,093800.03,08,10,2011,00,00*6C
$GPRMC,093800.00,A,4611.952363,N,01258.219077,E,000.2,311.2,081011,0.2,E,A*31
$GPGGA,093801.00,4611.952495,N,01258.219008,E,1,04,3.7,138.88,M,46.25,M,,*68
$GPGLL,4611.952495,N,01258.219008,E,093801.00,A,A*62
$GPVTG,348.3,T,348.5,M,000.7,N,001.4,K,A*27
$GPGSV,2,1,07,02,34,059,46,12,42,095,50,14,16,239,30,25,76,064,48*7B
$GPGSV,2,2,07,29,70,238,41,30,50,300,33,31,40,306,32,,,,*49
$GPGSA,M,3,02,12,25,29,,,,,,,,,6.8,3.7,5.7*3B
Trace #14 at position 3.250000
$GPZDA,093801.03,08,10,2011,00,00*6D
$GPRMC,093801.00,A,4611.952495,N,01258.219008,E,000.7,348.3,081011,0.2,E,A*3E
$GPGGA,093802.00,4611.952700,N,01258.218963,E,1,04,3.7,138.59,M,46.25,M,,*6D
$GPGLL,4611.952700,N,01258.218963,E,093802.00,A,A*6B
$GPVTG,356.6,T,356.8,M,000.8,N,001.4,K,A*20
$GPGSV,2,1,07,02,34,059,46,12,42,095,50,14,16,239,30,25,76,064,47*74
$GPGSV,2,2,07,29,70,238,43,30,50,300,37,31,40,306,31,,,,*4C
$GPGSA,M,3,02,12,25,29,,,,,,,,,6.8,3.7,5.7*3B
Trace #15 at position 3.500000
$GPZDA,093802.03,08,10,2011,00,00*6E
$GPRMC,093802.00,A,4611.952700,N,01258.218963,E,000.8,356.6,081011,0.2,E,A*32
$GPGGA,093803.00,4611.952911,N,01258.218880,E,1,04,3.7,138.31,M,46.25,M,,*60
$GPGLL,4611.952911,N,01258.218880,E,093803.00,A,A*68
$GPVTG,337.3,T,337.5,M,000.9,N,001.6,K,A*2B
$GPGSV,2,1,07,02,34,059,46,12,42,095,50,14,16,239,31,25,76,064,47*75
$GPGSV,2,2,07,29,70,238,41,30,50,300,37,31,40,306,,,,,*4C
$GPGSA,M,3,02,12,25,29,,,,,,,,,6.8,3.7,5.7*3B
Trace #16 at position 3.750000
$GPZDA,093803.03,08,10,2011,00,00*6F
$GPRMC,093803.00,A,4611.952911,N,01258.218880,E,000.9,337.3,081011,0.2,E,A*32
$GPGGA,093804.00,4611.953061,N,01258.218749,E,1,04,3.7,138.39,M,46.25,M,,*6A
$GPGLL,4611.953061,N,01258.218749,E,093804.00,A,A*6A
$GPVTG,313.5,T,313.7,M,000.5,N,000.9,K,A*2D
$GPGSV,2,1,07,02,34,059,46,12,42,095,49,14,16,239,,25,76,064,47*7F
$GPGSV,2,2,07,29,70,238,40,30,50,300,36,31,40,306,36,,,,*49
$GPGSA,M,3,02,12,25,29,,,,,,,,,6.8,3.7,5.7*3B
Trace #17 at position 4.000000
$GPZDA,093804.03,08,10,2011,00,00*68
$GPRMC,093804.00,A,4611.953061,N,01258.218749,E,000.5,313.5,081011,0.2,E,A*3C
$GPGGA,093805.00,4611.953171,N,01258.218667,E,1,04,3.7,138.69,M,46.25,M,,*63
$GPGLL,4611.953171,N,01258.218667,E,093805.00,A,A*66
$GPVTG,350.8,T,351.0,M,000.5,N,001.0,K,A*2E
$GPGSV,2,1,07,02,34,059,46,12,42,095,49,14,16,239,31,25,76,064,47*7D
$GPGSV,2,2,07,29,70,238,40,30,50,300,35,31,40,306,37,,,,*4B
$GPGSA,M,3,02,12,25,29,,,,,,,,,6.8,3.7,5.7*3B
Trace #18 at position 4.250000
$GPZDA,093805.03,08,10,2011,00,00*69
$GPRMC,093805.00,A,4611.953171,N,01258.218667,E,000.5,350.8,081011,0.2,E,A*3A
$GPGGA,093806.00,4611.953302,N,01258.218669,E,1,04,3.7,138.88,M,46.25,M,,*67
$GPGLL,4611.953302,N,01258.218669,E,093806.00,A,A*6D
$GPVTG,12.8,T,12.9,M,000.5,N,000.9,K,A*2E
$GPGSV,2,1,07,02,34,059,46,12,42,095,50,14,15,239,34,25,76,064,48*7C
$GPGSV,2,2,07,29,70,238,39,30,50,300,32,31,40,306,33,,,,*46
$GPGSA,M,3,02,12,25,29,,,,,,,,,6.8,3.7,5.7*3B
Trace #19 at position 4.500000
$GPZDA,093806.03,08,10,2011,00,00*6A
$GPRMC,093806.00,A,4611.953302,N,01258.218669,E,000.5,12.8,081011,0.2,E,A*04
$GPGGA,093807.00,4611.953409,N,01258.218747,E,1,04,3.7,139.05,M,46.25,M,,*63
$GPGLL,4611.953409,N,01258.218747,E,093807.00,A,A*6D
$GPVTG,44.0,T,44.2,M,000.5,N,001.0,K,A*25
$GPGSV,2,1,07,02,34,059,45,12,42,095,49,14,15,239,33,25,76,064,48*70
$GPGSV,2,2,07,29,70,238,39,30,50,300,,31,40,306,33,,,,*47
$GPGSA,M,3,02,12,25,29,,,,,,,,,6.8,3.7,5.7*3B
Trace #20 at position 4.750000
$GPZDA,093807.03,08,10,2011,00,00*6B
$GPRMC,093807.00,A,4611.953409,N,01258.218747,E,000.5,44.0,081011,0.2,E,A*0F
$GPGGA,093808.00,4611.953543,N,01258.218770,E,1,04,3.7,139.11,M,46.25,M,,*62
$GPGLL,4611.953543,N,01258.218770,E,093808.00,A,A*69
$GPVTG,349.7,T,349.8,M,000.7,N,001.4,K,A*2E
$GPGSV,2,1,07,02,34,059,44,12,42,095,49,14,15,239,33,25,76,064,48*71
$GPGSV,2,2,07,29,70,238,40,30,50,300,,31,40,306,34,,,,*4E
$GPGSA,M,3,02,12,25,29,,,,,,,,,6.8,3.7,5.7*3B
Trace #21 at position 5.000000
$GPZDA,093808.03,08,10,2011,00,00*64
$GPRMC,093808.00,A,4611.953543,N,01258.218770,E,000.7,349.7,081011,0.2,E,A*30
$GPGGA,093809.00,4611.953707,N,01258.218709,E,1,04,3.7,139.09,M,46.25,M,,*66
$GPGLL,4611.953707,N,01258.218709,E,093809.00,A,A*64
$GPVTG,356.6,T,356.7,M,000.6,N,001.1,K,A*24
$GPGSV,2,1,07,02,34,059,44,12,42,095,49,14,15,239,33,25,76,064,49*70
$GPGSV,2,2,07,29,70,238,40,30,50,300,35,31,40,306,32,,,,*4E
$GPGSA,M,3,02,12,25,29,,,,,,,,,6.8,3.7,5.7*3B
Trace #22 at position 5.250000
$GPZDA,093809.03,08,10,2011,00,00*65
$GPRMC,093809.00,A,4611.953707,N,01258.218709,E,000.6,356.6,081011,0.2,E,A*33
$GPGGA,093810.00,4611.953799,N,01258.218624,E,1,04,3.7,139.08,M,46.25,M,,*66
$GPGLL,4611.953799,N,01258.218624,E,093810.00,A,A*65
$GPVTG,305.9,T,306.0,M,000.4,N,000.7,K,A*2A
$GPGSV,2,1,07,02,34,059,45,12,42,095,49,14,15,239,31,25,76,064,48*72
$GPGSV,2,2,07,29,70,238,38,30,50,300,37,31,40,306,32,,,,*43
$GPGSA,M,3,02,12,25,29,,,,,,,,,6.8,3.7,5.7*3B
Trace #23 at position 5.500000
$GPZDA,093810.03,08,10,2011,00,00*6D
$GPRMC,093810.00,A,4611.953799,N,01258.218624,E,000.4,305.9,081011,0.2,E,A*39
$GPGGA,093811.00,4611.953925,N,01258.218591,E,1,04,3.7,139.19,M,46.25,M,,*63
$GPGLL,4611.953925,N,01258.218591,E,093811.00,A,A*60
$GPVTG,17.1,T,17.2,M,000.8,N,001.6,K,A*2F
$GPGSV,2,1,07,02,34,059,45,12,42,095,49,14,15,239,32,25,76,064,48*71
$GPGSV,2,2,07,29,70,238,40,30,50,300,37,31,40,306,33,,,,*4D
$GPGSA,M,3,02,12,25,29,,,,,,,,,6.8,3.7,5.7*3B
Trace #24 at position 5.750000
$GPZDA,093813.03,08,10,2011,00,00*6E
$GPRMC,093813.00,A,4611.954021,N,01258.218890,E,000.5,332.0,081011,0.2,E,A*34
$GPGGA,093814.00,4611.953996,N,01258.218994,E,1,05,2.9,140.68,M,46.25,M,,*61
$GPGLL,4611.953996,N,01258.218994,E,093814.00,A,A*64
$GPVTG,6.2,T,6.3,M,000.3,N,000.5,K,A*24
$GPGSV,2,1,07,02,34,058,45,12,42,095,49,14,15,239,32,25,76,064,48*70
$GPGSV,2,2,07,29,70,238,39,30,50,300,39,31,40,306,33,,,,*4D
$GPGSA,M,3,02,12,25,29,30,,,,,,,,5.5,2.9,4.7*38
Trace #25 at position 6.000000
$GPZDA,093814.03,08,10,2011,00,00*69
$GPRMC,093814.00,A,4611.953996,N,01258.218994,E,000.3,6.2,081011,0.2,E,A*34
$GPGGA,093815.00,4611.954026,N,01258.219118,E,1,05,2.9,141.13,M,46.25,M,,*65
$GPGLL,4611.954026,N,01258.219118,E,093815.00,A,A*6D
$GPVTG,4.1,T,4.2,M,000.7,N,001.3,K,A*25
$GPGSV,2,1,07,02,34,058,46,12,42,095,49,14,15,239,,25,76,064,49*73
$GPGSV,2,2,07,29,70,238,41,30,50,300,37,31,40,306,35,,,,*4A
$GPGSA,M,3,02,12,25,29,30,,,,,,,,5.5,2.9,4.7*38
Trace #26 at position 6.250000
$GPZDA,093814.03,08,10,2011,00,00*69
$GPRMC,093814.00,A,4611.953996,N,01258.218994,E,000.3,6.2,081011,0.2,E,A*34
$GPGGA,093815.00,4611.954026,N,01258.219118,E,1,05,2.9,141.13,M,46.25,M,,*65
$GPGLL,4611.954026,N,01258.219118,E,093815.00,A,A*6D
$GPVTG,4.1,T,4.2,M,000.7,N,001.3,K,A*25
$GPGSV,2,1,07,02,34,058,46,12,42,095,49,14,15,239,,25,76,064,49*73
$GPGSV,2,2,07,29,70,238,41,30,50,300,37,31,40,306,35,,,,*4A
$GPGSA,M,3,02,12,25,29,30,,,,,,,,5.5,2.9,4.7*38
Trace #27 at position 6.500000
$GPZDA,093815.03,08,10,2011,00,00*68
$GPRMC,093815.00,A,4611.954026,N,01258.219118,E,000.7,4.1,081011,0.2,E,A*38
$GPGGA,093816.00,4611.954202,N,01258.219027,E,1,04,3.7,141.09,M,46.25,M,,*6A
$GPGLL,4611.954202,N,01258.219027,E,093816.00,A,A*67
$GPVTG,16.8,T,17.0,M,000.3,N,000.6,K,A*2F
$GPGSV,2,1,07,02,34,058,46,12,42,095,49,14,15,239,29,25,76,064,48*79
$GPGSV,2,2,07,29,70,238,40,30,50,300,36,31,40,306,35,,,,*4A
$GPGSA,M,3,02,12,25,29,,,,,,,,,6.8,3.7,5.7*3B
Trace #28 at position 6.750000
$GPZDA,093815.03,08,10,2011,00,00*68
$GPRMC,093815.00,A,4611.954026,N,01258.219118,E,000.7,4.1,081011,0.2,E,A*38
$GPGGA,093816.00,4611.954202,N,01258.219027,E,1,04,3.7,141.09,M,46.25,M,,*6A
$GPGLL,4611.954202,N,01258.219027,E,093816.00,A,A*67
$GPVTG,16.8,T,17.0,M,000.3,N,000.6,K,A*2F
$GPGSV,2,1,07,02,34,058,46,12,42,095,49,14,15,239,29,25,76,064,48*79
$GPGSV,2,2,07,29,70,238,40,30,50,300,36,31,40,306,35,,,,*4A
$GPGSA,M,3,02,12,25,29,,,,,,,,,6.8,3.7,5.7*3B
Trace #29 at position 7.000000
$GPZDA,093816.03,08,10,2011,00,00*6B
$GPRMC,093816.00,A,4611.954202,N,01258.219027,E,000.3,16.8,081011,0.2,E,A*0C
$GPGGA,093817.00,4611.954163,N,01258.219155,E,1,05,2.9,141.26,M,46.25,M,,*68
$GPGLL,4611.954163,N,01258.219155,E,093817.00,A,A*66
$GPVTG,96.5,T,96.6,M,000.2,N,000.4,K,A*26
$GPGSV,2,1,07,02,34,058,47,12,42,095,50,14,15,239,30,25,76,064,48*78
$GPGSV,2,2,07,29,70,238,41,30,50,300,38,31,40,306,35,,,,*45
$GPGSA,M,3,02,12,25,29,30,,,,,,,,5.5,2.9,4.7*38
Trace #30 at position 7.250000
$GPZDA,093817.03,08,10,2011,00,00*6A
$GPRMC,093817.00,A,4611.954163,N,01258.219155,E,000.2,96.5,081011,0.2,E,A*09
$GPGGA,093818.00,4611.954215,N,01258.219048,E,1,04,3.7,141.00,M,46.25,M,,*62
$GPGLL,4611.954215,N,01258.219048,E,093818.00,A,A*66
$GPVTG,299.1,T,299.2,M,000.1,N,000.2,K,A*23
$GPGSV,2,1,07,02,34,058,47,12,42,095,51,14,15,239,31,25,76,065,48*79
$GPGSV,2,2,07,29,70,238,41,30,50,300,36,31,40,306,37,,,,*49
$GPGSA,M,3,02,12,25,29,,,,,,,,,6.8,3.7,5.7*3B
Trace #31 at position 7.500000
$GPZDA,093817.03,08,10,2011,00,00*6A
$GPRMC,093817.00,A,4611.954163,N,01258.219155,E,000.2,96.5,081011,0.2,E,A*09
$GPGGA,093818.00,4611.954215,N,01258.219048,E,1,04,3.7,141.00,M,46.25,M,,*62
$GPGLL,4611.954215,N,01258.219048,E,093818.00,A,A*66
$GPVTG,299.1,T,299.2,M,000.1,N,000.2,K,A*23
$GPGSV,2,1,07,02,34,058,47,12,42,095,51,14,15,239,31,25,76,065,48*79
$GPGSV,2,2,07,29,70,238,41,30,50,300,36,31,40,306,37,,,,*49
$GPGSA,M,3,02,12,25,29,,,,,,,,,6.8,3.7,5.7*3B
Trace #32 at position 7.750000
$GPZDA,093818.03,08,10,2011,00,00*65
$GPRMC,093818.00,A,4611.954215,N,01258.219048,E,000.1,299.1,081011,0.2,E,A*33
$GPGGA,093819.00,4611.954184,N,01258.219054,E,1,05,2.9,141.14,M,46.25,M,,*6E
$GPGLL,4611.954184,N,01258.219054,E,093819.00,A,A*61
$GPVTG,320.9,T,321.0,M,000.3,N,000.6,K,A*2E
$GPGSV,2,1,07,02,34,058,47,12,42,095,51,14,15,239,,25,76,065,48*7B
$GPGSV,2,2,07,29,70,238,41,30,50,300,39,31,40,306,34,,,,*45
$GPGSA,M,3,02,12,25,29,30,,,,,,,,5.5,2.9,4.7*38
Trace #33 at position 8.000000
$GPZDA,093819.03,08,10,2011,00,00*64
$GPRMC,093819.00,A,4611.954184,N,01258.219054,E,000.3,320.9,081011,0.2,E,A*3D
$GPGGA,093820.00,4611.954254,N,01258.219041,E,1,05,2.9,141.19,M,46.25,M,,*63
$GPGLL,4611.954254,N,01258.219041,E,093820.00,A,A*61
$GPVTG,348.2,T,348.3,M,000.7,N,001.3,K,A*27
$GPGSV,2,1,07,02,34,058,47,12,42,095,48,14,15,239,,25,76,065,47*7C
$GPGSV,2,2,07,29,70,238,39,30,50,300,40,31,40,306,37,,,,*47
$GPGSA,M,3,02,12,25,29,30,,,,,,,,5.5,2.9,4.7*38
Trace #34 at position 8.250000
$GPZDA,093819.03,08,10,2011,00,00*64
$GPRMC,093819.00,A,4611.954184,N,01258.219054,E,000.3,320.9,081011,0.2,E,A*3D
$GPGGA,093820.00,4611.954254,N,01258.219041,E,1,05,2.9,141.19,M,46.25,M,,*63
$GPGLL,4611.954254,N,01258.219041,E,093820.00,A,A*61
$GPVTG,348.2,T,348.3,M,000.7,N,001.3,K,A*27
$GPGSV,2,1,07,02,34,058,47,12,42,095,48,14,15,239,,25,76,065,47*7C
$GPGSV,2,2,07,29,70,238,39,30,50,300,40,31,40,306,37,,,,*47
$GPGSA,M,3,02,12,25,29,30,,,,,,,,5.5,2.9,4.7*38
Trace #35 at position 8.500000
$GPZDA,093820.03,08,10,2011,00,00*6E
$GPRMC,093820.00,A,4611.954254,N,01258.219041,E,000.7,348.2,081011,0.2,E,A*3C
$GPGGA,093821.00,4611.954547,N,01258.219094,E,1,05,2.9,141.12,M,46.25,M,,*64
$GPGLL,4611.954547,N,01258.219094,E,093821.00,A,A*6D
$GPVTG,7.9,T,8.1,M,001.9,N,003.5,K,A*2A
$GPGSV,2,1,07,02,34,058,46,12,42,095,49,14,15,239,,25,76,065,48*73
$GPGSV,2,2,07,29,70,238,40,30,50,300,41,31,40,306,38,,,,*47
$GPGSA,M,3,02,12,25,29,30,,,,,,,,5.5,2.9,4.7*38
Trace #36 at position 8.750000
$GPZDA,093821.03,08,10,2011,00,00*6F
$GPRMC,093821.00,A,4611.954547,N,01258.219094,E,001.9,7.9,081011,0.2,E,A*3C
$GPGGA,093822.00,4611.954882,N,01258.218948,E,1,04,3.7,140.64,M,46.25,M,,*64
$GPGLL,4611.954882,N,01258.218948,E,093822.00,A,A*63
$GPVTG,317.5,T,317.6,M,000.3,N,000.5,K,A*26
$GPGSV,2,1,07,02,34,058,45,12,42,095,49,14,15,239,,25,76,065,48*70
$GPGSV,2,2,07,29,70,238,40,30,50,300,34,31,40,306,20,,,,*4C
$GPGSA,M,3,02,12,25,29,,,,,,,,,6.8,3.7,5.7*3B
Trace #37 at position 9.000000
$GPZDA,093821.03,08,10,2011,00,00*6F
$GPRMC,093821.00,A,4611.954547,N,01258.219094,E,001.9,7.9,081011,0.2,E,A*3C
$GPGGA,093822.00,4611.954882,N,01258.218948,E,1,04,3.7,140.64,M,46.25,M,,*64
$GPGLL,4611.954882,N,01258.218948,E,093822.00,A,A*63
$GPVTG,317.5,T,317.6,M,000.3,N,000.5,K,A*26
$GPGSV,2,1,07,02,34,058,45,12,42,095,49,14,15,239,,25,76,065,48*70
$GPGSV,2,2,07,29,70,238,40,30,50,300,34,31,40,306,20,,,,*4C
$GPGSA,M,3,02,12,25,29,,,,,,,,,6.8,3.7,5.7*3B
Trace #38 at position 9.250000
$GPZDA,093822.03,08,10,2011,00,00*6C
$GPRMC,093822.00,A,4611.954882,N,01258.218948,E,000.3,317.5,081011,0.2,E,A*37
$GPGGA,093823.00,4611.955032,N,01258.218645,E,1,04,3.7,140.37,M,46.25,M,,*63
$GPGLL,4611.955032,N,01258.218645,E,093823.00,A,A*62
$GPVTG,308.7,T,308.9,M,000.9,N,001.6,K,A*23
$GPGSV,2,1,07,02,34,058,45,12,42,095,49,14,15,239,,25,76,065,49*71
$GPGSV,2,2,07,29,70,238,39,30,50,300,36,31,40,306,,,,,*42
$GPGSA,M,3,02,12,25,29,,,,,,,,,6.8,3.7,5.7*3B
Trace #39 at position 9.500000
$GPZDA,093823.03,08,10,2011,00,00*6D
$GPRMC,093823.00,A,4611.955032,N,01258.218645,E,000.9,308.7,081011,0.2,E,A*30
$GPGGA,093824.00,4611.955267,N,01258.218407,E,1,04,3.7,140.35,M,46.25,M,,*60
$GPGLL,4611.955267,N,01258.218407,E,093824.00,A,A*63
$GPVTG,0.2,T,0.4,M,000.9,N,001.6,K,A*2B
$GPGSV,2,1,07,02,34,058,46,12,42,095,49,14,15,239,,25,76,065,48*73
$GPGSV,2,2,07,29,70,238,41,30,50,300,36,31,40,306,33,,,,*4D
$GPGSA,M,3,02,12,25,29,,,,,,,,,6.8,3.7,5.7*3B
Trace #40 at position 9.750000
$GPZDA,093823.03,08,10,2011,00,00*6D
$GPRMC,093823.00,A,4611.955032,N,01258.218645,E,000.9,308.7,081011,0.2,E,A*30
$GPGGA,093824.00,4611.955267,N,01258.218407,E,1,04,3.7,140.35,M,46.25,M,,*60
$GPGLL,4611.955267,N,01258.218407,E,093824.00,A,A*63
$GPVTG,0.2,T,0.4,M,000.9,N,001.6,K,A*2B
$GPGSV,2,1,07,02,34,058,46,12,42,095,49,14,15,239,,25,76,065,48*73
$GPGSV,2,2,07,29,70,238,41,30,50,300,36,31,40,306,33,,,,*4D
$GPGSA,M,3,02,12,25,29,,,,,,,,,6.8,3.7,5.7*3B
Trace #41 at position 10.000000
$GPZDA,093824.03,08,10,2011,00,00*6A
$GPRMC,093824.00,A,4611.955267,N,01258.218407,E,000.9,0.2,081011,0.2,E,A*3F
$GPGGA,093825.00,4611.955498,N,01258.218211,E,1,04,3.7,140.32,M,46.25,M,,*61
$GPGLL,4611.955498,N,01258.218211,E,093825.00,A,A*65
$GPVTG,314.1,T,314.3,M,000.7,N,001.3,K,A*24
$GPGSV,2,1,07,02,34,058,46,12,42,095,49,14,15,239,,25,76,065,47*7C
$GPGSV,2,2,07,29,70,238,41,30,50,300,36,31,40,306,31,,,,*4F
$GPGSA,M,3,02,12,25,29,,,,,,,,,6.8,3.7,5.7*3B
Trace #42 at position 10.250000
$GPZDA,093825.03,08,10,2011,00,00*6B
$GPRMC,093825.00,A,4611.955498,N,01258.218211,E,000.7,314.1,081011,0.2,E,A*32
$GPGGA,093826.00,4611.955671,N,01258.217913,E,1,04,3.7,140.25,M,46.25,M,,*67
$GPGLL,4611.955671,N,01258.217913,E,093826.00,A,A*65
$GPVTG,299.3,T,299.5,M,000.8,N,001.4,K,A*28
$GPGSV,2,1,07,02,34,058,45,12,42,095,49,14,15,239,,25,76,065,48*70
$GPGSV,2,2,07,29,70,238,39,30,50,300,38,31,40,306,34,,,,*4B
$GPGSA,M,3,02,12,25,29,,,,,,,,,6.8,3.7,5.7*3B
Trace #43 at position 10.500000
$GPZDA,093826.03,08,10,2011,00,00*68
$GPRMC,093826.00,A,4611.955671,N,01258.217913,E,000.8,299.3,081011,0.2,E,A*3B
$GPGGA,093827.00,4611.955817,N,01258.217709,E,1,04,3.7,140.25,M,46.25,M,,*6D
$GPGLL,4611.955817,N,01258.217709,E,093827.00,A,A*6F
$GPVTG,337.9,T,338.0,M,000.3,N,000.6,K,A*20
$GPGSV,2,1,07,02,34,058,45,12,42,095,49,14,15,239,,25,76,065,48*70
$GPGSV,2,2,07,29,70,238,41,30,50,300,38,31,40,306,33,,,,*43
$GPGSA,M,3,02,12,25,29,,,,,,,,,6.8,3.7,5.7*3B
Trace #44 at position 10.750000
$GPZDA,093827.03,08,10,2011,00,00*69
$GPRMC,093827.00,A,4611.955817,N,01258.217709,E,000.3,337.9,081011,0.2,E,A*35
$GPGGA,093828.00,4611.956077,N,01258.217675,E,1,04,3.7,140.21,M,46.25,M,,*61
$GPGLL,4611.956077,N,01258.217675,E,093828.00,A,A*67
$GPVTG,8.1,T,8.3,M,001.3,N,002.3,K,A*22
$GPGSV,2,1,07,02,34,058,45,12,42,095,49,14,15,239,,25,76,065,47*7F
$GPGSV,2,2,07,29,70,238,40,30,50,300,38,31,40,306,34,,,,*45
$GPGSA,M,3,02,12,25,29,,,,,,,,,6.8,3.7,5.7*3B
Trace #45 at position 11.000000
$GPZDA,093828.03,08,10,2011,00,00*66
$GPRMC,093828.00,A,4611.956077,N,01258.217675,E,001.3,8.1,081011,0.2,E,A*3B
$GPGGA,093829.00,4611.956424,N,01258.217617,E,1,04,3.7,139.99,M,46.25,M,,*6B
$GPGLL,4611.956424,N,01258.217617,E,093829.00,A,A*60
$GPVTG,350.8,T,350.9,M,001.1,N,002.1,K,A*21
$GPGSV,2,1,07,02,34,058,46,12,42,095,50,14,15,239,,25,76,065,47*74
$GPGSV,2,2,07,29,70,238,41,30,50,300,38,31,40,306,34,,,,*44
$GPGSA,M,3,02,12,25,29,,,,,,,,,6.8,3.7,5.7*3B
Trace #46 at position 11.250000
$GPZDA,093829.03,08,10,2011,00,00*67
$GPRMC,093829.00,A,4611.956424,N,01258.217617,E,001.1,350.8,081011,0.2,E,A*39
$GPGGA,093830.00,4611.956635,N,01258.217492,E,1,04,3.7,139.75,M,46.25,M,,*6C
$GPGLL,4611.956635,N,01258.217492,E,093830.00,A,A*65
$GPVTG,320.9,T,321.1,M,000.4,N,000.7,K,A*29
$GPGSV,2,1,07,02,34,058,46,12,42,095,50,14,15,238,,25,76,065,47*75
$GPGSV,2,2,07,29,70,238,40,30,50,300,38,31,40,306,36,,,,*47
$GPGSA,M,3,02,12,25,29,,,,,,,,,6.8,3.7,5.7*3B
Trace #47 at position 11.500000
$GPZDA,093830.03,08,10,2011,00,00*6F
$GPRMC,093830.00,A,4611.956635,N,01258.217492,E,000.4,320.9,081011,0.2,E,A*3E
$GPGGA,093831.00,4611.956782,N,01258.217386,E,1,04,3.7,139.70,M,46.25,M,,*67
$GPGLL,4611.956782,N,01258.217386,E,093831.00,A,A*6B
$GPVTG,351.3,T,351.5,M,000.6,N,001.2,K,A*20
$GPGSV,2,1,07,02,34,058,47,12,42,095,50,14,15,238,,25,76,065,47*74
$GPGSV,2,2,07,29,70,238,41,30,50,300,37,31,40,306,34,,,,*4B
$GPGSA,M,3,02,12,25,29,,,,,,,,,6.8,3.7,5.7*3B
Trace #48 at position 11.750000
$GPZDA,093830.03,08,10,2011,00,00*6F
$GPRMC,093830.00,A,4611.956635,N,01258.217492,E,000.4,320.9,081011,0.2,E,A*3E
$GPGGA,093831.00,4611.956782,N,01258.217386,E,1,04,3.7,139.70,M,46.25,M,,*67
$GPGLL,4611.956782,N,01258.217386,E,093831.00,A,A*6B
$GPVTG,351.3,T,351.5,M,000.6,N,001.2,K,A*20
$GPGSV,2,1,07,02,34,058,47,12,42,095,50,14,15,238,,25,76,065,47*74
$GPGSV,2,2,07,29,70,238,41,30,50,300,37,31,40,306,34,,,,*4B
$GPGSA,M,3,02,12,25,29,,,,,,,,,6.8,3.7,5.7*3B
Trace #49 at position 12.000000
$GPZDA,093831.03,08,10,2011,00,00*6E
$GPRMC,093831.00,A,4611.956782,N,01258.217386,E,000.6,351.3,081011,0.2,E,A*3E
$GPGGA,093832.00,4611.956988,N,01258.217236,E,1,04,3.7,139.55,M,46.25,M,,*6D
$GPGLL,4611.956988,N,01258.217236,E,093832.00,A,A*66
$GPVTG,327.0,T,327.2,M,000.9,N,001.6,K,A*2F
$GPGSV,2,1,07,02,33,058,47,12,42,095,49,14,15,238,,25,76,065,47*7B
$GPGSV,2,2,07,29,70,238,41,30,50,300,37,31,40,306,33,,,,*4C
$GPGSA,M,3,02,12,25,29,,,,,,,,,6.8,3.7,5.7*3B
Trace #50 at position 12.250000
$GPZDA,093832.03,08,10,2011,00,00*6D
$GPRMC,093832.00,A,4611.956988,N,01258.217236,E,000.9,327.0,081011,0.2,E,A*3E
$GPGGA,093833.00,4611.957108,N,01258.217129,E,1,04,3.7,139.34,M,46.25,M,,*67
$GPGLL,4611.957108,N,01258.217129,E,093833.00,A,A*6B
$GPVTG,53.7,T,53.9,M,000.1,N,000.2,K,A*2E
$GPGSV,2,1,07,02,33,058,46,12,42,095,49,14,15,238,,25,76,065,48*75
$GPGSV,2,2,07,29,70,238,41,30,50,300,38,31,40,306,34,,,,*44
$GPGSA,M,3,02,12,25,29,,,,,,,,,6.8,3.7,5.7*3B
Trace #51 at position 12.500000
$GPZDA,093833.03,08,10,2011,00,00*6C
$GPRMC,093833.00,A,4611.957108,N,01258.217129,E,000.1,53.7,081011,0.2,E,A*0C
$GPGGA,093834.00,4611.957138,N,01258.217034,E,1,04,3.7,139.23,M,46.25,M,,*68
$GPGLL,4611.957138,N,01258.217034,E,093834.00,A,A*62
$GPVTG,269.2,T,269.4,M,000.5,N,000.8,K,A*28
$GPGSV,2,1,07,02,33,058,46,12,42,095,48,14,15,238,,25,76,065,47*7B
$GPGSV,2,2,07,29,70,238,40,30,50,300,37,31,40,306,31,,,,*4F
$GPGSA,M,3,02,12,25,29,,,,,,,,,6.8,3.7,5.7*3B
Trace #52 at position 12.750000
$GPZDA,093834.03,08,10,2011,00,00*6B
$GPRMC,093834.00,A,4611.957138,N,01258.217034,E,000.5,269.2,081011,0.2,E,A*3F
$GPGGA,093835.00,4611.957141,N,01258.217085,E,1,05,2.9,139.46,M,46.25,M,,*60
$GPGLL,4611.957141,N,01258.217085,E,093835.00,A,A*67
$GPVTG,352.5,T,352.7,M,000.6,N,001.2,K,A*24
$GPGSV,2,1,07,02,33,058,46,12,42,095,49,14,15,238,,25,76,065,47*7A
$GPGSV,2,2,07,29,70,238,40,30,50,300,40,31,40,306,36,,,,*48
$GPGSA,M,3,02,12,25,29,30,,,,,,,,5.5,2.9,4.7*38
Trace #53 at position 13.000000
$GPZDA,093834.03,08,10,2011,00,00*6B
$GPRMC,093834.00,A,4611.957138,N,01258.217034,E,000.5,269.2,081011,0.2,E,A*3F
$GPGGA,093835.00,4611.957141,N,01258.217085,E,1,05,2.9,139.46,M,46.25,M,,*60
$GPGLL,4611.957141,N,01258.217085,E,093835.00,A,A*67
$GPVTG,352.5,T,352.7,M,000.6,N,001.2,K,A*24
$GPGSV,2,1,07,02,33,058,46,12,42,095,49,14,15,238,,25,76,065,47*7A
$GPGSV,2,2,07,29,70,238,40,30,50,300,40,31,40,306,36,,,,*48
$GPGSA,M,3,02,12,25,29,30,,,,,,,,5.5,2.9,4.7*38
Trace #54 at position 13.250000
$GPZDA,093835.04,08,10,2011,00,00*6D
$GPRMC,093835.00,A,4611.957141,N,01258.217085,E,000.6,352.5,081011,0.2,E,A*37
$GPGGA,093836.00,4611.957320,N,01258.217166,E,1,05,2.9,139.90,M,46.25,M,,*61
$GPGLL,4611.957320,N,01258.217166,E,093836.00,A,A*6D
$GPVTG,351.5,T,351.7,M,001.3,N,002.3,K,A*22
$GPGSV,2,1,07,02,33,058,46,12,42,095,50,14,15,238,,25,76,065,46*73
$GPGSV,2,2,07,29,70,238,41,30,50,300,37,31,40,306,35,,,,*4A
$GPGSA,M,3,02,12,25,29,30,,,,,,,,5.5,2.9,4.7*38
Trace #55 at position 13.500000
$GPZDA,093836.03,08,10,2011,00,00*69
$GPRMC,093836.00,A,4611.957320,N,01258.217166,E,001.3,351.5,081011,0.2,E,A*3A
$GPGGA,093837.00,4611.957527,N,01258.217124,E,1,04,3.7,139.99,M,46.25,M,,*60
$GPGLL,4611.957527,N,01258.217124,E,093837.00,A,A*6B
$GPVTG,90.2,T,90.3,M,000.3,N,000.5,K,A*24
$GPGSV,2,1,07,02,33,058,46,12,42,095,50,14,15,238,,25,76,065,48*7D
$GPGSV,2,2,07,29,70,238,43,30,50,300,31,31,40,306,36,,,,*4D
$GPGSA,M,3,02,12,25,29,,,,,,,,,6.8,3.7,5.7*3B
Trace #56 at position 13.750000
$GPZDA,093837.03,08,10,2011,00,00*68
$GPRMC,093837.00,A,4611.957527,N,01258.217124,E,000.3,90.2,081011,0.2,E,A*04
$GPGGA,093838.00,4611.957612,N,01258.217043,E,1,04,3.7,139.93,M,46.25,M,,*60
$GPGLL,4611.957612,N,01258.217043,E,093838.00,A,A*61
$GPVTG,308.6,T,308.8,M,000.4,N,000.8,K,A*21
$GPGSV,2,1,07,02,33,058,46,12,42,095,49,14,15,238,,25,76,065,47*7A
$GPGSV,2,2,07,29,70,238,41,30,50,300,33,31,40,306,38,,,,*43
$GPGSA,M,3,02,12,25,29,,,,,,,,,6.8,3.7,5.7*3B
Trace #57 at position 14.000000
$GPZDA,093838.03,08,10,2011,00,00*67
$GPRMC,093838.00,A,4611.957612,N,01258.217043,E,000.4,308.6,081011,0.2,E,A*3F
$GPGGA,093839.00,4611.957813,N,01258.216908,E,1,05,2.8,139.80,M,46.25,M,,*64
$GPGLL,4611.957813,N,01258.216908,E,093839.00,A,A*68
$GPVTG,8.7,T,8.9,M,000.7,N,001.4,K,A*2F
$GPGSV,2,1,07,02,33,058,46,12,42,095,50,14,15,238,,25,76,065,48*7D
$GPGSV,2,2,07,29,70,238,41,30,50,300,33,31,40,306,39,,,,*42
$GPGSA,M,3,02,12,25,29,31,,,,,,,,5.1,2.8,4.3*38
Trace #58 at position 14.250000
$GPZDA,093839.03,08,10,2011,00,00*66
$GPRMC,093839.00,A,4611.957813,N,01258.216908,E,000.7,8.7,081011,0.2,E,A*37
$GPGGA,093840.00,4611.958082,N,01258.216874,E,1,05,2.8,139.62,M,46.25,M,,*63
$GPGLL,4611.958082,N,01258.216874,E,093840.00,A,A*63
$GPVTG,10.0,T,10.1,M,000.9,N,001.7,K,A*2D
$GPGSV,2,1,07,02,33,058,46,12,42,095,49,14,15,238,,25,76,065,46*7B
$GPGSV,2,2,07,29,70,238,41,30,50,300,34,31,40,306,39,,,,*45
$GPGSA,M,3,02,12,25,29,31,,,,,,,,5.1,2.8,4.3*38
Trace #59 at position 14.500000
$GPZDA,093840.03,08,10,2011,00,00*68
$GPRMC,093840.00,A,4611.958082,N,01258.216874,E,000.9,10.0,081011,0.2,E,A*0C
$GPGGA,093841.00,4611.958317,N,01258.216793,E,1,05,2.8,139.46,M,46.25,M,,*6D
$GPGLL,4611.958317,N,01258.216793,E,093841.00,A,A*6B
$GPVTG,347.5,T,347.6,M,000.6,N,001.1,K,A*26
$GPGSV,2,1,07,02,33,058,46,12,42,095,50,14,15,238,,25,76,065,47*72
$GPGSV,2,2,07,29,70,238,41,30,50,300,34,31,40,306,37,,,,*4B
$GPGSA,M,3,02,12,25,29,31,,,,,,,,5.1,2.8,4.3*38
Trace #60 at position 14.750000
$GPZDA,093840.03,08,10,2011,00,00*68
$GPRMC,093840.00,A,4611.958082,N,01258.216874,E,000.9,10.0,081011,0.2,E,A*0C
$GPGGA,093841.00,4611.958317,N,01258.216793,E,1,05,2.8,139.46,M,46.25,M,,*6D
$GPGLL,4611.958317,N,01258.216793,E,093841.00,A,A*6B
$GPVTG,347.5,T,347.6,M,000.6,N,001.1,K,A*26
$GPGSV,2,1,07,02,33,058,46,12,42,095,50,14,15,238,,25,76,065,47*72
$GPGSV,2,2,07,29,70,238,41,30,50,300,34,31,40,306,37,,,,*4B
$GPGSA,M,3,02,12,25,29,31,,,,,,,,5.1,2.8,4.3*38
Trace #61 at position 15.000000
$GPZDA,093842.03,08,10,2011,00,00*6A
$GPRMC,093842.00,A,4611.958401,N,01258.216653,E,000.4,253.1,081011,0.2,E,A*33
$GPGGA,093843.00,4611.958502,N,01258.216569,E,1,04,3.7,139.54,M,46.25,M,,*66
$GPGLL,4611.958502,N,01258.216569,E,093843.00,A,A*6C
$GPVTG,8.7,T,8.9,M,000.7,N,001.2,K,A*29
$GPGSV,2,1,07,02,33,058,45,12,42,095,49,14,15,238,,25,76,065,47*79
$GPGSV,2,2,07,29,70,239,40,30,50,300,38,31,40,306,35,,,,*45
$GPGSA,M,3,02,12,25,29,,,,,,,,,6.8,3.7,5.7*3B
Trace #62 at position 15.250000
$GPZDA,093843.03,08,10,2011,00,00*6B
$GPRMC,093843.00,A,4611.958502,N,01258.216569,E,000.7,8.7,081011,0.2,E,A*33
$GPGGA,093844.00,4611.958703,N,01258.216471,E,1,04,3.7,139.53,M,46.25,M,,*6D
$GPGLL,4611.958703,N,01258.216471,E,093844.00,A,A*60
$GPVTG,328.1,T,328.3,M,000.8,N,001.4,K,A*2C
$GPGSV,2,1,07,02,33,058,45,12,42,095,49,14,15,238,,25,76,065,47*79
$GPGSV,2,2,07,29,70,239,40,30,50,300,39,31,40,306,36,,,,*47
$GPGSA,M,3,02,12,25,29,,,,,,,,,6.8,3.7,5.7*3B
Trace #63 at position 15.500000
$GPZDA,093844.03,08,10,2011,00,00*6C
$GPRMC,093844.00,A,4611.958703,N,01258.216471,E,000.8,328.1,081011,0.2,E,A*37
$GPGGA,093845.00,4611.958851,N,01258.216301,E,1,04,3.7,139.40,M,46.25,M,,*66
$GPGLL,4611.958851,N,01258.216301,E,093845.00,A,A*69
$GPVTG,312.9,T,313.1,M,000.5,N,000.8,K,A*27
$GPGSV,2,1,07,02,33,058,46,12,42,095,49,14,15,238,,25,76,065,48*75
$GPGSV,2,2,07,29,70,239,43,30,50,300,36,31,40,306,33,,,,*4E
$GPGSA,M,3,02,12,25,29,,,,,,,,,6.8,3.7,5.7*3B
Trace #64 at position 15.750000
$GPZDA,093844.03,08,10,2011,00,00*6C
$GPRMC,093844.00,A,4611.958703,N,01258.216471,E,000.8,328.1,081011,0.2,E,A*37
$GPGGA,093845.00,4611.958851,N,01258.216301,E,1,04,3.7,139.40,M,46.25,M,,*66
$GPGLL,4611.958851,N,01258.216301,E,093845.00,A,A*69
$GPVTG,312.9,T,313.1,M,000.5,N,000.8,K,A*27
$GPGSV,2,1,07,02,33,058,46,12,42,095,49,14,15,238,,25,76,065,48*75
$GPGSV,2,2,07,29,70,239,43,30,50,300,36,31,40,306,33,,,,*4E
$GPGSA,M,3,02,12,25,29,,,,,,,,,6.8,3.7,5.7*3B
Trace #65 at position 16.000000
$GPZDA,093845.03,08,10,2011,00,00*6D
$GPRMC,093845.00,A,4611.958851,N,01258.216301,E,000.5,312.9,081011,0.2,E,A*32
$GPGGA,093846.00,4611.958974,N,01258.216069,E,1,04,3.7,139.32,M,46.25,M,,*6B
$GPGLL,4611.958974,N,01258.216069,E,093846.00,A,A*61
$GPVTG,295.7,T,295.8,M,000.9,N,001.7,K,A*23
$GPGSV,2,1,07,02,33,058,46,12,42,095,49,14,15,238,,25,76,065,46*7B
$GPGSV,2,2,07,29,70,239,41,30,50,300,37,31,40,306,33,,,,*4D
$GPGSA,M,3,02,12,25,29,,,,,,,,,6.8,3.7,5.7*3B
Trace #66 at position 16.250000
$GPZDA,093846.03,08,10,2011,00,00*6E
$GPRMC,093846.00,A,4611.958974,N,01258.216069,E,000.9,295.7,081011,0.2,E,A*36
$GPGGA,093847.00,4611.959132,N,01258.215845,E,1,04,3.7,139.29,M,46.25,M,,*6E
$GPGLL,4611.959132,N,01258.215845,E,093847.00,A,A*6E
$GPVTG,321.0,T,321.1,M,000.7,N,001.3,K,A*27
$GPGSV,2,1,07,02,33,058,45,12,42,095,48,14,15,238,,25,76,065,47*78
$GPGSV,2,2,07,29,70,239,42,30,50,300,34,31,40,306,31,,,,*4F
$GPGSA,M,3,02,12,25,29,,,,,,,,,6.8,3.7,5.7*3B
Trace #67 at position 16.500000
$GPZDA,093846.03,08,10,2011,00,00*6E
$GPRMC,093846.00,A,4611.958974,N,01258.216069,E,000.9,295.7,081011,0.2,E,A*36
$GPGGA,093847.00,4611.959132,N,01258.215845,E,1,04,3.7,139.29,M,46.25,M,,*6E
$GPGLL,4611.959132,N,01258.215845,E,093847.00,A,A*6E
$GPVTG,321.0,T,321.1,M,000.7,N,001.3,K,A*27
$GPGSV,2,1,07,02,33,058,45,12,42,095,48,14,15,238,,25,76,065,47*78
$GPGSV,2,2,07,29,70,239,42,30,50,300,34,31,40,306,31,,,,*4F
$GPGSA,M,3,02,12,25,29,,,,,,,,,6.8,3.7,5.7*3B
Trace #68 at position 16.750000
$GPZDA,093847.03,08,10,2011,00,00*6F
$GPRMC,093847.00,A,4611.959132,N,01258.215845,E,000.7,321.0,081011,0.2,E,A*3E
$GPGGA,093848.00,4611.959265,N,01258.215767,E,1,04,3.7,139.25,M,46.25,M,,*63
$GPGLL,4611.959265,N,01258.215767,E,093848.00,A,A*6F
$GPVTG,341.0,T,341.2,M,000.3,N,000.5,K,A*27
$GPGSV,2,1,07,02,33,058,46,12,42,095,50,14,15,238,,25,76,065,47*72
$GPGSV,2,2,07,29,70,239,41,30,50,300,37,31,40,306,35,,,,*4B
$GPGSA,M,3,02,12,25,29,,,,,,,,,6.8,3.7,5.7*3B
Trace #69 at position 17.000000
$GPZDA,093848.03,08,10,2011,00,00*60
$GPRMC,093848.00,A,4611.959265,N,01258.215767,E,000.3,341.0,081011,0.2,E,A*3D
$GPGGA,093849.00,4611.959392,N,01258.215700,E,1,04,3.7,139.16,M,46.25,M,,*6A
$GPGLL,4611.959392,N,01258.215700,E,093849.00,A,A*66
$GPVTG,321.1,T,321.2,M,000.6,N,001.2,K,A*25
$GPGSV,2,1,07,02,33,058,47,12,42,095,49,14,15,238,,25,76,065,47*7B
$GPGSV,2,2,07,29,70,239,41,30,50,300,37,31,40,306,35,,,,*4B
$GPGSA,M,3,02,12,25,29,,,,,,,,,6.8,3.7,5.7*3B
Trace #70 at position 17.250000
$GPZDA,093849.03,08,10,2011,00,00*61
$GPRMC,093849.00,A,4611.959392,N,01258.215700,E,000.6,321.1,081011,0.2,E,A*36
$GPGGA,093850.00,4611.959448,N,01258.215792,E,1,05,2.9,139.43,M,46.25,M,,*67
$GPGLL,4611.959448,N,01258.215792,E,093850.00,A,A*65
$GPVTG,357.8,T,358.0,M,000.4,N,000.8,K,A*28
$GPGSV,2,1,07,02,33,058,45,12,42,095,50,14,15,238,,25,76,065,47*71
$GPGSV,2,2,07,29,70,239,40,30,50,300,39,31,40,306,35,,,,*44
$GPGSA,M,3,02,12,25,29,30,,,,,,,,5.5,2.9,4.7*38
Trace #71 at position 17.500000
$GPZDA,093850.03,08,10,2011,00,00*69
$GPRMC,093850.00,A,4611.959448,N,01258.215792,E,000.4,357.8,081011,0.2,E,A*3F
$GPGGA,093851.00,4611.959564,N,01258.215962,E,1,05,2.9,139.79,M,46.25,M,,*61
$GPGLL,4611.959564,N,01258.215962,E,093851.00,A,A*6A
$GPVTG,7.9,T,8.1,M,000.9,N,001.7,K,A*2B
$GPGSV,2,1,07,02,33,058,46,12,42,095,49,14,15,238,,25,76,065,48*75
$GPGSV,2,2,07,29,70,239,41,30,50,300,39,31,40,306,33,,,,*43
$GPGSA,M,3,02,12,25,29,30,,,,,,,,5.5,2.9,4.7*38
Trace #72 at position 17.750000
$GPZDA,093851.03,08,10,2011,00,00*68
$GPRMC,093851.00,A,4611.959564,N,01258.215962,E,000.9,7.9,081011,0.2,E,A*3A
$GPGGA,093852.00,4611.959836,N,01258.216024,E,1,04,3.7,139.90,M,46.25,M,,*69
$GPGLL,4611.959836,N,01258.216024,E,093852.00,A,A*6B
$GPVTG,26.2,T,26.3,M,000.9,N,001.7,K,A*2D
$GPGSV,2,1,07,02,33,058,47,12,42,095,49,14,15,238,,25,76,065,47*7B
$GPGSV,2,2,07,29,70,239,41,30,50,300,36,31,40,306,33,,,,*4C
$GPGSA,M,3,02,12,25,29,,,,,,,,,6.8,3.7,5.7*3B
Trace #73 at position 18.000000
$GPZDA,093852.03,08,10,2011,00,00*6B
$GPRMC,093852.00,A,4611.959836,N,01258.216024,E,000.9,26.2,081011,0.2,E,A*03
$GPGGA,093853.00,4611.959996,N,01258.216049,E,1,04,3.7,140.08,M,46.25,M,,*67
$GPGLL,4611.959996,N,01258.216049,E,093853.00,A,A*6A
$GPVTG,6.1,T,6.2,M,000.1,N,000.2,K,A*23
$GPGSV,2,1,07,02,33,058,47,12,42,095,49,14,15,238,,25,76,065,47*7B
$GPGSV,2,2,07,29,70,239,42,30,50,300,35,31,40,306,,,,,*4C
$GPGSA,M,3,02,12,25,29,,,,,,,,,6.8,3.7,5.7*3B
Trace #74 at position 18.250000
$GPZDA,093853.03,08,10,2011,00,00*6A
$GPRMC,093853.00,A,4611.959996,N,01258.216049,E,000.1,6.1,081011,0.2,E,A*3B
$GPGGA,093854.00,4611.960194,N,01258.215981,E,1,04,3.7,140.12,M,46.25,M,,*65
$GPGLL,4611.960194,N,01258.215981,E,093854.00,A,A*63
$GPVTG,356.6,T,356.8,M,001.1,N,002.1,K,A*2E
$GPGSV,2,1,07,02,33,058,46,12,42,095,48,14,15,238,,25,76,066,47*78
$GPGSV,2,2,07,29,70,239,41,30,50,300,35,31,40,306,,,,,*4F
$GPGSA,M,3,02,12,25,29,,,,,,,,,6.8,3.7,5.7*3B
Trace #75 at position 18.500000
$GPZDA,093853.03,08,10,2011,00,00*6A
$GPRMC,093853.00,A,4611.959996,N,01258.216049,E,000.1,6.1,081011,0.2,E,A*3B
$GPGGA,093854.00,4611.960194,N,01258.215981,E,1,04,3.7,140.12,M,46.25,M,,*65
$GPGLL,4611.960194,N,01258.215981,E,093854.00,A,A*63
$GPVTG,356.6,T,356.8,M,001.1,N,002.1,K,A*2E
$GPGSV,2,1,07,02,33,058,46,12,42,095,48,14,15,238,,25,76,066,47*78
$GPGSV,2,2,07,29,70,239,41,30,50,300,35,31,40,306,,,,,*4F
$GPGSA,M,3,02,12,25,29,,,,,,,,,6.8,3.7,5.7*3B
Trace #76 at position 18.750000
$GPZDA,093854.03,08,10,2011,00,00*6D
$GPRMC,093854.00,A,4611.960194,N,01258.215981,E,001.1,356.6,081011,0.2,E,A*32
$GPGGA,093855.00,4611.960343,N,01258.215947,E,1,04,3.7,140.04,M,46.25,M,,*61
$GPGLL,4611.960343,N,01258.215947,E,093855.00,A,A*60
$GPVTG,139.7,T,139.9,M,000.3,N,000.5,K,A*2B
$GPGSV,2,1,07,02,33,058,45,12,42,095,49,14,15,238,,25,76,066,47*7A
$GPGSV,2,2,07,29,70,239,40,30,50,300,34,31,40,306,32,,,,*4E
$GPGSA,M,3,02,12,25,29,,,,,,,,,6.8,3.7,5.7*3B
Trace #77 at position 19.000000
$GPZDA,093855.03,08,10,2011,00,00*6C
$GPRMC,093855.00,A,4611.960343,N,01258.215947,E,000.3,139.7,081011,0.2,E,A*38
$GPGGA,093856.00,4611.960459,N,01258.215801,E,1,04,3.7,140.03,M,46.25,M,,*6A
$GPGLL,4611.960459,N,01258.215801,E,093856.00,A,A*6C
$GPVTG,322.3,T,322.5,M,001.1,N,002.0,K,A*27
$GPGSV,2,1,07,02,33,058,46,12,42,095,49,14,15,238,,25,76,066,47*79
$GPGSV,2,2,07,29,70,239,41,30,51,300,36,31,40,306,34,,,,*4A
$GPGSA,M,3,02,12,25,29,,,,,,,,,6.8,3.7,5.7*3B
Trace #78 at position 19.250000
$GPZDA,093856.03,08,10,2011,00,00*6F
$GPRMC,093856.00,A,4611.960459,N,01258.215801,E,001.1,322.3,081011,0.2,E,A*3B
$GPGGA,093857.00,4611.960676,N,01258.215535,E,1,04,3.7,139.95,M,46.25,M,,*6F
$GPGLL,4611.960676,N,01258.215535,E,093857.00,A,A*68
$GPVTG,316.5,T,316.7,M,000.8,N,001.5,K,A*2D
$GPGSV,2,1,07,02,33,058,45,12,42,095,49,14,15,238,,25,76,066,47*7A
$GPGSV,2,2,07,29,70,239,39,30,51,300,37,31,40,306,36,,,,*46
$GPGSA,M,3,02,12,25,29,,,,,,,,,6.8,3.7,5.7*3B
Trace #79 at position 19.500000
$GPZDA,093857.03,08,10,2011,00,00*6E
$GPRMC,093857.00,A,4611.960676,N,01258.215535,E,000.8,316.5,081011,0.2,E,A*36
$GPGGA,093858.00,4611.960892,N,01258.215430,E,1,04,3.7,139.84,M,46.25,M,,*60
$GPGLL,4611.960892,N,01258.215430,E,093858.00,A,A*67
$GPVTG,5.0,T,5.2,M,000.9,N,001.7,K,A*2E
$GPGSV,2,1,07,02,33,058,46,12,42,095,49,14,15,238,,25,76,066,47*79
$GPGSV,2,2,07,29,71,239,40,30,51,300,37,31,40,306,37,,,,*48
$GPGSA,M,3,02,12,25,29,,,,,,,,,6.8,3.7,5.7*3B
Trace #80 at position 19.750000
$GPZDA,093858.03,08,10,2011,00,00*61
$GPRMC,093858.00,A,4611.960892,N,01258.215430,E,000.9,5.0,081011,0.2,E,A*3C
$GPGGA,093859.00,4611.960924,N,01258.215549,E,1,05,2.9,140.17,M,46.25,M,,*68
$GPGLL,4611.960924,N,01258.215549,E,093859.00,A,A*65
$GPVTG,243.8,T,244.0,M,000.2,N,000.3,K,A*2D
$GPGSV,2,1,07,02,33,058,47,12,42,095,49,14,15,238,,25,76,066,47*78
$GPGSV,2,2,07,29,71,239,39,30,51,300,40,31,40,306,35,,,,*44
$GPGSA,M,3,02,12,25,29,30,,,,,,,,5.5,2.9,4.7*38
Trace #81 at position 20.000000
$GPZDA,093900.03,08,10,2011,00,00*6D
$GPRMC,093900.00,A,4611.960909,N,01258.215535,E,000.7,307.7,081011,0.2,E,A*3F
$GPGGA,093901.00,4611.961009,N,01258.215622,E,1,05,2.9,140.79,M,46.25,M,,*65
$GPGLL,4611.961009,N,01258.215622,E,093901.00,A,A*60
$GPVTG,33.5,T,33.7,M,000.9,N,001.6,K,A*2F
$GPGSV,2,1,07,02,33,058,47,12,42,095,49,14,15,238,,25,76,066,47*78
$GPGSV,2,2,07,29,71,239,39,30,51,300,38,31,40,306,38,,,,*46
$GPGSA,M,3,02,12,25,29,30,,,,,,,,5.5,2.9,4.7*38
Trace #82 at position 20.250000
$GPZDA,093901.03,08,10,2011,00,00*6C
$GPRMC,093901.00,A,4611.961009,N,01258.215622,E,000.9,33.5,081011,0.2,E,A*0B
$GPGGA,093902.00,4611.961182,N,01258.215749,E,1,05,2.9,140.89,M,46.25,M,,*67
$GPGLL,4611.961182,N,01258.215749,E,093902.00,A,A*6D
$GPVTG,347.0,T,347.1,M,001.0,N,001.8,K,A*2A
$GPGSV,2,1,07,02,33,058,47,12,42,095,49,14,15,238,,25,76,066,47*78
$GPGSV,2,2,07,29,71,239,40,30,51,300,37,31,40,306,37,,,,*48
$GPGSA,M,3,02,12,25,29,30,,,,,,,,5.5,2.9,4.7*38
Trace #83 at position 20.500000
$GPZDA,093902.03,08,10,2011,00,00*6F
$GPRMC,093902.00,A,4611.961182,N,01258.215749,E,001.0,347.0,081011,0.2,E,A*3B
$GPGGA,093903.00,4611.961492,N,01258.215665,E,1,04,3.7,140.67,M,46.25,M,,*63
$GPGLL,4611.961492,N,01258.215665,E,093903.00,A,A*67
$GPVTG,16.1,T,16.2,M,001.1,N,002.0,K,A*22
$GPGSV,2,1,07,02,33,058,46,12,42,095,48,14,15,238,,25,76,066,48*77
$GPGSV,2,2,07,29,71,239,40,30,51,300,36,31,40,306,36,,,,*48
$GPGSA,M,3,02,12,25,29,,,,,,,,,6.8,3.7,5.7*3B
Trace #84 at position 20.750000
$GPZDA,093902.03,08,10,2011,00,00*6F
$GPRMC,093902.00,A,4611.961182,N,01258.215749,E,001.0,347.0,081011,0.2,E,A*3B
$GPGGA,093903.00,4611.961492,N,01258.215665,E,1,04,3.7,140.67,M,46.25,M,,*63
$GPGLL,4611.961492,N,01258.215665,E,093903.00,A,A*67
$GPVTG,16.1,T,16.2,M,001.1,N,002.0,K,A*22
$GPGSV,2,1,07,02,33,058,46,12,42,095,48,14,15,238,,25,76,066,48*77
$GPGSV,2,2,07,29,71,239,40,30,51,300,36,31,40,306,36,,,,*48
$GPGSA,M,3,02,12,25,29,,,,,,,,,6.8,3.7,5.7*3B
Trace #85 at position 21.000000
$GPZDA,093903.03,08,10,2011,00,00*6E
$GPRMC,093903.00,A,4611.961492,N,01258.215665,E,001.1,16.1,081011,0.2,E,A*06
$GPGGA,093904.00,4611.961747,N,01258.215514,E,1,04,3.7,140.55,M,46.25,M,,*6B
$GPGLL,4611.961747,N,01258.215514,E,093904.00,A,A*6E
$GPVTG,316.7,T,316.9,M,000.9,N,001.7,K,A*22
$GPGSV,2,1,07,02,33,058,47,12,42,095,49,14,15,238,,25,76,066,47*78
$GPGSV,2,2,07,29,71,239,40,30,51,300,38,31,40,306,35,,,,*45
$GPGSA,M,3,02,12,25,29,,,,,,,,,6.8,3.7,5.7*3B
Trace #86 at position 21.250000
$GPZDA,093904.03,08,10,2011,00,00*69
$GPRMC,093904.00,A,4611.961747,N,01258.215514,E,000.9,316.7,081011,0.2,E,A*33
$GPGGA,093905.00,4611.961896,N,01258.215327,E,1,04,3.7,140.46,M,46.25,M,,*6D
$GPGLL,4611.961896,N,01258.215327,E,093905.00,A,A*6A
$GPVTG,3.1,T,3.3,M,000.3,N,000.6,K,A*24
$GPGSV,2,1,07,02,33,058,46,12,42,095,49,14,15,238,,25,76,066,47*79
$GPGSV,2,2,07,29,71,239,39,30,51,300,36,31,40,306,35,,,,*45
$GPGSA,M,3,02,12,25,29,,,,,,,,,6.8,3.7,5.7*3B
Trace #87 at position 21.500000
$GPZDA,093906.03,08,10,2011,00,00*6B
$GPRMC,093906.00,A,4611.961992,N,01258.215237,E,000.4,330.4,081011,0.2,E,A*3B
$GPGGA,093907.00,4611.962155,N,01258.215161,E,1,04,3.7,140.49,M,46.25,M,,*65
$GPGLL,4611.962155,N,01258.215161,E,093907.00,A,A*6D
$GPVTG,5.4,T,5.6,M,000.9,N,001.6,K,A*2F
$GPGSV,2,1,07,02,33,058,46,12,42,095,49,14,15,238,30,25,76,066,48*75
$GPGSV,2,2,07,29,71,239,41,30,51,300,38,31,40,306,37,,,,*46
$GPGSA,M,3,02,12,25,29,,,,,,,,,6.8,3.7,5.7*3B
Trace #88 at position 21.750000
$GPZDA,093908.03,08,10,2011,00,00*65
$GPRMC,093908.00,A,4611.962370,N,01258.215101,E,000.8,349.9,081011,0.2,E,A*39
$GPGGA,093909.00,4611.962508,N,01258.214943,E,1,04,3.7,140.58,M,46.25,M,,*6E
$GPGLL,4611.962508,N,01258.214943,E,093909.00,A,A*66
$GPVTG,299.2,T,299.3,M,000.5,N,000.9,K,A*2E
$GPGSV,2,1,07,02,33,058,45,12,42,095,49,14,15,238,31,25,76,066,48*77
$GPGSV,2,2,07,29,71,239,40,30,51,300,33,31,40,306,27,,,,*4D
$GPGSA,M,3,02,12,25,29,,,,,,,,,6.8,3.7,5.7*3B
Trace #89 at position 22.000000
$GPZDA,093908.03,08,10,2011,00,00*65
$GPRMC,093908.00,A,4611.962370,N,01258.215101,E,000.8,349.9,081011,0.2,E,A*39
$GPGGA,093909.00,4611.962508,N,01258.214943,E,1,04,3.7,140.58,M,46.25,M,,*6E
$GPGLL,4611.962508,N,01258.214943,E,093909.00,A,A*66
$GPVTG,299.2,T,299.3,M,000.5,N,000.9,K,A*2E
$GPGSV,2,1,07,02,33,058,45,12,42,095,49,14,15,238,31,25,76,066,48*77
$GPGSV,2,2,07,29,71,239,40,30,51,300,33,31,40,306,27,,,,*4D
$GPGSA,M,3,02,12,25,29,,,,,,,,,6.8,3.7,5.7*3B
Trace #90 at position 22.250000
$GPZDA,093909.03,08,10,2011,00,00*64
$GPRMC,093909.00,A,4611.962508,N,01258.214943,E,000.5,299.2,081011,0.2,E,A*34
$GPGGA,093910.00,4611.962625,N,01258.214787,E,1,04,3.7,140.69,M,46.25,M,,*6E
$GPGLL,4611.962625,N,01258.214787,E,093910.00,A,A*64
$GPVTG,342.1,T,342.3,M,000.6,N,001.1,K,A*27
$GPGSV,2,1,07,02,33,058,44,12,42,095,49,14,15,238,29,25,76,066,48*7F
$GPGSV,2,2,07,29,71,239,42,30,51,300,37,31,40,305,32,,,,*4C
$GPGSA,M,3,02,12,25,29,,,,,,,,,6.8,3.7,5.7*3B
Trace #91 at position 22.500000
$GPZDA,093910.03,08,10,2011,00,00*6C
$GPRMC,093910.00,A,4611.962625,N,01258.214787,E,000.6,342.1,081011,0.2,E,A*31
$GPGGA,093911.00,4611.962735,N,01258.214716,E,1,04,3.7,140.57,M,46.25,M,,*6A
$GPGLL,4611.962735,N,01258.214716,E,093911.00,A,A*6D
$GPVTG,346.8,T,347.0,M,000.2,N,000.4,K,A*2C
$GPGSV,2,1,07,02,33,058,45,12,42,095,49,14,15,238,28,25,76,066,48*7F
$GPGSV,2,2,07,29,71,239,41,30,51,300,33,31,40,305,34,,,,*4D
$GPGSA,M,3,02,12,25,29,,,,,,,,,6.8,3.7,5.7*3B
Trace #92 at position 22.750000
$GPZDA,093911.03,08,10,2011,00,00*6D
$GPRMC,093911.00,A,4611.962735,N,01258.214716,E,000.2,346.8,081011,0.2,E,A*31
$GPGGA,093912.00,4611.962800,N,01258.214678,E,1,04,3.7,140.44,M,46.25,M,,*6B
$GPGLL,4611.962800,N,01258.214678,E,093912.00,A,A*6E
$GPVTG,351.4,T,351.6,M,000.3,N,000.5,K,A*27
$GPGSV,2,1,07,02,33,058,45,12,42,095,49,14,15,238,29,25,76,066,47*71
$GPGSV,2,2,07,29,71,239,41,30,51,300,36,31,40,305,37,,,,*4B
$GPGSA,M,3,02,12,25,29,,,,,,,,,6.8,3.7,5.7*3B
Trace #93 at position 23.000000
$GPZDA,093912.03,08,10,2011,00,00*6E
$GPRMC,093912.00,A,4611.962800,N,01258.214678,E,000.3,351.4,081011,0.2,E,A*39
$GPGGA,093913.00,4611.962860,N,01258.214658,E,1,04,3.7,140.45,M,46.25,M,,*6F
$GPGLL,4611.962860,N,01258.214658,E,093913.00,A,A*6B
$GPVTG,5.4,T,5.6,M,000.2,N,000.4,K,A*27
$GPGSV,2,1,07,02,33,058,46,12,42,095,49,14,15,238,29,25,76,066,47*72
$GPGSV,2,2,07,29,71,239,40,30,51,300,37,31,40,305,36,,,,*4A
$GPGSA,M,3,02,12,25,29,,,,,,,,,6.8,3.7,5.7*3B
Trace #94 at position 23.250000
$GPZDA,093912.03,08,10,2011,00,00*6E
$GPRMC,093912.00,A,4611.962800,N,01258.214678,E,000.3,351.4,081011,0.2,E,A*39
$GPGGA,093913.00,4611.962860,N,01258.214658,E,1,04,3.7,140.45,M,46.25,M,,*6F
$GPGLL,4611.962860,N,01258.214658,E,093913.00,A,A*6B
$GPVTG,5.4,T,5.6,M,000.2,N,000.4,K,A*27
$GPGSV,2,1,07,02,33,058,46,12,42,095,49,14,15,238,29,25,76,066,47*72
$GPGSV,2,2,07,29,71,239,40,30,51,300,37,31,40,305,36,,,,*4A
$GPGSA,M,3,02,12,25,29,,,,,,,,,6.8,3.7,5.7*3B
Trace #95 at position 23.500000
$GPZDA,093913.03,08,10,2011,00,00*6F
$GPRMC,093913.00,A,4611.962860,N,01258.214658,E,000.2,5.4,081011,0.2,E,A*3F
$GPGGA,093914.00,4611.962951,N,01258.214549,E,1,04,3.7,140.45,M,46.25,M,,*68
$GPGLL,4611.962951,N,01258.214549,E,093914.00,A,A*6C
$GPVTG,311.6,T,311.8,M,000.7,N,001.3,K,A*28
$GPGSV,2,1,07,02,33,058,45,12,42,095,50,14,15,238,30,25,76,066,48*7E
$GPGSV,2,2,07,29,71,239,40,30,51,300,37,31,40,305,35,,,,*49
$GPGSA,M,3,02,12,25,29,,,,,,,,,6.8,3.7,5.7*3B
Trace #96 at position 23.750000
$GPZDA,093914.03,08,10,2011,00,00*68
$GPRMC,093914.00,A,4611.962951,N,01258.214549,E,000.7,311.6,081011,0.2,E,A*39
$GPGGA,093915.00,4611.963116,N,01258.214386,E,1,04,3.7,140.43,M,46.25,M,,*60
$GPGLL,4611.963116,N,01258.214386,E,093915.00,A,A*62
$GPVTG,337.7,T,337.8,M,000.8,N,001.5,K,A*20
$GPGSV,2,1,07,02,33,058,45,12,42,095,49,14,15,238,29,25,76,066,47*71
$GPGSV,2,2,07,29,71,239,41,30,51,300,36,31,40,305,36,,,,*4A
$GPGSA,M,3,02,12,25,29,,,,,,,,,6.8,3.7,5.7*3B
Trace #97 at position 24.000000
$GPZDA,093915.03,08,10,2011,00,00*69
$GPRMC,093915.00,A,4611.963116,N,01258.214386,E,000.8,337.7,081011,0.2,E,A*3D
$GPGGA,093916.00,4611.963289,N,01258.214334,E,1,04,3.7,140.40,M,46.25,M,,*6C
$GPGLL,4611.963289,N,01258.214334,E,093916.00,A,A*6D
$GPVTG,4.3,T,4.5,M,000.5,N,000.9,K,A*29
$GPGSV,2,1,07,02,33,058,46,12,42,095,49,14,15,238,31,25,76,066,48*74
$GPGSV,2,2,07,29,71,239,42,30,51,300,36,31,40,305,35,,,,*4A
$GPGSA,M,3,02,12,25,29,,,,,,,,,6.8,3.7,5.7*3B
Trace #98 at position 24.250000
$GPZDA,093915.03,08,10,2011,00,00*69
$GPRMC,093915.00,A,4611.963116,N,01258.214386,E,000.8,337.7,081011,0.2,E,A*3D
$GPGGA,093916.00,4611.963289,N,01258.214334,E,1,04,3.7,140.40,M,46.25,M,,*6C
$GPGLL,4611.963289,N,01258.214334,E,093916.00,A,A*6D
$GPVTG,4.3,T,4.5,M,000.5,N,000.9,K,A*29
$GPGSV,2,1,07,02,33,058,46,12,42,095,49,14,15,238,31,25,76,066,48*74
$GPGSV,2,2,07,29,71,239,42,30,51,300,36,31,40,305,35,,,,*4A
$GPGSA,M,3,02,12,25,29,,,,,,,,,6.8,3.7,5.7*3B
Trace #99 at position 24.500000
$GPZDA,093916.03,08,10,2011,00,00*6A
$GPRMC,093916.00,A,4611.963289,N,01258.214334,E,000.5,4.3,081011,0.2,E,A*38
$GPGGA,093917.00,4611.963461,N,01258.214380,E,1,04,3.7,140.47,M,46.25,M,,*65
$GPGLL,4611.963461,N,01258.214380,E,093917.00,A,A*63
$GPVTG,19.3,T,19.4,M,000.8,N,001.5,K,A*28
$GPGSV,2,1,07,02,33,058,46,12,42,095,49,14,15,238,31,25,76,066,47*7B
$GPGSV,2,2,07,29,71,239,40,30,51,300,35,31,40,305,33,,,,*4D
$GPGSA,M,3,02,12,25,29,,,,,,,,,6.8,3.7,5.7*3B
Trace #100 at position 24.750000
$GPZDA,093917.03,08,10,2011,00,00*6B
$GPRMC,093917.00,A,4611.963461,N,01258.214380,E,000.8,19.3,081011,0.2,E,A*07
$GPGGA,093918.00,4611.963592,N,01258.214315,E,1,04,3.7,140.51,M,46.25,M,,*6C
$GPGLL,4611.963592,N,01258.214315,E,093918.00,A,A*6D
$GPVTG,291.7,T,291.8,M,000.5,N,001.0,K,A*28
$GPGSV,2,1,07,02,33,058,45,12,42,095,49,14,15,238,28,25,76,066,48*7F
$GPGSV,2,2,07,29,71,239,39,30,51,300,37,31,40,305,34,,,,*46
$GPGSA,M,3,02,12,25,29,,,,,,,,,6.8,3.7,5.7*3B
Trace #101 at position 25.000000
$GPZDA,093917.03,08,10,2011,00,00*6B
$GPRMC,093917.00,A,4611.963461,N,01258.214380,E,000.8,19.3,081011,0.2,E,A*07
$GPGGA,093918.00,4611.963592,N,01258.214315,E,1,04,3.7,140.51,M,46.25,M,,*6C
$GPGLL,4611.963592,N,01258.214315,E,093918.00,A,A*6D
$GPVTG,291.7,T,291.8,M,000.5,N,001.0,K,A*28
$GPGSV,2,1,07,02,33,058,45,12,42,095,49,14,15,238,28,25,76,066,48*7F
$GPGSV,2,2,07,29,71,239,39,30,51,300,37,31,40,305,34,,,,*46
$GPGSA,M,3,02,12,25,29,,,,,,,,,6.8,3.7,5.7*3B
Trace #102 at position 25.250000
$GPZDA,093918.03,08,10,2011,00,00*64
$GPRMC,093918.00,A,4611.963592,N,01258.214315,E,000.5,291.7,081011,0.2,E,A*32
$GPGGA,093919.00,4611.963680,N,01258.214300,E,1,04,3.7,140.34,M,46.25,M,,*6A
$GPGLL,4611.963680,N,01258.214300,E,093919.00,A,A*68
$GPVTG,52.4,T,52.5,M,000.6,N,001.2,K,A*27
$GPGSV,2,1,07,02,33,058,45,12,42,095,50,14,15,238,,25,76,066,47*72
$GPGSV,2,2,07,29,71,239,40,30,51,300,35,31,40,305,33,,,,*4D
$GPGSA,M,3,02,12,25,29,,,,,,,,,6.8,3.7,5.7*3B
Trace #103 at position 25.500000
$GPZDA,093919.03,08,10,2011,00,00*65
$GPRMC,093919.00,A,4611.963680,N,01258.214300,E,000.6,52.4,081011,0.2,E,A*0A
$GPGGA,093920.00,4611.963873,N,01258.214389,E,1,04,3.7,140.26,M,46.25,M,,*60
$GPGLL,4611.963873,N,01258.214389,E,093920.00,A,A*61
$GPVTG,11.1,T,11.2,M,001.0,N,001.8,K,A*28
$GPGSV,2,1,07,02,33,058,45,12,42,095,49,14,15,238,,25,76,066,48*75
$GPGSV,2,2,07,29,71,239,39,30,51,300,38,31,40,305,30,,,,*4D
$GPGSA,M,3,02,12,25,29,,,,,,,,,6.8,3.7,5.7*3B
Trace #104 at position 25.750000
$GPZDA,093923.03,08,10,2011,00,00*6C
$GPRMC,093923.00,A,4611.964512,N,01258.213922,E,000.7,339.9,081011,0.2,E,A*33
$GPGGA,093924.00,4611.964653,N,01258.213851,E,1,04,3.7,140.05,M,46.25,M,,*67
$GPGLL,4611.964653,N,01258.213851,E,093924.00,A,A*67
$GPVTG,354.3,T,354.5,M,000.3,N,000.5,K,A*23
$GPGSV,2,1,07,02,33,058,46,12,42,095,49,14,15,238,32,25,76,066,48*77
$GPGSV,2,2,07,29,71,239,41,30,51,300,36,31,40,305,29,,,,*44
$GPGSA,M,3,02,12,25,29,,,,,,,,,6.8,3.7,5.7*3B
Trace #105 at position 26.000000
$GPZDA,093927.03,08,10,2011,00,00*68
$GPRMC,093927.00,A,4611.964586,N,01258.214100,E,000.0,354.9,081011,0.2,E,A*39
$GPGGA,093928.00,4611.964559,N,01258.214199,E,1,05,2.9,141.08,M,46.25,M,,*6A
$GPGLL,4611.964559,N,01258.214199,E,093928.00,A,A*68
$GPVTG,356.2,T,356.3,M,000.1,N,000.3,K,A*20
$GPGSV,2,1,07,02,33,058,45,12,42,095,49,14,15,238,29,25,76,066,48*7E
$GPGSV,2,2,07,29,71,239,40,30,51,300,37,31,40,305,34,,,,*48
$GPGSA,M,3,02,12,25,29,30,,,,,,,,5.5,2.9,4.7*38
Trace #106 at position 26.250000
$GPZDA,093928.03,08,10,2011,00,00*67
$GPRMC,093928.00,A,4611.964559,N,01258.214199,E,000.1,356.2,081011,0.2,E,A*3C
$GPGGA,093929.00,4611.964563,N,01258.214280,E,1,05,2.9,141.25,M,46.25,M,,*66
$GPGLL,4611.964563,N,01258.214280,E,093929.00,A,A*6B
$GPVTG,351.7,T,351.8,M,000.2,N,000.4,K,A*2A
$GPGSV,2,1,07,02,33,058,45,12,42,095,49,14,15,238,31,25,76,066,48*77
$GPGSV,2,2,07,29,71,239,42,30,51,300,38,31,40,305,35,,,,*44
$GPGSA,M,3,02,12,25,29,30,,,,,,,,5.5,2.9,4.7*38
Trace #107 at position 26.500000
$GPZDA,093929.03,08,10,2011,00,00*66
$GPRMC,093929.00,A,4611.964563,N,01258.214280,E,000.2,351.7,081011,0.2,E,A*3E
$GPGGA,093930.00,4611.964534,N,01258.214364,E,1,05,2.9,141.40,M,46.25,M,,*64
$GPGLL,4611.964534,N,01258.214364,E,093930.00,A,A*6A
$GPVTG,156.0,T,156.2,M,000.2,N,000.3,K,A*20
$GPGSV,2,1,07,02,33,058,45,12,42,095,50,14,15,238,31,25,76,067,46*70
$GPGSV,2,2,07,29,71,239,39,30,51,300,37,31,40,305,37,,,,*45
$GPGSA,M,3,02,12,25,29,30,,,,,,,,5.5,2.9,4.7*38
Trace #108 at position 26.750000
$GPZDA,093930.03,08,10,2011,00,00*6E
$GPRMC,093930.00,A,4611.964534,N,01258.214364,E,000.2,156.0,081011,0.2,E,A*3D
$GPGGA,093931.00,4611.964580,N,01258.214284,E,1,04,3.7,141.25,M,46.25,M,,*68
$GPGLL,4611.964580,N,01258.214284,E,093931.00,A,A*6B
$GPVTG,323.0,T,323.2,M,000.0,N,000.0,K,A*21
$GPGSV,2,1,07,02,33,058,45,12,42,095,49,14,15,238,29,25,76,067,47*70
$GPGSV,2,2,07,29,71,239,39,30,51,300,29,31,40,305,29,,,,*45
$GPGSA,M,3,02,12,25,29,,,,,,,,,6.8,3.7,5.7*3B
Trace #109 at position 27.000000
$GPZDA,093930.03,08,10,2011,00,00*6E
$GPRMC,093930.00,A,4611.964534,N,01258.214364,E,000.2,156.0,081011,0.2,E,A*3D
$GPGGA,093931.00,4611.964580,N,01258.214284,E,1,04,3.7,141.25,M,46.25,M,,*68
$GPGLL,4611.964580,N,01258.214284,E,093931.00,A,A*6B
$GPVTG,323.0,T,323.2,M,000.0,N,000.0,K,A*21
$GPGSV,2,1,07,02,33,058,45,12,42,095,49,14,15,238,29,25,76,067,47*70
$GPGSV,2,2,07,29,71,239,39,30,51,300,29,31,40,305,29,,,,*45
$GPGSA,M,3,02,12,25,29,,,,,,,,,6.8,3.7,5.7*3B
Trace #110 at position 27.250000
$GPZDA,093931.03,08,10,2011,00,00*6F
$GPRMC,093931.00,A,4611.964580,N,01258.214284,E,000.0,323.0,081011,0.2,E,A*3E
$GPGGA,093932.00,4611.964653,N,01258.214196,E,1,04,3.7,141.10,M,46.25,M,,*60
$GPGLL,4611.964653,N,01258.214196,E,093932.00,A,A*65
$GPVTG,354.2,T,354.4,M,000.1,N,000.2,K,A*26
$GPGSV,2,1,07,02,33,058,46,12,42,095,49,14,15,238,30,25,76,067,46*7A
$GPGSV,2,2,07,29,71,239,40,30,51,300,36,31,41,305,38,,,,*44
$GPGSA,M,3,02,12,25,29,,,,,,,,,6.8,3.7,5.7*3B
Trace #111 at position 27.500000
$GPZDA,093932.03,08,10,2011,00,00*6C
$GPRMC,093932.00,A,4611.964653,N,01258.214196,E,000.1,354.2,081011,0.2,E,A*33
$GPGGA,093933.00,4611.964648,N,01258.214233,E,1,05,2.9,141.29,M,46.25,M,,*63
$GPGLL,4611.964648,N,01258.214233,E,093933.00,A,A*62
$GPVTG,308.7,T,308.9,M,000.3,N,000.6,K,A*28
$GPGSV,2,1,07,02,33,058,47,12,42,095,50,14,15,238,32,25,76,067,47*70
$GPGSV,2,2,07,29,71,239,38,30,51,300,39,31,41,305,39,,,,*45
$GPGSA,M,3,02,12,25,29,30,,,,,,,,5.5,2.9,4.7*38
Trace #112 at position 27.750000
$GPZDA,093933.04,08,10,2011,00,00*6A
$GPRMC,093933.00,A,4611.964648,N,01258.214233,E,000.3,308.7,081011,0.2,E,A*3A
$GPGGA,093934.00,4611.964727,N,01258.214220,E,1,05,2.9,141.46,M,46.25,M,,*67
$GPGLL,4611.964727,N,01258.214220,E,093934.00,A,A*6F
$GPVTG,341.0,T,341.2,M,000.6,N,001.2,K,A*24
$GPGSV,2,1,07,02,33,058,46,12,42,095,50,14,15,238,,25,76,067,46*71
$GPGSV,2,2,07,29,71,239,39,30,51,300,38,31,41,305,37,,,,*4B
$GPGSA,M,3,02,12,25,29,30,,,,,,,,5.5,2.9,4.7*38
Trace #113 at position 28.000000
$GPZDA,093937.03,08,10,2011,00,00*69
$GPRMC,093937.00,A,4611.965096,N,01258.214086,E,000.2,0.3,081011,0.2,E,A*38
$GPGGA,093938.00,4611.965109,N,01258.214066,E,1,05,2.9,141.98,M,46.25,M,,*63
$GPGLL,4611.965109,N,01258.214066,E,093938.00,A,A*68
$GPVTG,263.5,T,263.7,M,000.4,N,000.7,K,A*22
$GPGSV,2,1,07,02,33,058,45,12,42,095,49,14,15,238,32,25,76,067,47*7A
$GPGSV,2,2,07,29,71,239,40,30,51,300,40,31,41,305,37,,,,*4A
$GPGSA,M,3,02,12,25,29,30,,,,,,,,5.5,2.9,4.7*38
Trace #114 at position 28.250000
$GPZDA,093938.04,08,10,2011,00,00*61
$GPRMC,093938.00,A,4611.965109,N,01258.214066,E,000.4,263.5,081011,0.2,E,A*39
$GPGGA,093939.00,4611.965262,N,01258.213756,E,1,04,3.7,141.75,M,46.25,M,,*62
$GPGLL,4611.965262,N,01258.213756,E,093939.00,A,A*64
$GPVTG,299.9,T,300.0,M,000.8,N,001.5,K,A*27
$GPGSV,2,1,07,02,33,058,45,12,42,095,49,14,15,238,,25,76,067,47*7B
$GPGSV,2,2,07,29,71,239,40,30,51,300,35,31,41,305,34,,,,*4B
$GPGSA,M,3,02,12,25,29,,,,,,,,,6.8,3.7,5.7*3B
Trace #115 at position 28.500000
$GPZDA,093939.03,08,10,2011,00,00*67
$GPRMC,093939.00,A,4611.965262,N,01258.213756,E,000.8,299.9,081011,0.2,E,A*30
$GPGGA,093940.00,4611.965369,N,01258.213585,E,1,04,3.7,141.54,M,46.25,M,,*69
$GPGLL,4611.965369,N,01258.213585,E,093940.00,A,A*6C
$GPVTG,145.1,T,145.3,M,000.4,N,000.8,K,A*2D
$GPGSV,2,1,07,02,33,058,46,12,42,095,49,14,15,238,,25,76,067,49*76
$GPGSV,2,2,07,29,71,239,40,30,51,300,35,31,41,305,33,,,,*4C
$GPGSA,M,3,02,12,25,29,,,,,,,,,6.8,3.7,5.7*3B
Trace #116 at position 28.750000
$GPZDA,093940.03,08,10,2011,00,00*69
$GPRMC,093940.00,A,4611.965369,N,01258.213585,E,000.4,145.1,081011,0.2,E,A*3E
$GPGGA,093941.00,4611.965406,N,01258.213535,E,1,04,3.7,141.28,M,46.25,M,,*66
$GPGLL,4611.965406,N,01258.213535,E,093941.00,A,A*68
$GPVTG,245.4,T,245.6,M,000.2,N,000.3,K,A*20
$GPGSV,2,1,07,02,33,058,46,12,42,095,50,14,15,238,31,25,76,067,49*7C
$GPGSV,2,2,07,29,71,239,43,30,51,300,28,31,41,305,22,,,,*43
$GPGSA,M,3,02,12,25,29,,,,,,,,,6.8,3.7,5.7*3B
Trace #117 at position 29.000000
$GPZDA,093941.03,08,10,2011,00,00*68
$GPRMC,093941.00,A,4611.965406,N,01258.213535,E,000.2,245.4,081011,0.2,E,A*3A
$GPGGA,093942.00,4611.965476,N,01258.213412,E,1,04,3.7,141.03,M,46.25,M,,*6F
$GPGLL,4611.965476,N,01258.213412,E,093942.00,A,A*68
$GPVTG,260.7,T,260.8,M,000.2,N,000.4,K,A*2A
$GPGSV,2,1,07,02,33,058,46,12,42,095,49,14,15,238,28,25,76,067,49*7C
$GPGSV,2,2,07,29,71,239,41,30,51,300,22,31,41,305,29,,,,*40
$GPGSA,M,3,02,12,25,29,,,,,,,,,6.8,3.7,5.7*3B
Trace #118 at position 29.250000
$GPZDA,093942.03,08,10,2011,00,00*6B
$GPRMC,093942.00,A,4611.965476,N,01258.213412,E,000.2,260.7,081011,0.2,E,A*3E
$GPGGA,093943.00,4611.965727,N,01258.213459,E,1,04,3.7,140.76,M,46.25,M,,*65
