Trace #1 at position 0.000000
$GPZDA,081615.04,09,10,2011,00,00*63
$GPRMC,081615.00,A,4611.953632,N,01258.226552,E,000.1,318.2,091011,0.2,E,A*3D
$GPGGA,081616.00,4611.953591,N,01258.226609,E,1,06,1.4,139.87,M,46.25,M,,*61
$GPGLL,4611.953591,N,01258.226609,E,081616.00,A,A*66
$GPVTG,103.2,T,103.4,M,000.2,N,000.3,K,A*24
$GPGSV,2,1,08,02,35,100,46,04,21,052,38,09,36,145,46,12,70,048,47*7B
$GPGSV,2,2,08,14,36,272,33,25,63,297,38,29,34,214,45,30,19,280,37*7C
$GPGSA,M,3,02,04,09,12,25,29,,,,,,,2.8,1.4,2.4*37
Trace #2 at position 0.250000
$GPZDA,081621.04,09,10,2011,00,00*64
$GPRMC,081621.00,A,4611.9$GPGGA,081622.00,4611.953467,N,01258.226622,E,1,06,1.4,139.93,M,46.25,M,,*62
$GPGLL,4611.953467,N,01258.226622,E,081622.00,A,A*60
$GPVTG,356.7,T,356.8,M,000.1,N,000.1,K,A*2C
$GPGSV,2,1,08,02,35,100,46,04,21,052,42,09,36,145,45,12,70,048,46*74
$GPGSV,2,2,08,14,36,272,37,25,63,297,41,29,34,214,45,30,19,280,39*78
$GPGSA,M,3,02,04,09,12,25,29,,,,,,,2.8,1.4,2.4*37
Trace #3 at position 0.500000
$GPZDA,081622.04,09,10,2011,00,00*67
$GPRMC,081622.00,A,4611.953467,N,01258.226622,E,000.1,356.7,091011,0.2,E,A*30
$GPGGA,081623.00,4611.953455,N,01258.226631,E,1,06,1.4,139.91,M,46.25,M,,*62
$GPGLL,4611.953455,N,01258.226631,E,081623.00,A,A*62
$GPVTG,47.2,T,47.4,M,000.0,N,000.0,K,A*25
$GPGSV,2,1,08,02,35,100,45,04,21,052,43,09,36,145,46,12,70,048,47*74
$GPGSV,2,2,08,14,36,272,38,25,63,297,40,29,34,214,46,30,19,280,39*75
$GPGSA,M,3,02,04,09,12,25,29,,,,,,,2.8,1.4,2.4*37
Trace #4 at position 0.750000
$GPZDA,081623.04,09,10,2011,00,00*66
$GPRMC,081623.00,A,4611.953455,N,01258.226631,E,000.0,47.2,091011,0.2,E,A*05
$GPGGA,081624.00,4611.953443,N,01258.226635,E,1,06,1.4,139.90,M,46.25,M,,*67
$GPGLL,4611.953443,N,01258.226635,E,081624.00,A,A*66
$GPVTG,319.2,T,319.4,M,000.0,N,000.1,K,A*24
$GPGSV,2,1,08,02,35,100,45,04,21,052,42,09,36,145,45,12,70,048,47*76
$GPGSV,2,2,08,14,36,272,38,25,63,297,39,29,34,214,45,30,19,280,39*78
$GPGSA,M,3,02,04,09,12,25,29,,,,,,,2.8,1.4,2.4*37
Trace #5 at position 1.000000
$GPZDA,081623.04,09,10,2011,00,00*66
$GPRMC,081623.00,A,4611.953455,N,01258.226631,E,000.0,47.2,091011,0.2,E,A*05
$GPGGA,081624.00,4611.953443,N,01258.226635,E,1,06,1.4,139.90,M,46.25,M,,*67
$GPGLL,4611.953443,N,01258.226635,E,081624.00,A,A*66
$GPVTG,319.2,T,319.4,M,000.0,N,000.1,K,A*24
$GPGSV,2,1,08,02,35,100,45,04,21,052,42,09,36,145,45,12,70,048,47*76
$GPGSV,2,2,08,14,36,272,38,25,63,297,39,29,34,214,45,30,19,280,39*78
$GPGSA,M,3,02,04,09,12,25,29,,,,,,,2.8,1.4,2.4*37
Trace #6 at position 1.250000
$GPZDA,081623.04,09,10,2011,00,00*66
$GPRMC,081623.00,A,4611.953455,N,01258.226631,E,000.0,47.2,091011,0.2,E,A*05
$GPGGA,081624.00,4611.953443,N,01258.226635,E,1,06,1.4,139.90,M,46.25,M,,*67
$GPGLL,4611.953443,N,01258.226635,E,081624.00,A,A*66
$GPVTG,319.2,T,319.4,M,000.0,N,000.1,K,A*24
$GPGSV,2,1,08,02,35,100,45,04,21,052,42,09,36,145,45,12,70,048,47*76
$GPGSV,2,2,08,14,36,272,38,25,63,297,39,29,34,214,45,30,19,280,39*78
$GPGSA,M,3,02,04,09,12,25,29,,,,,,,2.8,1.4,2.4*37
Trace #7 at position 1.500000
$GPZDA,081624.04,09,10,2011,00,00*61
$GPRMC,081624.00,A,4611.953443,N,01258.226635,E,000.0,319.2,091011,0.2,E,A*39
$GPGGA,081625.00,4611.953436,N,01258.226622,E,1,08,1.0,139.83,M,46.25,M,,*6A
$GPGLL,4611.953436,N,01258.226622,E,081625.00,A,A*63
$GPVTG,176.2,T,176.3,M,000.0,N,000.1,K,A*23
$GPGSV,2,1,08,02,35,100,45,04,21,052,41,09,36,145,45,12,70,048,47*75
$GPGSV,2,2,08,14,36,272,39,25,63,297,39,29,34,214,44,30,19,280,40*76
$GPGSA,M,3,02,04,09,12,14,25,29,30,,,,,2.0,1.0,1.7*3D
Trace #8 at position 1.750000
$GPZDA,081624.04,09,10,2011,00,00*61
$GPRMC,081624.00,A,4611.953443,N,01258.226635,E,000.0,319.2,091011,0.2,E,A*39
$GPGGA,081625.00,4611.953436,N,01258.226622,E,1,08,1.0,139.83,M,46.25,M,,*6A
$GPGLL,4611.953436,N,01258.226622,E,081625.00,A,A*63
$GPVTG,176.2,T,176.3,M,000.0,N,000.1,K,A*23
$GPGSV,2,1,08,02,35,100,45,04,21,052,41,09,36,145,45,12,70,048,47*75
$GPGSV,2,2,08,14,36,272,39,25,63,297,39,29,34,214,44,30,19,280,40*76
$GPGSA,M,3,02,04,09,12,14,25,29,30,,,,,2.0,1.0,1.7*3D
Trace #9 at position 2.000000
$GPZDA,081624.04,09,10,2011,00,00*61
$GPRMC,081624.00,A,4611.953443,N,01258.226635,E,000.0,319.2,091011,0.2,E,A*39
$GPGGA,081625.00,4611.953436,N,01258.226622,E,1,08,1.0,139.83,M,46.25,M,,*6A
$GPGLL,4611.953436,N,01258.226622,E,081625.00,A,A*63
$GPVTG,176.2,T,176.3,M,000.0,N,000.1,K,A*23
$GPGSV,2,1,08,02,35,100,45,04,21,052,41,09,36,145,45,12,70,048,47*75
$GPGSV,2,2,08,14,36,272,39,25,63,297,39,29,34,214,44,30,19,280,40*76
$GPGSA,M,3,02,04,09,12,14,25,29,30,,,,,2.0,1.0,1.7*3D
Trace #10 at position 2.250000
$GPZDA,081625.04,09,10,2011,00,00*60
$GPRMC,081625.00,A,4611.953436,N,01258.226622,E,000.0,176.2,091011,0.2,E,A*37
$GPGGA,081626.00,4611.953425,N,01258.226612,E,1,08,1.0,139.76,M,46.25,M,,*62
$GPGLL,4611.953425,N,01258.226612,E,081626.00,A,A*61
$GPVTG,272.6,T,272.7,M,000.0,N,000.0,K,A*22
$GPGSV,2,1,08,02,35,100,47,04,21,052,42,09,36,145,46,12,70,048,47*77
$GPGSV,2,2,08,14,36,272,41,25,63,297,42,29,34,214,44,30,19,280,40*75
$GPGSA,M,3,02,04,09,12,14,25,29,30,,,,,2.0,1.0,1.7*3D
Trace #11 at position 2.500000
$GPZDA,081625.04,09,10,2011,00,00*60
$GPRMC,081625.00,A,4611.953436,N,01258.226622,E,000.0,176.2,091011,0.2,E,A*37
$GPGGA,081626.00,4611.953425,N,01258.226612,E,1,08,1.0,139.76,M,46.25,M,,*62
$GPGLL,4611.953425,N,01258.226612,E,081626.00,A,A*61
$GPVTG,272.6,T,272.7,M,000.0,N,000.0,K,A*22
$GPGSV,2,1,08,02,35,100,47,04,21,052,42,09,36,145,46,12,70,048,47*77
$GPGSV,2,2,08,14,36,272,41,25,63,297,42,29,34,214,44,30,19,280,40*75
$GPGSA,M,3,02,04,09,12,14,25,29,30,,,,,2.0,1.0,1.7*3D
Trace #12 at position 2.750000
$GPZDA,081625.04,09,10,2011,00,00*60
$GPRMC,081625.00,A,4611.953436,N,01258.226622,E,000.0,176.2,091011,0.2,E,A*37
$GPGGA,081626.00,4611.953425,N,01258.226612,E,1,08,1.0,139.76,M,46.25,M,,*62
$GPGLL,4611.953425,N,01258.226612,E,081626.00,A,A*61
$GPVTG,272.6,T,272.7,M,000.0,N,000.0,K,A*22
$GPGSV,2,1,08,02,35,100,47,04,21,052,42,09,36,145,46,12,70,048,47*77
$GPGSV,2,2,08,14,36,272,41,25,63,297,42,29,34,214,44,30,19,280,40*75
$GPGSA,M,3,02,04,09,12,14,25,29,30,,,,,2.0,1.0,1.7*3D
Trace #13 at position 3.000000
$GPZDA,081626.04,09,10,2011,00,00*63
$GPRMC,081626.00,A,4611.953425,N,01258.226612,E,000.0,272.6,091011,0.2,E,A*36
$GPGGA,081627.00,4611.953413,N,01258.226589,E,1,07,1.1,139.70,M,46.25,M,,*6F
$GPGLL,4611.953413,N,01258.226589,E,081627.00,A,A*64
$GPVTG,164.2,T,164.3,M,000.1,N,000.1,K,A*22
$GPGSV,2,1,08,02,35,100,46,04,21,052,43,09,36,145,45,12,70,048,46*75
$GPGSV,2,2,08,14,36,272,34,25,63,297,40,29,34,214,45,30,19,280,36*75
$GPGSA,M,3,02,04,09,12,25,29,30,,,,,,2.0,1.1,1.7*39
Trace #14 at position 3.250000
$GPZDA,081626.04,09,10,2011,00,00*63
$GPRMC,081626.00,A,4611.953425,N,01258.226612,E,000.0,272.6,091011,0.2,E,A*36
$GPGGA,081627.00,4611.953413,N,01258.226589,E,1,07,1.1,139.70,M,46.25,M,,*6F
$GPGLL,4611.953413,N,01258.226589,E,081627.00,A,A*64
$GPVTG,164.2,T,164.3,M,000.1,N,000.1,K,A*22
$GPGSV,2,1,08,02,35,100,46,04,21,052,43,09,36,145,45,12,70,048,46*75
$GPGSV,2,2,08,14,36,272,34,25,63,297,40,29,34,214,45,30,19,280,36*75
$GPGSA,M,3,02,04,09,12,25,29,30,,,,,,2.0,1.1,1.7*39
Trace #15 at position 3.500000
$GPZDA,081626.04,09,10,2011,00,00*63
$GPRMC,081626.00,A,4611.953425,N,01258.226612,E,000.0,272.6,091011,0.2,E,A*36
$GPGGA,081627.00,4611.953413,N,01258.226589,E,1,07,1.1,139.70,M,46.25,M,,*6F
$GPGLL,4611.953413,N,01258.226589,E,081627.00,A,A*64
$GPVTG,164.2,T,164.3,M,000.1,N,000.1,K,A*22
$GPGSV,2,1,08,02,35,100,46,04,21,052,43,09,36,145,45,12,70,048,46*75
$GPGSV,2,2,08,14,36,272,34,25,63,297,40,29,34,214,45,30,19,280,36*75
$GPGSA,M,3,02,04,09,12,25,29,30,,,,,,2.0,1.1,1.7*39
Trace #16 at position 3.750000
$GPZDA,081627.04,09,10,2011,00,00*62
$GPRMC,081627.00,A,4611.953413,N,01258.226589,E,000.1,164.2,091011,0.2,E,A*32
$GPGGA,081628.00,4611.953519,N,01258.226565,E,1,07,1.1,139.66,M,46.25,M,,*6E
$GPGLL,4611.953519,N,01258.226565,E,081628.00,A,A*62
$GPVTG,357.7,T,357.9,M,000.9,N,001.6,K,A*23
$GPGSV,2,1,08,02,35,100,47,04,21,052,42,09,36,145,44,12,70,048,46*74
$GPGSV,2,2,08,14,36,272,36,25,63,297,40,29,34,214,45,30,19,280,36*77
$GPGSA,M,3,02,04,09,12,25,29,30,,,,,,2.0,1.1,1.7*39
Trace #17 at position 4.000000
$GPZDA,081627.04,09,10,2011,00,00*62
$GPRMC,081627.00,A,4611.953413,N,01258.226589,E,000.1,164.2,091011,0.2,E,A*32
$GPGGA,081628.00,4611.953519,N,01258.226565,E,1,07,1.1,139.66,M,46.25,M,,*6E
$GPGLL,4611.953519,N,01258.226565,E,081628.00,A,A*62
$GPVTG,357.7,T,357.9,M,000.9,N,001.6,K,A*23
$GPGSV,2,1,08,02,35,100,47,04,21,052,42,09,36,145,44,12,70,048,46*74
$GPGSV,2,2,08,14,36,272,36,25,63,297,40,29,34,214,45,30,19,280,36*77
$GPGSA,M,3,02,04,09,12,25,29,30,,,,,,2.0,1.1,1.7*39
Trace #18 at position 4.250000
$GPZDA,081627.04,09,10,2011,00,00*62
$GPRMC,081627.00,A,4611.953413,N,01258.226589,E,000.1,164.2,091011,0.2,E,A*32
$GPGGA,081628.00,4611.953519,N,01258.226565,E,1,07,1.1,139.66,M,46.25,M,,*6E
$GPGLL,4611.953519,N,01258.226565,E,081628.00,A,A*62
$GPVTG,357.7,T,357.9,M,000.9,N,001.6,K,A*23
$GPGSV,2,1,08,02,35,100,47,04,21,052,42,09,36,145,44,12,70,048,46*74
$GPGSV,2,2,08,14,36,272,36,25,63,297,40,29,34,214,45,30,19,280,36*77
$GPGSA,M,3,02,04,09,12,25,29,30,,,,,,2.0,1.1,1.7*39
Trace #19 at position 4.500000
$GPZDA,081628.04,09,10,2011,00,00*6D
$GPRMC,081628.00,A,4611.953519,N,01258.226565,E,000.9,357.7,091011,0.2,E,A*3B
$GPGGA,081629.00,4611.953714,N,01258.226536,E,1,07,1.1,139.59,M,46.25,M,,*6A
$GPGLL,4611.953714,N,01258.226536,E,081629.00,A,A*6A
$GPVTG,2.3,T,2.5,M,000.6,N,001.1,K,A*23
$GPGSV,2,1,08,02,35,100,44,04,21,052,43,09,36,145,45,12,70,048,45*74
$GPGSV,2,2,08,14,36,272,36,25,63,297,43,29,34,214,45,30,19,280,38*7A
$GPGSA,M,3,02,04,09,12,25,29,30,,,,,,2.0,1.1,1.7*39
Trace #20 at position 4.750000
$GPZDA,081628.04,09,10,2011,00,00*6D
$GPRMC,081628.00,A,4611.953519,N,01258.226565,E,000.9,357.7,091011,0.2,E,A*3B
$GPGGA,081629.00,4611.953714,N,01258.226536,E,1,07,1.1,139.59,M,46.25,M,,*6A
$GPGLL,4611.953714,N,01258.226536,E,081629.00,A,A*6A
$GPVTG,2.3,T,2.5,M,000.6,N,001.1,K,A*23
$GPGSV,2,1,08,02,35,100,44,04,21,052,43,09,36,145,45,12,70,048,45*74
$GPGSV,2,2,08,14,36,272,36,25,63,297,43,29,34,214,45,30,19,280,38*7A
$GPGSA,M,3,02,04,09,12,25,29,30,,,,,,2.0,1.1,1.7*39
Trace #21 at position 5.000000
$GPZDA,081629.04,09,10,2011,00,00*6C
$GPRMC,081629.00,A,4611.953714,N,01258.226536,E,000.6,2.3,091011,0.2,E,A*3B
$GPGGA,081630.00,4611.953889,N,01258.226415,E,1,07,1.1,139.52,M,46.25,M,,*62
$GPGLL,4611.953889,N,01258.226415,E,081630.00,A,A*69
$GPVTG,322.6,T,322.8,M,000.9,N,001.6,K,A*23
$GPGSV,2,1,08,02,35,099,47,04,21,076
$GPGSV,2,2,08,14,36,272,36,25,63,297,42,29,34,214,46,30,19,280,38*78
$GPGSA,M,3,02,04,09,12,25,29,30,,,,,,2.0,1.1,1.7*39
Trace #22 at position 5.250000
$GPZDA,081629.04,09,10,2011,00,00*6C
$GPRMC,081629.00,A,4611.953714,N,01258.226536,E,000.6,2.3,091011,0.2,E,A*3B
$GPGGA,081630.00,4611.953889,N,01258.226415,E,1,07,1.1,139.52,M,46.25,M,,*62
$GPGLL,4611.953889,N,01258.226415,E,081630.00,A,A*69
$GPVTG,322.6,T,322.8,M,000.9,N,001.6,K,A*23
$GPGSV,2,1,08,02,35,099,47,04,21,076
$GPGSV,2,2,08,14,36,272,36,25,63,297,42,29,34,214,46,30,19,280,38*78
$GPGSA,M,3,02,04,09,12,25,29,30,,,,,,2.0,1.1,1.7*39
Trace #23 at position 5.500000
$GPZDA,081629.04,09,10,2011,00,00*6C
$GPRMC,081629.00,A,4611.953714,N,01258.226536,E,000.6,2.3,091011,0.2,E,A*3B
$GPGGA,081630.00,4611.953889,N,01258.226415,E,1,07,1.1,139.52,M,46.25,M,,*62
$GPGLL,4611.953889,N,01258.226415,E,081630.00,A,A*69
$GPVTG,322.6,T,322.8,M,000.9,N,001.6,K,A*23
$GPGSV,2,1,08,02,35,099,47,04,21,076
$GPGSV,2,2,08,14,36,272,36,25,63,297,42,29,34,214,46,30,19,280,38*78
$GPGSA,M,3,02,04,09,12,25,29,30,,,,,,2.0,1.1,1.7*39
Trace #24 at position 5.750000
$GPZDA,081630.04,09,10,2011,00,00*64
$GPRMC,081630.00,A,4611.953889,N,01258.226415,E,000.9,322.6,091011,0.2,E,A*33
$GPGGA,081631.00,4611.954089,N,01258.226378,E,1,06,1.4,139.69,M,46.25,M,,*6C
$GPGLL,4611.954089,N,01258.226378,E,081631.00,A,A*6B
$GPVTG,21.5,T,21.6,M,000.9,N,001.6,K,A*2E
$GPGSV,2,1,08,02,35,099,46,04,21,052,41,09,36,145,45,12,70,048,41*71
$GPGSV,2,2,08,14,36,272.5,091011,0.2,E,A*02
$GPGGA,081632.00,4611.954414,N,01258.226335,E,1,06,1.4,139.68,M,46.25,M,,*67
$GPGLL,4611.954414,N,01258.226335,E,081632.00,A,A*61
$GPVTG,343.2,T,343.3,M,001.6,N,003.0,K,A*26
$GPGSV,2,1,08,02,35,099,45,04,21,052,41,09,36,145,46,12,70,048,43*73
$GPGSV,2,2,08,14,36,272,36,25,63,297,42,29,34,214,46,30,19,280,37*77
$GPGSA,M,3,02,04,09,12,25,29,,,,,,,2.8,1.4,2.4*37
Trace #25 at position 6.000000
$GPZDA,081630.04,09,10,2011,00,00*64
$GPRMC,081630.00,A,4611.953889,N,01258.226415,E,000.9,322.6,091011,0.2,E,A*33
$GPGGA,081631.00,4611.954089,N,01258.226378,E,1,06,1.4,139.69,M,46.25,M,,*6C
$GPGLL,4611.954089,N,01258.226378,E,081631.00,A,A*6B
$GPVTG,21.5,T,21.6,M,000.9,N,001.6,K,A*2E
$GPGSV,2,1,08,02,35,099,46,04,21,052,41,09,36,145,45,12,70,048,41*71
$GPGSV,2,2,08,14,36,272.5,091011,0.2,E,A*02
$GPGGA,081632.00,4611.954414,N,01258.226335,E,1,06,1.4,139.68,M,46.25,M,,*67
$GPGLL,4611.954414,N,01258.226335,E,081632.00,A,A*61
$GPVTG,343.2,T,343.3,M,001.6,N,003.0,K,A*26
$GPGSV,2,1,08,02,35,099,45,04,21,052,41,09,36,145,46,12,70,048,43*73
$GPGSV,2,2,08,14,36,272,36,25,63,297,42,29,34,214,46,30,19,280,37*77
$GPGSA,M,3,02,04,09,12,25,29,,,,,,,2.8,1.4,2.4*37
Trace #26 at position 6.250000
$GPZDA,081630.04,09,10,2011,00,00*64
$GPRMC,081630.00,A,4611.953889,N,01258.226415,E,000.9,322.6,091011,0.2,E,A*33
$GPGGA,081631.00,4611.954089,N,01258.226378,E,1,06,1.4,139.69,M,46.25,M,,*6C
$GPGLL,4611.954089,N,01258.226378,E,081631.00,A,A*6B
$GPVTG,21.5,T,21.6,M,000.9,N,001.6,K,A*2E
$GPGSV,2,1,08,02,35,099,46,04,21,052,41,09,36,145,45,12,70,048,41*71
$GPGSV,2,2,08,14,36,272.5,091011,0.2,E,A*02
$GPGGA,081632.00,4611.954414,N,01258.226335,E,1,06,1.4,139.68,M,46.25,M,,*67
$GPGLL,4611.954414,N,01258.226335,E,081632.00,A,A*61
$GPVTG,343.2,T,343.3,M,001.6,N,003.0,K,A*26
$GPGSV,2,1,08,02,35,099,45,04,21,052,41,09,36,145,46,12,70,048,43*73
$GPGSV,2,2,08,14,36,272,36,25,63,297,42,29,34,214,46,30,19,280,37*77
$GPGSA,M,3,02,04,09,12,25,29,,,,,,,2.8,1.4,2.4*37
Trace #27 at position 6.500000
$GPZDA,081632.04,09,10,2011,00,00*66
$GPRMC,081632.00,A,4611.954414,N,01258.226335,E,001.6,343.2,091011,0.2,E,A*36
$GPGGA,081633.00,4611.954789,N,01258.226069,E,1,06,1.4,139.68,M,46.25,M,,*6B
$GPGLL,4611.954789,N,01258.226069,E,081633.00,A,A*6D
$GPVTG,325.2,T,325.4,M,001.5,N,002.7,K,A*24
$GPGSV,2,1,08,02,35,099,46,04,21,052,42,09,36,145,45,12,70,048,42*71
$GPGSV,2,2,08,14,36,272,38,25,63,297,43,29,34,214,44,30,19,280,35*78
$GPGSA,M,3,02,04,09,12,25,29,,,,,,,2.8,1.4,2.4*37
Trace #28 at position 6.750000
$GPZDA,081632.04,09,10,2011,00,00*66
$GPRMC,081632.00,A,4611.954414,N,01258.226335,E,001.6,343.2,091011,0.2,E,A*36
$GPGGA,081633.00,4611.954789,N,01258.226069,E,1,06,1.4,139.68,M,46.25,M,,*6B
$GPGLL,4611.954789,N,01258.226069,E,081633.00,A,A*6D
$GPVTG,325.2,T,325.4,M,001.5,N,002.7,K,A*24
$GPGSV,2,1,08,02,35,099,46,04,21,052,42,09,36,145,45,12,70,048,42*71
$GPGSV,2,2,08,14,36,272,38,25,63,297,43,29,34,214,44,30,19,280,35*78
$GPGSA,M,3,02,04,09,12,25,29,,,,,,,2.8,1.4,2.4*37
Trace #29 at position 7.000000
$GPZDA,081632.04,09,10,2011,00,00*66
$GPRMC,081632.00,A,4611.954414,N,01258.226335,E,001.6,343.2,091011,0.2,E,A*36
$GPGGA,081633.00,4611.954789,N,01258.226069,E,1,06,1.4,139.68,M,46.25,M,,*6B
$GPGLL,4611.954789,N,01258.226069,E,081633.00,A,A*6D
$GPVTG,325.2,T,325.4,M,001.5,N,002.7,K,A*24
$GPGSV,2,1,08,02,35,099,46,04,21,052,42,09,36,145,45,12,70,048,42*71
$GPGSV,2,2,08,14,36,272,38,25,63,297,43,29,34,214,44,30,19,280,35*78
$GPGSA,M,3,02,04,09,12,25,29,,,,,,,2.8,1.4,2.4*37
Trace #30 at position 7.250000
$GPZDA,081633.04,09,10,2011,00,00*67
$GPRMC,081633.00,A,4611.954789,N,01258.226069,E,001.5,325.2,091011,0.2,E,A*39
$GPGGA,081634.00,4611.955101,N,01258.225822,E,1,06,1.4,139.88,M,46.25,M,,*61
$GPGLL,4611.955101,N,01258.225822,E,081634.00,A,A*69
$GPVTG,338.2,T,338.4,M,001.2,N,002.2,K,A*26
$GPGSV,2,1,08,02,35,099,46,04,21,052,41,09,36,145,44,12,70,048,42*73
$GPGSV,2,2,08,14,36,272,39,25,63,297,43,29,34,214,44,30,19,280,35*79
$GPGSA,M,3,02,04,09,12,25,29,,,,,,,2.8,1.4,2.4*37
Trace #31 at position 7.500000
$GPZDA,081633.04,09,10,2011,00,00*67
$GPRMC,081633.00,A,4611.954789,N,01258.226069,E,001.5,325.2,091011,0.2,E,A*39
$GPGGA,081634.00,4611.955101,N,01258.225822,E,1,06,1.4,139.88,M,46.25,M,,*61
$GPGLL,4611.955101,N,01258.225822,E,081634.00,A,A*69
$GPVTG,338.2,T,338.4,M,001.2,N,002.2,K,A*26
$GPGSV,2,1,08,02,35,099,46,04,21,052,41,09,36,145,44,12,70,048,42*73
$GPGSV,2,2,08,14,36,272,39,25,63,297,43,29,34,214,44,30,19,280,35*79
$GPGSA,M,3,02,04,09,12,25,29,,,,,,,2.8,1.4,2.4*37
Trace #32 at position 7.750000
$GPZDA,081633.04,09,10,2011,00,00*67
$GPRMC,081633.00,A,4611.954789,N,01258.226069,E,001.5,325.2,091011,0.2,E,A*39
$GPGGA,081634.00,4611.955101,N,01258.225822,E,1,06,1.4,139.88,M,46.25,M,,*61
$GPGLL,4611.955101,N,01258.225822,E,081634.00,A,A*69
$GPVTG,338.2,T,338.4,M,001.2,N,002.2,K,A*26
$GPGSV,2,1,08,02,35,099,46,04,21,052,41,09,36,145,44,12,70,048,42*73
$GPGSV,2,2,08,14,36,272,39,25,63,297,43,29,34,214,44,30,19,280,35*79
$GPGSA,M,3,02,04,09,12,25,29,,,,,,,2.8,1.4,2.4*37
Trace #33 at position 8.000000
$GPZDA,081633.04,09,10,2011,00,00*67
$GPRMC,081633.00,A,4611.954789,N,01258.226069,E,001.5,325.2,091011,0.2,E,A*39
$GPGGA,081634.00,4611.955101,N,01258.225822,E,1,06,1.4,139.88,M,46.25,M,,*61
$GPGLL,4611.955101,N,01258.225822,E,081634.00,A,A*69
$GPVTG,338.2,T,338.4,M,001.2,N,002.2,K,A*26
$GPGSV,2,1,08,02,35,099,46,04,21,052,41,09,36,145,44,12,70,048,42*73
$GPGSV,2,2,08,14,36,272,39,25,63,297,43,29,34,214,44,30,19,280,35*79
$GPGSA,M,3,02,04,09,12,25,29,,,,,,,2.8,1.4,2.4*37
Trace #34 at position 8.250000
$GPZDA,081633.04,09,10,2011,00,00*67
$GPRMC,081633.00,A,4611.954789,N,01258.226069,E,001.5,325.2,091011,0.2,E,A*39
$GPGGA,081634.00,4611.955101,N,01258.225822,E,1,06,1.4,139.88,M,46.25,M,,*61
$GPGLL,4611.955101,N,01258.225822,E,081634.00,A,A*69
$GPVTG,338.2,T,338.4,M,001.2,N,002.2,K,A*26
$GPGSV,2,1,08,02,35,099,46,04,21,052,41,09,36,145,44,12,70,048,42*73
$GPGSV,2,2,08,14,36,272,39,25,63,297,43,29,34,214,44,30,19,280,35*79
$GPGSA,M,3,02,04,09,12,25,29,,,,,,,2.8,1.4,2.4*37
Trace #35 at position 8.500000
$GPZDA,081634.04,09,10,2011,00,00*60
$GPRMC,081634.00,A,4611.955101,N,01258.225822,E,001.2,338.2,091011,0.2,E,A*36
$GPGGA,081635.00,4611.955405,N,01258.225643,E,1,06,1.4,140.00,M,46.25,M,,*66
$GPGLL,4611.955405,N,01258.225643,E,081635.00,A,A*60
$GPVTG,336.1,T,336.2,M,001.2,N,002.2,K,A*23
$GPGSV,2,1,08,02,35,099,47,04,21,052,41,09,36,145,45,12,70,048,42*73
$GPGSV,2,2,08,14,36,272,39,25,63,297,42,29,34,214,46,30,19,280,34*7B
$GPGSA,M,3,02,04,09,12,25,29,,,,,,,2.8,1.4,2.4*37
Trace #36 at position 8.750000
$GPZDA,081634.04,09,10,2011,00,00*60
$GPRMC,081634.00,A,4611.955101,N,01258.225822,E,001.2,338.2,091011,0.2,E,A*36
$GPGGA,081635.00,4611.955405,N,01258.225643,E,1,06,1.4,140.00,M,46.25,M,,*66
$GPGLL,4611.955405,N,01258.225643,E,081635.00,A,A*60
$GPVTG,336.1,T,336.2,M,001.2,N,002.2,K,A*23
$GPGSV,2,1,08,02,35,099,47,04,21,052,41,09,36,145,45,12,70,048,42*73
$GPGSV,2,2,08,14,36,272,39,25,63,297,42,29,34,214,46,30,19,280,34*7B
$GPGSA,M,3,02,04,09,12,25,29,,,,,,,2.8,1.4,2.4*37
Trace #37 at position 9.000000
$GPZDA,081634.04,09,10,2011,00,00*60
$GPRMC,081634.00,A,4611.955101,N,01258.225822,E,001.2,338.2,091011,0.2,E,A*36
$GPGGA,081635.00,4611.955405,N,01258.225643,E,1,06,1.4,140.00,M,46.25,M,,*66
$GPGLL,4611.955405,N,01258.225643,E,081635.00,A,A*60
$GPVTG,336.1,T,336.2,M,001.2,N,002.2,K,A*23
$GPGSV,2,1,08,02,35,099,47,04,21,052,41,09,36,145,45,12,70,048,42*73
$GPGSV,2,2,08,14,36,272,39,25,63,297,42,29,34,214,46,30,19,280,34*7B
$GPGSA,M,3,02,04,09,12,25,29,,,,,,,2.8,1.4,2.4*37
Trace #38 at position 9.250000
$GPZDA,081635.04,09,10,2011,00,00*61
$GPRMC,081635.00,A,4611.955405,N,01258.225643,E,001.2,336.1,091011,0.2,E,A*32
$GPGGA,081636.00,4611.955675,N,01258.225527,E,1,07,1.1,140.10,M,46.25,M,,*64
$GPGLL,4611.955675,N,01258.225527,E,081636.00,A,A*67
$GPVTG,355.1,T,355.3,M,000.8,N,001.5,K,A*2D
$GPGSV,2,1,08,02,35,099,46,04,21,052,43,09,36,145,44,12,70,048,42*71
$GPGSV,2,2,08,14,36,272,40,25,63,297,43,29,34,214,45,30,19,280,35*76
$GPGSA,M,3,02,04,09,12,14,25,29,,,,,,2.4,1.1,2.1*3E
Trace #39 at position 9.500000
$GPZDA,081635.04,09,10,2011,00,00*61
$GPRMC,081635.00,A,4611.955405,N,01258.225643,E,001.2,336.1,091011,0.2,E,A*32
$GPGGA,081636.00,4611.955675,N,01258.225527,E,1,07,1.1,140.10,M,46.25,M,,*64
$GPGLL,4611.955675,N,01258.225527,E,081636.00,A,A*67
$GPVTG,355.1,T,355.3,M,000.8,N,001.5,K,A*2D
$GPGSV,2,1,08,02,35,099,46,04,21,052,43,09,36,145,44,12,70,048,42*71
$GPGSV,2,2,08,14,36,272,40,25,63,297,43,29,34,214,45,30,19,280,35*76
$GPGSA,M,3,02,04,09,12,14,25,29,,,,,,2.4,1.1,2.1*3E
Trace #40 at position 9.750000
$GPZDA,081635.04,09,10,2011,00,00*61
$GPRMC,081635.00,A,4611.955405,N,01258.225643,E,001.2,336.1,091011,0.2,E,A*32
$GPGGA,081636.00,4611.955675,N,01258.225527,E,1,07,1.1,140.10,M,46.25,M,,*64
$GPGLL,4611.955675,N,01258.225527,E,081636.00,A,A*67
$GPVTG,355.1,T,355.3,M,000.8,N,001.5,K,A*2D
$GPGSV,2,1,08,02,35,099,46,04,21,052,43,09,36,145,44,12,70,048,42*71
$GPGSV,2,2,08,14,36,272,40,25,63,297,43,29,34,214,45,30,19,280,35*76
$GPGSA,M,3,02,04,09,12,14,25,29,,,,,,2.4,1.1,2.1*3E
Trace #41 at position 10.000000
$GPZDA,081636.04,09,10,2011,00,00*62
$GPRMC,081636.00,A,4611.955675,N,01258.225527,E,000.8,355.1,091011,0.2,E,A*3B
$GPGGA,081637.00,4611.955958,N,01258.225530,E,1,07,1.1,140.16,M,46.25,M,,*65
$GPGLL,4611.955958,N,01258.225530,E,081637.00,A,A*60
$GPVTG,9.8,T,10.0,M,001.2,N,002.2,K,A*10
$GPGSV,2,1,08,02,35,099,46,04,21,052,43,09,36,145,44,12,70,048,41*72
$GPGSV,2,2,08,14,36,272,40,25,63,297,42,29,34,214,45,30,19,280,35*77
$GPGSA,M,3,02,04,09,12,14,25,29,,,,,,2.4,1.1,2.1*3E
Trace #42 at position 10.250000
$GPZDA,081636.04,09,10,2011,00,00*62
$GPRMC,081636.00,A,4611.955675,N,01258.225527,E,000.8,355.1,091011,0.2,E,A*3B
$GPGGA,081637.00,4611.955958,N,01258.225530,E,1,07,1.1,140.16,M,46.25,M,,*65
$GPGLL,4611.955958,N,01258.225530,E,081637.00,A,A*60
$GPVTG,9.8,T,10.0,M,001.2,N,002.2,K,A*10
$GPGSV,2,1,08,02,35,099,46,04,21,052,43,09,36,145,44,12,70,048,41*72
$GPGSV,2,2,08,14,36,272,40,25,63,297,42,29,34,214,45,30,19,280,35*77
$GPGSA,M,3,02,04,09,12,14,25,29,,,,,,2.4,1.1,2.1*3E
Trace #43 at position 10.500000
$GPZDA,081636.04,09,10,2011,00,00*62
$GPRMC,081636.00,A,4611.955675,N,01258.225527,E,000.8,355.1,091011,0.2,E,A*3B
$GPGGA,081637.00,4611.955958,N,01258.225530,E,1,07,1.1,140.16,M,46.25,M,,*65
$GPGLL,4611.955958,N,01258.225530,E,081637.00,A,A*60
$GPVTG,9.8,T,10.0,M,001.2,N,002.2,K,A*10
$GPGSV,2,1,08,02,35,099,46,04,21,052,43,09,36,145,44,12,70,048,41*72
$GPGSV,2,2,08,14,36,272,40,25,63,297,42,29,34,214,45,30,19,280,35*77
$GPGSA,M,3,02,04,09,12,14,25,29,,,,,,2.4,1.1,2.1*3E
Trace #44 at position 10.750000
$GPZDA,081637.04,09,10,2011,00,00*63
$GPRMC,081637.00,A,4611.955958,N,01258.225530,E,001.2,9.8,091011,0.2,E,A*34
$GPGGA,081638.00,4611.956301,N,01258.225397,E,1,07,1.1,140.24,M,46.25,M,,*65
$GPGLL,4611.956301,N,01258.225397,E,081638.00,A,A*61
$GPVTG,329.2,T,329.4,M,001.4,N,002.6,K,A*24
$GPGSV,2,1,08,02,35,099,47,04,21,052,42,09,36,145,45,12,70,048,42*70
$GPGSV,2,2,08,14,36,272,38,25,63,297,42,29,34,214,45,30,19,280,35*78
$GPGSA,M,3,02,04,09,12,14,25,29,,,,,,2.4,1.1,2.1*3E
Trace #45 at position 11.000000
$GPZDA,081637.04,09,10,2011,00,00*63
$GPRMC,081637.00,A,4611.955958,N,01258.225530,E,001.2,9.8,091011,0.2,E,A*34
$GPGGA,081638.00,4611.956301,N,01258.225397,E,1,07,1.1,140.24,M,46.25,M,,*65
$GPGLL,4611.956301,N,01258.225397,E,081638.00,A,A*61
$GPVTG,329.2,T,329.4,M,001.4,N,002.6,K,A*24
$GPGSV,2,1,08,02,35,099,47,04,21,052,42,09,36,145,45,12,70,048,42*70
$GPGSV,2,2,08,14,36,272,38,25,63,297,42,29,34,214,45,30,19,280,35*78
$GPGSA,M,3,02,04,09,12,14,25,29,,,,,,2.4,1.1,2.1*3E
Trace #46 at position 11.250000
$GPZDA,081638.04,09,10,2011,00,00*6C
$GPRMC,081638.00,A,4611.956301,N,01258.225397,E,001.4,329.2,091011,0.2,E,A*38
$GPGGA,081639.00,4611.956656,N,01258.225072,E,1,06,1.4,140.33,M,46.25,M,,*69
$GPGLL,4611.956656,N,01258.225072,E,081639.00,A,A*6F
$GPVTG,325.3,T,325.4,M,001.5,N,002
$GPGSV,2,2,08,14,36,272,36,25,63,297,41,29,34,214,45,30,19,280,34*74
$GPGSA,M,3,02,04,09,12,25,29,,,,,,,2.8,1.4,2.4*37
Trace #47 at position 11.500000
$GPZDA,081638.04,09,10,2011,00,00*6C
$GPRMC,081638.00,A,4611.956301,N,01258.225397,E,001.4,329.2,091011,0.2,E,A*38
$GPGGA,081639.00,4611.956656,N,01258.225072,E,1,06,1.4,140.33,M,46.25,M,,*69
$GPGLL,4611.956656,N,01258.225072,E,081639.00,A,A*6F
$GPVTG,325.3,T,325.4,M,001.5,N,002
$GPGSV,2,2,08,14,36,272,36,25,63,297,41,29,34,214,45,30,19,280,34*74
$GPGSA,M,3,02,04,09,12,25,29,,,,,,,2.8,1.4,2.4*37
Trace #48 at position 11.750000
$GPZDA,081638.04,09,10,2011,00,00*6C
$GPRMC,081638.00,A,4611.956301,N,01258.225397,E,001.4,329.2,091011,0.2,E,A*38
$GPGGA,081639.00,4611.956656,N,01258.225072,E,1,06,1.4,140.33,M,46.25,M,,*69
$GPGLL,4611.956656,N,01258.225072,E,081639.00,A,A*6F
$GPVTG,325.3,T,325.4,M,001.5,N,002
$GPGSV,2,2,08,14,36,272,36,25,63,297,41,29,34,214,45,30,19,280,34*74
$GPGSA,M,3,02,04,09,12,25,29,,,,,,,2.8,1.4,2.4*37
Trace #49 at position 12.000000
$GPZDA,081638.04,09,10,2011,00,00*6C
$GPRMC,081638.00,A,4611.956301,N,01258.225397,E,001.4,329.2,091011,0.2,E,A*38
$GPGGA,081639.00,4611.956656,N,01258.225072,E,1,06,1.4,140.33,M,46.25,M,,*69
$GPGLL,4611.956656,N,01258.225072,E,081639.00,A,A*6F
$GPVTG,325.3,T,325.4,M,001.5,N,002
$GPGSV,2,2,08,14,36,272,36,25,63,297,41,29,34,214,45,30,19,280,34*74
$GPGSA,M,3,02,04,09,12,25,29,,,,,,,2.8,1.4,2.4*37
Trace #50 at position 12.250000
$GPZDA,081638.04,09,10,2011,00,00*6C
$GPRMC,081638.00,A,4611.956301,N,01258.225397,E,001.4,329.2,091011,0.2,E,A*38
$GPGGA,081639.00,4611.956656,N,01258.225072,E,1,06,1.4,140.33,M,46.25,M,,*69
$GPGLL,4611.956656,N,01258.225072,E,081639.00,A,A*6F
$GPVTG,325.3,T,325.4,M,001.5,N,002
$GPGSV,2,2,08,14,36,272,36,25,63,297,41,29,34,214,45,30,19,280,34*74
$GPGSA,M,3,02,04,09,12,25,29,,,,,,,2.8,1.4,2.4*37
Trace #51 at position 12.500000
$GPZDA,081639.04,09,10,2011,00,00*6D
$GPRMC,081639.00,A,4611.956656,N,01258.225072,E,001.5,325.3,091011,0.2,E,A*3A
$GPGGA,081640.00,4611.957020,N,01258.224678,E,1,07,1.1,140.36,M,46.25,M,,*6D
$GPGLL,4611.957020,N,01258.224678,E,081640.00,A,A*6A
$GPVTG,317.9,T,318.0,M,001.7,N,003.2,K,A*22
$GPGSV,2,1,08,02,35,099,46,04,21,052,42,09,36,145,45,12,70,048,44*77
$GPGSV,2,2,08,14,36,272,41020,N,01258.224678,E,001.7,317.9,091011,0.2,E,A*36
$GPGGA,081641.00,4611.957394,N,01258.224372,E,1,07,1.1,140.49,M,46.25,M,,*67
$GPGLL,4611.957394,N,01258.224372,E,081641.00,A,A*68
$GPVTG,337.2,T,337.3,M,001.4,N,002.6,K,A*23
$GPGSV,2,1,08,02,35,099,46,04,21,052,42,09,36,145,44,12,70,048,42*70
$GPGSV,2,2,08,14,36,272,38,25,63,297,42,29,34,214,45,30,19,280,35*78
$GPGSA,M,3,02,04,09,12,14,25,29,,,,,,2.4,1.1,2.1*3E
Trace #52 at position 12.750000
$GPZDA,081639.04,09,10,2011,00,00*6D
$GPRMC,081639.00,A,4611.956656,N,01258.225072,E,001.5,325.3,091011,0.2,E,A*3A
$GPGGA,081640.00,4611.957020,N,01258.224678,E,1,07,1.1,140.36,M,46.25,M,,*6D
$GPGLL,4611.957020,N,01258.224678,E,081640.00,A,A*6A
$GPVTG,317.9,T,318.0,M,001.7,N,003.2,K,A*22
$GPGSV,2,1,08,02,35,099,46,04,21,052,42,09,36,145,45,12,70,048,44*77
$GPGSV,2,2,08,14,36,272,41020,N,01258.224678,E,001.7,317.9,091011,0.2,E,A*36
$GPGGA,081641.00,4611.957394,N,01258.224372,E,1,07,1.1,140.49,M,46.25,M,,*67
$GPGLL,4611.957394,N,01258.224372,E,081641.00,A,A*68
$GPVTG,337.2,T,337.3,M,001.4,N,002.6,K,A*23
$GPGSV,2,1,08,02,35,099,46,04,21,052,42,09,36,145,44,12,70,048,42*70
$GPGSV,2,2,08,14,36,272,38,25,63,297,42,29,34,214,45,30,19,280,35*78
$GPGSA,M,3,02,04,09,12,14,25,29,,,,,,2.4,1.1,2.1*3E
Trace #53 at position 13.000000
$GPZDA,081639.04,09,10,2011,00,00*6D
$GPRMC,081639.00,A,4611.956656,N,01258.225072,E,001.5,325.3,091011,0.2,E,A*3A
$GPGGA,081640.00,4611.957020,N,01258.224678,E,1,07,1.1,140.36,M,46.25,M,,*6D
$GPGLL,4611.957020,N,01258.224678,E,081640.00,A,A*6A
$GPVTG,317.9,T,318.0,M,001.7,N,003.2,K,A*22
$GPGSV,2,1,08,02,35,099,46,04,21,052,42,09,36,145,45,12,70,048,44*77
$GPGSV,2,2,08,14,36,272,41020,N,01258.224678,E,001.7,317.9,091011,0.2,E,A*36
$GPGGA,081641.00,4611.957394,N,01258.224372,E,1,07,1.1,140.49,M,46.25,M,,*67
$GPGLL,4611.957394,N,01258.224372,E,081641.00,A,A*68
$GPVTG,337.2,T,337.3,M,001.4,N,002.6,K,A*23
$GPGSV,2,1,08,02,35,099,46,04,21,052,42,09,36,145,44,12,70,048,42*70
$GPGSV,2,2,08,14,36,272,38,25,63,297,42,29,34,214,45,30,19,280,35*78
$GPGSA,M,3,02,04,09,12,14,25,29,,,,,,2.4,1.1,2.1*3E
Trace #54 at position 13.250000
$GPZDA,081641.04,09,10,2011,00,00*62
$GPRMC,081641.00,A,4611.957394,N,01258.224372,E,001.$GPGGA,081642.00,4611.957763,N,01258.224164,E,1,07,1.1,140.65,M,46.25,M,,*63
$GPGLL,4611.957763,N,01258.224164,E,081642.00,A,A*62
$GPVTG,330.7,T,330.8,M,001.4,N,002.6,K,A*2D
$GPGSV,2,1,08,02,35,099,46,04,21,052,41,09,36,145,45,12,70,048,42*72
$GPGSV,2,2,08,14,36,272,38,25,63,297,41,29,34,214,45,30,19,280,35*7B
$GPGSA,M,3,02,04,09,12,14,25,29,,,,,,2.4,1.1,2.1*3E
Trace #55 at position 13.500000
$GPZDA,081641.04,09,10,2011,00,00*62
$GPRMC,081641.00,A,4611.957394,N,01258.224372,E,001.$GPGGA,081642.00,4611.957763,N,01258.224164,E,1,07,1.1,140.65,M,46.25,M,,*63
$GPGLL,4611.957763,N,01258.224164,E,081642.00,A,A*62
$GPVTG,330.7,T,330.8,M,001.4,N,002.6,K,A*2D
$GPGSV,2,1,08,02,35,099,46,04,21,052,41,09,36,145,45,12,70,048,42*72
$GPGSV,2,2,08,14,36,272,38,25,63,297,41,29,34,214,45,30,19,280,35*7B
$GPGSA,M,3,02,04,09,12,14,25,29,,,,,,2.4,1.1,2.1*3E
Trace #56 at position 13.750000
$GPZDA,081641.04,09,10,2011,00,00*62
$GPRMC,081641.00,A,4611.957394,N,01258.224372,E,001.$GPGGA,081642.00,4611.957763,N,01258.224164,E,1,07,1.1,140.65,M,46.25,M,,*63
$GPGLL,4611.957763,N,01258.224164,E,081642.00,A,A*62
$GPVTG,330.7,T,330.8,M,001.4,N,002.6,K,A*2D
$GPGSV,2,1,08,02,35,099,46,04,21,052,41,09,36,145,45,12,70,048,42*72
$GPGSV,2,2,08,14,36,272,38,25,63,297,41,29,34,214,45,30,19,280,35*7B
$GPGSA,M,3,02,04,09,12,14,25,29,,,,,,2.4,1.1,2.1*3E
Trace #57 at position 14.000000
$GPZDA,081642.04,09,10,2011,00,00*61
$GPRMC,081642.00,A,4611.957763,N,01258.224164,E,001.4,330.7,091011,0.2,E,A*36
$GPGGA,081643.00,4611.958228,N,01258.224046,E,1,07,1.1,140.56,M,46.25,M,,*66
$GPGLL,4611.958228,N,01258.224046,E,081643.00,A,A*67
$GPVTG,357.8,T,357.9,M,002.0,N,003.7,K,A*24
$GPGSV,2,1,08,02,35,099,47,04,21,052,41,09,36,145,44,12,70,048,43*73
$GPGSV,2,2,08,14,36,272,39,25,63,297,42,29,34,214,45,30,19,280,32*7E
$GPGSA,M,3,02,04,09,12,14,25,29,,,,,,2.4,1.1,2.1*3E
Trace #58 at position 14.250000
$GPZDA,081642.04,09,10,2011,00,00*61
$GPRMC,081642.00,A,4611.957763,N,01258.224164,E,001.4,330.7,091011,0.2,E,A*36
$GPGGA,081643.00,4611.958228,N,01258.224046,E,1,07,1.1,140.56,M,46.25,M,,*66
$GPGLL,4611.958228,N,01258.224046,E,081643.00,A,A*67
$GPVTG,357.8,T,357.9,M,002.0,N,003.7,K,A*24
$GPGSV,2,1,08,02,35,099,47,04,21,052,41,09,36,145,44,12,70,048,43*73
$GPGSV,2,2,08,14,36,272,39,25,63,297,42,29,34,214,45,30,19,280,32*7E
$GPGSA,M,3,02,04,09,12,14,25,29,,,,,,2.4,1.1,2.1*3E
Trace #59 at position 14.500000
$GPZDA,081642.04,09,10,2011,00,00*61
$GPRMC,081642.00,A,4611.957763,N,01258.224164,E,001.4,330.7,091011,0.2,E,A*36
$GPGGA,081643.00,4611.958228,N,01258.224046,E,1,07,1.1,140.56,M,46.25,M,,*66
$GPGLL,4611.958228,N,01258.224046,E,081643.00,A,A*67
$GPVTG,357.8,T,357.9,M,002.0,N,003.7,K,A*24
$GPGSV,2,1,08,02,35,099,47,04,21,052,41,09,36,145,44,12,70,048,43*73
$GPGSV,2,2,08,14,36,272,39,25,63,297,42,29,34,214,45,30,19,280,32*7E
$GPGSA,M,3,02,04,09,12,14,25,29,,,,,,2.4,1.1,2.1*3E
Trace #60 at position 14.750000
$GPZDA,081643.04,09,10,2011,00,00*60
$GPRMC,081643.00,A,4611.958228,N,01258.224046,E,002.0,357.8,091011,0.2,E,A*3A
$GPGGA,081644.00,4611.958703,N,01258.223965,E,1,07,1.1,140.34,M,46.25,M,,*66
$GPGLL,4611.958703,N,01258.223965,E,081644.00,A,A*63
$GPVTG,341.8,T,341.9,M,001.5,N,002.7,K,A*23
$GPGSV,2,1,08,02,35,099,46,04,21,052,42,09,36,145,46,12,70,048,44*74
$GPGSV,2,2,08,14,36,272,40,25,63,297,43,29,34,214,45,30,19,280,34*77
$GPGSA,M,3,02,04,09,12,14,25,29,,,,,,2.4,1.1,2.1*3E
Trace #61 at position 15.000000
$GPZDA,081643.04,09,10,2011,00,00*60
$GPRMC,081643.00,A,4611.958228,N,01258.224046,E,002.0,357.8,091011,0.2,E,A*3A
$GPGGA,081644.00,4611.958703,N,01258.223965,E,1,07,1.1,140.34,M,46.25,M,,*66
$GPGLL,4611.958703,N,01258.223965,E,081644.00,A,A*63
$GPVTG,341.8,T,341.9,M,001.5,N,002.7,K,A*23
$GPGSV,2,1,08,02,35,099,46,04,21,052,42,09,36,145,46,12,70,048,44*74
$GPGSV,2,2,08,14,36,272,40,25,63,297,43,29,34,214,45,30,19,280,34*77
$GPGSA,M,3,02,04,09,12,14,25,29,,,,,,2.4,1.1,2.1*3E
Trace #62 at position 15.250000
$GPZDA,081644.04,09,10,2011,00,00*67
$GPRMC,081644.00,A,4611.958703,N,01258.223965,E,001.5,341.8,091011,0.2,E,A*3F
$GPGGA,081645.00,4611.959093,N,01258.223871,E,1,07,1.1,140.29,M,46.25,M,,*60
$GPGLL,4611.959093,N,01258.223871,E,081645.00,A,A*69
$GPVTG,357.1,T,357.2,M,001.4,N,002.6,K,A*21
$GPGSV,2,1,08,02,35,099,46,04,21,052,41,09,36,145,45,12,70,048,43*73
$GPGSV,2,2,08,14,36,272,40,25,63,297,43,29,34,214,44,30,19,280,35*77
$GPGSA,M,3,02,04,09,12,14,25,29,,,,,,2.4,1.1,2.1*3E
Trace #63 at position 15.500000
$GPZDA,081644.04,09,10,2011,00,00*67
$GPRMC,081644.00,A,4611.958703,N,01258.223965,E,001.5,341.8,091011,0.2,E,A*3F
$GPGGA,081645.00,4611.959093,N,01258.223871,E,1,07,1.1,140.29,M,46.25,M,,*60
$GPGLL,4611.959093,N,01258.223871,E,081645.00,A,A*69
$GPVTG,357.1,T,357.2,M,001.4,N,002.6,K,A*21
$GPGSV,2,1,08,02,35,099,46,04,21,052,41,09,36,145,45,12,70,048,43*73
$GPGSV,2,2,08,14,36,272,40,25,63,297,43,29,34,214,44,30,19,280,35*77
$GPGSA,M,3,02,04,09,12,14,25,29,,,,,,2.4,1.1,2.1*3E
Trace #64 at position 15.750000
$GPZDA,081644.04,09,10,2011,00,00*67
$GPRMC,081644.00,A,4611.958703,N,01258.223965,E,001.5,341.8,091011,0.2,E,A*3F
$GPGGA,081645.00,4611.959093,N,01258.223871,E,1,07,1.1,140.29,M,46.25,M,,*60
$GPGLL,4611.959093,N,01258.223871,E,081645.00,A,A*69
$GPVTG,357.1,T,357.2,M,001.4,N,002.6,K,A*21
$GPGSV,2,1,08,02,35,099,46,04,21,052,41,09,36,145,45,12,70,048,43*73
$GPGSV,2,2,08,14,36,272,40,25,63,297,43,29,34,214,44,30,19,280,35*77
$GPGSA,M,3,02,04,09,12,14,25,29,,,,,,2.4,1.1,2.1*3E
Trace #65 at position 16.000000
$GPZDA,081645.04,09,10,2011,00,00*66
$GPRMC,081645.00,A,4611.959093,N,01258.223871,E,001.4,357.1,091011,0.2,E,A*3A
$GPGGA,081646.00,4611.959474,N,01258.223788,E,1,07,1.1,140.31,M,46.25,M,,*6E
$GPGLL,4611.959474,N,01258.223788,E,081646.00,A,A*6E
$GPVTG,346.3,T,346.4,M,001.4,N,002.6,K,A*25
$GPGSV,2,1,08,02,35,099,47,04,21,052,42,09,36,145,45,12,70,048,41*73
$GPGSV,2,2,08,14,36,272,37,25,63,297,41,29,34,214,44,30,19,280,33*73
$GPGSA,M,3,02,04,09,12,14,25,29,,,,,,2.4,1.1,2.1*3E
Trace #66 at position 16.250000
$GPZDA,081645.04,09,10,2011,00,00*66
$GPRMC,081645.00,A,4611.959093,N,01258.223871,E,001.4,357.1,091011,0.2,E,A*3A
$GPGGA,081646.00,4611.959474,N,01258.223788,E,1,07,1.1,140.31,M,46.25,M,,*6E
$GPGLL,4611.959474,N,01258.223788,E,081646.00,A,A*6E
$GPVTG,346.3,T,346.4,M,001.4,N,002.6,K,A*25
$GPGSV,2,1,08,02,35,099,47,04,21,052,42,09,36,145,45,12,70,048,41*73
$GPGSV,2,2,08,14,36,272,37,25,63,297,41,29,34,214,44,30,19,280,33*73
$GPGSA,M,3,02,04,09,12,14,25,29,,,,,,2.4,1.1,2.1*3E
Trace #67 at position 16.500000
$GPZDA,081645.04,09,10,2011,00,00*66
$GPRMC,081645.00,A,4611.959093,N,01258.223871,E,001.4,357.1,091011,0.2,E,A*3A
$GPGGA,081646.00,4611.959474,N,01258.223788,E,1,07,1.1,140.31,M,46.25,M,,*6E
$GPGLL,4611.959474,N,01258.223788,E,081646.00,A,A*6E
$GPVTG,346.3,T,346.4,M,001.4,N,002.6,K,A*25
$GPGSV,2,1,08,02,35,099,47,04,21,052,42,09,36,145,45,12,70,048,41*73
$GPGSV,2,2,08,14,36,272,37,25,63,297,41,29,34,214,44,30,19,280,33*73
$GPGSA,M,3,02,04,09,12,14,25,29,,,,,,2.4,1.1,2.1*3E
Trace #68 at position 16.750000
$GPZDA,081646.04,09,10,2011,00,00*65
$GPRMC,081646.00,A,4611.959474,N,01258.223788,E,001.4,346.3,091011,0.2,E,A*3F
$GPGGA,081647.00,4611.959847,N,01258.223705,E,1,06,1.4,140.36,M,46.25,M,,*65
$GPGLL,4611.959847,N,01258.223705,E,081647.00,A,A*66
$GPVTG,358.5,T,358.7,M,001.3,N,002.5,K,A*24
$GPGSV,2,1,08,02,35,099,46,04,21,052,41,09,36,145,46,12,70,048,41*72
$GPGSV,2,2,08,14,36,272,31,25,63,297,40,29,34,214,44,30,19,280,32*75
$GPGSA,M,3,02,04,09,12,25,29,,,,,,,2.8,1.4,2.4*37
Trace #69 at position 17.000000
$GPZDA,081646.04,09,10,2011,00,00*65
$GPRMC,081646.00,A,4611.959474,N,01258.223788,E,001.4,346.3,091011,0.2,E,A*3F
$GPGGA,081647.00,4611.959847,N,01258.223705,E,1,06,1.4,140.36,M,46.25,M,,*65
$GPGLL,4611.959847,N,01258.223705,E,081647.00,A,A*66
$GPVTG,358.5,T,358.7,M,001.3,N,002.5,K,A*24
$GPGSV,2,1,08,02,35,099,46,04,21,052,41,09,36,145,46,12,70,048,41*72
$GPGSV,2,2,08,14,36,272,31,25,63,297,40,29,34,214,44,30,19,280,32*75
$GPGSA,M,3,02,04,09,12,25,29,,,,,,,2.8,1.4,2.4*37
Trace #70 at position 17.250000
$GPZDA,081646.04,09,10,2011,00,00*65
$GPRMC,081646.00,A,4611.959474,N,01258.223788,E,001.4,346.3,091011,0.2,E,A*3F
$GPGGA,081647.00,4611.959847,N,01258.223705,E,1,06,1.4,140.36,M,46.25,M,,*65
$GPGLL,4611.959847,N,01258.223705,E,081647.00,A,A*66
$GPVTG,358.5,T,358.7,M,001.3,N,002.5,K,A*24
$GPGSV,2,1,08,02,35,099,46,04,21,052,41,09,36,145,46,12,70,048,41*72
$GPGSV,2,2,08,14,36,272,31,25,63,297,40,29,34,214,44,30,19,280,32*75
$GPGSA,M,3,02,04,09,12,25,29,,,,,,,2.8,1.4,2.4*37
Trace #71 at position 17.500000
$GPZDA,081647.04,09,10,2011,00,00*64
$GPRMC,081647.00,A,4611.959847,N,01258.223705,E,001.3,358.5,091011,0.2,E,A*39
$GPGGA,081648.00,4611.960235,N,01258.223579,E,1,06,1.4,140.40,M,46.25,M,,*67
$GPGLL,4611.960235,N,01258.223579,E,081648.00,A,A*65
$GPVTG,340.8,T,341.0,M,001.6,N,002.9,K,A*26
$GPGSV,2,1,08,02,35,099,46,04,21,052,41,09,36,145,44,12,70,048,43*72
$GPGSV,2,2,08,14,36,272,37,25,63,297,42,29,34,214,45,30,19,280,31*73
$GPGSA,M,3,02,04,09,12,25,29,,,,,,,2.8,1.4,2.4*37
Trace #72 at position 17.750000
$GPZDA,081647.04,09,10,2011,00,00*64
$GPRMC,081647.00,A,4611.959847,N,01258.223705,E,001.3,358.5,091011,0.2,E,A*39
$GPGGA,081648.00,4611.960235,N,01258.223579,E,1,06,1.4,140.40,M,46.25,M,,*67
$GPGLL,4611.960235,N,01258.223579,E,081648.00,A,A*65
$GPVTG,340.8,T,341.0,M,001.6,N,002.9,K,A*26
$GPGSV,2,1,08,02,35,099,46,04,21,052,41,09,36,145,44,12,70,048,43*72
$GPGSV,2,2,08,14,36,272,37,25,63,297,42,29,34,214,45,30,19,280,31*73
$GPGSA,M,3,02,04,09,12,25,29,,,,,,,2.8,1.4,2.4*37
Trace #73 at position 18.000000
$GPZDA,081647.04,09,10,2011,00,00*64
$GPRMC,081647.00,A,4611.959847,N,01258.223705,E,001.3,358.5,091011,0.2,E,A*39
$GPGGA,081648.00,4611.960235,N,01258.223579,E,1,06,1.4,140.40,M,46.25,M,,*67
$GPGLL,4611.960235,N,01258.223579,E,081648.00,A,A*65
$GPVTG,340.8,T,341.0,M,001.6,N,002.9,K,A*26
$GPGSV,2,1,08,02,35,099,46,04,21,052,41,09,36,145,44,12,70,048,43*72
$GPGSV,2,2,08,14,36,272,37,25,63,297,42,29,34,214,45,30,19,280,31*73
$GPGSA,M,3,02,04,09,12,25,29,,,,,,,2.8,1.4,2.4*37
Trace #74 at position 18.250000
$GPZDA,081648.04,09,10,2011,00,00*6B
$GPRMC,081648.00,A,4611.960235,N,01258.223579,E,001.6,340.8,091011,0.2,E,A*3B
$GPGGA,081649.00,4611.960590,N,01258.223353,E,1,06,1.4,140.49,M,46.25,M,,*69
$GPGLL,4611.960590,N,01258.223353,E,081649.00,A,A*62
$GPVTG,331.8,T,331.9,M,001.2,N,002.3,K,A*20
$G52,42,09,36,145,46,12,70,048,42*71
$GPGSV,2,2,08,14,36,272,38,25,63,297,43,29,34,214,45,30,19,280,35*79
$GPGSA,M,3,02,04,09,12,25,29,,,,,,,2.8,1.4,2.4*37
Trace #75 at position 18.500000
$GPZDA,081648.04,09,10,2011,00,00*6B
$GPRMC,081648.00,A,4611.960235,N,01258.223579,E,001.6,340.8,091011,0.2,E,A*3B
$GPGGA,081649.00,4611.960590,N,01258.223353,E,1,06,1.4,140.49,M,46.25,M,,*69
$GPGLL,4611.960590,N,01258.223353,E,081649.00,A,A*62
$GPVTG,331.8,T,331.9,M,001.2,N,002.3,K,A*20
$G52,42,09,36,145,46,12,70,048,42*71
$GPGSV,2,2,08,14,36,272,38,25,63,297,43,29,34,214,45,30,19,280,35*79
$GPGSA,M,3,02,04,09,12,25,29,,,,,,,2.8,1.4,2.4*37
Trace #76 at position 18.750000
$GPZDA,081648.04,09,10,2011,00,00*6B
$GPRMC,081648.00,A,4611.960235,N,01258.223579,E,001.6,340.8,091011,0.2,E,A*3B
$GPGGA,081649.00,4611.960590,N,01258.223353,E,1,06,1.4,140.49,M,46.25,M,,*69
$GPGLL,4611.960590,N,01258.223353,E,081649.00,A,A*62
$GPVTG,331.8,T,331.9,M,001.2,N,002.3,K,A*20
$G52,42,09,36,145,46,12,70,048,42*71
$GPGSV,2,2,08,14,36,272,38,25,63,297,43,29,34,214,45,30,19,280,35*79
$GPGSA,M,3,02,04,09,12,25,29,,,,,,,2.8,1.4,2.4*37
Trace #77 at position 19.000000
$GPZDA,081649.04,09,10,2011,00,00*6A
$GPRMC,081649.00,A,4611.960590,N,01258.223353,E,001.2,331.8,091011,0.2,E,A*3E
$GPGGA,081650.00,4611.960901,N,01258.223161,E,1,07,1.1,140.57,M,46.25,M,,*6D
$GPGLL,4611.960901,N,01258.223161,E,081650.00,A,A*6D
$GPVTG,341.8,T,342.0,M,001.2,N,002.2,K,A*2B
$GPGSV,2,1,08,02,35,099,45,04,21,052,41,09,36,145,45,12,70,04GPGSA,M,3,02,04,09,12,14,25,29,,,,,,2.4,1.1,2.1*3E
Trace #78 at position 19.250000
$GPZDA,081649.04,09,10,2011,00,00*6A
$GPRMC,081649.00,A,4611.960590,N,01258.223353,E,001.2,331.8,091011,0.2,E,A*3E
$GPGGA,081650.00,4611.960901,N,01258.223161,E,1,07,1.1,140.57,M,46.25,M,,*6D
$GPGLL,4611.960901,N,01258.223161,E,081650.00,A,A*6D
$GPVTG,341.8,T,342.0,M,001.2,N,002.2,K,A*2B
$GPGSV,2,1,08,02,35,099,45,04,21,052,41,09,36,145,45,12,70,04GPGSA,M,3,02,04,09,12,14,25,29,,,,,,2.4,1.1,2.1*3E
Trace #79 at position 19.500000
$GPZDA,081649.04,09,10,2011,00,00*6A
$GPRMC,081649.00,A,4611.960590,N,01258.223353,E,001.2,331.8,091011,0.2,E,A*3E
$GPGGA,081650.00,4611.960901,N,01258.223161,E,1,07,1.1,140.57,M,46.25,M,,*6D
$GPGLL,4611.960901,N,01258.223161,E,081650.00,A,A*6D
$GPVTG,341.8,T,342.0,M,001.2,N,002.2,K,A*2B
$GPGSV,2,1,08,02,35,099,45,04,21,052,41,09,36,145,45,12,70,04GPGSA,M,3,02,04,09,12,14,25,29,,,,,,2.4,1.1,2.1*3E
Trace #80 at position 19.750000
$GPZDA,081650.04,09,10,2011,00,00*62
$GPRMC,081650.00,A,4611.960901,N,01258.223161,E,001.2,341.8,091011,0.2,E,A*36
$GPGGA,081651.00,4611.961205,N,01258.223071,E,1,07,1.1,140.61,M,46.25,M,,*67
$GPGLL,4611.961205,N,01258.223071,E,081651.00,A,A*62
$GPVTG,357.6,T,357.8,M,001.0,N,001.9,K,A*24
$GPGSV,2,1,08,02,35,099,46,04,21,052,41,09,36,145,45,12,70,048,41*71
$GPGSV,2,2,08,14,36,272,39,25,63,297,41,29,34,214,46,30,19,280,35*79
$GPGSA,M,3,02,04,09,12,14,,001.0,357.6,091011,0.2,E,A*32
Trace #81 at position 20.000000
$GPZDA,081650.04,09,10,2011,00,00*62
$GPRMC,081650.00,A,4611.960901,N,01258.223161,E,001.2,341.8,091011,0.2,E,A*36
$GPGGA,081651.00,4611.961205,N,01258.223071,E,1,07,1.1,140.61,M,46.25,M,,*67
$GPGLL,4611.961205,N,01258.223071,E,081651.00,A,A*62
$GPVTG,357.6,T,357.8,M,001.0,N,001.9,K,A*24
$GPGSV,2,1,08,02,35,099,46,04,21,052,41,09,36,145,45,12,70,048,41*71
$GPGSV,2,2,08,14,36,272,39,25,63,297,41,29,34,214,46,30,19,280,35*79
$GPGSA,M,3,02,04,09,12,14,,001.0,357.6,091011,0.2,E,A*32
Trace #82 at position 20.250000
$GPGGA,081652.00,4611.961551,N,01258.223005,E,1,07,1.1,140.67,M,46.25,M,,*67
$GPGLL,4611.961551,N,01258.223005,E,081652.00,A,A*64
$GPVTG,353.5,T,353.7,M,001.4,N,002.6,K,A*20
$GPGSV,2,1,08,02,35,099,45,04,21,052,41,09,36,145,45,12,70,048,42*71
$GPGSV,2,2,08,14,36,272,39,25,63,297,42,29,34,214,45,30,19,280,37*7B
$GPGSA,M,3,02,04,09,12,14,25,29,,,,,,2.4,1.1,2.1*3E
Trace #83 at position 20.500000
$GPGGA,081652.00,4611.961551,N,01258.223005,E,1,07,1.1,140.67,M,46.25,M,,*67
$GPGLL,4611.961551,N,01258.223005,E,081652.00,A,A*64
$GPVTG,353.5,T,353.7,M,001.4,N,002.6,K,A*20
$GPGSV,2,1,08,02,35,099,45,04,21,052,41,09,36,145,45,12,70,048,42*71
$GPGSV,2,2,08,14,36,272,39,25,63,297,42,29,34,214,45,30,19,280,37*7B
$GPGSA,M,3,02,04,09,12,14,25,29,,,,,,2.4,1.1,2.1*3E
Trace #84 at position 20.750000
$GPGGA,081652.00,4611.961551,N,01258.223005,E,1,07,1.1,140.67,M,46.25,M,,*67
$GPGLL,4611.961551,N,01258.223005,E,081652.00,A,A*64
$GPVTG,353.5,T,353.7,M,001.4,N,002.6,K,A*20
$GPGSV,2,1,08,02,35,099,45,04,21,052,41,09,36,145,45,12,70,048,42*71
$GPGSV,2,2,08,14,36,272,39,25,63,297,42,29,34,214,45,30,19,280,37*7B
$GPGSA,M,3,02,04,09,12,14,25,29,,,,,,2.4,1.1,2.1*3E
Trace #85 at position 21.000000
$GPZDA,081652.04,09,10,2011,00,00*60
$GPRMC,081652.00,A,4611.961551,N,01258.223005,E,001.4,353.5,091011,0.2,E$GPGGA,081653.00,4611.961898,N,01258.222824,E,1,07,1.1,140.82,M,46.25,M,,*6F
$GPGLL,4611.961898,N,01258.222824,E,081653.00,A,A*67
$GPVTG,327.5,T,327.6,M,001.2,N,002.1,K,A*20
$GPGSV,2,1,08,02,35,099,45,04,21,052,42,09,36,145,44,12,70,048,42*73
$GPGSV,2,2,08,14,36,272,38,25,63,297,41,29,34,214,45,30,19,280,36*78
$GPGSA,M,3,02,04,09,12,14,25,29,,,,,,2.4,1.1,2.1*3E
Trace #86 at position 21.250000
$GPZDA,081652.04,09,10,2011,00,00*60
$GPRMC,081652.00,A,4611.961551,N,01258.223005,E,001.4,353.5,091011,0.2,E$GPGGA,081653.00,4611.961898,N,01258.222824,E,1,07,1.1,140.82,M,46.25,M,,*6F
$GPGLL,4611.961898,N,01258.222824,E,081653.00,A,A*67
$GPVTG,327.5,T,327.6,M,001.2,N,002.1,K,A*20
$GPGSV,2,1,08,02,35,099,45,04,21,052,42,09,36,145,44,12,70,048,42*73
$GPGSV,2,2,08,14,36,272,38,25,63,297,41,29,34,214,45,30,19,280,36*78
$GPGSA,M,3,02,04,09,12,14,25,29,,,,,,2.4,1.1,2.1*3E
Trace #87 at position 21.500000
$GPZDA,081652.04,09,10,2011,00,00*60
$GPRMC,081652.00,A,4611.961551,N,01258.223005,E,001.4,353.5,091011,0.2,E$GPGGA,081653.00,4611.961898,N,01258.222824,E,1,07,1.1,140.82,M,46.25,M,,*6F
$GPGLL,4611.961898,N,01258.222824,E,081653.00,A,A*67
$GPVTG,327.5,T,327.6,M,001.2,N,002.1,K,A*20
$GPGSV,2,1,08,02,35,099,45,04,21,052,42,09,36,145,44,12,70,048,42*73
$GPGSV,2,2,08,14,36,272,38,25,63,297,41,29,34,214,45,30,19,280,36*78
$GPGSA,M,3,02,04,09,12,14,25,29,,,,,,2.4,1.1,2.1*3E
Trace #88 at position 21.750000
$GPZDA,081653.04,09,10,2011,00,00*61
$GPRMC,081653.00,A,4611.961898,N,01258.222824,E,001.2,327.5,091011,0.2,E,A*31
$GPGGA,081654.00,4611.962293,N,01258.222698,E,1,07,1.1,140.87,M,46.25,M,,*66
$GPGLL,4611.962293,N,01258.222698,E,081654.00,A,A*6B
$GPVTG,3.1,T,3.2,M,001.7,N,003.2,K,A*27
$GPGSV,2,1,08,02,35,099,46,04,21,051,42,09,36,145,43,12,70,048,43*75
$GPGSV,2,2,08,14,36,272,36,25,63,297,41,29,34,214,44,30,19,280,35*74
$GPGSA,M,3,02,04,09,12,14,25,29,,,,,,2.4,1.1,2.1*3E
Trace #89 at position 22.000000
$GPZDA,081653.04,09,10,2011,00,00*61
$GPRMC,081653.00,A,4611.961898,N,01258.222824,E,001.2,327.5,091011,0.2,E,A*31
$GPGGA,081654.00,4611.962293,N,01258.222698,E,1,07,1.1,140.87,M,46.25,M,,*66
$GPGLL,4611.962293,N,01258.222698,E,081654.00,A,A*6B
$GPVTG,3.1,T,3.2,M,001.7,N,003.2,K,A*27
$GPGSV,2,1,08,02,35,099,46,04,21,051,42,09,36,145,43,12,70,048,43*75
$GPGSV,2,2,08,14,36,272,36,25,63,297,41,29,34,214,44,30,19,280,35*74
$GPGSA,M,3,02,04,09,12,14,25,29,,,,,,2.4,1.1,2.1*3E
Trace #90 at position 22.250000
$GPZDA,081653.04,09,10,2011,00,00*61
$GPRMC,081653.00,A,4611.961898,N,01258.222824,E,001.2,327.5,091011,0.2,E,A*31
$GPGGA,081654.00,4611.962293,N,01258.222698,E,1,07,1.1,140.87,M,46.25,M,,*66
$GPGLL,4611.962293,N,01258.222698,E,081654.00,A,A*6B
$GPVTG,3.1,T,3.2,M,001.7,N,003.2,K,A*27
$GPGSV,2,1,08,02,35,099,46,04,21,051,42,09,36,145,43,12,70,048,43*75
$GPGSV,2,2,08,14,36,272,36,25,63,297,41,29,34,214,44,30,19,280,35*74
$GPGSA,M,3,02,04,09,12,14,25,29,,,,,,2.4,1.1,2.1*3E
Trace #91 at position 22.500000
$GPZDA,081654.04,09,10,2011,00,00*66
$GPRMC,081654.00,A,4611.962293,N,01258.222698,E,001.7,3.1,091011,0.2,E,A*39
$GPGGA,081655.00,4611.962721,N,01258.222600,E,1,07,1.1,140.79,M,46.25,M,,*6B
$GPGLL,4611.962721,N,01258.222600,E,081655.00,A,A*67
$GPVTG,342.3,T,342.4,M,001.3,N,002.4,K,A*20
$GPGSV,2,1,08,02,35,099,45,04,21,051,42,09,36,145,44,12,70,048,43*71
$GPGSV,2,2,08,14,36,272,40,25,63,297,42,29,34,214,45,30,19,280,35*77
$GPGSA,M,3,02,04,09,12,14,25,29,,,,,,2.4,1.1,2.1*3E
Trace #92 at position 22.750000
$GPZDA,081654.04,09,10,2011,00,00*66
$GPRMC,081654.00,A,4611.962293,N,01258.222698,E,001.7,3.1,091011,0.2,E,A*39
$GPGGA,081655.00,4611.962721,N,01258.222600,E,1,07,1.1,140.79,M,46.25,M,,*6B
$GPGLL,4611.962721,N,01258.222600,E,081655.00,A,A*67
$GPVTG,342.3,T,342.4,M,001.3,N,002.4,K,A*20
$GPGSV,2,1,08,02,35,099,45,04,21,051,42,09,36,145,44,12,70,048,43*71
$GPGSV,2,2,08,14,36,272,40,25,63,297,42,29,34,214,45,30,19,280,35*77
$GPGSA,M,3,02,04,09,12,14,25,29,,,,,,2.4,1.1,2.1*3E
Trace #93 at position 23.000000
$GPZDA,081654.04,09,10,2011,00,00*66
$GPRMC,081654.00,A,4611.962293,N,01258.222698,E,001.7,3.1,091011,0.2,E,A*39
$GPGGA,081655.00,4611.962721,N,01258.222600,E,1,07,1.1,140.79,M,46.25,M,,*6B
$GPGLL,4611.962721,N,01258.222600,E,081655.00,A,A*67
$GPVTG,342.3,T,342.4,M,001.3,N,002.4,K,A*20
$GPGSV,2,1,08,02,35,099,45,04,21,051,42,09,36,145,44,12,70,048,43*71
$GPGSV,2,2,08,14,36,272,40,25,63,297,42,29,34,214,45,30,19,280,35*77
$GPGSA,M,3,02,04,09,12,14,25,29,,,,,,2.4,1.1,2.1*3E
Trace #94 at position 23.250000
$GPZDA,081655.04,09,10,2011,00,00*67
$GPRMC,081655.00,A,4611.962721,N,01258.222600,E,001.3,342.3,091011,0.2,E,A*35
$GPGGA,081656.00,4611.963124,N,01258.222398,E,1,07,1.1,140.74,M,46.25,M,,*63
$GPGLL,4611.963124,N,01258.222398,E,081656.00,A,A*62
$GPVTG,343.5,T,343.7,M,001.6,N,003.0,K,A*25
$GPGSV,2,1,08,02,35,099,45,04,21,051,43,09,36,145,44,12,70,048,44*77
$GPGSV,2,2,08,14,36,272,40,25,64,297,42,29,34,214,45,30,19,280,34*71
$GPGSA,M,3,02,04,09,12,14,25,29,,,,,,2.4,1.1,2.1*3E
Trace #95 at position 23.500000
$GPZDA,081655.04,09,10,2011,00,00*67
$GPRMC,081655.00,A,4611.962721,N,01258.222600,E,001.3,342.3,091011,0.2,E,A*35
$GPGGA,081656.00,4611.963124,N,01258.222398,E,1,07,1.1,140.74,M,46.25,M,,*63
$GPGLL,4611.963124,N,01258.222398,E,081656.00,A,A*62
$GPVTG,343.5,T,343.7,M,001.6,N,003.0,K,A*25
$GPGSV,2,1,08,02,35,099,45,04,21,051,43,09,36,145,44,12,70,048,44*77
$GPGSV,2,2,08,14,36,272,40,25,64,297,42,29,34,214,45,30,19,280,34*71
$GPGSA,M,3,02,04,09,12,14,25,29,,,,,,2.4,1.1,2.1*3E
Trace #96 at position 23.750000
$GPZDA,081655.04,09,10,2011,00,00*67
$GPRMC,081655.00,A,4611.962721,N,01258.222600,E,001.3,342.3,091011,0.2,E,A*35
$GPGGA,081656.00,4611.963124,N,01258.222398,E,1,07,1.1,140.74,M,46.25,M,,*63
$GPGLL,4611.963124,N,01258.222398,E,081656.00,A,A*62
$GPVTG,343.5,T,343.7,M,001.6,N,003.0,K,A*25
$GPGSV,2,1,08,02,35,099,45,04,21,051,43,09,36,145,44,12,70,048,44*77
$GPGSV,2,2,08,14,36,272,40,25,64,297,42,29,34,214,45,30,19,280,34*71
$GPGSA,M,3,02,04,09,12,14,25,29,,,,,,2.4,1.1,2.1*3E
Trace #97 at position 24.000000
$GPZDA,081656.04,09,10,2011,00,00*64
$GPRMC,081656.00,A,4611.963124,N,01258.222398,E,001.6,343.5,091011,0.2,E,A*32
$GPGGA,081657.00,4611.963547,N,01258.222155,E,1,07,1.1,140.72,M,46.25,M,,*66
$GPGLL,4611.963547,N,01258.222155,E,081657.00,A,A*61
$GPVTG,335.3,T,335.5,M,001.6,N,002.9,K,A*29
$GPGSV,2,1,08,02,35,099,46,04,21,051,42,09,36,145,45,12,70,048,44*74
$GPGSV,2,2,08,14,36,272,40,25,64,297,43,29,34,214,43,30,19,280,34*76
$GPGSA,M,3,02,04,09,12,14,25,29,,,,,,2.4,1.1,2.1*3E
Trace #98 at position 24.250000
$GPZDA,081656.04,09,10,2011,00,00*64
$GPRMC,081656.00,A,4611.963124,N,01258.222398,E,001.6,343.5,091011,0.2,E,A*32
$GPGGA,081657.00,4611.963547,N,01258.222155,E,1,07,1.1,140.72,M,46.25,M,,*66
$GPGLL,4611.963547,N,01258.222155,E,081657.00,A,A*61
$GPVTG,335.3,T,335.5,M,001.6,N,002.9,K,A*29
$GPGSV,2,1,08,02,35,099,46,04,21,051,42,09,36,145,45,12,70,048,44*74
$GPGSV,2,2,08,14,36,272,40,25,64,297,43,29,34,214,43,30,19,280,34*76
$GPGSA,M,3,02,04,09,12,14,25,29,,,,,,2.4,1.1,2.1*3E
Trace #99 at position 24.500000
$GPZDA,081657.04,09,10,2011,00,00*65
$GPRMC,081657.00,A,4611.963547,N,01258.222155,E,001.6,335.3,091011,0.2,E,A*36
$GPGGA,081658.00,4611.963938,N,01258.222000,E,1,07,1.1,140.72,M,46.25,M,,*6C
$GPGLL,4611.963938,N,01258.222000,E,081658.00,A,A*6B
$GPVTG,357.9,T,358.1,M,001.3,N,002.5,K,A*21
$GPGSV,2,1,08,02,35,099,45,04,21,051,42,09,36,145,44,12,70,049,42*71
$GPGSV,2,2,08,14,36,272,37,25,64,297,40,29,34,214,44,30,19,281,37*70
$GPGSA,M,3,02,04,09,12,14,25,29,,,,,,2.4,1.1,2.1*3E
Trace #100 at position 24.750000
$GPZDA,081658.04,09,10,2011,00,00*6A
$GPRMC,081658.00,A,4611.963938,N,01258.222000,E,001.3,357.9,091011,0.2,E,A*37
$GPGGA,081659.00,4611.964342,N,01258.221943,E,1,07,1.1,140.74,M,46.25,M,,*66
$GPGLL,4611.964342,N,01258.221943,E,081659.00,A,A*67
$GPVTG,355.4,T,355.6,M,001.6,N,002.9,K,A*2D
$GPGSV,2,1,08,02,35,099,45,04,21,051,42,09,36,145,45,12,70,049,44*76
$GPGSV,2,2,08,14,36,272,39,25,64,297,41,29,34,214,45,30,19,281,37*7E
$GPGSA,M,3,02,04,09,12,14,25,29,,,,,,2.4,1.1,2.1*3E
Trace #101 at position 25.000000
$GPZDA,081703.04,09,10,2011,00,00*65
$GPRMC,081703.00,A,4611.965720,N,01258.221375,$GPGGA,081704.00,4611.965942,N,01258.221241,E,1,06,1.4,140.95,M,46.25,M,,*66
$GPGLL,4611.965942,N,01258.221241,E,081704.00,A,A*6C
$GPVTG,30.9,T,31.1,M,000.6,N,001.1,K,A*2C
$GPGSV,2,1,08,02,35,099,46,04,21,051,43,09,36,145,44,12,70,049,42*73
$GPGSV,2,2,08,14,36,272,38,25,64,297,41,29,34,214,45,30,19,281,36*7E
$GPGSA,M,3,02,04,09,12,25,29,,,,,,,2.8,1.4,2.4*37
Trace #102 at position 25.250000
$GPZDA,081703.04,09,10,2011,00,00*65
$GPRMC,081703.00,A,4611.965720,N,01258.221375,$GPGGA,081704.00,4611.965942,N,01258.221241,E,1,06,1.4,140.95,M,46.25,M,,*66
$GPGLL,4611.965942,N,01258.221241,E,081704.00,A,A*6C
$GPVTG,30.9,T,31.1,M,000.6,N,001.1,K,A*2C
$GPGSV,2,1,08,02,35,099,46,04,21,051,43,09,36,145,44,12,70,049,42*73
$GPGSV,2,2,08,14,36,272,38,25,64,297,41,29,34,214,45,30,19,281,36*7E
$GPGSA,M,3,02,04,09,12,25,29,,,,,,,2.8,1.4,2.4*37
Trace #103 at position 25.500000
$GPZDA,081703.04,09,10,2011,00,00*65
$GPRMC,081703.00,A,4611.965720,N,01258.221375,$GPGGA,081704.00,4611.965942,N,01258.221241,E,1,06,1.4,140.95,M,46.25,M,,*66
$GPGLL,4611.965942,N,01258.221241,E,081704.00,A,A*6C
$GPVTG,30.9,T,31.1,M,000.6,N,001.1,K,A*2C
$GPGSV,2,1,08,02,35,099,46,04,21,051,43,09,36,145,44,12,70,049,42*73
$GPGSV,2,2,08,14,36,272,38,25,64,297,41,29,34,214,45,30,19,281,36*7E
$GPGSA,M,3,02,04,09,12,25,29,,,,,,,2.8,1.4,2.4*37
Trace #104 at position 25.750000
$GPZDA,081704.04,09,10,2011,00,00*62
$GPRMC,081704.00,A,4611.965942,N,01258.221241,E,000.6,30.9,091011,0.2,E,A*06
$GPGGA,081705.00,4611.966054,N,01258.221216,E,1,06,1.4,140.99,M,46.25,M,,*64
$GPGLL,4611.966054,N,01258.221216,E,081705.00,A,A*62
$GPVTG,314.4,T,314.6,M,000.3,N,000.5,K,A*27
$GPGSV,2,1,08,02,35,099,47,04,21,051,42,09,36,145,43,12,70,049,43*75
$GPGSV,2,2,08,14,36,272,35,25,64,297,38,29,34,214,45,30,19,281,36*7D
$GPGSA,M,3,02,04,09,12,25,29,,,,,,,2.8,1.4,2.4*37
Trace #105 at position 26.000000
$GPZDA,081704.04,09,10,2011,00,00*62
$GPRMC,081704.00,A,4611.965942,N,01258.221241,E,000.6,30.9,091011,0.2,E,A*06
$GPGGA,081705.00,4611.966054,N,01258.221216,E,1,06,1.4,140.99,M,46.25,M,,*64
$GPGLL,4611.966054,N,01258.221216,E,081705.00,A,A*62
$GPVTG,314.4,T,314.6,M,000.3,N,000.5,K,A*27
$GPGSV,2,1,08,02,35,099,47,04,21,051,42,09,36,145,43,12,70,049,43*75
$GPGSV,2,2,08,14,36,272,35,25,64,297,38,29,34,214,45,30,19,281,36*7D
$GPGSA,M,3,02,04,09,12,25,29,,,,,,,2.8,1.4,2.4*37
Trace #106 at position 26.250000
$GPZDA,081705.04,09,10,2011,00,00*63
$GPRMC,081705.00,A,4611.966054,N,01258.221216,E,000.3,314.4,091011,0.2,E,A*35
$GPGGA,081706.00,4611.966134,N,01258.221061,E,1,05,1.7,141.01,M,46.25,M,,*62
$GPGLL,4611.966134,N,01258.221061,E,081706.00,A,A*64
$GPVTG,308.3,T,308.4,M,000.2,N,000.4,K,A*22
$GPGSV,2,1,08,02,35,099,45,04,21,051,43,09,36,145,45,12,70,049,41*72
$GPGSV,2,2,08,14,36,272,37,25,64,297,31,29,34,214,45,30,19,281,34*74
$GPGSA,M,3,02,04,09,12,29,,,,,,,,3.0,1.7,2.5*3B
Trace #107 at position 26.500000
$GPZDA,081705.04,09,10,2011,00,00*63
$GPRMC,081705.00,A,4611.966054,N,01258.221216,E,000.3,314.4,091011,0.2,E,A*35
$GPGGA,081706.00,4611.966134,N,01258.221061,E,1,05,1.7,141.01,M,46.25,M,,*62
$GPGLL,4611.966134,N,01258.221061,E,081706.00,A,A*64
$GPVTG,308.3,T,308.4,M,000.2,N,000.4,K,A*22
$GPGSV,2,1,08,02,35,099,45,04,21,051,43,09,36,145,45,12,70,049,41*72
$GPGSV,2,2,08,14,36,272,37,25,64,297,31,29,34,214,45,30,19,281,34*74
$GPGSA,M,3,02,04,09,12,29,,,,,,,,3.0,1.7,2.5*3B
Trace #108 at position 26.750000
$GPZDA,081705.04,09,10,2011,00,00*63
$GPRMC,081705.00,A,4611.966054,N,01258.221216,E,000.3,314.4,091011,0.2,E,A*35
$GPGGA,081706.00,4611.966134,N,01258.221061,E,1,05,1.7,141.01,M,46.25,M,,*62
$GPGLL,4611.966134,N,01258.221061,E,081706.00,A,A*64
$GPVTG,308.3,T,308.4,M,000.2,N,000.4,K,A*22
$GPGSV,2,1,08,02,35,099,45,04,21,051,43,09,36,145,45,12,70,049,41*72
$GPGSV,2,2,08,14,36,272,37,25,64,297,31,29,34,214,45,30,19,281,34*74
$GPGSA,M,3,02,04,09,12,29,,,,,,,,3.0,1.7,2.5*3B
Trace #109 at position 27.000000
$GPZDA,081706.04,09,10,2011,00,00*60
$GPRMC,081706.00,A,4611.966134,N,01258.221061,E,000.2,308.3,091011,0.2,E,A*38
$GPGGA,081707.00,4611.966185,N,01258.220944,E,1,05,1.7,141.04,M,46.25,M,,*63
$GPGLL,4611.966185,N,01258.220944,E,081707.00,A,A*60
$GPVTG,281.8,T,282.0,M,000.1,N,000.1,K,A*28
$GPGSV,2,1,08,02,35,099,44,04,21,051,43,09,36,145,45,12,70,049,41*73
$GPGSV,2,2,08,14,36,272,23,25,64,297,28,29,34,214,45,30,19,281,25*79
$GPGSA,M,3,02,04,09,12,29,,,,,,,,3.0,1.7,2.5*3B
Trace #110 at position 27.250000
$GPZDA,081706.04,09,10,2011,00,00*60
$GPRMC,081706.00,A,4611.966134,N,01258.221061,E,000.2,308.3,091011,0.2,E,A*38
$GPGGA,081707.00,4611.966185,N,01258.220944,E,1,05,1.7,141.04,M,46.25,M,,*63
$GPGLL,4611.966185,N,01258.220944,E,081707.00,A,A*60
$GPVTG,281.8,T,282.0,M,000.1,N,000.1,K,A*28
$GPGSV,2,1,08,02,35,099,44,04,21,051,43,09,36,145,45,12,70,049,41*73
$GPGSV,2,2,08,14,36,272,23,25,64,297,28,29,34,214,45,30,19,281,25*79
$GPGSA,M,3,02,04,09,12,29,,,,,,,,3.0,1.7,2.5*3B
Trace #111 at position 27.500000
$GPZDA,081707.03,09,10,2011,00,00*66
$GPRMC,081707.00,A,4611.966185,N,01258.220944,E,000.1,281.8,091011,0.2,E,A*34
$GPGGA,081708.00,4611.966209,N,01258.220876,E,1,05,1.7,141.09,M,46.25,M,,*66
$GPGLL,4611.966209,N,01258.220876,E,081708.00,A,A*68
$GPVTG,131.9,T,132.0,M,000.1,N,000.1,K,A*29
$GPGSV,2,1,08,02,35,099,45,04,21,051,42,09,36,145,45,12,70,049,41*73
$GPGSV,2,2,08,14,36,272,26,25,64,297,27,29,34,214,44,30,19,281,29*7E
$GPGSA,M,3,02,04,09,12,29,,,,,,,,3.0,1.7,2.5*3B
Trace #112 at position 27.750000
$GPZDA,081707.03,09,10,2011,00,00*66
$GPRMC,081707.00,A,4611.966185,N,01258.220944,E,000.1,281.8,091011,0.2,E,A*34
$GPGGA,081708.00,4611.966209,N,01258.220876,E,1,05,1.7,141.09,M,46.25,M,,*66
$GPGLL,4611.966209,N,01258.220876,E,081708.00,A,A*68
$GPVTG,131.9,T,132.0,M,000.1,N,000.1,K,A*29
$GPGSV,2,1,08,02,35,099,45,04,21,051,42,09,36,145,45,12,70,049,41*73
$GPGSV,2,2,08,14,36,272,26,25,64,297,27,29,34,214,44,30,19,281,29*7E
$GPGSA,M,3,02,04,09,12,29,,,,,,,,3.0,1.7,2.5*3B
Trace #113 at position 28.000000
$GPZDA,081707.03,09,10,2011,00,00*66
$GPRMC,081707.00,A,4611.966185,N,01258.220944,E,000.1,281.8,091011,0.2,E,A*34
$GPGGA,081708.00,4611.966209,N,01258.220876,E,1,05,1.7,141.09,M,46.25,M,,*66
$GPGLL,4611.966209,N,01258.220876,E,081708.00,A,A*68
$GPVTG,131.9,T,132.0,M,000.1,N,000.1,K,A*29
$GPGSV,2,1,08,02,35,099,45,04,21,051,42,09,36,145,45,12,70,049,41*73
$GPGSV,2,2,08,14,36,272,26,25,64,297,27,29,34,214,44,30,19,281,29*7E
$GPGSA,M,3,02,04,09,12,29,,,,,,,,3.0,1.7,2.5*3B
Trace #114 at position 28.250000
$GPZDA,081708.04,09,10,2011,00,00*6E
