Trace #1 at position 0.000000
$GPZDA,101005.02,08,10,2011,00,00*6A
$GPRMC,101001.00,V,,,,,,,,,,N*7C
$GPGGA,101006.00,4611.974439,N,01258.210471,E,1,04,1.9,136.63,M,46.25,M,,*6B
$GPGLL,4611.974439,N,01258.210471,E,101006.00,A,A*66
$GPVTG,153.1,T,153.3,M,000.0,N,000.0,K,A*21
$GPGSV,2,1,07,21,20,186,47,02,25,048,39,12,30,106,30,25,65,098,28*78
$GPGSV,2,2,07,29,83,285,39,30,65,306,38,31,49,291,41,,,,*45
$GPGSA,M,3,21,02,29,31,,,,,,,,,3.3,1.9,2.7*3B
Trace #2 at position 0.250000
$GPZDA,101008.03,08,10,2011,00,00*66
$GPRMC,101008.00,A,4611.975165,N,01258.210291,E,000.1,137.8,081011,0.2,E,A*36
$GPGGA,101009.00,4611.975373,N,01258.210390,E,1,05,1.9,137.89,M,46.25,M,,*60
$GPGLL,4611.975373,N,01258.210390,E,101009.00,A,A*69
$GPVTG,125.5,T,125.7,M,001.1,N,002.0,K,A*23
$GPGSV,2,1,07,21,20,186,40,02,25,048,44,12,30,106,33,25,65,098,*7C
$GPGSV,2,2,07,29,83,285,41,30,65,306,43,31,49,291,43,,,,*44
$GPGSA,M,3,21,02,29,30,31,,,,,,,,3.2,1.9,2.6*38
Trace #3 at position 0.500000
$GPZDA,101009.03,08,10,2011,00,00*67
$GPRMC,101009.00,A,4611.975373,N,01258.210390,E,001.1,125.5,081011,0.2,E,A*3D
$GPGGA,101010.00,4611.975479,N,01258.210508,E,1,05,1.9,138.37,M,46.25,M,,*68
$GPGLL,4611.975479,N,01258.210508,E,101010.00,A,A*6B
$GPVTG,164.1,T,164.3,M,000.6,N,001.1,K,A*27
$GPGSV,2,1,07,21,20,186,37,02,25,048,42,12,30,106,36,25,65,098,39*75
$GPGSV,2,2,07,29,83,285,39,30,65,306,41,31,49,291,41,,,,*4B
$GPGSA,M,3,21,02,29,30,31,,,,,,,,3.3,1.9,2.6*39
Trace #4 at position 0.750000
$GPZDA,101009.03,08,10,2011,00,00*67
$GPRMC,101009.00,A,4611.975373,N,01258.210390,E,001.1,125.5,081011,0.2,E,A*3D
$GPGGA,101010.00,4611.975479,N,01258.210508,E,1,05,1.9,138.37,M,46.25,M,,*68
$GPGLL,4611.975479,N,01258.210508,E,101010.00,A,A*6B
$GPVTG,164.1,T,164.3,M,000.6,N,001.1,K,A*27
$GPGSV,2,1,07,21,20,186,37,02,25,048,42,12,30,106,36,25,65,098,39*75
$GPGSV,2,2,07,29,83,285,39,30,65,306,41,31,49,291,41,,,,*4B
$GPGSA,M,3,21,02,29,30,31,,,,,,,,3.3,1.9,2.6*39
Trace #5 at position 1.000000
$GPZDA,101009.03,08,10,2011,00,00*67
$GPRMC,101009.00,A,4611.975373,N,01258.210390,E,001.1,125.5,081011,0.2,E,A*3D
$GPGGA,101010.00,4611.975479,N,01258.210508,E,1,05,1.9,138.37,M,46.25,M,,*68
$GPGLL,4611.975479,N,01258.210508,E,101010.00,A,A*6B
$GPVTG,164.1,T,164.3,M,000.6,N,001.1,K,A*27
$GPGSV,2,1,07,21,20,186,37,02,25,048,42,12,30,106,36,25,65,098,39*75
$GPGSV,2,2,07,29,83,285,39,30,65,306,41,31,49,291,41,,,,*4B
$GPGSA,M,3,21,02,29,30,31,,,,,,,,3.3,1.9,2.6*39
Trace #6 at position 1.250000
$GPZDA,101011.04,08,10,2011,00,00*69
$GPRMC,101011.00,A,4611.975569,N,01258.210421,E,000.6,196.7,081011,0.2,E,A*38
$GPGGA,101012.00,4611.975584,N,01258.210359,E,1,06,1.4,138.46,M,46.25,M,,*63
$GPGLL,4611.975584,N,01258.210359,E,101012.00,A,A*68
$GPVTG,169.6,T,169.7,M,000.9,N,001.6,K,A*2C
$GPGSV,2,1,07,21,20,186,37,02,25,048,40,12,30,106,39,25,65,098,42*74
$GPGSV,2,2,07,29,83,285,41,30,65,306,42,31,49,291,41,,,,*47
$GPGSA,M,3,21,02,12,29,30,31,,,,,,,2.8,1.4,2.4*3F
Trace #7 at position 1.500000
$GPZDA,101012.03,08,10,2011,00,00*6D
$GPRMC,101012.00,A,4611.975584,N,01258.210359,E,000.9,169.6,081011,0.2,E,A*3E
$GPGGA,101013.00,4611.975651,N,01258.210283,E,1,06,1.4,138.52,M,46.25,M,,*6A
$GPGLL,4611.975651,N,01258.210283,E,101013.00,A,A*64
$GPVTG,268.3,T,268.5,M,000.4,N,000.7,K,A*26
$GPGSV,2,1,07,21,20,186,38,02,25,048,42,12,30,106,40,25,65,098,42*77
$GPGSV,2,2,07,29,83,285,41,30,65,306,40,31,49,291,40,,,,*44
$GPGSA,M,3,21,02,12,29,30,31,,,,,,,2.8,1.4,2.4*3F
Trace #8 at position 1.750000
$GPZDA,101012.03,08,10,2011,00,00*6D
$GPRMC,101012.00,A,4611.975584,N,01258.210359,E,000.9,169.6,081011,0.2,E,A*3E
$GPGGA,101013.00,4611.975651,N,01258.210283,E,1,06,1.4,138.52,M,46.25,M,,*6A
$GPGLL,4611.975651,N,01258.210283,E,101013.00,A,A*64
$GPVTG,268.3,T,268.5,M,000.4,N,000.7,K,A*26
$GPGSV,2,1,07,21,20,186,38,02,25,048,42,12,30,106,40,25,65,098,42*77
$GPGSV,2,2,07,29,83,285,41,30,65,306,40,31,49,291,40,,,,*44
$GPGSA,M,3,21,02,12,29,30,31,,,,,,,2.8,1.4,2.4*3F
Trace #9 at position 2.000000
$GPZDA,101013.04,08,10,2011,00,00*6B
$GPRMC,101013.00,A,4611.975651,N,01258.210283,E,000.4,268.3,081011,0.2,E,A*38
$GPGGA,101014.00,4611.975692,N,01258.210198,E,1,05,2.4,138.47,M,46.25,M,,*6F
$GPGLL,4611.975692,N,01258.210198,E,101014.00,A,A*65
$GPVTG,154.0,T,154.2,M,000.6,N,001.1,K,A*27
$GPGSV,2,1,07,21,20,186,36,02,25,048,44,12,30,106,39,25,65,098,45*76
$GPGSV,2,2,07,29,83,285,41,30,65,306,41,31,49,291,39,,,,*4B
$GPGSA,M,3,02,12,29,30,31,,,,,,,,4.6,2.4,3.9*3B
Trace #10 at position 2.250000
$GPZDA,101013.04,08,10,2011,00,00*6B
$GPRMC,101013.00,A,4611.975651,N,01258.210283,E,000.4,268.3,081011,0.2,E,A*38
$GPGGA,101014.00,4611.975692,N,01258.210198,E,1,05,2.4,138.47,M,46.25,M,,*6F
$GPGLL,4611.975692,N,01258.210198,E,101014.00,A,A*65
$GPVTG,154.0,T,154.2,M,000.6,N,001.1,K,A*27
$GPGSV,2,1,07,21,20,186,36,02,25,048,44,12,30,106,39,25,65,098,45*76
$GPGSV,2,2,07,29,83,285,41,30,65,306,41,31,49,291,39,,,,*4B
$GPGSA,M,3,02,12,29,30,31,,,,,,,,4.6,2.4,3.9*3B
Trace #11 at position 2.500000
$GPZDA,101013.04,08,10,2011,00,00*6B
$GPRMC,101013.00,A,4611.975651,N,01258.210283,E,000.4,268.3,081011,0.2,E,A*38
$GPGGA,101014.00,4611.975692,N,01258.210198,E,1,05,2.4,138.47,M,46.25,M,,*6F
$GPGLL,4611.975692,N,01258.210198,E,101014.00,A,A*65
$GPVTG,154.0,T,154.2,M,000.6,N,001.1,K,A*27
$GPGSV,2,1,07,21,20,186,36,02,25,048,44,12,30,106,39,25,65,098,45*76
$GPGSV,2,2,07,29,83,285,41,30,65,306,41,31,49,291,39,,,,*4B
$GPGSA,M,3,02,12,29,30,31,,,,,,,,4.6,2.4,3.9*3B
Trace #12 at position 2.750000
$GPZDA,101014.03,08,10,2011,00,00*6B
$GPRMC,101014.00,A,4611.975692,N,01258.210198,E,000.6,154.0,081011,0.2,E,A*34
$GPGGA,101015.00,4611.975549,N,01258.210175,E,1,06,2.2,138.15,M,46.25,M,,*6A
$GPGLL,4611.975549,N,01258.210175,E,101015.00,A,A*62
$GPVTG,164.4,T,164.5,M,001.2,N,002.2,K,A*21
$GPGSV,2,1,07,21,20,186,38,02,25,048,43,12,30,106,39,25,65,098,43*79
$GPGSV,2,2,07,29,83,285,40,30,65,306,40,31,49,291,40,,,,*45
$GPGSA,M,3,02,12,25,29,30,31,,,,,,,3.8,2.2,3.1*3B
Trace #13 at position 3.000000
$GPZDA,101014.03,08,10,2011,00,00*6B
$GPRMC,101014.00,A,4611.975692,N,01258.210198,E,000.6,154.0,081011,0.2,E,A*34
$GPGGA,101015.00,4611.975549,N,01258.210175,E,1,06,2.2,138.15,M,46.25,M,,*6A
$GPGLL,4611.975549,N,01258.210175,E,101015.00,A,A*62
$GPVTG,164.4,T,164.5,M,001.2,N,002.2,K,A*21
$GPGSV,2,1,07,21,20,186,38,02,25,048,43,12,30,106,39,25,65,098,43*79
$GPGSV,2,2,07,29,83,285,40,30,65,306,40,31,49,291,40,,,,*45
$GPGSA,M,3,02,12,25,29,30,31,,,,,,,3.8,2.2,3.1*3B
Trace #14 at position 3.250000
$GPZDA,101014.03,08,10,2011,00,00*6B
$GPRMC,101014.00,A,4611.975692,N,01258.210198,E,000.6,154.0,081011,0.2,E,A*34
$GPGGA,101015.00,4611.975549,N,01258.210175,E,1,06,2.2,138.15,M,46.25,M,,*6A
$GPGLL,4611.975549,N,01258.210175,E,101015.00,A,A*62
$GPVTG,164.4,T,164.5,M,001.2,N,002.2,K,A*21
$GPGSV,2,1,07,21,20,186,38,02,25,048,43,12,30,106,39,25,65,098,43*79
$GPGSV,2,2,07,29,83,285,40,30,65,306,40,31,49,291,40,,,,*45
$GPGSA,M,3,02,12,25,29,30,31,,,,,,,3.8,2.2,3.1*3B
Trace #15 at position 3.500000
$GPZDA,101015.04,08,10,2011,00,00*6D
$GPRMC,101015.00,A,4611.975549,N,01258.210175,E,001.2,164.4,081011,0.2,E,A*31
$GPGGA,101016.00,4611.975288,N,01258.210150,E,1,06,2.2,137.80,M,46.25,M,,*67
$GPGLL,4611.975288,N,01258.210150,E,101016.00,A,A*6C
$GPVTG,175.1,T,175.3,M,001.3,N,002.4,K,A*25
$GPGSV,2,1,07,21,20,186,38,02,25,048,42,12,30,106,39,25,65,098,42*79
$GPGSV,2,2,07,29,83,285,41,30,65,306,41,31,49,291,41,,,,*44
$GPGSA,M,3,02,12,25,29,30,31,,,,,,,3.8,2.2,3.1*3B
Trace #16 at position 3.750000
$GPZDA,101015.04,08,10,2011,00,00*6D
$GPRMC,101015.00,A,4611.975549,N,01258.210175,E,001.2,164.4,081011,0.2,E,A*31
$GPGGA,101016.00,4611.975288,N,01258.210150,E,1,06,2.2,137.80,M,46.25,M,,*67
$GPGLL,4611.975288,N,01258.210150,E,101016.00,A,A*6C
$GPVTG,175.1,T,175.3,M,001.3,N,002.4,K,A*25
$GPGSV,2,1,07,21,20,186,38,02,25,048,42,12,30,106,39,25,65,098,42*79
$GPGSV,2,2,07,29,83,285,41,30,65,306,41,31,49,291,41,,,,*44
$GPGSA,M,3,02,12,25,29,30,31,,,,,,,3.8,2.2,3.1*3B
Trace #17 at position 4.000000
$GPZDA,101015.04,08,10,2011,00,00*6D
$GPRMC,101015.00,A,4611.975549,N,01258.210175,E,001.2,164.4,081011,0.2,E,A*31
$GPGGA,101016.00,4611.975288,N,01258.210150,E,1,06,2.2,137.80,M,46.25,M,,*67
$GPGLL,4611.975288,N,01258.210150,E,101016.00,A,A*6C
$GPVTG,175.1,T,175.3,M,001.3,N,002.4,K,A*25
$GPGSV,2,1,07,21,20,186,38,02,25,048,42,12,30,106,39,25,65,098,42*79
$GPGSV,2,2,07,29,83,285,41,30,65,306,41,31,49,291,41,,,,*44
$GPGSA,M,3,02,12,25,29,30,31,,,,,,,3.8,2.2,3.1*3B
Trace #18 at position 4.250000
$GPZDA,101016.03,08,10,2011,00,00*69
$GPRMC,101016.00,A,4611.975288,N,01258.210150,E,001.3,175.1,081011,0.2,E,A*3B
$GPGGA,101017.00,4611.974952,N,01258.210257,E,1,06,2.2,137.41,M,46.25,M,,*62
$GPGLL,4611.974952,N,01258.210257,E,101017.00,A,A*64
$GPVTG,153.1,T,153.3,M,001.9,N,003.4,K,A*2E
$GPGSV,2,1,07,21,20,186,38,02,25,048,43,12,30,106,37,25,65,098,42*76
$GPGSV,2,2,07,29,83,285,40,30,65,306,41,31,49,291,40,,,,*44
$GPGSA,M,3,02,12,25,29,30,31,,,,,,,3.8,2.2,3.1*3B
Trace #19 at position 4.500000
$GPZDA,101016.03,08,10,2011,00,00*69
$GPRMC,101016.00,A,4611.975288,N,01258.210150,E,001.3,175.1,081011,0.2,E,A*3B
$GPGGA,101017.00,4611.974952,N,01258.210257,E,1,06,2.2,137.41,M,46.25,M,,*62
$GPGLL,4611.974952,N,01258.210257,E,101017.00,A,A*64
$GPVTG,153.1,T,153.3,M,001.9,N,003.4,K,A*2E
$GPGSV,2,1,07,21,20,186,38,02,25,048,43,12,30,106,37,25,65,098,42*76
$GPGSV,2,2,07,29,83,285,40,30,65,306,41,31,49,291,40,,,,*44
$GPGSA,M,3,02,12,25,29,30,31,,,,,,,3.8,2.2,3.1*3B
Trace #20 at position 4.750000
$GPZDA,101016.03,08,10,2011,00,00*69
$GPRMC,101016.00,A,4611.975288,N,01258.210150,E,001.3,175.1,081011,0.2,E,A*3B
$GPGGA,101017.00,4611.974952,N,01258.210257,E,1,06,2.2,137.41,M,46.25,M,,*62
$GPGLL,4611.974952,N,01258.210257,E,101017.00,A,A*64
$GPVTG,153.1,T,153.3,M,001.9,N,003.4,K,A*2E
$GPGSV,2,1,07,21,20,186,38,02,25,048,43,12,30,106,37,25,65,098,42*76
$GPGSV,2,2,07,29,83,285,40,30,65,306,41,31,49,291,40,,,,*44
$GPGSA,M,3,02,12,25,29,30,31,,,,,,,3.8,2.2,3.1*3B
Trace #21 at position 5.000000
$GPZDA,101016.03,08,10,2011,00,00*69
$GPRMC,101016.00,A,4611.975288,N,01258.210150,E,001.3,175.1,081011,0.2,E,A*3B
$GPGGA,101017.00,4611.974952,N,01258.210257,E,1,06,2.2,137.41,M,46.25,M,,*62
$GPGLL,4611.974952,N,01258.210257,E,101017.00,A,A*64
$GPVTG,153.1,T,153.3,M,001.9,N,003.4,K,A*2E
$GPGSV,2,1,07,21,20,186,38,02,25,048,43,12,30,106,37,25,65,098,42*76
$GPGSV,2,2,07,29,83,285,40,30,65,306,41,31,49,291,40,,,,*44
$GPGSA,M,3,02,12,25,29,30,31,,,,,,,3.8,2.2,3.1*3B
Trace #22 at position 5.250000
$GPZDA,101017.03,08,10,2011,00,00*68
$GPRMC,101017.00,A,4611.974952,N,01258.210257,E,001.9,153.1,081011,0.2,E,A*3D
$GPGGA,101018.00,4611.974497,N,01258.210429,E,1,06,2.2,137.12,M,46.25,M,,*60
$GPGLL,4611.974497,N,01258.210429,E,101018.00,A,A*60
$GPVTG,169.5,T,169.7,M,002.1,N,004.0,K,A*26
$GPGSV,2,1,07,21,20,186,36,02,25,048,42,12,30,106,36,25,65,098,40*7A
$GPGSV,2,2,07,29,83,286,40,30,65,306,41,31,50,291,40,,,,*4F
$GPGSA,M,3,02,12,25,29,30,31,,,,,,,3.8,2.2,3.1*3B
Trace #23 at position 5.500000
$GPZDA,101017.03,08,10,2011,00,00*68
$GPRMC,101017.00,A,4611.974952,N,01258.210257,E,001.9,153.1,081011,0.2,E,A*3D
$GPGGA,101018.00,4611.974497,N,01258.210429,E,1,06,2.2,137.12,M,46.25,M,,*60
$GPGLL,4611.974497,N,01258.210429,E,101018.00,A,A*60
$GPVTG,169.5,T,169.7,M,002.1,N,004.0,K,A*26
$GPGSV,2,1,07,21,20,186,36,02,25,048,42,12,30,106,36,25,65,098,40*7A
$GPGSV,2,2,07,29,83,286,40,30,65,306,41,31,50,291,40,,,,*4F
$GPGSA,M,3,02,12,25,29,30,31,,,,,,,3.8,2.2,3.1*3B
Trace #24 at position 5.750000
$GPZDA,101017.03,08,10,2011,00,00*68
$GPRMC,101017.00,A,4611.974952,N,01258.210257,E,001.9,153.1,081011,0.2,E,A*3D
$GPGGA,101018.00,4611.974497,N,01258.210429,E,1,06,2.2,137.12,M,46.25,M,,*60
$GPGLL,4611.974497,N,01258.210429,E,101018.00,A,A*60
$GPVTG,169.5,T,169.7,M,002.1,N,004.0,K,A*26
$GPGSV,2,1,07,21,20,186,36,02,25,048,42,12,30,106,36,25,65,098,40*7A
$GPGSV,2,2,07,29,83,286,40,30,65,306,41,31,50,291,40,,,,*4F
$GPGSA,M,3,02,12,25,29,30,31,,,,,,,3.8,2.2,3.1*3B
Trace #25 at position 6.000000
$GPZDA,101018.04,08,10,2011,00,00*60
$GPRMC,101018.00,A,4611.974497,N,01258.210429,E,002.1,169.5,081011,0.2,E,A*3F
$GPGGA,101019.00,4611.973990,N,01258.210463,E,1,06,2.2,136.94,M,46.25,M,,*6D
$GPGLL,4611.973990,N,01258.210463,E,101019.00,A,A*62
$GPVTG,178.9,T,179.1,M,002.1,N,003.9,K,A*23
$GPGSV,2,1,07,21,20,186,35,02,25,048,42,12,30,106,38,25,65,098,41*76
$GPGSV,2,2,07,29,83,286,40,30,65,306,41,31,50,291,41,,,,*4E
$GPGSA,M,3,02,12,25,29,30,31,,,,,,,3.8,2.2,3.1*3B
Trace #26 at position 6.250000
$GPZDA,101018.04,08,10,2011,00,00*60
$GPRMC,101018.00,A,4611.974497,N,01258.210429,E,002.1,169.5,081011,0.2,E,A*3F
$GPGGA,101019.00,4611.973990,N,01258.210463,E,1,06,2.2,136.94,M,46.25,M,,*6D
$GPGLL,4611.973990,N,01258.210463,E,101019.00,A,A*62
$GPVTG,178.9,T,179.1,M,002.1,N,003.9,K,A*23
$GPGSV,2,1,07,21,20,186,35,02,25,048,42,12,30,106,38,25,65,098,41*76
$GPGSV,2,2,07,29,83,286,40,30,65,306,41,31,50,291,41,,,,*4E
$GPGSA,M,3,02,12,25,29,30,31,,,,,,,3.8,2.2,3.1*3B
Trace #27 at position 6.500000
$GPZDA,101018.04,08,10,2011,00,00*60
$GPRMC,101018.00,A,4611.974497,N,01258.210429,E,002.1,169.5,081011,0.2,E,A*3F
$GPGGA,101019.00,4611.973990,N,01258.210463,E,1,06,2.2,136.94,M,46.25,M,,*6D
$GPGLL,4611.973990,N,01258.210463,E,101019.00,A,A*62
$GPVTG,178.9,T,179.1,M,002.1,N,003.9,K,A*23
$GPGSV,2,1,07,21,20,186,35,02,25,048,42,12,30,106,38,25,65,098,41*76
$GPGSV,2,2,07,29,83,286,40,30,65,306,41,31,50,291,41,,,,*4E
$GPGSA,M,3,02,12,25,29,30,31,,,,,,,3.8,2.2,3.1*3B
Trace #28 at position 6.750000
$GPZDA,101018.04,08,10,2011,00,00*60
$GPRMC,101018.00,A,4611.974497,N,01258.210429,E,002.1,169.5,081011,0.2,E,A*3F
$GPGGA,101019.00,4611.973990,N,01258.210463,E,1,06,2.2,136.94,M,46.25,M,,*6D
$GPGLL,4611.973990,N,01258.210463,E,101019.00,A,A*62
$GPVTG,178.9,T,179.1,M,002.1,N,003.9,K,A*23
$GPGSV,2,1,07,21,20,186,35,02,25,048,42,12,30,106,38,25,65,098,41*76
$GPGSV,2,2,07,29,83,286,40,30,65,306,41,31,50,291,41,,,,*4E
$GPGSA,M,3,02,12,25,29,30,31,,,,,,,3.8,2.2,3.1*3B
Trace #29 at position 7.000000
$GPZDA,101019.03,08,10,2011,00,00*66
$GPRMC,101019.00,A,4611.973990,N,01258.210463,E,002.1,178.9,081011,0.2,E,A*31
$GPGGA,101020.00,4611.973439,N,01258.210475,E,1,05,5.5,136.58,M,46.25,M,,*6D
$GPGLL,4611.973439,N,01258.210475,E,101020.00,A,A*61
$GPVTG,172.1,T,172.2,M,001.5,N,002.8,K,A*2E
$GPGSV,2,1,07,21,20,186,32,02,25,048,42,12,30,106,36,25,65,098,39*70
$GPGSV,2,2,07,29,83,286,40,30,65,306,41,31,50,291,40,,,,*4F
$GPGSA,M,3,02,25,29,30,31,,,,,,,,8.8,5.5,6.9*3E
Trace #30 at position 7.250000
$GPZDA,101019.03,08,10,2011,00,00*66
$GPRMC,101019.00,A,4611.973990,N,01258.210463,E,002.1,178.9,081011,0.2,E,A*31
$GPGGA,101020.00,4611.973439,N,01258.210475,E,1,05,5.5,136.58,M,46.25,M,,*6D
$GPGLL,4611.973439,N,01258.210475,E,101020.00,A,A*61
$GPVTG,172.1,T,172.2,M,001.5,N,002.8,K,A*2E
$GPGSV,2,1,07,21,20,186,32,02,25,048,42,12,30,106,36,25,65,098,39*70
$GPGSV,2,2,07,29,83,286,40,30,65,306,41,31,50,291,40,,,,*4F
$GPGSA,M,3,02,25,29,30,31,,,,,,,,8.8,5.5,6.9*3E
Trace #31 at position 7.500000
$GPZDA,101019.03,08,10,2011,00,00*66
$GPRMC,101019.00,A,4611.973990,N,01258.210463,E,002.1,178.9,081011,0.2,E,A*31
$GPGGA,101020.00,4611.973439,N,01258.210475,E,1,05,5.5,136.58,M,46.25,M,,*6D
$GPGLL,4611.973439,N,01258.210475,E,101020.00,A,A*61
$GPVTG,172.1,T,172.2,M,001.5,N,002.8,K,A*2E
$GPGSV,2,1,07,21,20,186,32,02,25,048,42,12,30,106,36,25,65,098,39*70
$GPGSV,2,2,07,29,83,286,40,30,65,306,41,31,50,291,40,,,,*4F
$GPGSA,M,3,02,25,29,30,31,,,,,,,,8.8,5.5,6.9*3E
Trace #32 at position 7.750000
$GPZDA,101020.03,08,10,2011,00,00*6C
$GPRMC,101020.00,A,4611.973439,N,01258.210475,E,001.5,172.1,081011,0.2,E,A*37
$GPGGA,101021.00,4611.972926,N,01258.210545,E,1,05,5.5,136.20,M,46.25,M,,*63
$GPGLL,4611.972926,N,01258.210545,E,101021.00,A,A*60
$GPVTG,173.2,T,173.4,M,001.7,N,003.2,K,A*22
$GPGSV,2,1,07,21,20,186,34,02,25,048,43,12,30,106,35,25,65,098,40*7A
$GPGSV,2,2,07,29,83,286,40,30,65,306,41,31,50,291,39,,,,*41
$GPGSA,M,3,02,25,29,30,31,,,,,,,,8.8,5.5,6.9*3E
Trace #33 at position 8.000000
$GPZDA,101020.03,08,10,2011,00,00*6C
$GPRMC,101020.00,A,4611.973439,N,01258.210475,E,001.5,172.1,081011,0.2,E,A*37
$GPGGA,101021.00,4611.972926,N,01258.210545,E,1,05,5.5,136.20,M,46.25,M,,*63
$GPGLL,4611.972926,N,01258.210545,E,101021.00,A,A*60
$GPVTG,173.2,T,173.4,M,001.7,N,003.2,K,A*22
$GPGSV,2,1,07,21,20,186,34,02,25,048,43,12,30,106,35,25,65,098,40*7A
$GPGSV,2,2,07,29,83,286,40,30,65,306,41,31,50,291,39,,,,*41
$GPGSA,M,3,02,25,29,30,31,,,,,,,,8.8,5.5,6.9*3E
Trace #34 at position 8.250000
$GPZDA,101020.03,08,10,2011,00,00*6C
$GPRMC,101020.00,A,4611.973439,N,01258.210475,E,001.5,172.1,081011,0.2,E,A*37
$GPGGA,101021.00,4611.972926,N,01258.210545,E,1,05,5.5,136.20,M,46.25,M,,*63
$GPGLL,4611.972926,N,01258.210545,E,101021.00,A,A*60
$GPVTG,173.2,T,173.4,M,001.7,N,003.2,K,A*22
$GPGSV,2,1,07,21,20,186,34,02,25,048,43,12,30,106,35,25,65,098,40*7A
$GPGSV,2,2,07,29,83,286,40,30,65,306,41,31,50,291,39,,,,*41
$GPGSA,M,3,02,25,29,30,31,,,,,,,,8.8,5.5,6.9*3E
Trace #35 at position 8.500000
$GPZDA,101021.03,08,10,2011,00,00*6D
$GPRMC,101021.00,A,4611.972926,N,01258.210545,E,001.7,173.2,081011,0.2,E,A*36
$GPGGA,101022.00,4611.972500,N,01258.210679,E,1,05,5.5,136.03,M,46.25,M,,*65
$GPGLL,4611.972500,N,01258.210679,E,101022.00,A,A*67
$GPVTG,148.6,T,148.8,M,000.9,N,001.7,K,A*22
$GPGSV,2,1,07,21,20,186,35,02,25,048,43,12,30,106,36,25,65,098,40*78
$GPGSV,2,2,07,29,83,286,40,30,65,306,42,31,50,291,39,,,,*42
$GPGSA,M,3,02,25,29,30,31,,,,,,,,8.8,5.5,6.9*3E
Trace #36 at position 8.750000
$GPZDA,101021.03,08,10,2011,00,00*6D
$GPRMC,101021.00,A,4611.972926,N,01258.210545,E,001.7,173.2,081011,0.2,E,A*36
$GPGGA,101022.00,4611.972500,N,01258.210679,E,1,05,5.5,136.03,M,46.25,M,,*65
$GPGLL,4611.972500,N,01258.210679,E,101022.00,A,A*67
$GPVTG,148.6,T,148.8,M,000.9,N,001.7,K,A*22
$GPGSV,2,1,07,21,20,186,35,02,25,048,43,12,30,106,36,25,65,098,40*78
$GPGSV,2,2,07,29,83,286,40,30,65,306,42,31,50,291,39,,,,*42
$GPGSA,M,3,02,25,29,30,31,,,,,,,,8.8,5.5,6.9*3E
Trace #37 at position 9.000000
$GPZDA,101021.03,08,10,2011,00,00*6D
$GPRMC,101021.00,A,4611.972926,N,01258.210545,E,001.7,173.2,081011,0.2,E,A*36
$GPGGA,101022.00,4611.972500,N,01258.210679,E,1,05,5.5,136.03,M,46.25,M,,*65
$GPGLL,4611.972500,N,01258.210679,E,101022.00,A,A*67
$GPVTG,148.6,T,148.8,M,000.9,N,001.7,K,A*22
$GPGSV,2,1,07,21,20,186,35,02,25,048,43,12,30,106,36,25,65,098,40*78
$GPGSV,2,2,07,29,83,286,40,30,65,306,42,31,50,291,39,,,,*42
$GPGSA,M,3,02,25,29,30,31,,,,,,,,8.8,5.5,6.9*3E
Trace #38 at position 9.250000
$GPZDA,101022.03,08,10,2011,00,00*6E
$GPRMC,101022.00,A,4611.972500,N,01258.210679,E,000.9,148.6,081011,0.2,E,A*32
$GPGGA,101023.00,4611.972003,N,01258.210866,E,1,05,5.5,135.93,M,46.25,M,,*68
$GPGLL,4611.972003,N,01258.210866,E,101023.00,A,A*60
$GPVTG,168.3,T,168.5,M,002.2,N,004.0,K,A*21
$GPGSV,2,1,07,21,20,186,36,02,25,048,42,12,30,106,36,25,65,098,40*7A
$GPGSV,2,2,07,29,83,286,41,30,65,306,42,31,50,291,39,,,,*43
$GPGSA,M,3,02,25,29,30,31,,,,,,,,8.8,5.5,6.9*3E
Trace #39 at position 9.500000
$GPZDA,101022.03,08,10,2011,00,00*6E
$GPRMC,101022.00,A,4611.972500,N,01258.210679,E,000.9,148.6,081011,0.2,E,A*32
$GPGGA,101023.00,4611.972003,N,01258.210866,E,1,05,5.5,135.93,M,46.25,M,,*68
$GPGLL,4611.972003,N,01258.210866,E,101023.00,A,A*60
$GPVTG,168.3,T,168.5,M,002.2,N,004.0,K,A*21
$GPGSV,2,1,07,21,20,186,36,02,25,048,42,12,30,106,36,25,65,098,40*7A
$GPGSV,2,2,07,29,83,286,41,30,65,306,42,31,50,291,39,,,,*43
$GPGSA,M,3,02,25,29,30,31,,,,,,,,8.8,5.5,6.9*3E
Trace #40 at position 9.750000
$GPZDA,101022.03,08,10,2011,00,00*6E
$GPRMC,101022.00,A,4611.972500,N,01258.210679,E,000.9,148.6,081011,0.2,E,A*32
$GPGGA,101023.00,4611.972003,N,01258.210866,E,1,05,5.5,135.93,M,46.25,M,,*68
$GPGLL,4611.972003,N,01258.210866,E,101023.00,A,A*60
$GPVTG,168.3,T,168.5,M,002.2,N,004.0,K,A*21
$GPGSV,2,1,07,21,20,186,36,02,25,048,42,12,30,106,36,25,65,098,40*7A
$GPGSV,2,2,07,29,83,286,41,30,65,306,42,31,50,291,39,,,,*43
$GPGSA,M,3,02,25,29,30,31,,,,,,,,8.8,5.5,6.9*3E
Trace #41 at position 10.000000
$GPZDA,101023.04,08,10,2011,00,00*68
$GPRMC,101023.00,A,4611.972003,N,01258.210866,E,002.2,168.3,081011,0.2,E,A*3B
$GPGGA,101024.00,4611.971382,N,01258.211126,E,1,05,5.5,135.44,M,46.25,M,,*60
$GPGLL,4611.971382,N,01258.211126,E,101024.00,A,A*62
$GPVTG,153.9,T,154.0,M,001.9,N,003.5,K,A*23
$GPGSV,2,1,07,21,20,186,36,02,25,048,43,12,30,106,37,25,65,098,42*78
$GPGSV,2,2,07,29,83,286,40,30,65,306,42,31,50,291,40,,,,*4C
$GPGSA,M,3,02,25,29,30,31,,,,,,,,8.8,5.5,6.9*3E
Trace #42 at position 10.250000
$GPZDA,101023.04,08,10,2011,00,00*68
$GPRMC,101023.00,A,4611.972003,N,01258.210866,E,002.2,168.3,081011,0.2,E,A*3B
$GPGGA,101024.00,4611.971382,N,01258.211126,E,1,05,5.5,135.44,M,46.25,M,,*60
$GPGLL,4611.971382,N,01258.211126,E,101024.00,A,A*62
$GPVTG,153.9,T,154.0,M,001.9,N,003.5,K,A*23
$GPGSV,2,1,07,21,20,186,36,02,25,048,43,12,30,106,37,25,65,098,42*78
$GPGSV,2,2,07,29,83,286,40,30,65,306,42,31,50,291,40,,,,*4C
$GPGSA,M,3,02,25,29,30,31,,,,,,,,8.8,5.5,6.9*3E
Trace #43 at position 10.500000
$GPZDA,101023.04,08,10,2011,00,00*68
$GPRMC,101023.00,A,4611.972003,N,01258.210866,E,002.2,168.3,081011,0.2,E,A*3B
$GPGGA,101024.00,4611.971382,N,01258.211126,E,1,05,5.5,135.44,M,46.25,M,,*60
$GPGLL,4611.971382,N,01258.211126,E,101024.00,A,A*62
$GPVTG,153.9,T,154.0,M,001.9,N,003.5,K,A*23
$GPGSV,2,1,07,21,20,186,36,02,25,048,43,12,30,106,37,25,65,098,42*78
$GPGSV,2,2,07,29,83,286,40,30,65,306,42,31,50,291,40,,,,*4C
$GPGSA,M,3,02,25,29,30,31,,,,,,,,8.8,5.5,6.9*3E
Trace #44 at position 10.750000
$GPZDA,101023.04,08,10,2011,00,00*68
$GPRMC,101023.00,A,4611.972003,N,01258.210866,E,002.2,168.3,081011,0.2,E,A*3B
$GPGGA,101024.00,4611.971382,N,01258.211126,E,1,05,5.5,135.44,M,46.25,M,,*60
$GPGLL,4611.971382,N,01258.211126,E,101024.00,A,A*62
$GPVTG,153.9,T,154.0,M,001.9,N,003.5,K,A*23
$GPGSV,2,1,07,21,20,186,36,02,25,048,43,12,30,106,37,25,65,098,42*78
$GPGSV,2,2,07,29,83,286,40,30,65,306,42,31,50,291,40,,,,*4C
$GPGSA,M,3,02,25,29,30,31,,,,,,,,8.8,5.5,6.9*3E
Trace #45 at position 11.000000
$GPZDA,101024.03,08,10,2011,00,00*68
$GPRMC,101024.00,A,4611.971382,N,01258.211126,E,001.9,153.9,081011,0.2,E,A*33
$GPGGA,101025.00,4611.970920,N,01258.211457,E,1,05,5.5,135.17,M,46.25,M,,*67
$GPGLL,4611.970920,N,01258.211457,E,101025.00,A,A*63
$GPVTG,135.8,T,135.9,M,001.3,N,002.4,K,A*26
$GPGSV,2,1,07,21,20,186,37,02,25,048,41,12,30,106,38,25,65,098,40*76
$GPGSV,2,2,07,29,83,286,41,30,65,306,42,31,50,291,40,,,,*4D
$GPGSA,M,3,02,25,29,30,31,,,,,,,,8.8,5.5,6.9*3E
Trace #46 at position 11.250000
$GPZDA,101024.03,08,10,2011,00,00*68
$GPRMC,101024.00,A,4611.971382,N,01258.211126,E,001.9,153.9,081011,0.2,E,A*33
$GPGGA,101025.00,4611.970920,N,01258.211457,E,1,05,5.5,135.17,M,46.25,M,,*67
$GPGLL,4611.970920,N,01258.211457,E,101025.00,A,A*63
$GPVTG,135.8,T,135.9,M,001.3,N,002.4,K,A*26
$GPGSV,2,1,07,21,20,186,37,02,25,048,41,12,30,106,38,25,65,098,40*76
$GPGSV,2,2,07,29,83,286,41,30,65,306,42,31,50,291,40,,,,*4D
$GPGSA,M,3,02,25,29,30,31,,,,,,,,8.8,5.5,6.9*3E
Trace #47 at position 11.500000
$GPZDA,101024.03,08,10,2011,00,00*68
$GPRMC,101024.00,A,4611.971382,N,01258.211126,E,001.9,153.9,081011,0.2,E,A*33
$GPGGA,101025.00,4611.970920,N,01258.211457,E,1,05,5.5,135.17,M,46.25,M,,*67
$GPGLL,4611.970920,N,01258.211457,E,101025.00,A,A*63
$GPVTG,135.8,T,135.9,M,001.3,N,002.4,K,A*26
$GPGSV,2,1,07,21,20,186,37,02,25,048,41,12,30,106,38,25,65,098,40*76
$GPGSV,2,2,07,29,83,286,41,30,65,306,42,31,50,291,40,,,,*4D
$GPGSA,M,3,02,25,29,30,31,,,,,,,,8.8,5.5,6.9*3E
Trace #48 at position 11.750000
$GPZDA,101024.03,08,10,2011,00,00*68
$GPRMC,101024.00,A,4611.971382,N,01258.211126,E,001.9,153.9,081011,0.2,E,A*33
$GPGGA,101025.00,4611.970920,N,01258.211457,E,1,05,5.5,135.17,M,46.25,M,,*67
$GPGLL,4611.970920,N,01258.211457,E,101025.00,A,A*63
$GPVTG,135.8,T,135.9,M,001.3,N,002.4,K,A*26
$GPGSV,2,1,07,21,20,186,37,02,25,048,41,12,30,106,38,25,65,098,40*76
$GPGSV,2,2,07,29,83,286,41,30,65,306,42,31,50,291,40,,,,*4D
$GPGSA,M,3,02,25,29,30,31,,,,,,,,8.8,5.5,6.9*3E
Trace #49 at position 12.000000
$GPZDA,101025.03,08,10,2011,00,00*69
$GPRMC,101025.00,A,4611.970920,N,01258.211457,E,001.3,135.8,081011,0.2,E,A*39
$GPGGA,101026.00,4611.970361,N,01258.211647,E,1,05,5.5,134.96,M,46.25,M,,*60
$GPGLL,4611.970361,N,01258.211647,E,101026.00,A,A*6C
$GPVTG,176.5,T,176.7,M,002.5,N,004.6,K,A*24
$GPGSV,2,1,07,21,20,186,36,02,25,048,41,12,30,106,38,25,65,098,41*76
$GPGSV,2,2,07,29,83,286,41,30,65,306,41,31,50,291,40,,,,*4E
$GPGSA,M,3,02,25,29,30,31,,,,,,,,8.8,5.5,6.8*3F
Trace #50 at position 12.250000
$GPZDA,101025.03,08,10,2011,00,00*69
$GPRMC,101025.00,A,4611.970920,N,01258.211457,E,001.3,135.8,081011,0.2,E,A*39
$GPGGA,101026.00,4611.970361,N,01258.211647,E,1,05,5.5,134.96,M,46.25,M,,*60
$GPGLL,4611.970361,N,01258.211647,E,101026.00,A,A*6C
$GPVTG,176.5,T,176.7,M,002.5,N,004.6,K,A*24
$GPGSV,2,1,07,21,20,186,36,02,25,048,41,12,30,106,38,25,65,098,41*76
$GPGSV,2,2,07,29,83,286,41,30,65,306,41,31,50,291,40,,,,*4E
$GPGSA,M,3,02,25,29,30,31,,,,,,,,8.8,5.5,6.8*3F
Trace #51 at position 12.500000
$GPZDA,101025.03,08,10,2011,00,00*69
$GPRMC,101025.00,A,4611.970920,N,01258.211457,E,001.3,135.8,081011,0.2,E,A*39
$GPGGA,101026.00,4611.970361,N,01258.211647,E,1,05,5.5,134.96,M,46.25,M,,*60
$GPGLL,4611.970361,N,01258.211647,E,101026.00,A,A*6C
$GPVTG,176.5,T,176.7,M,002.5,N,004.6,K,A*24
$GPGSV,2,1,07,21,20,186,36,02,25,048,41,12,30,106,38,25,65,098,41*76
$GPGSV,2,2,07,29,83,286,41,30,65,306,41,31,50,291,40,,,,*4E
$GPGSA,M,3,02,25,29,30,31,,,,,,,,8.8,5.5,6.8*3F
Trace #52 at position 12.750000
$GPZDA,101025.03,08,10,2011,00,00*69
$GPRMC,101025.00,A,4611.970920,N,01258.211457,E,001.3,135.8,081011,0.2,E,A*39
$GPGGA,101026.00,4611.970361,N,01258.211647,E,1,05,5.5,134.96,M,46.25,M,,*60
$GPGLL,4611.970361,N,01258.211647,E,101026.00,A,A*6C
$GPVTG,176.5,T,176.7,M,002.5,N,004.6,K,A*24
$GPGSV,2,1,07,21,20,186,36,02,25,048,41,12,30,106,38,25,65,098,41*76
$GPGSV,2,2,07,29,83,286,41,30,65,306,41,31,50,291,40,,,,*4E
$GPGSA,M,3,02,25,29,30,31,,,,,,,,8.8,5.5,6.8*3F
Trace #53 at position 13.000000
$GPZDA,101026.03,08,10,2011,00,00*6A
$GPRMC,101026.00,A,4611.970361,N,01258.211647,E,002.5,176.5,081011,0.2,E,A*39
$GPGGA,101027.00,4611.969624,N,01258.211894,E,1,05,5.5,134.52,M,46.25,M,,*65
$GPGLL,4611.969624,N,01258.211894,E,101027.00,A,A*61
$GPVTG,153.0,T,153.2,M,002.6,N,004.8,K,A*29
$GPGSV,2,1,07,21,20,186,36,02,25,048,41,12,30,106,38,25,65,098,41*76
$GPGSV,2,2,07,29,83,286,40,30,65,306,41,31,50,291,40,,,,*4F
$GPGSA,M,3,02,25,29,30,31,,,,,,,,8.8,5.5,6.8*3F
Trace #54 at position 13.250000
$GPZDA,101026.03,08,10,2011,00,00*6A
$GPRMC,101026.00,A,4611.970361,N,01258.211647,E,002.5,176.5,081011,0.2,E,A*39
$GPGGA,101027.00,4611.969624,N,01258.211894,E,1,05,5.5,134.52,M,46.25,M,,*65
$GPGLL,4611.969624,N,01258.211894,E,101027.00,A,A*61
$GPVTG,153.0,T,153.2,M,002.6,N,004.8,K,A*29
$GPGSV,2,1,07,21,20,186,36,02,25,048,41,12,30,106,38,25,65,098,41*76
$GPGSV,2,2,07,29,83,286,40,30,65,306,41,31,50,291,40,,,,*4F
$GPGSA,M,3,02,25,29,30,31,,,,,,,,8.8,5.5,6.8*3F
Trace #55 at position 13.500000
$GPZDA,101026.03,08,10,2011,00,00*6A
$GPRMC,101026.00,A,4611.970361,N,01258.211647,E,002.5,176.5,081011,0.2,E,A*39
$GPGGA,101027.00,4611.969624,N,01258.211894,E,1,05,5.5,134.52,M,46.25,M,,*65
$GPGLL,4611.969624,N,01258.211894,E,101027.00,A,A*61
$GPVTG,153.0,T,153.2,M,002.6,N,004.8,K,A*29
$GPGSV,2,1,07,21,20,186,36,02,25,048,41,12,30,106,38,25,65,098,41*76
$GPGSV,2,2,07,29,83,286,40,30,65,306,41,31,50,291,40,,,,*4F
$GPGSA,M,3,02,25,29,30,31,,,,,,,,8.8,5.5,6.8*3F
Trace #56 at position 13.750000
$GPZDA,101026.03,08,10,2011,00,00*6A
$GPRMC,101026.00,A,4611.970361,N,01258.211647,E,002.5,176.5,081011,0.2,E,A*39
$GPGGA,101027.00,4611.969624,N,01258.211894,E,1,05,5.5,134.52,M,46.25,M,,*65
$GPGLL,4611.969624,N,01258.211894,E,101027.00,A,A*61
$GPVTG,153.0,T,153.2,M,002.6,N,004.8,K,A*29
$GPGSV,2,1,07,21,20,186,36,02,25,048,41,12,30,106,38,25,65,098,41*76
$GPGSV,2,2,07,29,83,286,40,30,65,306,41,31,50,291,40,,,,*4F
$GPGSA,M,3,02,25,29,30,31,,,,,,,,8.8,5.5,6.8*3F
Trace #57 at position 14.000000
$GPZDA,101027.03,08,10,2011,00,00*6B
$GPRMC,101027.00,A,4611.969624,N,01258.211894,E,002.6,153.0,081011,0.2,E,A*35
$GPGGA,101028.00,4611.968941,N,01258.212204,E,1,05,5.5,134.21,M,46.25,M,,*63
$GPGLL,4611.968941,N,01258.212204,E,101028.00,A,A*63
$GPVTG,166.4,T,166.5,M,002.2,N,004.1,K,A*27
$GPGSV,2,1,07,21,20,186,35,02,25,048,41,12,30,106,37,25,65,098,41*7A
$GPGSV,2,2,07,29,83,286,41,30,65,306,40,31,50,291,39,,,,*41
$GPGSA,M,3,02,25,29,30,31,,,,,,,,8.8,5.5,6.8*3F
Trace #58 at position 14.250000
$GPZDA,101027.03,08,10,2011,00,00*6B
$GPRMC,101027.00,A,4611.969624,N,01258.211894,E,002.6,153.0,081011,0.2,E,A*35
$GPGGA,101028.00,4611.968941,N,01258.212204,E,1,05,5.5,134.21,M,46.25,M,,*63
$GPGLL,4611.968941,N,01258.212204,E,101028.00,A,A*63
$GPVTG,166.4,T,166.5,M,002.2,N,004.1,K,A*27
$GPGSV,2,1,07,21,20,186,35,02,25,048,41,12,30,106,37,25,65,098,41*7A
$GPGSV,2,2,07,29,83,286,41,30,65,306,40,31,50,291,39,,,,*41
$GPGSA,M,3,02,25,29,30,31,,,,,,,,8.8,5.5,6.8*3F
Trace #59 at position 14.500000
$GPZDA,101027.03,08,10,2011,00,00*6B
$GPRMC,101027.00,A,4611.969624,N,01258.211894,E,002.6,153.0,081011,0.2,E,A*35
$GPGGA,101028.00,4611.968941,N,01258.212204,E,1,05,5.5,134.21,M,46.25,M,,*63
$GPGLL,4611.968941,N,01258.212204,E,101028.00,A,A*63
$GPVTG,166.4,T,166.5,M,002.2,N,004.1,K,A*27
$GPGSV,2,1,07,21,20,186,35,02,25,048,41,12,30,106,37,25,65,098,41*7A
$GPGSV,2,2,07,29,83,286,41,30,65,306,40,31,50,291,39,,,,*41
$GPGSA,M,3,02,25,29,30,31,,,,,,,,8.8,5.5,6.8*3F
Trace #60 at position 14.750000
$GPZDA,101027.03,08,10,2011,00,00*6B
$GPRMC,101027.00,A,4611.969624,N,01258.211894,E,002.6,153.0,081011,0.2,E,A*35
$GPGGA,101028.00,4611.968941,N,01258.212204,E,1,05,5.5,134.21,M,46.25,M,,*63
$GPGLL,4611.968941,N,01258.212204,E,101028.00,A,A*63
$GPVTG,166.4,T,166.5,M,002.2,N,004.1,K,A*27
$GPGSV,2,1,07,21,20,186,35,02,25,048,41,12,30,106,37,25,65,098,41*7A
$GPGSV,2,2,07,29,83,286,41,30,65,306,40,31,50,291,39,,,,*41
$GPGSA,M,3,02,25,29,30,31,,,,,,,,8.8,5.5,6.8*3F
Trace #61 at position 15.000000
$GPZDA,101028.03,08,10,2011,00,00*64
$GPRMC,101028.00,A,4611.968941,N,01258.212204,E,002.2,166.4,081011,0.2,E,A*31
$GPGGA,101029.00,4611.968292,N,01258.212417,E,1,05,5.5,134.02,M,46.25,M,,*62
$GPGLL,4611.968292,N,01258.212417,E,101029.00,A,A*63
$GPVTG,162.2,T,162.4,M,002.2,N,004.1,K,A*20
$GPGSV,2,1,07,21,20,186,33,02,25,048,40,12,30,106,37,25,65,098,41*7D
$GPGSV,2,2,07,29,83,286,41,30,65,306,42,31,50,291,39,,,,*43
$GPGSA,M,3,02,25,29,30,31,,,,,,,,8.8,5.5,6.8*3F
Trace #62 at position 15.250000
$GPZDA,101028.03,08,10,2011,00,00*64
$GPRMC,101028.00,A,4611.968941,N,01258.212204,E,002.2,166.4,081011,0.2,E,A*31
$GPGGA,101029.00,4611.968292,N,01258.212417,E,1,05,5.5,134.02,M,46.25,M,,*62
$GPGLL,4611.968292,N,01258.212417,E,101029.00,A,A*63
$GPVTG,162.2,T,162.4,M,002.2,N,004.1,K,A*20
$GPGSV,2,1,07,21,20,186,33,02,25,048,40,12,30,106,37,25,65,098,41*7D
$GPGSV,2,2,07,29,83,286,41,30,65,306,42,31,50,291,39,,,,*43
$GPGSA,M,3,02,25,29,30,31,,,,,,,,8.8,5.5,6.8*3F
Trace #63 at position 15.500000
$GPZDA,101028.03,08,10,2011,00,00*64
$GPRMC,101028.00,A,4611.968941,N,01258.212204,E,002.2,166.4,081011,0.2,E,A*31
$GPGGA,101029.00,4611.968292,N,01258.212417,E,1,05,5.5,134.02,M,46.25,M,,*62
$GPGLL,4611.968292,N,01258.212417,E,101029.00,A,A*63
$GPVTG,162.2,T,162.4,M,002.2,N,004.1,K,A*20
$GPGSV,2,1,07,21,20,186,33,02,25,048,40,12,30,106,37,25,65,098,41*7D
$GPGSV,2,2,07,29,83,286,41,30,65,306,42,31,50,291,39,,,,*43
$GPGSA,M,3,02,25,29,30,31,,,,,,,,8.8,5.5,6.8*3F
Trace #64 at position 15.750000
$GPZDA,101028.03,08,10,2011,00,00*64
$GPRMC,101028.00,A,4611.968941,N,01258.212204,E,002.2,166.4,081011,0.2,E,A*31
$GPGGA,101029.00,4611.968292,N,01258.212417,E,1,05,5.5,134.02,M,46.25,M,,*62
$GPGLL,4611.968292,N,01258.212417,E,101029.00,A,A*63
$GPVTG,162.2,T,162.4,M,002.2,N,004.1,K,A*20
$GPGSV,2,1,07,21,20,186,33,02,25,048,40,12,30,106,37,25,65,098,41*7D
$GPGSV,2,2,07,29,83,286,41,30,65,306,42,31,50,291,39,,,,*43
$GPGSA,M,3,02,25,29,30,31,,,,,,,,8.8,5.5,6.8*3F
Trace #65 at position 16.000000
$GPZDA,101029.03,08,10,2011,00,00*65
$GPRMC,101029.00,A,4611.968292,N,01258.212417,E,002.2,162.2,081011,0.2,E,A*33
$GPGGA,101030.00,4611.967739,N,01258.212803,E,1,05,5.5,134.04,M,46.25,M,,*6E
$GPGLL,4611.967739,N,01258.212803,E,101030.00,A,A*69
$GPVTG,134.6,T,134.8,M,002.1,N,003.8,K,A*25
$GPGSV,2,1,07,21,20,186,,02,25,048,41,12,30,106,37,25,65,098,41*7C
$GPGSV,2,2,07,29,83,286,40,30,65,306,40,31,50,291,39,,,,*40
$GPGSA,M,3,02,25,29,30,31,,,,,,,,8.7,5.5,6.8*30
Trace #66 at position 16.250000
$GPZDA,101029.03,08,10,2011,00,00*65
$GPRMC,101029.00,A,4611.968292,N,01258.212417,E,002.2,162.2,081011,0.2,E,A*33
$GPGGA,101030.00,4611.967739,N,01258.212803,E,1,05,5.5,134.04,M,46.25,M,,*6E
$GPGLL,4611.967739,N,01258.212803,E,101030.00,A,A*69
$GPVTG,134.6,T,134.8,M,002.1,N,003.8,K,A*25
$GPGSV,2,1,07,21,20,186,,02,25,048,41,12,30,106,37,25,65,098,41*7C
$GPGSV,2,2,07,29,83,286,40,30,65,306,40,31,50,291,39,,,,*40
$GPGSA,M,3,02,25,29,30,31,,,,,,,,8.7,5.5,6.8*30
Trace #67 at position 16.500000
$GPZDA,101029.03,08,10,2011,00,00*65
$GPRMC,101029.00,A,4611.968292,N,01258.212417,E,002.2,162.2,081011,0.2,E,A*33
$GPGGA,101030.00,4611.967739,N,01258.212803,E,1,05,5.5,134.04,M,46.25,M,,*6E
$GPGLL,4611.967739,N,01258.212803,E,101030.00,A,A*69
$GPVTG,134.6,T,134.8,M,002.1,N,003.8,K,A*25
$GPGSV,2,1,07,21,20,186,,02,25,048,41,12,30,106,37,25,65,098,41*7C
$GPGSV,2,2,07,29,83,286,40,30,65,306,40,31,50,291,39,,,,*40
$GPGSA,M,3,02,25,29,30,31,,,,,,,,8.7,5.5,6.8*30
Trace #68 at position 16.750000
$GPZDA,101029.03,08,10,2011,00,00*65
$GPRMC,101029.00,A,4611.968292,N,01258.212417,E,002.2,162.2,081011,0.2,E,A*33
$GPGGA,101030.00,4611.967739,N,01258.212803,E,1,05,5.5,134.04,M,46.25,M,,*6E
$GPGLL,4611.967739,N,01258.212803,E,101030.00,A,A*69
$GPVTG,134.6,T,134.8,M,002.1,N,003.8,K,A*25
$GPGSV,2,1,07,21,20,186,,02,25,048,41,12,30,106,37,25,65,098,41*7C
$GPGSV,2,2,07,29,83,286,40,30,65,306,40,31,50,291,39,,,,*40
$GPGSA,M,3,02,25,29,30,31,,,,,,,,8.7,5.5,6.8*30
Trace #69 at position 17.000000
$GPZDA,101030.03,08,10,2011,00,00*6D
$GPRMC,101030.00,A,4611.967739,N,01258.212803,E,002.1,134.6,081011,0.2,E,A*3D
$GPGGA,101031.00,4611.967280,N,01258.213135,E,1,05,5.5,134.01,M,46.25,M,,*60
$GPGLL,4611.967280,N,01258.213135,E,101031.00,A,A*62
$GPVTG,161.9,T,162.0,M,001.4,N,002.7,K,A*29
$GPGSV,2,1,07,21,20,186,36,02,25,048,43,12,30,106,35,25,65,098,40*78
$GPGSV,2,2,07,29,83,286,41,30,65,306,39,31,50,291,40,,,,*41
$GPGSA,M,3,02,25,29,30,31,,,,,,,,8.7,5.5,6.8*30
Trace #70 at position 17.250000
$GPZDA,101030.03,08,10,2011,00,00*6D
$GPRMC,101030.00,A,4611.967739,N,01258.212803,E,002.1,134.6,081011,0.2,E,A*3D
$GPGGA,101031.00,4611.967280,N,01258.213135,E,1,05,5.5,134.01,M,46.25,M,,*60
$GPGLL,4611.967280,N,01258.213135,E,101031.00,A,A*62
$GPVTG,161.9,T,162.0,M,001.4,N,002.7,K,A*29
$GPGSV,2,1,07,21,20,186,36,02,25,048,43,12,30,106,35,25,65,098,40*78
$GPGSV,2,2,07,29,83,286,41,30,65,306,39,31,50,291,40,,,,*41
$GPGSA,M,3,02,25,29,30,31,,,,,,,,8.7,5.5,6.8*30
Trace #71 at position 17.500000
$GPZDA,101030.03,08,10,2011,00,00*6D
$GPRMC,101030.00,A,4611.967739,N,01258.212803,E,002.1,134.6,081011,0.2,E,A*3D
$GPGGA,101031.00,4611.967280,N,01258.213135,E,1,05,5.5,134.01,M,46.25,M,,*60
$GPGLL,4611.967280,N,01258.213135,E,101031.00,A,A*62
$GPVTG,161.9,T,162.0,M,001.4,N,002.7,K,A*29
$GPGSV,2,1,07,21,20,186,36,02,25,048,43,12,30,106,35,25,65,098,40*78
$GPGSV,2,2,07,29,83,286,41,30,65,306,39,31,50,291,40,,,,*41
$GPGSA,M,3,02,25,29,30,31,,,,,,,,8.7,5.5,6.8*30
Trace #72 at position 17.750000
$GPZDA,101030.03,08,10,2011,00,00*6D
$GPRMC,101030.00,A,4611.967739,N,01258.212803,E,002.1,134.6,081011,0.2,E,A*3D
$GPGGA,101031.00,4611.967280,N,01258.213135,E,1,05,5.5,134.01,M,46.25,M,,*60
$GPGLL,4611.967280,N,01258.213135,E,101031.00,A,A*62
$GPVTG,161.9,T,162.0,M,001.4,N,002.7,K,A*29
$GPGSV,2,1,07,21,20,186,36,02,25,048,43,12,30,106,35,25,65,098,40*78
$GPGSV,2,2,07,29,83,286,41,30,65,306,39,31,50,291,40,,,,*41
$GPGSA,M,3,02,25,29,30,31,,,,,,,,8.7,5.5,6.8*30
Trace #73 at position 18.000000
$GPZDA,101031.03,08,10,2011,00,00*6C
$GPRMC,101031.00,A,4611.967280,N,01258.213135,E,001.4,161.9,081011,0.2,E,A*3F
$GPGGA,101032.00,4611.966650,N,01258.213324,E,1,05,5.5,133.63,M,46.25,M,,*6A
$GPGLL,4611.966650,N,01258.213324,E,101032.00,A,A*6B
$GPVTG,165.3,T,165.5,M,002.8,N,005.2,K,A*28
$GPGSV,2,1,07,21,20,186,31,02,25,048,41,12,30,106,38,25,65,098,42*72
$GPGSV,2,2,07,29,83,286,39,30,65,306,40,31,50,291,40,,,,*40
$GPGSA,M,3,02,25,29,30,31,,,,,,,,8.7,5.5,6.8*30
Trace #74 at position 18.250000
$GPZDA,101031.03,08,10,2011,00,00*6C
$GPRMC,101031.00,A,4611.967280,N,01258.213135,E,001.4,161.9,081011,0.2,E,A*3F
$GPGGA,101032.00,4611.966650,N,01258.213324,E,1,05,5.5,133.63,M,46.25,M,,*6A
$GPGLL,4611.966650,N,01258.213324,E,101032.00,A,A*6B
$GPVTG,165.3,T,165.5,M,002.8,N,005.2,K,A*28
$GPGSV,2,1,07,21,20,186,31,02,25,048,41,12,30,106,38,25,65,098,42*72
$GPGSV,2,2,07,29,83,286,39,30,65,306,40,31,50,291,40,,,,*40
$GPGSA,M,3,02,25,29,30,31,,,,,,,,8.7,5.5,6.8*30
Trace #75 at position 18.500000
$GPZDA,101031.03,08,10,2011,00,00*6C
$GPRMC,101031.00,A,4611.967280,N,01258.213135,E,001.4,161.9,081011,0.2,E,A*3F
$GPGGA,101032.00,4611.966650,N,01258.213324,E,1,05,5.5,133.63,M,46.25,M,,*6A
$GPGLL,4611.966650,N,01258.213324,E,101032.00,A,A*6B
$GPVTG,165.3,T,165.5,M,002.8,N,005.2,K,A*28
$GPGSV,2,1,07,21,20,186,31,02,25,048,41,12,30,106,38,25,65,098,42*72
$GPGSV,2,2,07,29,83,286,39,30,65,306,40,31,50,291,40,,,,*40
$GPGSA,M,3,02,25,29,30,31,,,,,,,,8.7,5.5,6.8*30
Trace #76 at position 18.750000
$GPZDA,101031.03,08,10,2011,00,00*6C
$GPRMC,101031.00,A,4611.967280,N,01258.213135,E,001.4,161.9,081011,0.2,E,A*3F
$GPGGA,101032.00,4611.966650,N,01258.213324,E,1,05,5.5,133.63,M,46.25,M,,*6A
$GPGLL,4611.966650,N,01258.213324,E,101032.00,A,A*6B
$GPVTG,165.3,T,165.5,M,002.8,N,005.2,K,A*28
$GPGSV,2,1,07,21,20,186,31,02,25,048,41,12,30,106,38,25,65,098,42*72
$GPGSV,2,2,07,29,83,286,39,30,65,306,40,31,50,291,40,,,,*40
$GPGSA,M,3,02,25,29,30,31,,,,,,,,8.7,5.5,6.8*30
Trace #77 at position 19.000000
$GPZDA,101032.03,08,10,2011,00,00*6F
$GPRMC,101032.00,A,4611.966650,N,01258.213324,E,002.8,165.3,081011,0.2,E,A*37
$GPGGA,101033.00,4611.965926,N,01258.213596,E,1,05,5.5,133.30,M,46.25,M,,*6F
$GPGLL,4611.965926,N,01258.213596,E,101033.00,A,A*68
$GPVTG,157.9,T,158.1,M,002.4,N,004.4,K,A*22
$GPGSV,2,1,07,21,20,186,34,02,25,048,40,12,30,106,38,25,65,098,40*74
$GPGSV,2,2,07,29,83,286,39,30,65,306,41,31,50,291,39,,,,*4F
$GPGSA,M,3,02,25,29,30,31,,,,,,,,8.7,5.5,6.8*30
Trace #78 at position 19.250000
$GPZDA,101032.03,08,10,2011,00,00*6F
$GPRMC,101032.00,A,4611.966650,N,01258.213324,E,002.8,165.3,081011,0.2,E,A*37
$GPGGA,101033.00,4611.965926,N,01258.213596,E,1,05,5.5,133.30,M,46.25,M,,*6F
$GPGLL,4611.965926,N,01258.213596,E,101033.00,A,A*68
$GPVTG,157.9,T,158.1,M,002.4,N,004.4,K,A*22
$GPGSV,2,1,07,21,20,186,34,02,25,048,40,12,30,106,38,25,65,098,40*74
$GPGSV,2,2,07,29,83,286,39,30,65,306,41,31,50,291,39,,,,*4F
$GPGSA,M,3,02,25,29,30,31,,,,,,,,8.7,5.5,6.8*30
Trace #79 at position 19.500000
$GPZDA,101032.03,08,10,2011,00,00*6F
$GPRMC,101032.00,A,4611.966650,N,01258.213324,E,002.8,165.3,081011,0.2,E,A*37
$GPGGA,101033.00,4611.965926,N,01258.213596,E,1,05,5.5,133.30,M,46.25,M,,*6F
$GPGLL,4611.965926,N,01258.213596,E,101033.00,A,A*68
$GPVTG,157.9,T,158.1,M,002.4,N,004.4,K,A*22
$GPGSV,2,1,07,21,20,186,34,02,25,048,40,12,30,106,38,25,65,098,40*74
$GPGSV,2,2,07,29,83,286,39,30,65,306,41,31,50,291,39,,,,*4F
$GPGSA,M,3,02,25,29,30,31,,,,,,,,8.7,5.5,6.8*30
Trace #80 at position 19.750000
$GPZDA,101033.03,08,10,2011,00,00*6E
$GPRMC,101033.00,A,4611.965926,N,01258.213596,E,002.4,157.9,081011,0.2,E,A*33
$GPGGA,101034.00,4611.965292,N,01258.213918,E,1,05,5.4,133.12,M,46.25,M,,*67
$GPGLL,4611.965292,N,01258.213918,E,101034.00,A,A*61
$GPVTG,154.5,T,154.7,M,002.3,N,004.4,K,A*20
$GPGSV,2,1,07,21,20,186,33,02,25,048,39,12,30,106,37,25,65,099,41*72
$GPGSV,2,2,07,29,83,287,39,30,65,306,41,31,50,291,39,,,,*4E
$GPGSA,M,3,02,25,29,30,31,,,,,,,,8.7,5.4,6.8*31
Trace #81 at position 20.000000
$GPZDA,101033.03,08,10,2011,00,00*6E
$GPRMC,101033.00,A,4611.965926,N,01258.213596,E,002.4,157.9,081011,0.2,E,A*33
$GPGGA,101034.00,4611.965292,N,01258.213918,E,1,05,5.4,133.12,M,46.25,M,,*67
$GPGLL,4611.965292,N,01258.213918,E,101034.00,A,A*61
$GPVTG,154.5,T,154.7,M,002.3,N,004.4,K,A*20
$GPGSV,2,1,07,21,20,186,33,02,25,048,39,12,30,106,37,25,65,099,41*72
$GPGSV,2,2,07,29,83,287,39,30,65,306,41,31,50,291,39,,,,*4E
$GPGSA,M,3,02,25,29,30,31,,,,,,,,8.7,5.4,6.8*31
Trace #82 at position 20.250000
$GPZDA,101033.03,08,10,2011,00,00*6E
$GPRMC,101033.00,A,4611.965926,N,01258.213596,E,002.4,157.9,081011,0.2,E,A*33
$GPGGA,101034.00,4611.965292,N,01258.213918,E,1,05,5.4,133.12,M,46.25,M,,*67
$GPGLL,4611.965292,N,01258.213918,E,101034.00,A,A*61
$GPVTG,154.5,T,154.7,M,002.3,N,004.4,K,A*20
$GPGSV,2,1,07,21,20,186,33,02,25,048,39,12,30,106,37,25,65,099,41*72
$GPGSV,2,2,07,29,83,287,39,30,65,306,41,31,50,291,39,,,,*4E
$GPGSA,M,3,02,25,29,30,31,,,,,,,,8.7,5.4,6.8*31
Trace #83 at position 20.500000
$GPZDA,101033.03,08,10,2011,00,00*6E
$GPRMC,101033.00,A,4611.965926,N,01258.213596,E,002.4,157.9,081011,0.2,E,A*33
$GPGGA,101034.00,4611.965292,N,01258.213918,E,1,05,5.4,133.12,M,46.25,M,,*67
$GPGLL,4611.965292,N,01258.213918,E,101034.00,A,A*61
$GPVTG,154.5,T,154.7,M,002.3,N,004.4,K,A*20
$GPGSV,2,1,07,21,20,186,33,02,25,048,39,12,30,106,37,25,65,099,41*72
$GPGSV,2,2,07,29,83,287,39,30,65,306,41,31,50,291,39,,,,*4E
$GPGSA,M,3,02,25,29,30,31,,,,,,,,8.7,5.4,6.8*31
Trace #84 at position 20.750000
$GPZDA,101034.03,08,10,2011,00,00*69
$GPRMC,101034.00,A,4611.965292,N,01258.213918,E,002.3,154.5,081011,0.2,E,A*32
$GPGGA,101035.00,4611.964789,N,01258.214032,E,1,05,5.4,133.09,M,46.25,M,,*64
$GPGLL,4611.964789,N,01258.214032,E,101035.00,A,A*68
$GPVTG,190.0,T,190.1,M,001.3,N,002.3,K,A*21
$GPGSV,2,1,07,21,20,186,33,02,25,048,40,12,30,106,34,25,65,099,40*7E
$GPGSV,2,2,07,29,83,287,40,30,65,306,42,31,50,291,39,,,,*43
$GPGSA,M,3,02,25,29,30,31,,,,,,,,8.7,5.4,6.8*31
Trace #85 at position 21.000000
$GPZDA,101034.03,08,10,2011,00,00*69
$GPRMC,101034.00,A,4611.965292,N,01258.213918,E,002.3,154.5,081011,0.2,E,A*32
$GPGGA,101035.00,4611.964789,N,01258.214032,E,1,05,5.4,133.09,M,46.25,M,,*64
$GPGLL,4611.964789,N,01258.214032,E,101035.00,A,A*68
$GPVTG,190.0,T,190.1,M,001.3,N,002.3,K,A*21
$GPGSV,2,1,07,21,20,186,33,02,25,048,40,12,30,106,34,25,65,099,40*7E
$GPGSV,2,2,07,29,83,287,40,30,65,306,42,31,50,291,39,,,,*43
$GPGSA,M,3,02,25,29,30,31,,,,,,,,8.7,5.4,6.8*31
Trace #86 at position 21.250000
$GPZDA,101034.03,08,10,2011,00,00*69
$GPRMC,101034.00,A,4611.965292,N,01258.213918,E,002.3,154.5,081011,0.2,E,A*32
$GPGGA,101035.00,4611.964789,N,01258.214032,E,1,05,5.4,133.09,M,46.25,M,,*64
$GPGLL,4611.964789,N,01258.214032,E,101035.00,A,A*68
$GPVTG,190.0,T,190.1,M,001.3,N,002.3,K,A*21
$GPGSV,2,1,07,21,20,186,33,02,25,048,40,12,30,106,34,25,65,099,40*7E
$GPGSV,2,2,07,29,83,287,40,30,65,306,42,31,50,291,39,,,,*43
$GPGSA,M,3,02,25,29,30,31,,,,,,,,8.7,5.4,6.8*31
Trace #87 at position 21.500000
$GPZDA,101035.03,08,10,2011,00,00*68
$GPRMC,101035.00,A,4611.964789,N,01258.214032,E,001.3,190.0,081011,0.2,E,A*35
$GPGGA,101036.00,4611.964346,N,01258.214064,E,1,05,5.4,132.97,M,46.25,M,,*65
$GPGLL,4611.964346,N,01258.214064,E,101036.00,A,A*6F
$GPVTG,163.9,T,164.1,M,001.7,N,003.2,K,A*2B
$GPGSV,2,1,07,21,20,186,33,02,25,048,41,12,30,106,,25,64,099,38*76
$GPGSV,2,2,07,29,83,287,38,30,65,306,41,31,50,291,39,,,,*4F
$GPGSA,M,3,02,25,29,30,31,,,,,,,,8.7,5.4,6.8*31
Trace #88 at position 21.750000
$GPZDA,101035.03,08,10,2011,00,00*68
$GPRMC,101035.00,A,4611.964789,N,01258.214032,E,001.3,190.0,081011,0.2,E,A*35
$GPGGA,101036.00,4611.964346,N,01258.214064,E,1,05,5.4,132.97,M,46.25,M,,*65
$GPGLL,4611.964346,N,01258.214064,E,101036.00,A,A*6F
$GPVTG,163.9,T,164.1,M,001.7,N,003.2,K,A*2B
$GPGSV,2,1,07,21,20,186,33,02,25,048,41,12,30,106,,25,64,099,38*76
$GPGSV,2,2,07,29,83,287,38,30,65,306,41,31,50,291,39,,,,*4F
$GPGSA,M,3,02,25,29,30,31,,,,,,,,8.7,5.4,6.8*31
Trace #89 at position 22.000000
$GPZDA,101035.03,08,10,2011,00,00*68
$GPRMC,101035.00,A,4611.964789,N,01258.214032,E,001.3,190.0,081011,0.2,E,A*35
$GPGGA,101036.00,4611.964346,N,01258.214064,E,1,05,5.4,132.97,M,46.25,M,,*65
$GPGLL,4611.964346,N,01258.214064,E,101036.00,A,A*6F
$GPVTG,163.9,T,164.1,M,001.7,N,003.2,K,A*2B
$GPGSV,2,1,07,21,20,186,33,02,25,048,41,12,30,106,,25,64,099,38*76
$GPGSV,2,2,07,29,83,287,38,30,65,306,41,31,50,291,39,,,,*4F
$GPGSA,M,3,02,25,29,30,31,,,,,,,,8.7,5.4,6.8*31
Trace #90 at position 22.250000
$GPZDA,101035.03,08,10,2011,00,00*68
$GPRMC,101035.00,A,4611.964789,N,01258.214032,E,001.3,190.0,081011,0.2,E,A*35
$GPGGA,101036.00,4611.964346,N,01258.214064,E,1,05,5.4,132.97,M,46.25,M,,*65
$GPGLL,4611.964346,N,01258.214064,E,101036.00,A,A*6F
$GPVTG,163.9,T,164.1,M,001.7,N,003.2,K,A*2B
$GPGSV,2,1,07,21,20,186,33,02,25,048,41,12,30,106,,25,64,099,38*76
$GPGSV,2,2,07,29,83,287,38,30,65,306,41,31,50,291,39,,,,*4F
$GPGSA,M,3,02,25,29,30,31,,,,,,,,8.7,5.4,6.8*31
Trace #91 at position 22.500000
$GPZDA,101036.03,08,10,2011,00,00*6B
$GPRMC,101036.00,A,4611.964346,N,01258.214064,E,001.7,163.9,081011,0.2,E,A*33
$GPGGA,101037.00,4611.963883,N,01258.214218,E,1,05,5.4,132.75,M,46.25,M,,*64
$GPGLL,4611.963883,N,01258.214218,E,101037.00,A,A*62
$GPVTG,165.4,T,165.6,M,001.4,N,002.6,K,A*20
$GPGSV,2,1,07,21,20,186,35,02,25,048,41,12,30,106,31,25,64,099,41*7C
$GPGSV,2,2,07,29,83,287,42,30,65,306,40,31,50,291,39,,,,*43
$GPGSA,M,3,02,25,29,30,31,,,,,,,,8.7,5.4,6.8*31
Trace #92 at position 22.750000
$GPZDA,101036.03,08,10,2011,00,00*6B
$GPRMC,101036.00,A,4611.964346,N,01258.214064,E,001.7,163.9,081011,0.2,E,A*33
$GPGGA,101037.00,4611.963883,N,01258.214218,E,1,05,5.4,132.75,M,46.25,M,,*64
$GPGLL,4611.963883,N,01258.214218,E,101037.00,A,A*62
$GPVTG,165.4,T,165.6,M,001.4,N,002.6,K,A*20
$GPGSV,2,1,07,21,20,186,35,02,25,048,41,12,30,106,31,25,64,099,41*7C
$GPGSV,2,2,07,29,83,287,42,30,65,306,40,31,50,291,39,,,,*43
$GPGSA,M,3,02,25,29,30,31,,,,,,,,8.7,5.4,6.8*31
Trace #93 at position 23.000000
$GPZDA,101036.03,08,10,2011,00,00*6B
$GPRMC,101036.00,A,4611.964346,N,01258.214064,E,001.7,163.9,081011,0.2,E,A*33
$GPGGA,101037.00,4611.963883,N,01258.214218,E,1,05,5.4,132.75,M,46.25,M,,*64
$GPGLL,4611.963883,N,01258.214218,E,101037.00,A,A*62
$GPVTG,165.4,T,165.6,M,001.4,N,002.6,K,A*20
$GPGSV,2,1,07,21,20,186,35,02,25,048,41,12,30,106,31,25,64,099,41*7C
$GPGSV,2,2,07,29,83,287,42,30,65,306,40,31,50,291,39,,,,*43
$GPGSA,M,3,02,25,29,30,31,,,,,,,,8.7,5.4,6.8*31
Trace #94 at position 23.250000
$GPZDA,101036.03,08,10,2011,00,00*6B
$GPRMC,101036.00,A,4611.964346,N,01258.214064,E,001.7,163.9,081011,0.2,E,A*33
$GPGGA,101037.00,4611.963883,N,01258.214218,E,1,05,5.4,132.75,M,46.25,M,,*64
$GPGLL,4611.963883,N,01258.214218,E,101037.00,A,A*62
$GPVTG,165.4,T,165.6,M,001.4,N,002.6,K,A*20
$GPGSV,2,1,07,21,20,186,35,02,25,048,41,12,30,106,31,25,64,099,41*7C
$GPGSV,2,2,07,29,83,287,42,30,65,306,40,31,50,291,39,,,,*43
$GPGSA,M,3,02,25,29,30,31,,,,,,,,8.7,5.4,6.8*31
Trace #95 at position 23.500000
$GPZDA,101037.03,08,10,2011,00,00*6A
$GPRMC,101037.00,A,4611.963883,N,01258.214218,E,001.4,165.4,081011,0.2,E,A*36
$GPGGA,101038.00,4611.963458,N,01258.214367,E,1,05,5.4,132.77,M,46.25,M,,*6A
$GPGLL,4611.963458,N,01258.214367,E,101038.00,A,A*6E
$GPVTG,161.9,T,162.0,M,001.3,N,002.5,K,A*2C
$GPGSV,2,1,07,21,20,186,33,02,25,048,42,12,30,106,36,25,64,099,43*7C
$GPGSV,2,2,07,29,83,287,40,30,65,306,40,31,50,291,40,,,,*4F
$GPGSA,M,3,02,25,29,30,31,,,,,,,,8.7,5.4,6.8*31
Trace #96 at position 23.750000
$GPZDA,101037.03,08,10,2011,00,00*6A
$GPRMC,101037.00,A,4611.963883,N,01258.214218,E,001.4,165.4,081011,0.2,E,A*36
$GPGGA,101038.00,4611.963458,N,01258.214367,E,1,05,5.4,132.77,M,46.25,M,,*6A
$GPGLL,4611.963458,N,01258.214367,E,101038.00,A,A*6E
$GPVTG,161.9,T,162.0,M,001.3,N,002.5,K,A*2C
$GPGSV,2,1,07,21,20,186,33,02,25,048,42,12,30,106,36,25,64,099,43*7C
$GPGSV,2,2,07,29,83,287,40,30,65,306,40,31,50,291,40,,,,*4F
$GPGSA,M,3,02,25,29,30,31,,,,,,,,8.7,5.4,6.8*31
Trace #97 at position 24.000000
$GPZDA,101038.04,08,10,2011,00,00*62
$GPRMC,101038.00,A,4611.963458,N,01258.214367,E,001.3,161.9,081011,0.2,E,A*34
$GPGGA,101039.00,4611.963034,N,01258.214554,E,1,05,5.4,132.96,M,46.25,M,,*6C
$GPGLL,4611.963034,N,01258.214554,E,101039.00,A,A*67
$GPVTG,158.7,T,158.9,M,001.4,N,002.6,K,A*2C
$GPGSV,2,1,07,21,20,186,35,02,25,048,40,12,30,106,34,25,64,099,41*78
$GPGSV,2,2,07,29,83,287,40,30,65,306,40,31,50,291,40,,,,*4F
$GPGSA,M,3,02,25,29,30,31,,,,,,,,8.7,5.4,6.8*31
Trace #98 at position 24.250000
$GPZDA,101038.04,08,10,2011,00,00*62
$GPRMC,101038.00,A,4611.963458,N,01258.214367,E,001.3,161.9,081011,0.2,E,A*34
$GPGGA,101039.00,4611.963034,N,01258.214554,E,1,05,5.4,132.96,M,46.25,M,,*6C
$GPGLL,4611.963034,N,01258.214554,E,101039.00,A,A*67
$GPVTG,158.7,T,158.9,M,001.4,N,002.6,K,A*2C
$GPGSV,2,1,07,21,20,186,35,02,25,048,40,12,30,106,34,25,64,099,41*78
$GPGSV,2,2,07,29,83,287,40,30,65,306,40,31,50,291,40,,,,*4F
$GPGSA,M,3,02,25,29,30,31,,,,,,,,8.7,5.4,6.8*31
Trace #99 at position 24.500000
$GPZDA,101041.03,08,10,2011,00,00*6B
$GPRMC,101041.00,A,4611.962130,N,01258.214895,E,000.8,160.5,081011,0.2,E,A*31
$GPGGA,101042.00,4611.961119,N,01258.215053,E,1,04,9.0,131.17,M,46.25,M,,*6C
$GPGLL,4611.961119,N,01258.215053,E,101042.00,A,A*64
$GPVTG,178.0,T,178.1,M,000.4,N,000.7,K,A*21
$GPGSV,2,1,07,21,20,186,29,02,25,048,42,12,30,106,33,25,64,099,34*72
$GPGSV,2,2,07,29,83,287,40,30,65,306,40,31,50,291,41,,,,*4E
$GPGSA,M,3,02,29,30,31,,,,,,,,,12.2,9.0,8.3*05
Trace #100 at position 24.750000
$GPZDA,101041.03,08,10,2011,00,00*6B
$GPRMC,101041.00,A,4611.962130,N,01258.214895,E,000.8,160.5,081011,0.2,E,A*31
$GPGGA,101042.00,4611.961119,N,01258.215053,E,1,04,9.0,131.17,M,46.25,M,,*6C
$GPGLL,4611.961119,N,01258.215053,E,101042.00,A,A*64
$GPVTG,178.0,T,178.1,M,000.4,N,000.7,K,A*21
$GPGSV,2,1,07,21,20,186,29,02,25,048,42,12,30,106,33,25,64,099,34*72
$GPGSV,2,2,07,29,83,287,40,30,65,306,40,31,50,291,41,,,,*4E
$GPGSA,M,3,02,29,30,31,,,,,,,,,12.2,9.0,8.3*05
Trace #101 at position 25.000000
$GPZDA,101041.03,08,10,2011,00,00*6B
$GPRMC,101041.00,A,4611.962130,N,01258.214895,E,000.8,160.5,081011,0.2,E,A*31
$GPGGA,101042.00,4611.961119,N,01258.215053,E,1,04,9.0,131.17,M,46.25,M,,*6C
$GPGLL,4611.961119,N,01258.215053,E,101042.00,A,A*64
$GPVTG,178.0,T,178.1,M,000.4,N,000.7,K,A*21
$GPGSV,2,1,07,21,20,186,29,02,25,048,42,12,30,106,33,25,64,099,34*72
$GPGSV,2,2,07,29,83,287,40,30,65,306,40,31,50,291,41,,,,*4E
$GPGSA,M,3,02,29,30,31,,,,,,,,,12.2,9.0,8.3*05
Trace #102 at position 25.250000
$GPZDA,101042.03,08,10,2011,00,00*68
$GPRMC,101042.00,A,4611.961119,N,01258.215053,E,000.4,178.0,081011,0.2,E,A*39
$GPGGA,101043.00,4611.960302,N,01258.215135,E,1,04,9.0,129.92,M,46.25,M,,*61
$GPGLL,4611.960302,N,01258.215135,E,101043.00,A,A*6D
$GPVTG,196.7,T,196.9,M,000.2,N,000.3,K,A*2C
$GPGSV,2,1,07,21,20,186,31,02,25,048,41,12,30,106,32,25,64,099,37*7A
$GPGSV,2,2,07,29,83,287,40,30,65,306,41,31,50,291,40,,,,*4E
$GPGSA,M,3,02,29,30,31,,,,,,,,,12.2,9.0,8.3*05
Trace #103 at position 25.500000
$GPZDA,101042.03,08,10,2011,00,00*68
$GPRMC,101042.00,A,4611.961119,N,01258.215053,E,000.4,178.0,081011,0.2,E,A*39
$GPGGA,101043.00,4611.960302,N,01258.215135,E,1,04,9.0,129.92,M,46.25,M,,*61
$GPGLL,4611.960302,N,01258.215135,E,101043.00,A,A*6D
$GPVTG,196.7,T,196.9,M,000.2,N,000.3,K,A*2C
$GPGSV,2,1,07,21,20,186,31,02,25,048,41,12,30,106,32,25,64,099,37*7A
$GPGSV,2,2,07,29,83,287,40,30,65,306,41,31,50,291,40,,,,*4E
$GPGSA,M,3,02,29,30,31,,,,,,,,,12.2,9.0,8.3*05
Trace #104 at position 25.750000
$GPZDA,101042.03,08,10,2011,00,00*68
$GPRMC,101042.00,A,4611.961119,N,01258.215053,E,000.4,178.0,081011,0.2,E,A*39
$GPGGA,101043.00,4611.960302,N,01258.215135,E,1,04,9.0,129.92,M,46.25,M,,*61
$GPGLL,4611.960302,N,01258.215135,E,101043.00,A,A*6D
$GPVTG,196.7,T,196.9,M,000.2,N,000.3,K,A*2C
$GPGSV,2,1,07,21,20,186,31,02,25,048,41,12,30,106,32,25,64,099,37*7A
$GPGSV,2,2,07,29,83,287,40,30,65,306,41,31,50,291,40,,,,*4E
$GPGSA,M,3,02,29,30,31,,,,,,,,,12.2,9.0,8.3*05
Trace #105 at position 26.000000
$GPZDA,101042.03,08,10,2011,00,00*68
$GPRMC,101042.00,A,4611.961119,N,01258.215053,E,000.4,178.0,081011,0.2,E,A*39
$GPGGA,101043.00,4611.960302,N,01258.215135,E,1,04,9.0,129.92,M,46.25,M,,*61
$GPGLL,4611.960302,N,01258.215135,E,101043.00,A,A*6D
$GPVTG,196.7,T,196.9,M,000.2,N,000.3,K,A*2C
$GPGSV,2,1,07,21,20,186,31,02,25,048,41,12,30,106,32,25,64,099,37*7A
$GPGSV,2,2,07,29,83,287,40,30,65,306,41,31,50,291,40,,,,*4E
$GPGSA,M,3,02,29,30,31,,,,,,,,,12.2,9.0,8.3*05
Trace #106 at position 26.250000
$GPZDA,101042.03,08,10,2011,00,00*68
$GPRMC,101042.00,A,4611.961119,N,01258.215053,E,000.4,178.0,081011,0.2,E,A*39
$GPGGA,101043.00,4611.960302,N,01258.215135,E,1,04,9.0,129.92,M,46.25,M,,*61
$GPGLL,4611.960302,N,01258.215135,E,101043.00,A,A*6D
$GPVTG,196.7,T,196.9,M,000.2,N,000.3,K,A*2C
$GPGSV,2,1,07,21,20,186,31,02,25,048,41,12,30,106,32,25,64,099,37*7A
$GPGSV,2,2,07,29,83,287,40,30,65,306,41,31,50,291,40,,,,*4E
$GPGSA,M,3,02,29,30,31,,,,,,,,,12.2,9.0,8.3*05
Trace #107 at position 26.500000
$GPZDA,101043.03,08,10,2011,00,00*69
$GPRMC,101043.00,A,4611.960302,N,01258.215135,E,000.2,196.7,081011,0.2,E,A*31
$GPGGA,101044.00,4611.960232,N,01258.215180,E,1,05,5.4,130.05,M,46.25,M,,*65
$GPGLL,4611.960232,N,01258.215180,E,101044.00,A,A*66
$GPVTG,165.6,T,165.8,M,001.6,N,003.0,K,A*29
$GPGSV,2,1,07,21,20,186,31,02,25,048,40,12,30,106,35,25,64,099,41*7D
$GPGSV,2,2,07,29,83,287,41,30,65,306,41,31,50,291,40,,,,*4F
$GPGSA,M,3,02,25,29,30,31,,,,,,,,8.7,5.4,6.8*31
Trace #108 at position 26.750000
$GPZDA,101043.03,08,10,2011,00,00*69
$GPRMC,101043.00,A,4611.960302,N,01258.215135,E,000.2,196.7,081011,0.2,E,A*31
$GPGGA,101044.00,4611.960232,N,01258.215180,E,1,05,5.4,130.05,M,46.25,M,,*65
$GPGLL,4611.960232,N,01258.215180,E,101044.00,A,A*66
$GPVTG,165.6,T,165.8,M,001.6,N,003.0,K,A*29
$GPGSV,2,1,07,21,20,186,31,02,25,048,40,12,30,106,35,25,64,099,41*7D
$GPGSV,2,2,07,29,83,287,41,30,65,306,41,31,50,291,40,,,,*4F
$GPGSA,M,3,02,25,29,30,31,,,,,,,,8.7,5.4,6.8*31
Trace #109 at position 27.000000
$GPZDA,101043.03,08,10,2011,00,00*69
$GPRMC,101043.00,A,4611.960302,N,01258.215135,E,000.2,196.7,081011,0.2,E,A*31
$GPGGA,101044.00,4611.960232,N,01258.215180,E,1,05,5.4,130.05,M,46.25,M,,*65
$GPGLL,4611.960232,N,01258.215180,E,101044.00,A,A*66
$GPVTG,165.6,T,165.8,M,001.6,N,003.0,K,A*29
$GPGSV,2,1,07,21,20,186,31,02,25,048,40,12,30,106,35,25,64,099,41*7D
$GPGSV,2,2,07,29,83,287,41,30,65,306,41,31,50,291,40,,,,*4F
$GPGSA,M,3,02,25,29,30,31,,,,,,,,8.7,5.4,6.8*31
Trace #110 at position 27.250000
$GPZDA,101043.03,08,10,2011,00,00*69
$GPRMC,101043.00,A,4611.960302,N,01258.215135,E,000.2,196.7,081011,0.2,E,A*31
$GPGGA,101044.00,4611.960232,N,01258.215180,E,1,05,5.4,130.05,M,46.25,M,,*65
$GPGLL,4611.960232,N,01258.215180,E,101044.00,A,A*66
$GPVTG,165.6,T,165.8,M,001.6,N,003.0,K,A*29
$GPGSV,2,1,07,21,20,186,31,02,25,048,40,12,30,106,35,25,64,099,41*7D
$GPGSV,2,2,07,29,83,287,41,30,65,306,41,31,50,291,40,,,,*4F
$GPGSA,M,3,02,25,29,30,31,,,,,,,,8.7,5.4,6.8*31
Trace #111 at position 27.500000
$GPZDA,101044.03,08,10,2011,00,00*6E
$GPRMC,101044.00,A,4611.960232,N,01258.215180,E,001.6,165.6,081011,0.2,E,A*32
$GPGGA,101045.00,4611.959865,N,01258.215459,E,1,05,5.4,130.28,M,46.25,M,,*68
$GPGLL,4611.959865,N,01258.215459,E,101045.00,A,A*64
$GPVTG,151.8,T,152.0,M,002.4,N,004.5,K,A*2F
$GPGSV,2,1,07,21,20,186,32,02,25,048,40,12,30,106,38,25,64,099,42*70
$GPGSV,2,2,07,29,83,287,41,30,65,306,41,31,50,291,40,,,,*4F
$GPGSA,M,3,02,25,29,30,31,,,,,,,,8.7,5.4,6.8*31
Trace #112 at position 27.750000
$GPZDA,101044.03,08,10,2011,00,00*6E
$GPRMC,101044.00,A,4611.960232,N,01258.215180,E,001.6,165.6,081011,0.2,E,A*32
$GPGGA,101045.00,4611.959865,N,01258.215459,E,1,05,5.4,130.28,M,46.25,M,,*68
$GPGLL,4611.959865,N,01258.215459,E,101045.00,A,A*64
$GPVTG,151.8,T,152.0,M,002.4,N,004.5,K,A*2F
$GPGSV,2,1,07,21,20,186,32,02,25,048,40,12,30,106,38,25,64,099,42*70
$GPGSV,2,2,07,29,83,287,41,30,65,306,41,31,50,291,40,,,,*4F
$GPGSA,M,3,02,25,29,30,31,,,,,,,,8.7,5.4,6.8*31
Trace #113 at position 28.000000
$GPZDA,101044.03,08,10,2011,00,00*6E
$GPRMC,101044.00,A,4611.960232,N,01258.215180,E,001.6,165.6,081011,0.2,E,A*32
$GPGGA,101045.00,4611.959865,N,01258.215459,E,1,05,5.4,130.28,M,46.25,M,,*68
$GPGLL,4611.959865,N,01258.215459,E,101045.00,A,A*64
$GPVTG,151.8,T,152.0,M,002.4,N,004.5,K,A*2F
$GPGSV,2,1,07,21,20,186,32,02,25,048,40,12,30,106,38,25,64,099,42*70
$GPGSV,2,2,07,29,83,287,41,30,65,306,41,31,50,291,40,,,,*4F
$GPGSA,M,3,02,25,29,30,31,,,,,,,,8.7,5.4,6.8*31
Trace #114 at position 28.250000
$GPZDA,101044.03,08,10,2011,00,00*6E
$GPRMC,101044.00,A,4611.960232,N,01258.215180,E,001.6,165.6,081011,0.2,E,A*32
$GPGGA,101045.00,4611.959865,N,01258.215459,E,1,05,5.4,130.28,M,46.25,M,,*68
$GPGLL,4611.959865,N,01258.215459,E,101045.00,A,A*64
$GPVTG,151.8,T,152.0,M,002.4,N,004.5,K,A*2F
$GPGSV,2,1,07,21,20,186,32,02,25,048,40,12,30,106,38,25,64,099,42*70
$GPGSV,2,2,07,29,83,287,41,30,65,306,41,31,50,291,40,,,,*4F
$GPGSA,M,3,02,25,29,30,31,,,,,,,,8.7,5.4,6.8*31
Trace #115 at position 28.500000
$GPZDA,101045.03,08,10,2011,00,00*6F
$GPRMC,101045.00,A,4611.959865,N,01258.215459,E,002.4,151.8,081011,0.2,E,A*38
$GPGGA,101046.00,4611.959430,N,01258.215759,E,1,05,5.4,130.40,M,46.25,M,,*6A
$GPGLL,4611.959430,N,01258.215759,E,101046.00,A,A*68
$GPVTG,163.7,T,163.9,M,002.0,N,003.6,K,A*2A
$GPGSV,2,1,07,21,20,186,,02,25,048,38,12,30,106,37,25,64,099,40*73
$GPGSV,2,2,07,29,83,287,40,30,65,306,42,31,50,291,39,,,,*43
$GPGSA,M,3,02,25,29,30,31,,,,,,,,8.7,5.4,6.8*31
Trace #116 at position 28.750000
$GPZDA,101045.03,08,10,2011,00,00*6F
$GPRMC,101045.00,A,4611.959865,N,01258.215459,E,002.4,151.8,081011,0.2,E,A*38
$GPGGA,101046.00,4611.959430,N,01258.215759,E,1,05,5.4,130.40,M,46.25,M,,*6A
$GPGLL,4611.959430,N,01258.215759,E,101046.00,A,A*68
$GPVTG,163.7,T,163.9,M,002.0,N,003.6,K,A*2A
$GPGSV,2,1,07,21,20,186,,02,25,048,38,12,30,106,37,25,64,099,40*73
$GPGSV,2,2,07,29,83,287,40,30,65,306,42,31,50,291,39,,,,*43
$GPGSA,M,3,02,25,29,30,31,,,,,,,,8.7,5.4,6.8*31
Trace #117 at position 29.000000
$GPZDA,101045.03,08,10,2011,00,00*6F
$GPRMC,101045.00,A,4611.959865,N,01258.215459,E,002.4,151.8,081011,0.2,E,A*38
$GPGGA,101046.00,4611.959430,N,01258.215759,E,1,05,5.4,130.40,M,46.25,M,,*6A
$GPGLL,4611.959430,N,01258.215759,E,101046.00,A,A*68
