Trace #1 at position 0.000000
$GPZDA,090006.03,09,10,2011,00,00*60
$GPRMC,090006.00,A,4611.954667,N,01258.228952,E,000.2,76.1,091011,0.2,E,A*07
$GPGGA,090007.00,4611.954529,N,01258.229136,E,1,05,3.1,142.27,M,46.25,M,,*65
$GPGLL,4611.954529,N,01258.229136,E,090007.00,A,A*60
$GPVTG,340.0,T,340.1,M,000.4,N,000.8,K,A*2E
$GPGSV,2,1,08,02,38,076,43,09,17,152,,12,55,080,44,14,27,251,41*7C
$GPGSV,2,2,08,25,77,346,42,29,54,224,46,30,35,292,35,31,27,313,*71
$GPGSA,M,3,02,12,14,25,29,,,,,,,,4.1,3.1,2.7*34
Trace #2 at position 0.250000
$GPZDA,090008.03,09,10,2011,00,00*6E
$GPRMC,090008.00,A,4611.954418,N,01258.229273,E,000.1,353.9,091011,0.2,E,A*35
$GPGGA,090009.00,4611.954263,N,01258.229426,E,1,05,3.2,141.77,M,46.25,M,,*63
$GPGLL,4611.954263,N,01258.229426,E,090009.00,A,A*63
$GPVTG,147.3,T,147.5,M,000.0,N,000.1,K,A*24
$GPGSV,2,1,08,02,38,076,44,09,17,152,,12,55,080,45,14,27,251,41*7A
$GPGSV,2,2,08,25,77,346,39,29,54,224,43,30,35,292,38,31,27,313,*75
$GPGSA,M,3,02,12,14,25,29,,,,,,,,4.1,3.2,2.7*37
Trace #3 at position 0.500000
$GPZDA,090009.03,09,10,2011,00,00*6F
$GPRMC,090009.00,A,4611.954263,N,01258.229426,E,000.0,147.3,091011,0.2,E,A*34
$GPGGA,090010.00,4611.954050,N,01258.229554,E,1,05,3.2,141.63,M,46.25,M,,*68
$GPGLL,4611.954050,N,01258.229554,E,090010.00,A,A*6D
$GPVTG,187.4,T,187.6,M,000.5,N,000.8,K,A*2C
$GPGSV,2,1,08,02,38,076,44,09,17,152,,12,55,080,44,14,27,251,40*7A
$GPGSV,2,2,08,25,77,346,41,29,54,224,44,30,35,292,37,31,27,313,*72
$GPGSA,M,3,02,12,14,25,29,,,,,,,,4.1,3.2,2.7*37
Trace #4 at position 0.750000
$GPZDA,090009.03,09,10,2011,00,00*6F
$GPRMC,090009.00,A,4611.954263,N,01258.229426,E,000.0,147.3,091011,0.2,E,A*34
$GPGGA,090010.00,4611.954050,N,01258.229554,E,1,05,3.2,141.63,M,46.25,M,,*68
$GPGLL,4611.954050,N,01258.229554,E,090010.00,A,A*6D
$GPVTG,187.4,T,187.6,M,000.5,N,000.8,K,A*2C
$GPGSV,2,1,08,02,38,076,44,09,17,152,,12,55,080,44,14,27,251,40*7A
$GPGSV,2,2,08,25,77,346,41,29,54,224,44,30,35,292,37,31,27,313,*72
$GPGSA,M,3,02,12,14,25,29,,,,,,,,4.1,3.2,2.7*37
Trace #5 at position 1.000000
$GPZDA,090010.03,09,10,2011,00,00*67
$GPRMC,090010.00,A,4611.954050,N,01258.229554,E,000.5,187.4,091011,0.2,E,A*34
$GPGGA,090011.00,4611.953881,N,01258.229657,E,1,05,3.2,141.44,M,46.25,M,,*6F
$GPGLL,4611.953881,N,01258.229657,E,090011.00,A,A*6F
$GPVTG,343.4,T,343.6,M,000.1,N,000.2,K,A*22
$GPGSV,2,1,08,02,38,076,45,09,17,152,,12,55,080,45,14,27,251,39*74
$GPGSV,2,2,08,25,78,346,43,29,54,224,47,30,35,292,36,31,27,313,*7D
$GPGSA,M,3,02,12,14,25,29,,,,,,,,4.1,3.2,2.6*36
Trace #6 at position 1.250000
$GPZDA,090010.03,09,10,2011,00,00*67
$GPRMC,090010.00,A,4611.954050,N,01258.229554,E,000.5,187.4,091011,0.2,E,A*34
$GPGGA,090011.00,4611.953881,N,01258.229657,E,1,05,3.2,141.44,M,46.25,M,,*6F
$GPGLL,4611.953881,N,01258.229657,E,090011.00,A,A*6F
$GPVTG,343.4,T,343.6,M,000.1,N,000.2,K,A*22
$GPGSV,2,1,08,02,38,076,45,09,17,152,,12,55,080,45,14,27,251,39*74
$GPGSV,2,2,08,25,78,346,43,29,54,224,47,30,35,292,36,31,27,313,*7D
$GPGSA,M,3,02,12,14,25,29,,,,,,,,4.1,3.2,2.6*36
Trace #7 at position 1.500000
$GPZDA,090011.03,09,10,2011,00,00*66
$GPRMC,090011.00,A,4611.953881,N,01258.229657,E,000.1,343.4,091011,0.2,E,A*38
$GPGGA,090012.00,4611.953791,N,01258.229757,E,1,05,3.2,141.19,M,46.25,M,,*6B
$GPGLL,4611.953791,N,01258.229757,E,090012.00,A,A*63
$GPVTG,337.4,T,337.6,M,000.0,N,000.0,K,A*21
$GPGSV,2,1,08,02,38,076,43,09,17,152,,12,55,080,44,14,27,251,40*7D
$GPGSV,2,2,08,25,78,346,45,29,54,224,47,30,35,292,37,31,27,313,*7A
$GPGSA,M,3,02,12,14,25,29,,,,,,,,4.1,3.2,2.6*36
Trace #8 at position 1.750000
$GPZDA,090011.03,09,10,2011,00,00*66
$GPRMC,090011.00,A,4611.953881,N,01258.229657,E,000.1,343.4,091011,0.2,E,A*38
$GPGGA,090012.00,4611.953791,N,01258.229757,E,1,05,3.2,141.19,M,46.25,M,,*6B
$GPGLL,4611.953791,N,01258.229757,E,090012.00,A,A*63
$GPVTG,337.4,T,337.6,M,000.0,N,000.0,K,A*21
$GPGSV,2,1,08,02,38,076,43,09,17,152,,12,55,080,44,14,27,251,40*7D
$GPGSV,2,2,08,25,78,346,45,29,54,224,47,30,35,292,37,31,27,313,*7A
$GPGSA,M,3,02,12,14,25,29,,,,,,,,4.1,3.2,2.6*36
Trace #9 at position 2.000000
$GPZDA,090011.03,09,10,2011,00,00*66
$GPRMC,090011.00,A,4611.953881,N,01258.229657,E,000.1,343.4,091011,0.2,E,A*38
$GPGGA,090012.00,4611.953791,N,01258.229757,E,1,05,3.2,141.19,M,46.25,M,,*6B
$GPGLL,4611.953791,N,01258.229757,E,090012.00,A,A*63
$GPVTG,337.4,T,337.6,M,000.0,N,000.0,K,A*21
$GPGSV,2,1,08,02,38,076,43,09,17,152,,12,55,080,44,14,27,251,40*7D
$GPGSV,2,2,08,25,78,346,45,29,54,224,47,30,35,292,37,31,27,313,*7A
$GPGSA,M,3,02,12,14,25,29,,,,,,,,4.1,3.2,2.6*36
Trace #10 at position 2.250000
$GPZDA,090012.03,09,10,2011,00,00*65
$GPRMC,090012.00,A,4611.953791,N,01258.229757,E,000.0,337.4,091011,0.2,E,A*36
$GPGGA,090013.00,4611.953689,N,01258.229837,E,1,05,3.2,141.03,M,46.25,M,,*60
$GPGLL,4611.953689,N,01258.229837,E,090013.00,A,A*63
$GPVTG,226.0,T,226.2,M,000.1,N,000.2,K,A*22
$GPGSV,2,1,08,02,38,075,43,09,17,152,,12,55,080,45,14,27,251,39*71
$GPGSV,2,2,08,25,78,346,46,29,54,224,46,30,35,292,34,31,27,313,*7B
$GPGSA,M,3,02,12,14,25,29,,,,,,,,4.1,3.2,2.6*36
Trace #11 at position 2.500000
$GPZDA,090012.03,09,10,2011,00,00*65
$GPRMC,090012.00,A,4611.953791,N,01258.229757,E,000.0,337.4,091011,0.2,E,A*36
$GPGGA,090013.00,4611.953689,N,01258.229837,E,1,05,3.2,141.03,M,46.25,M,,*60
$GPGLL,4611.953689,N,01258.229837,E,090013.00,A,A*63
$GPVTG,226.0,T,226.2,M,000.1,N,000.2,K,A*22
$GPGSV,2,1,08,02,38,075,43,09,17,152,,12,55,080,45,14,27,251,39*71
$GPGSV,2,2,08,25,78,346,46,29,54,224,46,30,35,292,34,31,27,313,*7B
$GPGSA,M,3,02,12,14,25,29,,,,,,,,4.1,3.2,2.6*36
Trace #12 at position 2.750000
$GPZDA,090012.03,09,10,2011,00,00*65
$GPRMC,090012.00,A,4611.953791,N,01258.229757,E,000.0,337.4,091011,0.2,E,A*36
$GPGGA,090013.00,4611.953689,N,01258.229837,E,1,05,3.2,141.03,M,46.25,M,,*60
$GPGLL,4611.953689,N,01258.229837,E,090013.00,A,A*63
$GPVTG,226.0,T,226.2,M,000.1,N,000.2,K,A*22
$GPGSV,2,1,08,02,38,075,43,09,17,152,,12,55,080,45,14,27,251,39*71
$GPGSV,2,2,08,25,78,346,46,29,54,224,46,30,35,292,34,31,27,313,*7B
$GPGSA,M,3,02,12,14,25,29,,,,,,,,4.1,3.2,2.6*36
Trace #13 at position 3.000000
$GPZDA,090012.03,09,10,2011,00,00*65
$GPRMC,090012.00,A,4611.953791,N,01258.229757,E,000.0,337.4,091011,0.2,E,A*36
$GPGGA,090013.00,4611.953689,N,01258.229837,E,1,05,3.2,141.03,M,46.25,M,,*60
$GPGLL,4611.953689,N,01258.229837,E,090013.00,A,A*63
$GPVTG,226.0,T,226.2,M,000.1,N,000.2,K,A*22
$GPGSV,2,1,08,02,38,075,43,09,17,152,,12,55,080,45,14,27,251,39*71
$GPGSV,2,2,08,25,78,346,46,29,54,224,46,30,35,292,34,31,27,313,*7B
$GPGSA,M,3,02,12,14,25,29,,,,,,,,4.1,3.2,2.6*36
Trace #14 at position 3.250000
$GPZDA,090013.04,09,10,2011,00,00*63
$GPRMC,090013.00,A,4611.953689,N,01258.229837,E,000.1,226.0,091011,0.2,E,A*32
$GPGGA,090014.00,4611.953598,N,01258.229914,E,1,05,3.2,140.87,M,46.25,M,,*69
$GPGLL,4611.953598,N,01258.229914,E,090014.00,A,A*67
$GPVTG,48.6,T,48.8,M,000.0,N,000.0,K,A*2D
$GPGSV,2,1,08,02,38,075,43,09,17,152,,12,55,080,45,14,27,251,38*70
$GPGSV,2,2,08,25,78,346,47,29,54,224,47,30,35,292,35,31,27,313,*7A
$GPGSA,M,3,02,12,14,25,29,,,,,,,,4.1,3.2,2.6*36
Trace #15 at position 3.500000
$GPZDA,090013.04,09,10,2011,00,00*63
$GPRMC,090013.00,A,4611.953689,N,01258.229837,E,000.1,226.0,091011,0.2,E,A*32
$GPGGA,090014.00,4611.953598,N,01258.229914,E,1,05,3.2,140.87,M,46.25,M,,*69
$GPGLL,4611.953598,N,01258.229914,E,090014.00,A,A*67
$GPVTG,48.6,T,48.8,M,000.0,N,000.0,K,A*2D
$GPGSV,2,1,08,02,38,075,43,09,17,152,,12,55,080,45,14,27,251,38*70
$GPGSV,2,2,08,25,78,346,47,29,54,224,47,30,35,292,35,31,27,313,*7A
$GPGSA,M,3,02,12,14,25,29,,,,,,,,4.1,3.2,2.6*36
Trace #16 at position 3.750000
$GPZDA,090013.04,09,10,2011,00,00*63
$GPRMC,090013.00,A,4611.953689,N,01258.229837,E,000.1,226.0,091011,0.2,E,A*32
$GPGGA,090014.00,4611.953598,N,01258.229914,E,1,05,3.2,140.87,M,46.25,M,,*69
$GPGLL,4611.953598,N,01258.229914,E,090014.00,A,A*67
$GPVTG,48.6,T,48.8,M,000.0,N,000.0,K,A*2D
$GPGSV,2,1,08,02,38,075,43,09,17,152,,12,55,080,45,14,27,251,38*70
$GPGSV,2,2,08,25,78,346,47,29,54,224,47,30,35,292,35,31,27,313,*7A
$GPGSA,M,3,02,12,14,25,29,,,,,,,,4.1,3.2,2.6*36
Trace #17 at position 4.000000
$GPZDA,090014.03,09,10,2011,00,00*63
$GPRMC,090014.00,A,4611.953598,N,01258.229914,E,000.0,48.6,091011,0.2,E,A*0B
$GPGGA,090015.00,4611.953578,N,01258.229984,E,1,05,3.2,140.72,M,46.25,M,,*65
$GPGLL,4611.953578,N,01258.229984,E,090015.00,A,A*61
$GPVTG,350.5,T,350.7,M,000.4,N,000.7,K,A*22
$GPGSV,2,1,08,02,38,075,43,09,17,152,,12,55,080,45,14,27,GPGSA,M,3,02,12,14,25,29,,,,,,,,4.1,3.2,2.6*36
Trace #18 at position 4.250000
$GPZDA,090014.03,09,10,2011,00,00*63
$GPRMC,090014.00,A,4611.953598,N,01258.229914,E,000.0,48.6,091011,0.2,E,A*0B
$GPGGA,090015.00,4611.953578,N,01258.229984,E,1,05,3.2,140.72,M,46.25,M,,*65
$GPGLL,4611.953578,N,01258.229984,E,090015.00,A,A*61
$GPVTG,350.5,T,350.7,M,000.4,N,000.7,K,A*22
$GPGSV,2,1,08,02,38,075,43,09,17,152,,12,55,080,45,14,27,GPGSA,M,3,02,12,14,25,29,,,,,,,,4.1,3.2,2.6*36
Trace #19 at position 4.500000
$GPZDA,090014.03,09,10,2011,00,00*63
$GPRMC,090014.00,A,4611.953598,N,01258.229914,E,000.0,48.6,091011,0.2,E,A*0B
$GPGGA,090015.00,4611.953578,N,01258.229984,E,1,05,3.2,140.72,M,46.25,M,,*65
$GPGLL,4611.953578,N,01258.229984,E,090015.00,A,A*61
$GPVTG,350.5,T,350.7,M,000.4,N,000.7,K,A*22
$GPGSV,2,1,08,02,38,075,43,09,17,152,,12,55,080,45,14,27,GPGSA,M,3,02,12,14,25,29,,,,,,,,4.1,3.2,2.6*36
Trace #20 at position 4.750000
$GPZDA,090014.03,09,10,2011,00,00*63
$GPRMC,090014.00,A,4611.953598,N,01258.229914,E,000.0,48.6,091011,0.2,E,A*0B
$GPGGA,090015.00,4611.953578,N,01258.229984,E,1,05,3.2,140.72,M,46.25,M,,*65
$GPGLL,4611.953578,N,01258.229984,E,090015.00,A,A*61
$GPVTG,350.5,T,350.7,M,000.4,N,000.7,K,A*22
$GPGSV,2,1,08,02,38,075,43,09,17,152,,12,55,080,45,14,27,GPGSA,M,3,02,12,14,25,29,,,,,,,,4.1,3.2,2.6*36
Trace #21 at position 5.000000
$GPZDA,090015.03,09,10,2011,00,00*62
$GPRMC,090015.00,A,4611.953578,N,01258.229984,E,000.4,350.5,091011,0.2,E,A*30
$GPGGA,090016.00,4611.953566,N,01258.229950,E,1,05,3.2,140.70,M,46.25,M,,*62
$GPGLL,4611.953566,N,01258.229950,E,090016.00,A,A*64
$GPVTG,256.8,T,256.9,M,000.5,N,000.9,K,A*2E
$GPGSV,2,1,08,02,38,075,44,09,17,152,,12,55,080,44,14,27,251,39*77
$GPGSV,2,2,08,25,78,346,45,29,54,224,46,30,35,292,39,31,27,313,*75
$GPGSA,M,3,02,12,14,25,29,,,,,,,,409,10,2011,00,00*61
Trace #22 at position 5.250000
$GPZDA,090015.03,09,10,2011,00,00*62
$GPRMC,090015.00,A,4611.953578,N,01258.229984,E,000.4,350.5,091011,0.2,E,A*30
$GPGGA,090016.00,4611.953566,N,01258.229950,E,1,05,3.2,140.70,M,46.25,M,,*62
$GPGLL,4611.953566,N,01258.229950,E,090016.00,A,A*64
$GPVTG,256.8,T,256.9,M,000.5,N,000.9,K,A*2E
$GPGSV,2,1,08,02,38,075,44,09,17,152,,12,55,080,44,14,27,251,39*77
$GPGSV,2,2,08,25,78,346,45,29,54,224,46,30,35,292,39,31,27,313,*75
$GPGSA,M,3,02,12,14,25,29,,,,,,,,409,10,2011,00,00*61
Trace #23 at position 5.500000
$GPZDA,090015.03,09,10,2011,00,00*62
$GPRMC,090015.00,A,4611.953578,N,01258.229984,E,000.4,350.5,091011,0.2,E,A*30
$GPGGA,090016.00,4611.953566,N,01258.229950,E,1,05,3.2,140.70,M,46.25,M,,*62
$GPGLL,4611.953566,N,01258.229950,E,090016.00,A,A*64
$GPVTG,256.8,T,256.9,M,000.5,N,000.9,K,A*2E
$GPGSV,2,1,08,02,38,075,44,09,17,152,,12,55,080,44,14,27,251,39*77
$GPGSV,2,2,08,25,78,346,45,29,54,224,46,30,35,292,39,31,27,313,*75
$GPGSA,M,3,02,12,14,25,29,,,,,,,,409,10,2011,00,00*61
Trace #24 at position 5.750000
$GPZDA,090015.03,09,10,2011,00,00*62
$GPRMC,090015.00,A,4611.953578,N,01258.229984,E,000.4,350.5,091011,0.2,E,A*30
$GPGGA,090016.00,4611.953566,N,01258.229950,E,1,05,3.2,140.70,M,46.25,M,,*62
$GPGLL,4611.953566,N,01258.229950,E,090016.00,A,A*64
$GPVTG,256.8,T,256.9,M,000.5,N,000.9,K,A*2E
$GPGSV,2,1,08,02,38,075,44,09,17,152,,12,55,080,44,14,27,251,39*77
$GPGSV,2,2,08,25,78,346,45,29,54,224,46,30,35,292,39,31,27,313,*75
$GPGSA,M,3,02,12,14,25,29,,,,,,,,409,10,2011,00,00*61
Trace #25 at position 6.000000
$GPRMC,090016.00,A,4611.953566,N,01258.229950,E,000.5,256.8,091011,0.2,E,A*3E
$GPGGA,090017.00,4611.953621,N,01258.229788,E,1,04,5.6,140.75,M,46.25,M,,*6E
$GPGLL,4611.953621,N,01258.229788,E,090017.00,A,A*6E
$GPVTG,310.4,T,310.6,M,001.0,N,001.9,K,A*28
$GPGSV,2,1,08,02,38,075,45,09,17,152,,12,55,080,44,14,26,251,35*7B
$GPGSV,2,2,08,25,78,347,44,29,54,224,47,30,35,292,,31,27,313,*7E
$GPGSA,M,3,02,12,25,29,,,,,,,,,9.9,5.6,8.1*39
Trace #26 at position 6.250000
$GPRMC,090016.00,A,4611.953566,N,01258.229950,E,000.5,256.8,091011,0.2,E,A*3E
$GPGGA,090017.00,4611.953621,N,01258.229788,E,1,04,5.6,140.75,M,46.25,M,,*6E
$GPGLL,4611.953621,N,01258.229788,E,090017.00,A,A*6E
$GPVTG,310.4,T,310.6,M,001.0,N,001.9,K,A*28
$GPGSV,2,1,08,02,38,075,45,09,17,152,,12,55,080,44,14,26,251,35*7B
$GPGSV,2,2,08,25,78,347,44,29,54,224,47,30,35,292,,31,27,313,*7E
$GPGSA,M,3,02,12,25,29,,,,,,,,,9.9,5.6,8.1*39
Trace #27 at position 6.500000
$GPRMC,090016.00,A,4611.953566,N,01258.229950,E,000.5,256.8,091011,0.2,E,A*3E
$GPGGA,090017.00,4611.953621,N,01258.229788,E,1,04,5.6,140.75,M,46.25,M,,*6E
$GPGLL,4611.953621,N,01258.229788,E,090017.00,A,A*6E
$GPVTG,310.4,T,310.6,M,001.0,N,001.9,K,A*28
$GPGSV,2,1,08,02,38,075,45,09,17,152,,12,55,080,44,14,26,251,35*7B
$GPGSV,2,2,08,25,78,347,44,29,54,224,47,30,35,292,,31,27,313,*7E
$GPGSA,M,3,02,12,25,29,,,,,,,,,9.9,5.6,8.1*39
Trace #28 at position 6.750000
$GPRMC,090016.00,A,4611.953566,N,01258.229950,E,000.5,256.8,091011,0.2,E,A*3E
$GPGGA,090017.00,4611.953621,N,01258.229788,E,1,04,5.6,140.75,M,46.25,M,,*6E
$GPGLL,4611.953621,N,01258.229788,E,090017.00,A,A*6E
$GPVTG,310.4,T,310.6,M,001.0,N,001.9,K,A*28
$GPGSV,2,1,08,02,38,075,45,09,17,152,,12,55,080,44,14,26,251,35*7B
$GPGSV,2,2,08,25,78,347,44,29,54,224,47,30,35,292,,31,27,313,*7E
$GPGSA,M,3,02,12,25,29,,,,,,,,,9.9,5.6,8.1*39
Trace #29 at position 7.000000
$GPZDA,090017.03,09,10,2011,00,00*60
$GPRMC,090017.00$GPGGA,090018.00,4611.953829,N,01258.229785,E,1,04,5.6,140.86,M,46.25,M,,*66
$GPGLL,4611.953829,N,01258.229785,E,090018.00,A,A*6A
$GPVTG,24.7,T,24.8,M,001.0,N,001.8,K,A*24
$GPGSV,2,1,08,02,38,075,46,09,17,152,,12,55,080,44,14,26,251,34*79
$GPGSV,2,2,08,25,78,347,43,29,54,224,46,30,35,292,31,31,27,313,*7A
$GPGSA,M,3,02,12,25,29,,,,,,,,,9.9,5.6,8.1*39
Trace #30 at position 7.250000
$GPZDA,090017.03,09,10,2011,00,00*60
$GPRMC,090017.00$GPGGA,090018.00,4611.953829,N,01258.229785,E,1,04,5.6,140.86,M,46.25,M,,*66
$GPGLL,4611.953829,N,01258.229785,E,090018.00,A,A*6A
$GPVTG,24.7,T,24.8,M,001.0,N,001.8,K,A*24
$GPGSV,2,1,08,02,38,075,46,09,17,152,,12,55,080,44,14,26,251,34*79
$GPGSV,2,2,08,25,78,347,43,29,54,224,46,30,35,292,31,31,27,313,*7A
$GPGSA,M,3,02,12,25,29,,,,,,,,,9.9,5.6,8.1*39
Trace #31 at position 7.500000
$GPZDA,090017.03,09,10,2011,00,00*60
$GPRMC,090017.00$GPGGA,090018.00,4611.953829,N,01258.229785,E,1,04,5.6,140.86,M,46.25,M,,*66
$GPGLL,4611.953829,N,01258.229785,E,090018.00,A,A*6A
$GPVTG,24.7,T,24.8,M,001.0,N,001.8,K,A*24
$GPGSV,2,1,08,02,38,075,46,09,17,152,,12,55,080,44,14,26,251,34*79
$GPGSV,2,2,08,25,78,347,43,29,54,224,46,30,35,292,31,31,27,313,*7A
$GPGSA,M,3,02,12,25,29,,,,,,,,,9.9,5.6,8.1*39
Trace #32 at position 7.750000
$GPZDA,090017.03,09,10,2011,00,00*60
$GPRMC,090017.00$GPGGA,090018.00,4611.953829,N,01258.229785,E,1,04,5.6,140.86,M,46.25,M,,*66
$GPGLL,4611.953829,N,01258.229785,E,090018.00,A,A*6A
$GPVTG,24.7,T,24.8,M,001.0,N,001.8,K,A*24
$GPGSV,2,1,08,02,38,075,46,09,17,152,,12,55,080,44,14,26,251,34*79
$GPGSV,2,2,08,25,78,347,43,29,54,224,46,30,35,292,31,31,27,313,*7A
$GPGSA,M,3,02,12,25,29,,,,,,,,,9.9,5.6,8.1*39
Trace #33 at position 8.000000
$GPZDA,090018.03,09,10,2011,00,00*6F
$GPRMC,090018.00,A,4611.953829,N,01258.229785,E,001.0,24.7,091011,0.2,E,A*0C
$GPGGA,090019.00,4611.954232,N,01258.229744,E,1,04,5.6,140.61,M,46.25,M,,*64
$GPGLL,4611.954232,N,01258.229744,E,090019.00,A,A*61
$GPVTG,338.1,T,338.2,M,002.2,N,004.1,K,A*25
$GPGSV,2,1,08,02,38,075,45,09,17,152,,12,55,080,44,14,26,251,34*7A
$GPGSV,2,2,08,25,78,347,45,29,54,224,46,30,35,292,,31,27,313,*7E
$GPGSA,M,3,02,12,25,29,,,,,,,,,9.8,5.6,8.1*38
Trace #34 at position 8.250000
$GPZDA,090018.03,09,10,2011,00,00*6F
$GPRMC,090018.00,A,4611.953829,N,01258.229785,E,001.0,24.7,091011,0.2,E,A*0C
$GPGGA,090019.00,4611.954232,N,01258.229744,E,1,04,5.6,140.61,M,46.25,M,,*64
$GPGLL,4611.954232,N,01258.229744,E,090019.00,A,A*61
$GPVTG,338.1,T,338.2,M,002.2,N,004.1,K,A*25
$GPGSV,2,1,08,02,38,075,45,09,17,152,,12,55,080,44,14,26,251,34*7A
$GPGSV,2,2,08,25,78,347,45,29,54,224,46,30,35,292,,31,27,313,*7E
$GPGSA,M,3,02,12,25,29,,,,,,,,,9.8,5.6,8.1*38
Trace #35 at position 8.500000
$GPZDA,090018.03,09,10,2011,00,00*6F
$GPRMC,090018.00,A,4611.953829,N,01258.229785,E,001.0,24.7,091011,0.2,E,A*0C
$GPGGA,090019.00,4611.954232,N,01258.229744,E,1,04,5.6,140.61,M,46.25,M,,*64
$GPGLL,4611.954232,N,01258.229744,E,090019.00,A,A*61
$GPVTG,338.1,T,338.2,M,002.2,N,004.1,K,A*25
$GPGSV,2,1,08,02,38,075,45,09,17,152,,12,55,080,44,14,26,251,34*7A
$GPGSV,2,2,08,25,78,347,45,29,54,224,46,30,35,292,,31,27,313,*7E
$GPGSA,M,3,02,12,25,29,,,,,,,,,9.8,5.6,8.1*38
Trace #36 at position 8.750000
$GPZDA,090018.03,09,10,2011,00,00*6F
$GPRMC,090018.00,A,4611.953829,N,01258.229785,E,001.0,24.7,091011,0.2,E,A*0C
$GPGGA,090019.00,4611.954232,N,01258.229744,E,1,04,5.6,140.61,M,46.25,M,,*64
$GPGLL,4611.954232,N,01258.229744,E,090019.00,A,A*61
$GPVTG,338.1,T,338.2,M,002.2,N,004.1,K,A*25
$GPGSV,2,1,08,02,38,075,45,09,17,152,,12,55,080,44,14,26,251,34*7A
$GPGSV,2,2,08,25,78,347,45,29,54,224,46,30,35,292,,31,27,313,*7E
$GPGSA,M,3,02,12,25,29,,,,,,,,,9.8,5.6,8.1*38
Trace #37 at position 9.000000
$GPZDA,090018.03,09,10,2011,00,00*6F
$GPRMC,090018.00,A,4611.953829,N,01258.229785,E,001.0,24.7,091011,0.2,E,A*0C
$GPGGA,090019.00,4611.954232,N,01258.229744,E,1,04,5.6,140.61,M,46.25,M,,*64
$GPGLL,4611.954232,N,01258.229744,E,090019.00,A,A*61
$GPVTG,338.1,T,338.2,M,002.2,N,004.1,K,A*25
$GPGSV,2,1,08,02,38,075,45,09,17,152,,12,55,080,44,14,26,251,34*7A
$GPGSV,2,2,08,25,78,347,45,29,54,224,46,30,35,292,,31,27,313,*7E
$GPGSA,M,3,02,12,25,29,,,,,,,,,9.8,5.6,8.1*38
Trace #38 at position 9.250000
$GPZDA,090019.03,09,10,2011,00,00*6E
$GPRMC,090019.00,A,4611.954232,N,01258.229744,E,002.2,338.1,091011,0.2,E,A*3E
$GPGGA,090020.00,4611.954638,N,01258.229520,E,1,04,5.6,140.40,M,46.25,M,,*63
$GPGLL,4611.954638,N,01258.229520,E,090020.00,A,A*65
$GPVTG,330.3,T,330.4,M,001.1,N,002.0,K,A*26
$GPGSV,2,1,08,02,38,075,46,09,17,152,,12,55,080,44,14,26,251,34*79
$GPGSV,2,2,08,25,78,347,44,29,54,224,46,30,35,292,34,31,27,313,*78
$GPGSA,M,3,02,12,25,29,,,,,,,,,9.8,5.6,8.1*38
Trace #39 at position 9.500000
$GPZDA,090019.03,09,10,2011,00,00*6E
$GPRMC,090019.00,A,4611.954232,N,01258.229744,E,002.2,338.1,091011,0.2,E,A*3E
$GPGGA,090020.00,4611.954638,N,01258.229520,E,1,04,5.6,140.40,M,46.25,M,,*63
$GPGLL,4611.954638,N,01258.229520,E,090020.00,A,A*65
$GPVTG,330.3,T,330.4,M,001.1,N,002.0,K,A*26
$GPGSV,2,1,08,02,38,075,46,09,17,152,,12,55,080,44,14,26,251,34*79
$GPGSV,2,2,08,25,78,347,44,29,54,224,46,30,35,292,34,31,27,313,*78
$GPGSA,M,3,02,12,25,29,,,,,,,,,9.8,5.6,8.1*38
Trace #40 at position 9.750000
$GPZDA,090019.03,09,10,2011,00,00*6E
$GPRMC,090019.00,A,4611.954232,N,01258.229744,E,002.2,338.1,091011,0.2,E,A*3E
$GPGGA,090020.00,4611.954638,N,01258.229520,E,1,04,5.6,140.40,M,46.25,M,,*63
$GPGLL,4611.954638,N,01258.229520,E,090020.00,A,A*65
$GPVTG,330.3,T,330.4,M,001.1,N,002.0,K,A*26
$GPGSV,2,1,08,02,38,075,46,09,17,152,,12,55,080,44,14,26,251,34*79
$GPGSV,2,2,08,25,78,347,44,29,54,224,46,30,35,292,34,31,27,313,*78
$GPGSA,M,3,02,12,25,29,,,,,,,,,9.8,5.6,8.1*38
Trace #41 at position 10.000000
$GPZDA,090019.03,09,10,2011,00,00*6E
$GPRMC,090019.00,A,4611.954232,N,01258.229744,E,002.2,338.1,091011,0.2,E,A*3E
$GPGGA,090020.00,4611.954638,N,01258.229520,E,1,04,5.6,140.40,M,46.25,M,,*63
$GPGLL,4611.954638,N,01258.229520,E,090020.00,A,A*65
$GPVTG,330.3,T,330.4,M,001.1,N,002.0,K,A*26
$GPGSV,2,1,08,02,38,075,46,09,17,152,,12,55,080,44,14,26,251,34*79
$GPGSV,2,2,08,25,78,347,44,29,54,224,46,30,35,292,34,31,27,313,*78
$GPGSA,M,3,02,12,25,29,,,,,,,,,9.8,5.6,8.1*38
Trace #42 at position 10.250000
$GPZDA,090020.03,09,10,2011,00,00*64
$GPRMC,090020.00,A,4611.954638,N,01258.229520,E,001.1,330.3,091011,0.2,E,A*30
$GPGGA,090021.00,4611.955083,N,01258.229351,E,1,04,5.6,140.40,M,46.25,M,,*65
$GPGLL,4611.955083,N,01258.229351,E,090021.00,A,A*63
$GPVTG,346.5,T,346.6,M,002.3,N,004.3,K,A*26
$GPGSV,2,1,08,02,38,075,45,09,16,152,,12,55,080,43,14,26,251,36*7E
$GPGSV,2,2,08,25,78,347,45,29,54,224,46,30,35,292,,31,27,313,*7E
$GPGSA,M,3,02,12,25,29,,,,,,,,,9.8,5.6,8.1*38
Trace #43 at position 10.500000
$GPZDA,090020.03,09,10,2011,00,00*64
$GPRMC,090020.00,A,4611.954638,N,01258.229520,E,001.1,330.3,091011,0.2,E,A*30
$GPGGA,090021.00,4611.955083,N,01258.229351,E,1,04,5.6,140.40,M,46.25,M,,*65
$GPGLL,4611.955083,N,01258.229351,E,090021.00,A,A*63
$GPVTG,346.5,T,346.6,M,002.3,N,004.3,K,A*26
$GPGSV,2,1,08,02,38,075,45,09,16,152,,12,55,080,43,14,26,251,36*7E
$GPGSV,2,2,08,25,78,347,45,29,54,224,46,30,35,292,,31,27,313,*7E
$GPGSA,M,3,02,12,25,29,,,,,,,,,9.8,5.6,8.1*38
Trace #44 at position 10.750000
$GPZDA,090020.03,09,10,2011,00,00*64
$GPRMC,090020.00,A,4611.954638,N,01258.229520,E,001.1,330.3,091011,0.2,E,A*30
$GPGGA,090021.00,4611.955083,N,01258.229351,E,1,04,5.6,140.40,M,46.25,M,,*65
$GPGLL,4611.955083,N,01258.229351,E,090021.00,A,A*63
$GPVTG,346.5,T,346.6,M,002.3,N,004.3,K,A*26
$GPGSV,2,1,08,02,38,075,45,09,16,152,,12,55,080,43,14,26,251,36*7E
$GPGSV,2,2,08,25,78,347,45,29,54,224,46,30,35,292,,31,27,313,*7E
$GPGSA,M,3,02,12,25,29,,,,,,,,,9.8,5.6,8.1*38
Trace #45 at position 11.000000
$GPZDA,090020.03,09,10,2011,00,00*64
$GPRMC,090020.00,A,4611.954638,N,01258.229520,E,001.1,330.3,091011,0.2,E,A*30
$GPGGA,090021.00,4611.955083,N,01258.229351,E,1,04,5.6,140.40,M,46.25,M,,*65
$GPGLL,4611.955083,N,01258.229351,E,090021.00,A,A*63
$GPVTG,346.5,T,346.6,M,002.3,N,004.3,K,A*26
$GPGSV,2,1,08,02,38,075,45,09,16,152,,12,55,080,43,14,26,251,36*7E
$GPGSV,2,2,08,25,78,347,45,29,54,224,46,30,35,292,,31,27,313,*7E
$GPGSA,M,3,02,12,25,29,,,,,,,,,9.8,5.6,8.1*38
Trace #46 at position 11.250000
$GPZDA,090021.03,09,10,2011,00,00*65
$GPRMC,090021.00,A,4611.955083,N,01258.229351,E,002.3,346.5,091011,0.2,E,A*30
$GPGGA,090022.00,4611.955584,N,01258.229303,E,1,04,5.6,140.45,M,46.25,M,,*66
$GPGLL,4611.955584,N,01258.229303,E,090022.00,A,A*65
$GPVTG,7.1,T,7.2,M,001.3,N,002.4,K,A*24
$GPGSV,2,1,08,02,38,075,45,09,16,152,,12,55,080,44,14,26,251,36*79
$GPGSV,2,2,08,25,78,347,46,29,54,224,46,30,35,292,37,31,27,313,35*7F
$GPGSA,M,3,02,12,25,29,,,,,,,,,9.8,5.6,8.1*38
Trace #47 at position 11.500000
$GPZDA,090021.03,09,10,2011,00,00*65
$GPRMC,090021.00,A,4611.955083,N,01258.229351,E,002.3,346.5,091011,0.2,E,A*30
$GPGGA,090022.00,4611.955584,N,01258.229303,E,1,04,5.6,140.45,M,46.25,M,,*66
$GPGLL,4611.955584,N,01258.229303,E,090022.00,A,A*65
$GPVTG,7.1,T,7.2,M,001.3,N,002.4,K,A*24
$GPGSV,2,1,08,02,38,075,45,09,16,152,,12,55,080,44,14,26,251,36*79
$GPGSV,2,2,08,25,78,347,46,29,54,224,46,30,35,292,37,31,27,313,35*7F
$GPGSA,M,3,02,12,25,29,,,,,,,,,9.8,5.6,8.1*38
Trace #48 at position 11.750000
$GPZDA,090021.03,09,10,2011,00,00*65
$GPRMC,090021.00,A,4611.955083,N,01258.229351,E,002.3,346.5,091011,0.2,E,A*30
$GPGGA,090022.00,4611.955584,N,01258.229303,E,1,04,5.6,140.45,M,46.25,M,,*66
$GPGLL,4611.955584,N,01258.229303,E,090022.00,A,A*65
$GPVTG,7.1,T,7.2,M,001.3,N,002.4,K,A*24
$GPGSV,2,1,08,02,38,075,45,09,16,152,,12,55,080,44,14,26,251,36*79
$GPGSV,2,2,08,25,78,347,46,29,54,224,46,30,35,292,37,31,27,313,35*7F
$GPGSA,M,3,02,12,25,29,,,,,,,,,9.8,5.6,8.1*38
Trace #49 at position 12.000000
$GPZDA,090021.03,09,10,2011,00,00*65
$GPRMC,090021.00,A,4611.955083,N,01258.229351,E,002.3,346.5,091011,0.2,E,A*30
$GPGGA,090022.00,4611.955584,N,01258.229303,E,1,04,5.6,140.45,M,46.25,M,,*66
$GPGLL,4611.955584,N,01258.229303,E,090022.00,A,A*65
$GPVTG,7.1,T,7.2,M,001.3,N,002.4,K,A*24
$GPGSV,2,1,08,02,38,075,45,09,16,152,,12,55,080,44,14,26,251,36*79
$GPGSV,2,2,08,25,78,347,46,29,54,224,46,30,35,292,37,31,27,313,35*7F
$GPGSA,M,3,02,12,25,29,,,,,,,,,9.8,5.6,8.1*38
Trace #50 at position 12.250000
$GPZDA,090022.03,09,10,2011,00,00*66
$GPRMC,090022.00,A,4611.955584,N,01258.229303,E,001.3,7.1,091011,0.2,E,A*37
$GPGGA,090023.00,4611.956088,N,01258.229177,E,1,04,5.6,140.68,M,46.25,M,,*63
$GPGLL,4611.956088,N,01258.229177,E,090023.00,A,A*6F
$GPVTG,339.4,T,339.6,M,002.2,N,004.1,K,A*24
$GPGSV,2,1,08,02,38,075,46,09,16,152,,12,55,080,43,14,26,251,36*7D
$GPGSV,2,2,08,25,78,347,46,29,54,224,47,30,35,292,36,31,27,313,34*7E
$GPGSA,M,3,02,12,25,29,,,,,,,,,9.8,5.6,8.1*38
Trace #51 at position 12.500000
$GPZDA,090022.03,09,10,2011,00,00*66
$GPRMC,090022.00,A,4611.955584,N,01258.229303,E,001.3,7.1,091011,0.2,E,A*37
$GPGGA,090023.00,4611.956088,N,01258.229177,E,1,04,5.6,140.68,M,46.25,M,,*63
$GPGLL,4611.956088,N,01258.229177,E,090023.00,A,A*6F
$GPVTG,339.4,T,339.6,M,002.2,N,004.1,K,A*24
$GPGSV,2,1,08,02,38,075,46,09,16,152,,12,55,080,43,14,26,251,36*7D
$GPGSV,2,2,08,25,78,347,46,29,54,224,47,30,35,292,36,31,27,313,34*7E
$GPGSA,M,3,02,12,25,29,,,,,,,,,9.8,5.6,8.1*38
Trace #52 at position 12.750000
$GPZDA,090022.03,09,10,2011,00,00*66
$GPRMC,090022.00,A,4611.955584,N,01258.229303,E,001.3,7.1,091011,0.2,E,A*37
$GPGGA,090023.00,4611.956088,N,01258.229177,E,1,04,5.6,140.68,M,46.25,M,,*63
$GPGLL,4611.956088,N,01258.229177,E,090023.00,A,A*6F
$GPVTG,339.4,T,339.6,M,002.2,N,004.1,K,A*24
$GPGSV,2,1,08,02,38,075,46,09,16,152,,12,55,080,43,14,26,251,36*7D
$GPGSV,2,2,08,25,78,347,46,29,54,224,47,30,35,292,36,31,27,313,34*7E
$GPGSA,M,3,02,12,25,29,,,,,,,,,9.8,5.6,8.1*38
Trace #53 at position 13.000000
$GPZDA,090023.03,09,10,2011,00,00*67
$GPRMC,090023.00,A,4611.956088,N,01258.229177,E,002.2,339.4,091011,0.2,E,A*34
$GPGGA,090024.00,4611.956638,N,01258.228966,E,1,04,5.6,140.94,M,46.25,M,,*63
$GPGLL,4611.956638,N,01258.228966,E,090024.00,A,A*6C
$GPVTG,352.0,T,352.2,M,001.6,N,003.0,K,A*25
$GPGSV,2,1,08,02,38,075,45,09,16,152,,12,55,080,44,14,26,251,37*78
$GPGSV,2,2,08,25,78,347,46,29,54,224,46,30,35,292,34,31,27,313,33*7A
$GPGSA,M,3,02,12,25,29,,,,,,,,,9.8,5.6,8.1*38
Trace #54 at position 13.250000
$GPZDA,090023.03,09,10,2011,00,00*67
$GPRMC,090023.00,A,4611.956088,N,01258.229177,E,002.2,339.4,091011,0.2,E,A*34
$GPGGA,090024.00,4611.956638,N,01258.228966,E,1,04,5.6,140.94,M,46.25,M,,*63
$GPGLL,4611.956638,N,01258.228966,E,090024.00,A,A*6C
$GPVTG,352.0,T,352.2,M,001.6,N,003.0,K,A*25
$GPGSV,2,1,08,02,38,075,45,09,16,152,,12,55,080,44,14,26,251,37*78
$GPGSV,2,2,08,25,78,347,46,29,54,224,46,30,35,292,34,31,27,313,33*7A
$GPGSA,M,3,02,12,25,29,,,,,,,,,9.8,5.6,8.1*38
Trace #55 at position 13.500000
$GPZDA,090023.03,09,10,2011,00,00*67
$GPRMC,090023.00,A,4611.956088,N,01258.229177,E,002.2,339.4,091011,0.2,E,A*34
$GPGGA,090024.00,4611.956638,N,01258.228966,E,1,04,5.6,140.94,M,46.25,M,,*63
$GPGLL,4611.956638,N,01258.228966,E,090024.00,A,A*6C
$GPVTG,352.0,T,352.2,M,001.6,N,003.0,K,A*25
$GPGSV,2,1,08,02,38,075,45,09,16,152,,12,55,080,44,14,26,251,37*78
$GPGSV,2,2,08,25,78,347,46,29,54,224,46,30,35,292,34,31,27,313,33*7A
$GPGSA,M,3,02,12,25,29,,,,,,,,,9.8,5.6,8.1*38
Trace #56 at position 13.750000
$GPZDA,090023.03,09,10,2011,00,00*67
$GPRMC,090023.00,A,4611.956088,N,01258.229177,E,002.2,339.4,091011,0.2,E,A*34
$GPGGA,090024.00,4611.956638,N,01258.228966,E,1,04,5.6,140.94,M,46.25,M,,*63
$GPGLL,4611.956638,N,01258.228966,E,090024.00,A,A*6C
$GPVTG,352.0,T,352.2,M,001.6,N,003.0,K,A*25
$GPGSV,2,1,08,02,38,075,45,09,16,152,,12,55,080,44,14,26,251,37*78
$GPGSV,2,2,08,25,78,347,46,29,54,224,46,30,35,292,34,31,27,313,33*7A
$GPGSA,M,3,02,12,25,29,,,,,,,,,9.8,5.6,8.1*38
Trace #57 at position 14.000000
$GPZDA,090024.03,09,10,2011,00,00*60
$GPRMC,090024.00,A,4611.956638,N,01258.228966,E,001.6,352.0,091011,0.2,E,A*39
$GPGGA,090025.00,4611.957050,N,01258.228848,E,1,04,5.6,141.31,M,46.25,M,,*68
$GPGLL,4611.957050,N,01258.228848,E,090025.00,A,A*69
$GPVTG,345.5,T,345.6,M,001.0,N,001.9,K,A*29
$GPGSV,2,1,08,02,38,075,45,09,16,152,,12,55,080,43,14,26,251,37*7F
$GPGSV,2,2,08,25,78,347,45,29,54,224,47,30,35,292,35,31,27,312,33*78
$GPGSA,M,3,02,12,25,29,,,,,,,,,9.8,5.6,8.1*38
Trace #58 at position 14.250000
$GPZDA,090024.03,09,10,2011,00,00*60
$GPRMC,090024.00,A,4611.956638,N,01258.228966,E,001.6,352.0,091011,0.2,E,A*39
$GPGGA,090025.00,4611.957050,N,01258.228848,E,1,04,5.6,141.31,M,46.25,M,,*68
$GPGLL,4611.957050,N,01258.228848,E,090025.00,A,A*69
$GPVTG,345.5,T,345.6,M,001.0,N,001.9,K,A*29
$GPGSV,2,1,08,02,38,075,45,09,16,152,,12,55,080,43,14,26,251,37*7F
$GPGSV,2,2,08,25,78,347,45,29,54,224,47,30,35,292,35,31,27,312,33*78
$GPGSA,M,3,02,12,25,29,,,,,,,,,9.8,5.6,8.1*38
Trace #59 at position 14.500000
$GPZDA,090024.03,09,10,2011,00,00*60
$GPRMC,090024.00,A,4611.956638,N,01258.228966,E,001.6,352.0,091011,0.2,E,A*39
$GPGGA,090025.00,4611.957050,N,01258.228848,E,1,04,5.6,141.31,M,46.25,M,,*68
$GPGLL,4611.957050,N,01258.228848,E,090025.00,A,A*69
$GPVTG,345.5,T,345.6,M,001.0,N,001.9,K,A*29
$GPGSV,2,1,08,02,38,075,45,09,16,152,,12,55,080,43,14,26,251,37*7F
$GPGSV,2,2,08,25,78,347,45,29,54,224,47,30,35,292,35,31,27,312,33*78
$GPGSA,M,3,02,12,25,29,,,,,,,,,9.8,5.6,8.1*38
Trace #60 at position 14.750000
$GPZDA,090025.03,09,10,2011,00,00*61
$GPRMC,090025.00,A,4611.957050,N,01258.228848,E,001.0,345.5,091011,0.2,E,A*39
$GPGGA,090026.00,4611.957432,N,01258.228590,E,1,04,5.6,141.33,M,46.25,M,,*61
$GPGLL,4611.957432,N,01258.228590,E,090026.00,A,A*62
$GPVTG,323.3,T,323.5,M,001.4,N,002.7,K,A*25
$GPGSV,2,1,08,02,38,075,44,09,16,152,,12,55,080,44,14,26,251,36*78
$GPGSV,2,2,08,25,78,347,45,29,54,224,46,30,35,292,33,31,27,312,32*7E
$GPGSA,M,3,02,12,25,29,,,,,,,,,9.8,5.6,8.1*38
Trace #61 at position 15.000000
$GPZDA,090025.03,09,10,2011,00,00*61
$GPRMC,090025.00,A,4611.957050,N,01258.228848,E,001.0,345.5,091011,0.2,E,A*39
$GPGGA,090026.00,4611.957432,N,01258.228590,E,1,04,5.6,141.33,M,46.25,M,,*61
$GPGLL,4611.957432,N,01258.228590,E,090026.00,A,A*62
$GPVTG,323.3,T,323.5,M,001.4,N,002.7,K,A*25
$GPGSV,2,1,08,02,38,075,44,09,16,152,,12,55,080,44,14,26,251,36*78
$GPGSV,2,2,08,25,78,347,45,29,54,224,46,30,35,292,33,31,27,312,32*7E
$GPGSA,M,3,02,12,25,29,,,,,,,,,9.8,5.6,8.1*38
Trace #62 at position 15.250000
$GPZDA,090025.03,09,10,2011,00,00*61
$GPRMC,090025.00,A,4611.957050,N,01258.228848,E,001.0,345.5,091011,0.2,E,A*39
$GPGGA,090026.00,4611.957432,N,01258.228590,E,1,04,5.6,141.33,M,46.25,M,,*61
$GPGLL,4611.957432,N,01258.228590,E,090026.00,A,A*62
$GPVTG,323.3,T,323.5,M,001.4,N,002.7,K,A*25
$GPGSV,2,1,08,02,38,075,44,09,16,152,,12,55,080,44,14,26,251,36*78
$GPGSV,2,2,08,25,78,347,45,29,54,224,46,30,35,292,33,31,27,312,32*7E
$GPGSA,M,3,02,12,25,29,,,,,,,,,9.8,5.6,8.1*38
Trace #63 at position 15.500000
$GPZDA,090025.03,09,10,2011,00,00*61
$GPRMC,090025.00,A,4611.957050,N,01258.228848,E,001.0,345.5,091011,0.2,E,A*39
$GPGGA,090026.00,4611.957432,N,01258.228590,E,1,04,5.6,141.33,M,46.25,M,,*61
$GPGLL,4611.957432,N,01258.228590,E,090026.00,A,A*62
$GPVTG,323.3,T,323.5,M,001.4,N,002.7,K,A*25
$GPGSV,2,1,08,02,38,075,44,09,16,152,,12,55,080,44,14,26,251,36*78
$GPGSV,2,2,08,25,78,347,45,29,54,224,46,30,35,292,33,31,27,312,32*7E
$GPGSA,M,3,02,12,25,29,,,,,,,,,9.8,5.6,8.1*38
Trace #64 at position 15.750000
$GPZDA,090026.03,09,10,2011,00,00*62
$GPRMC,090026.00,A,4611.957432,N,01258.228590,E,001.4,323.3,091011,0.2,E,A*30
$GPGGA,090027.00,4611.957924,N,01258.228297,E,1,04,5.6,141.19,M,46.25,M,,*62
$GPGLL,4611.957924,N,01258.228297,E,090027.00,A,A*69
$GPVTG,344.5,T,344.7,M,001.8,N,003.4,K,A*2F
$GPGSV,2,1,08,02,38,075,45,09,16,152,,12,55,080,44,14,26,251,37*78
$GPGSV,2,2,08,25,78,347,45,29,55,224,46,30,35,292,29,31,27,312,30*76
$GPGSA,M,3,02,12,25,29,,,,,,,,,9.8,5.6,8.1*38
Trace #65 at position 16.000000
$GPZDA,090026.03,09,10,2011,00,00*62
$GPRMC,090026.00,A,4611.957432,N,01258.228590,E,001.4,323.3,091011,0.2,E,A*30
$GPGGA,090027.00,4611.957924,N,01258.228297,E,1,04,5.6,141.19,M,46.25,M,,*62
$GPGLL,4611.957924,N,01258.228297,E,090027.00,A,A*69
$GPVTG,344.5,T,344.7,M,001.8,N,003.4,K,A*2F
$GPGSV,2,1,08,02,38,075,45,09,16,152,,12,55,080,44,14,26,251,37*78
$GPGSV,2,2,08,25,78,347,45,29,55,224,46,30,35,292,29,31,27,312,30*76
$GPGSA,M,3,02,12,25,29,,,,,,,,,9.8,5.6,8.1*38
Trace #66 at position 16.250000
$GPZDA,090026.03,09,10,2011,00,00*62
$GPRMC,090026.00,A,4611.957432,N,01258.228590,E,001.4,323.3,091011,0.2,E,A*30
$GPGGA,090027.00,4611.957924,N,01258.228297,E,1,04,5.6,141.19,M,46.25,M,,*62
$GPGLL,4611.957924,N,01258.228297,E,090027.00,A,A*69
$GPVTG,344.5,T,344.7,M,001.8,N,003.4,K,A*2F
$GPGSV,2,1,08,02,38,075,45,09,16,152,,12,55,080,44,14,26,251,37*78
$GPGSV,2,2,08,25,78,347,45,29,55,224,46,30,35,292,29,31,27,312,30*76
$GPGSA,M,3,02,12,25,29,,,,,,,,,9.8,5.6,8.1*38
Trace #67 at position 16.500000
$GPZDA,090026.03,09,10,2011,00,00*62
$GPRMC,090026.00,A,4611.957432,N,01258.228590,E,001.4,323.3,091011,0.2,E,A*30
$GPGGA,090027.00,4611.957924,N,01258.228297,E,1,04,5.6,141.19,M,46.25,M,,*62
$GPGLL,4611.957924,N,01258.228297,E,090027.00,A,A*69
$GPVTG,344.5,T,344.7,M,001.8,N,003.4,K,A*2F
$GPGSV,2,1,08,02,38,075,45,09,16,152,,12,55,080,44,14,26,251,37*78
$GPGSV,2,2,08,25,78,347,45,29,55,224,46,30,35,292,29,31,27,312,30*76
$GPGSA,M,3,02,12,25,29,,,,,,,,,9.8,5.6,8.1*38
Trace #68 at position 16.750000
$GPZDA,090027.03,09,10,2011,00,00*63
$GPRMC,090027.00,A,4611.957924,N,01258.228297,E,001.8,344.5,091011,0.2,E,A*30
$GPGGA,090028.00,4611.958497,N,01258.228048,E,1,04,5.6,141.19,M,46.25,M,,*67
$GPGLL,4611.958497,N,01258.228048,E,090028.00,A,A*6C
$GPVTG,340.6,T,340.7,M,001.9,N,003.5,K,A*2C
$GPGSV,2,1,08,02,38,075,42,09,16,152,,12,55,080,43,14,26,251,38*77
$GPGSV,2,2,08,25,78,347,45,29,55,224,46,30,35,292,34,31,27,312,25*7E
$GPGSA,M,3,02,12,25,29,,,,,,,,,9.8,5.6,8.1*38
Trace #69 at position 17.000000
$GPZDA,090027.03,09,10,2011,00,00*63
$GPRMC,090027.00,A,4611.957924,N,01258.228297,E,001.8,344.5,091011,0.2,E,A*30
$GPGGA,090028.00,4611.958497,N,01258.228048,E,1,04,5.6,141.19,M,46.25,M,,*67
$GPGLL,4611.958497,N,01258.228048,E,090028.00,A,A*6C
$GPVTG,340.6,T,340.7,M,001.9,N,003.5,K,A*2C
$GPGSV,2,1,08,02,38,075,42,09,16,152,,12,55,080,43,14,26,251,38*77
$GPGSV,2,2,08,25,78,347,45,29,55,224,46,30,35,292,34,31,27,312,25*7E
$GPGSA,M,3,02,12,25,29,,,,,,,,,9.8,5.6,8.1*38
Trace #70 at position 17.250000
$GPZDA,090027.03,09,10,2011,00,00*63
$GPRMC,090027.00,A,4611.957924,N,01258.228297,E,001.8,344.5,091011,0.2,E,A*30
$GPGGA,090028.00,4611.958497,N,01258.228048,E,1,04,5.6,141.19,M,46.25,M,,*67
$GPGLL,4611.958497,N,01258.228048,E,090028.00,A,A*6C
$GPVTG,340.6,T,340.7,M,001.9,N,003.5,K,A*2C
$GPGSV,2,1,08,02,38,075,42,09,16,152,,12,55,080,43,14,26,251,38*77
$GPGSV,2,2,08,25,78,347,45,29,55,224,46,30,35,292,34,31,27,312,25*7E
$GPGSA,M,3,02,12,25,29,,,,,,,,,9.8,5.6,8.1*38
Trace #71 at position 17.500000
$GPZDA,090028.04,09,10,2011,00,00*6B
$GPRMC,090028.00,A,4611.958497,N,01258.228048,E,001.9,340.6,091011,0.2,E,A*33
$GPGGA,090029.00,4611.959080,N,01258.227828,E,1,04,5.6,141.03,M,46.25,M,,*6F
$GPGLL,4611.959080,N,01258.227828,E,090029.00,A,A*6F
$GPVTG,349.3,T,349.4,M,002.0,N,003.6,K,A*23
$GPGSV,2,1,08,02,38,075,44,09,16,152,,12,55,080,43,14,26,251,37*7E
$GPGSV,2,2,08,25,78,347,45,29,55,224,46,30,35,292,35,31,27,312,*78
$GPGSA,M,3,02,12,25,29,,,,,,,,,9.8,5.6,8.1*38
Trace #72 at position 17.750000
$GPZDA,090028.04,09,10,2011,00,00*6B
$GPRMC,090028.00,A,4611.958497,N,01258.228048,E,001.9,340.6,091011,0.2,E,A*33
$GPGGA,090029.00,4611.959080,N,01258.227828,E,1,04,5.6,141.03,M,46.25,M,,*6F
$GPGLL,4611.959080,N,01258.227828,E,090029.00,A,A*6F
$GPVTG,349.3,T,349.4,M,002.0,N,003.6,K,A*23
$GPGSV,2,1,08,02,38,075,44,09,16,152,,12,55,080,43,14,26,251,37*7E
$GPGSV,2,2,08,25,78,347,45,29,55,224,46,30,35,292,35,31,27,312,*78
$GPGSA,M,3,02,12,25,29,,,,,,,,,9.8,5.6,8.1*38
Trace #73 at position 18.000000
$GPZDA,090028.04,09,10,2011,00,00*6B
$GPRMC,090028.00,A,4611.958497,N,01258.228048,E,001.9,340.6,091011,0.2,E,A*33
$GPGGA,090029.00,4611.959080,N,01258.227828,E,1,04,5.6,141.03,M,46.25,M,,*6F
$GPGLL,4611.959080,N,01258.227828,E,090029.00,A,A*6F
$GPVTG,349.3,T,349.4,M,002.0,N,003.6,K,A*23
$GPGSV,2,1,08,02,38,075,44,09,16,152,,12,55,080,43,14,26,251,37*7E
$GPGSV,2,2,08,25,78,347,45,29,55,224,46,30,35,292,35,31,27,312,*78
$GPGSA,M,3,02,12,25,29,,,,,,,,,9.8,5.6,8.1*38
Trace #74 at position 18.250000
$GPZDA,090028.04,09,10,2011,00,00*6B
$GPRMC,090028.00,A,4611.958497,N,01258.228048,E,001.9,340.6,091011,0.2,E,A*33
$GPGGA,090029.00,4611.959080,N,01258.227828,E,1,04,5.6,141.03,M,46.25,M,,*6F
$GPGLL,4611.959080,N,01258.227828,E,090029.00,A,A*6F
$GPVTG,349.3,T,349.4,M,002.0,N,003.6,K,A*23
$GPGSV,2,1,08,02,38,075,44,09,16,152,,12,55,080,43,14,26,251,37*7E
$GPGSV,2,2,08,25,78,347,45,29,55,224,46,30,35,292,35,31,27,312,*78
$GPGSA,M,3,02,12,25,29,,,,,,,,,9.8,5.6,8.1*38
Trace #75 at position 18.500000
$GPZDA,090029.03,09,10,2011,00,00*6D
$GPRMC,090029.00,A,4611.959080,N,01258.227828,E,002.0,349.3,091011,0.2,E,A*36
$GPGGA,090030.00,4611.959724,N,01258.227677,E,1,04,5.6,140.76,M,46.25,M,,*69
$GPGLL,4611.959724,N,01258.227677,E,090030.00,A,A*6A
$GPVTG,353.5,T,353.7,M,002.4,N,004.4,K,A*27
$GPGSV,2,1,08,02,38,075,44,09,16,152,,12,55,080,42,14,26,251,38*70
$GPGSV,2,2,08,25,78,347,44,29,55,224,46,30,35,292,30,31,27,312,*7C
$GPGSA,M,3,02,12,25,29,,,,,,,,,9.8,5.6,8.1*38
Trace #76 at position 18.750000
$GPZDA,090029.03,09,10,2011,00,00*6D
$GPRMC,090029.00,A,4611.959080,N,01258.227828,E,002.0,349.3,091011,0.2,E,A*36
$GPGGA,090030.00,4611.959724,N,01258.227677,E,1,04,5.6,140.76,M,46.25,M,,*69
$GPGLL,4611.959724,N,01258.227677,E,090030.00,A,A*6A
$GPVTG,353.5,T,353.7,M,002.4,N,004.4,K,A*27
$GPGSV,2,1,08,02,38,075,44,09,16,152,,12,55,080,42,14,26,251,38*70
$GPGSV,2,2,08,25,78,347,44,29,55,224,46,30,35,292,30,31,27,312,*7C
$GPGSA,M,3,02,12,25,29,,,,,,,,,9.8,5.6,8.1*38
Trace #77 at position 19.000000
$GPZDA,090029.03,09,10,2011,00,00*6D
$GPRMC,090029.00,A,4611.959080,N,01258.227828,E,002.0,349.3,091011,0.2,E,A*36
$GPGGA,090030.00,4611.959724,N,01258.227677,E,1,04,5.6,140.76,M,46.25,M,,*69
$GPGLL,4611.959724,N,01258.227677,E,090030.00,A,A*6A
$GPVTG,353.5,T,353.7,M,002.4,N,004.4,K,A*27
$GPGSV,2,1,08,02,38,075,44,09,16,152,,12,55,080,42,14,26,251,38*70
$GPGSV,2,2,08,25,78,347,44,29,55,224,46,30,35,292,30,31,27,312,*7C
$GPGSA,M,3,02,12,25,29,,,,,,,,,9.8,5.6,8.1*38
Trace #78 at position 19.250000
$GPZDA,090029.03,09,10,2011,00,00*6D
$GPRMC,090029.00,A,4611.959080,N,01258.227828,E,002.0,349.3,091011,0.2,E,A*36
$GPGGA,090030.00,4611.959724,N,01258.227677,E,1,04,5.6,140.76,M,46.25,M,,*69
$GPGLL,4611.959724,N,01258.227677,E,090030.00,A,A*6A
$GPVTG,353.5,T,353.7,M,002.4,N,004.4,K,A*27
$GPGSV,2,1,08,02,38,075,44,09,16,152,,12,55,080,42,14,26,251,38*70
$GPGSV,2,2,08,25,78,347,44,29,55,224,46,30,35,292,30,31,27,312,*7C
$GPGSA,M,3,02,12,25,29,,,,,,,,,9.8,5.6,8.1*38
Trace #79 at position 19.500000
$GPZDA,090030.03,09,10,2011,00,00*65
$GPRMC,090030.00,A,4611.959724,N,01258.227677,E,002.4,353.5,091011,0.2,E,A*3A
$GPGGA,090031.00,4611.960203,N,01258.227394,E,1,04,5.6,140.83,M,46.25,M,,*60
$GPGLL,4611.960203,N,01258.227394,E,090031.00,A,A*69
$GPVTG,306.8,T,307.0,M,001.3,N,002.4,K,A*2E
$GPGSV,2,1,08,02,38,075,44,09,16,152,,12,55,080,43,14,26,251,39*70
$GPGSV,2,2,08,25,78,347,45,29,55,224,46,30,35,292,33,31,27,312,*7E
$GPGSA,M,3,02,12,25,29,,,,,,,,,9.8,5.6,8.1*38
Trace #80 at position 19.750000
$GPZDA,090030.03,09,10,2011,00,00*65
$GPRMC,090030.00,A,4611.959724,N,01258.227677,E,002.4,353.5,091011,0.2,E,A*3A
$GPGGA,090031.00,4611.960203,N,01258.227394,E,1,04,5.6,140.83,M,46.25,M,,*60
$GPGLL,4611.960203,N,01258.227394,E,090031.00,A,A*69
$GPVTG,306.8,T,307.0,M,001.3,N,002.4,K,A*2E
$GPGSV,2,1,08,02,38,075,44,09,16,152,,12,55,080,43,14,26,251,39*70
$GPGSV,2,2,08,25,78,347,45,29,55,224,46,30,35,292,33,31,27,312,*7E
$GPGSA,M,3,02,12,25,29,,,,,,,,,9.8,5.6,8.1*38
Trace #81 at position 20.000000
$GPZDA,090030.03,09,10,2011,00,00*65
$GPRMC,090030.00,A,4611.959724,N,01258.227677,E,002.4,353.5,091011,0.2,E,A*3A
$GPGGA,090031.00,4611.960203,N,01258.227394,E,1,04,5.6,140.83,M,46.25,M,,*60
$GPGLL,4611.960203,N,01258.227394,E,090031.00,A,A*69
$GPVTG,306.8,T,307.0,M,001.3,N,002.4,K,A*2E
$GPGSV,2,1,08,02,38,075,44,09,16,152,,12,55,080,43,14,26,251,39*70
$GPGSV,2,2,08,25,78,347,45,29,55,224,46,30,35,292,33,31,27,312,*7E
$GPGSA,M,3,02,12,25,29,,,,,,,,,9.8,5.6,8.1*38
Trace #82 at position 20.250000
$GPZDA,090031.03,09,10,2011,00,00*64
$GPRMC,090031.00,A,4611.960203,N,01258.227394,E,001.3,306.8,091011,0.2,E,A*30
$GPGGA,090032.00,4611.960680,N,01258.227004,E,1,05,3.2,140.87,M,46.25,M,,*61
$GPGLL,4611.960680,N,01258.227004,E,090032.00,A,A*6F
$GPVTG,339.6,T,339.8,M,002.3,N,004.3,K,A*2B
$GPGSV,2,1,08,02,38,075,43,09,16,152,,12,55,080,44,14,26,251,40*7E
$GPGSV,2,2,08,25,78,347,46,29,55,224,45,30,35,292,34,31,27,312,*79
$GPGSA,M,3,02,12,14,25,29,,,,,,,,4.1,3.2,2.6*36
Trace #83 at position 20.500000
$GPZDA,090031.03,09,10,2011,00,00*64
$GPRMC,090031.00,A,4611.960203,N,01258.227394,E,001.3,306.8,091011,0.2,E,A*30
$GPGGA,090032.00,4611.960680,N,01258.227004,E,1,05,3.2,140.87,M,46.25,M,,*61
$GPGLL,4611.960680,N,01258.227004,E,090032.00,A,A*6F
$GPVTG,339.6,T,339.8,M,002.3,N,004.3,K,A*2B
$GPGSV,2,1,08,02,38,075,43,09,16,152,,12,55,080,44,14,26,251,40*7E
$GPGSV,2,2,08,25,78,347,46,29,55,224,45,30,35,292,34,31,27,312,*79
$GPGSA,M,3,02,12,14,25,29,,,,,,,,4.1,3.2,2.6*36
Trace #84 at position 20.750000
$GPZDA,090031.03,09,10,2011,00,00*64
$GPRMC,090031.00,A,4611.960203,N,01258.227394,E,001.3,306.8,091011,0.2,E,A*30
$GPGGA,090032.00,4611.960680,N,01258.227004,E,1,05,3.2,140.87,M,46.25,M,,*61
$GPGLL,4611.960680,N,01258.227004,E,090032.00,A,A*6F
$GPVTG,339.6,T,339.8,M,002.3,N,004.3,K,A*2B
$GPGSV,2,1,08,02,38,075,43,09,16,152,,12,55,080,44,14,26,251,40*7E
$GPGSV,2,2,08,25,78,347,46,29,55,224,45,30,35,292,34,31,27,312,*79
$GPGSA,M,3,02,12,14,25,29,,,,,,,,4.1,3.2,2.6*36
Trace #85 at position 21.000000
$GPZDA,090032.04,09,10,2011,00,00*60
$GPRMC,090032.00,A,4611.960680,N,01258.227004,E,002.3,339.6,091011,0.2,E,A*37
$GPGGA,090033.00,4611.961276,N,01258.226638,E,1,05,3.2,140.65,M,46.25,M,,*68
$GPGLL,4611.961276,N,01258.226638,E,090033.00,A,A*6A
$GPVTG,329.6,T,329.8,M,002.0,N,003.8,K,A*24
$GPGSV,2,1,08,02,38,075,43,09,16,152,,12,55,080,44,14,26,251,39*70
$GPGSV,2,2,08,25,78,347,46,29,55,224,45,30,35,292,34,31,27,312,*79
$GPGSA,M,3,02,12,14,25,29,,,,,,,,4.1,3.2,2.6*36
Trace #86 at position 21.250000
$GPZDA,090032.04,09,10,2011,00,00*60
$GPRMC,090032.00,A,4611.960680,N,01258.227004,E,002.3,339.6,091011,0.2,E,A*37
$GPGGA,090033.00,4611.961276,N,01258.226638,E,1,05,3.2,140.65,M,46.25,M,,*68
$GPGLL,4611.961276,N,01258.226638,E,090033.00,A,A*6A
$GPVTG,329.6,T,329.8,M,002.0,N,003.8,K,A*24
$GPGSV,2,1,08,02,38,075,43,09,16,152,,12,55,080,44,14,26,251,39*70
$GPGSV,2,2,08,25,78,347,46,29,55,224,45,30,35,292,34,31,27,312,*79
$GPGSA,M,3,02,12,14,25,29,,,,,,,,4.1,3.2,2.6*36
Trace #87 at position 21.500000
$GPZDA,090032.04,09,10,2011,00,00*60
$GPRMC,090032.00,A,4611.960680,N,01258.227004,E,002.3,339.6,091011,0.2,E,A*37
$GPGGA,090033.00,4611.961276,N,01258.226638,E,1,05,3.2,140.65,M,46.25,M,,*68
$GPGLL,4611.961276,N,01258.226638,E,090033.00,A,A*6A
$GPVTG,329.6,T,329.8,M,002.0,N,003.8,K,A*24
$GPGSV,2,1,08,02,38,075,43,09,16,152,,12,55,080,44,14,26,251,39*70
$GPGSV,2,2,08,25,78,347,46,29,55,224,45,30,35,292,34,31,27,312,*79
$GPGSA,M,3,02,12,14,25,29,,,,,,,,4.1,3.2,2.6*36
Trace #88 at position 21.750000
$GPZDA,090033.04,09,10,2011,00,00*61
$GPRMC,090033.00,A,4611.961276,N,01258.226638,E,002.0,329.6,091011,0.2,E,A*30
$GPGGA,090034.00,4611.961706,N,01258.226362,E,1,05,3.2,140.56,M,46.25,M,,*67
$GPGLL,4611.961706,N,01258.226362,E,090034.00,A,A*65
$GPVTG,337.5,T,337.6,M,001.1,N,002.0,K,A*22
$GPGSV,2,1,08,02,38,075,43,09,16,152,,12,55,080,42,14,26,251,39*76
$GPGSV,2,2,08,25,78,347,44,29,55,224,46,30,35,292,36,31,27,312,*7A
$GPGSA,M,3,02,12,14,25,29,,,,,,,,4.1,3.2,2.6*36
Trace #89 at position 22.000000
$GPZDA,090033.04,09,10,2011,00,00*61
$GPRMC,090033.00,A,4611.961276,N,01258.226638,E,002.0,329.6,091011,0.2,E,A*30
$GPGGA,090034.00,4611.961706,N,01258.226362,E,1,05,3.2,140.56,M,46.25,M,,*67
$GPGLL,4611.961706,N,01258.226362,E,090034.00,A,A*65
$GPVTG,337.5,T,337.6,M,001.1,N,002.0,K,A*22
$GPGSV,2,1,08,02,38,075,43,09,16,152,,12,55,080,42,14,26,251,39*76
$GPGSV,2,2,08,25,78,347,44,29,55,224,46,30,35,292,36,31,27,312,*7A
$GPGSA,M,3,02,12,14,25,29,,,,,,,,4.1,3.2,2.6*36
Trace #90 at position 22.250000
$GPZDA,090033.04,09,10,2011,00,00*61
$GPRMC,090033.00,A,4611.961276,N,01258.226638,E,002.0,329.6,091011,0.2,E,A*30
$GPGGA,090034.00,4611.961706,N,01258.226362,E,1,05,3.2,140.56,M,46.25,M,,*67
$GPGLL,4611.961706,N,01258.226362,E,090034.00,A,A*65
$GPVTG,337.5,T,337.6,M,001.1,N,002.0,K,A*22
$GPGSV,2,1,08,02,38,075,43,09,16,152,,12,55,080,42,14,26,251,39*76
$GPGSV,2,2,08,25,78,347,44,29,55,224,46,30,35,292,36,31,27,312,*7A
$GPGSA,M,3,02,12,14,25,29,,,,,,,,4.1,3.2,2.6*36
Trace #91 at position 22.500000
$GPZDA,090034.03,09,10,2011,00,00*61
$GPRMC,090034.00,A,4611.961706,N,01258.226362,E,001.1,337.5,091011,0.2,E,A*31
$GPGGA,090035.00,4611.962147,N,01258.226208,E,1,05,3.2,140.57,M,46.25,M,,*6A
$GPGLL,4611.962147,N,01258.226208,E,090035.00,A,A*69
$GPVTG,348.7,T,348.8,M,001.8,N,003.3,K,A*25
$GPGSV,2,1,08,02,38,075,45,09,16,152,,12,55,080,43,14,26,251,38*70
$GPGSV,2,2,08,25,78,347,45,29,55,224,46,30,35,292,30,31,27,312,*7D
$GPGSA,M,3,02,12,14,25,29,,,,,,,,4.1,3.2,2.6*36
Trace #92 at position 22.750000
$GPZDA,090034.03,09,10,2011,00,00*61
$GPRMC,090034.00,A,4611.961706,N,01258.226362,E,001.1,337.5,091011,0.2,E,A*31
$GPGGA,090035.00,4611.962147,N,01258.226208,E,1,05,3.2,140.57,M,46.25,M,,*6A
$GPGLL,4611.962147,N,01258.226208,E,090035.00,A,A*69
$GPVTG,348.7,T,348.8,M,001.8,N,003.3,K,A*25
$GPGSV,2,1,08,02,38,075,45,09,16,152,,12,55,080,43,14,26,251,38*70
$GPGSV,2,2,08,25,78,347,45,29,55,224,46,30,35,292,30,31,27,312,*7D
$GPGSA,M,3,02,12,14,25,29,,,,,,,,4.1,3.2,2.6*36
Trace #93 at position 23.000000
$GPZDA,090034.03,09,10,2011,00,00*61
$GPRMC,090034.00,A,4611.961706,N,01258.226362,E,001.1,337.5,091011,0.2,E,A*31
$GPGGA,090035.00,4611.962147,N,01258.226208,E,1,05,3.2,140.57,M,46.25,M,,*6A
$GPGLL,4611.962147,N,01258.226208,E,090035.00,A,A*69
$GPVTG,348.7,T,348.8,M,001.8,N,003.3,K,A*25
$GPGSV,2,1,08,02,38,075,45,09,16,152,,12,55,080,43,14,26,251,38*70
$GPGSV,2,2,08,25,78,347,45,29,55,224,46,30,35,292,30,31,27,312,*7D
$GPGSA,M,3,02,12,14,25,29,,,,,,,,4.1,3.2,2.6*36
Trace #94 at position 23.250000
$GPZDA,090034.03,09,10,2011,00,00*61
$GPRMC,090034.00,A,4611.961706,N,01258.226362,E,001.1,337.5,091011,0.2,E,A*31
$GPGGA,090035.00,4611.962147,N,01258.226208,E,1,05,3.2,140.57,M,46.25,M,,*6A
$GPGLL,4611.962147,N,01258.226208,E,090035.00,A,A*69
$GPVTG,348.7,T,348.8,M,001.8,N,003.3,K,A*25
$GPGSV,2,1,08,02,38,075,45,09,16,152,,12,55,080,43,14,26,251,38*70
$GPGSV,2,2,08,25,78,347,45,29,55,224,46,30,35,292,30,31,27,312,*7D
$GPGSA,M,3,02,12,14,25,29,,,,,,,,4.1,3.2,2.6*36
Trace #95 at position 23.500000
$GPZDA,090035.04,09,10,2011,00,00*67
$GPRMC,090035.00,A,4611.962147,N,01258.226208,E,001.8,348.7,091011,0.2,E,A*3E
$GPGGA,090036.00,4611.962653,N,01258.226052,E,1,05,3.2,140.55,M,46.25,M,,*64
$GPGLL,4611.962653,N,01258.226052,E,090036.00,A,A*65
$GPVTG,344.8,T,345.0,M,001.5,N,002.9,K,A*25
$GPGSV,2,1,08,02,38,075,44,09,16,152,,12,55,080,42,14,26,251,38*70
$GPGSV,2,2,08,25,78,347,43,29,55,224,46,30,35,292,32,31,27,312,30*7A
$GPGSA,M,3,02,12,14,25,29,,,,,,,,4.1,3.2,2.6*36
Trace #96 at position 23.750000
$GPZDA,090035.04,09,10,2011,00,00*67
$GPRMC,090035.00,A,4611.962147,N,01258.226208,E,001.8,348.7,091011,0.2,E,A*3E
$GPGGA,090036.00,4611.962653,N,01258.226052,E,1,05,3.2,140.55,M,46.25,M,,*64
$GPGLL,4611.962653,N,01258.226052,E,090036.00,A,A*65
$GPVTG,344.8,T,345.0,M,001.5,N,002.9,K,A*25
$GPGSV,2,1,08,02,38,075,44,09,16,152,,12,55,080,42,14,26,251,38*70
$GPGSV,2,2,08,25,78,347,43,29,55,224,46,30,35,292,32,31,27,312,30*7A
$GPGSA,M,3,02,12,14,25,29,,,,,,,,4.1,3.2,2.6*36
Trace #97 at position 24.000000
$GPZDA,090036.03,09,10,2011,00,00*63
$GPRMC,090036.00,A,4611.962653,N,01258.226052,E,001.5,344.8,091011,0.2,E,A*3C
$GPGGA,090037.00,4611.963115,N,01258.225908,E,1,05,3.2,140.48,M,46.25,M,,*68
$GPGLL,4611.963115,N,01258.225908,E,090037.00,A,A*65
$GPVTG,350.5,T,350.7,M,001.5,N,002.7,K,A*20
$GPGSV,2,1,08,02,38,075,43,09,16,152,,12,55,080,42,14,26,251,37*78
$GPGSV,2,2,08,25,78,347,44,29,55,225,45,30,35,292,28,31,27,312,29*7C
$GPGSA,M,3,02,12,14,25,29,,,,,,,,4.1,3.2,2.6*36
Trace #98 at position 24.250000
$GPZDA,090036.03,09,10,2011,00,00*63
$GPRMC,090036.00,A,4611.962653,N,01258.226052,E,001.5,344.8,091011,0.2,E,A*3C
$GPGGA,090037.00,4611.963115,N,01258.225908,E,1,05,3.2,140.48,M,46.25,M,,*68
$GPGLL,4611.963115,N,01258.225908,E,090037.00,A,A*65
$GPVTG,350.5,T,350.7,M,001.5,N,002.7,K,A*20
$GPGSV,2,1,08,02,38,075,43,09,16,152,,12,55,080,42,14,26,251,37*78
$GPGSV,2,2,08,25,78,347,44,29,55,225,45,30,35,292,28,31,27,312,29*7C
$GPGSA,M,3,02,12,14,25,29,,,,,,,,4.1,3.2,2.6*36
Trace #99 at position 24.500000
$GPZDA,090039.03,09,10,2011,00,00*6C
$GPRMC,090039.00,A,4611.963977,N,01258.225452,E,001.6,342.0,091011,0.2,E,A*31
$GPGGA,090040.00,4611.964475,N,01258.225310,E,1,05,3.2,140.38,M,46.25,M,,*68
$GPGLL,4611.964475,N,01258.225310,E,090040.00,A,A*62
$GPVTG,353.0,T,353.2,M,001.7,N,003.2,K,A*26
$GPGSV,2,1,08,02,38,075,44,09,16,152,,12,55,080,43,14,26,251,38*71
$GPGSV,2,2,08,25,78,347,44,29,55,225,45,30,35,292,36,31,27,312,26*7C
$GPGSA,M,3,02,12,14,25,29,,,,,,,,4.1,3.2,2.6*36
Trace #100 at position 24.750000
$GPZDA,090039.03,09,10,2011,00,00*6C
$GPRMC,090039.00,A,4611.963977,N,01258.225452,E,001.6,342.0,091011,0.2,E,A*31
$GPGGA,090040.00,4611.964475,N,01258.225310,E,1,05,3.2,140.38,M,46.25,M,,*68
$GPGLL,4611.964475,N,01258.225310,E,090040.00,A,A*62
$GPVTG,353.0,T,353.2,M,001.7,N,003.2,K,A*26
$GPGSV,2,1,08,02,38,075,44,09,16,152,,12,55,080,43,14,26,251,38*71
$GPGSV,2,2,08,25,78,347,44,29,55,225,45,30,35,292,36,31,27,312,26*7C
$GPGSA,M,3,02,12,14,25,29,,,,,,,,4.1,3.2,2.6*36
Trace #101 at position 25.000000
$GPZDA,090039.03,09,10,2011,00,00*6C
$GPRMC,090039.00,A,4611.963977,N,01258.225452,E,001.6,342.0,091011,0.2,E,A*31
$GPGGA,090040.00,4611.964475,N,01258.225310,E,1,05,3.2,140.38,M,46.25,M,,*68
$GPGLL,4611.964475,N,01258.225310,E,090040.00,A,A*62
$GPVTG,353.0,T,353.2,M,001.7,N,003.2,K,A*26
$GPGSV,2,1,08,02,38,075,44,09,16,152,,12,55,080,43,14,26,251,38*71
$GPGSV,2,2,08,25,78,347,44,29,55,225,45,30,35,292,36,31,27,312,26*7C
$GPGSA,M,3,02,12,14,25,29,,,,,,,,4.1,3.2,2.6*36
Trace #102 at position 25.250000
$GPZDA,090039.03,09,10,2011,00,00*6C
$GPRMC,090039.00,A,4611.963977,N,01258.225452,E,001.6,342.0,091011,0.2,E,A*31
$GPGGA,090040.00,4611.964475,N,01258.225310,E,1,05,3.2,140.38,M,46.25,M,,*68
$GPGLL,4611.964475,N,01258.225310,E,090040.00,A,A*62
$GPVTG,353.0,T,353.2,M,001.7,N,003.2,K,A*26
$GPGSV,2,1,08,02,38,075,44,09,16,152,,12,55,080,43,14,26,251,38*71
$GPGSV,2,2,08,25,78,347,44,29,55,225,45,30,35,292,36,31,27,312,26*7C
$GPGSA,M,3,02,12,14,25,29,,,,,,,,4.1,3.2,2.6*36
Trace #103 at position 25.500000
$GPZDA,090040.03,09,10,2011,00,00*62
$GPRMC,090040.00,A,4611.964475,N,01258.225310,E,001.7,353.0,091011,0.2,E,A*37
$GPGGA,090041.00,4611.964979,N,01258.225095,E,1,05,3.2,140.35,M,46.25,M,,*6B
$GPGLL,4611.964979,N,01258.225095,E,090041.00,A,A*6C
$GPVTG,332.6,T,332.8,M,001.9,N,003.5,K,A*23
$GPGSV,2,1,08,02,38,075,43,09,16,152,,12,55,080,44,14,26,251,39*70
$GPGSV,2,2,08,25,7836
$GPZDA,090041.03,09,10,2011,00,00*63
$GPRMC,090041.00,A,4611.964979,N,01258.225095,E,001.9,332.6,091011,0.2,E,A*36
$GPGGA,090042.00,4611.965401,N,01258.224710,E,1,05,3.2,140.38,M,46.25,M,,*6D
$GPGLL,4611.965401,N,01258.224710,E,090042.00,A,A*67
$GPVTG,314.1,T,314.3,M,001.7,N,003.1,K,A*25
$GPGSV,2,1,08,02,38,075,44,09,16,152,,12,55,080,43,14,26,251,39*70
$GPGSV,2,2,08,25,78,347,45,29,55,225,46,30,35,292,35,31,27,312,28*73
$GPGSA,M,3,02,12,14,25,29,,,,,,,,4.1,3.2,2.6*36
Trace #104 at position 25.750000
$GPZDA,090040.03,09,10,2011,00,00*62
$GPRMC,090040.00,A,4611.964475,N,01258.225310,E,001.7,353.0,091011,0.2,E,A*37
$GPGGA,090041.00,4611.964979,N,01258.225095,E,1,05,3.2,140.35,M,46.25,M,,*6B
$GPGLL,4611.964979,N,01258.225095,E,090041.00,A,A*6C
$GPVTG,332.6,T,332.8,M,001.9,N,003.5,K,A*23
$GPGSV,2,1,08,02,38,075,43,09,16,152,,12,55,080,44,14,26,251,39*70
$GPGSV,2,2,08,25,7836
$GPZDA,090041.03,09,10,2011,00,00*63
$GPRMC,090041.00,A,4611.964979,N,01258.225095,E,001.9,332.6,091011,0.2,E,A*36
$GPGGA,090042.00,4611.965401,N,01258.224710,E,1,05,3.2,140.38,M,46.25,M,,*6D
$GPGLL,4611.965401,N,01258.224710,E,090042.00,A,A*67
$GPVTG,314.1,T,314.3,M,001.7,N,003.1,K,A*25
$GPGSV,2,1,08,02,38,075,44,09,16,152,,12,55,080,43,14,26,251,39*70
$GPGSV,2,2,08,25,78,347,45,29,55,225,46,30,35,292,35,31,27,312,28*73
$GPGSA,M,3,02,12,14,25,29,,,,,,,,4.1,3.2,2.6*36
Trace #105 at position 26.000000
$GPZDA,090040.03,09,10,2011,00,00*62
$GPRMC,090040.00,A,4611.964475,N,01258.225310,E,001.7,353.0,091011,0.2,E,A*37
$GPGGA,090041.00,4611.964979,N,01258.225095,E,1,05,3.2,140.35,M,46.25,M,,*6B
$GPGLL,4611.964979,N,01258.225095,E,090041.00,A,A*6C
$GPVTG,332.6,T,332.8,M,001.9,N,003.5,K,A*23
$GPGSV,2,1,08,02,38,075,43,09,16,152,,12,55,080,44,14,26,251,39*70
$GPGSV,2,2,08,25,7836
$GPZDA,090041.03,09,10,2011,00,00*63
$GPRMC,090041.00,A,4611.964979,N,01258.225095,E,001.9,332.6,091011,0.2,E,A*36
$GPGGA,090042.00,4611.965401,N,01258.224710,E,1,05,3.2,140.38,M,46.25,M,,*6D
$GPGLL,4611.965401,N,01258.224710,E,090042.00,A,A*67
$GPVTG,314.1,T,314.3,M,001.7,N,003.1,K,A*25
$GPGSV,2,1,08,02,38,075,44,09,16,152,,12,55,080,43,14,26,251,39*70
$GPGSV,2,2,08,25,78,347,45,29,55,225,46,30,35,292,35,31,27,312,28*73
$GPGSA,M,3,02,12,14,25,29,,,,,,,,4.1,3.2,2.6*36
Trace #106 at position 26.250000
$GPZDA,090042.03,09,10,201111.965401,N,01258.224710,E,001.7,314.1,091011,0.2,E,A*30
$GPGGA,090043.00,4611.965725,N,01258.224447,E,1,05,3.2,140.40,M,46.25,M,,*67
$GPGLL,4611.965725,N,01258.224447,E,090043.00,A,A*62
$GPVTG,340.5,T,340.7,M,001.1,N,002.0,K,A*23
$GPGSV,2,1,08,02,38,075,43,09,16,152,,12,55,080,43,14,26,251,38*76
$GPGSV,2,2,08,25,78,347,44,29,55,225,46,30,35,292,33,31,27,312,31*7C
$GPGSA,M,3,02,12,14,25,29,,,,,,,,4.1,3.2,2.6*36
Trace #107 at position 26.500000
$GPZDA,090042.03,09,10,201111.965401,N,01258.224710,E,001.7,314.1,091011,0.2,E,A*30
$GPGGA,090043.00,4611.965725,N,01258.224447,E,1,05,3.2,140.40,M,46.25,M,,*67
$GPGLL,4611.965725,N,01258.224447,E,090043.00,A,A*62
$GPVTG,340.5,T,340.7,M,001.1,N,002.0,K,A*23
$GPGSV,2,1,08,02,38,075,43,09,16,152,,12,55,080,43,14,26,251,38*76
$GPGSV,2,2,08,25,78,347,44,29,55,225,46,30,35,292,33,31,27,312,31*7C
$GPGSA,M,3,02,12,14,25,29,,,,,,,,4.1,3.2,2.6*36
Trace #108 at position 26.750000
$GPZDA,090042.03,09,10,201111.965401,N,01258.224710,E,001.7,314.1,091011,0.2,E,A*30
$GPGGA,090043.00,4611.965725,N,01258.224447,E,1,05,3.2,140.40,M,46.25,M,,*67
$GPGLL,4611.965725,N,01258.224447,E,090043.00,A,A*62
$GPVTG,340.5,T,340.7,M,001.1,N,002.0,K,A*23
$GPGSV,2,1,08,02,38,075,43,09,16,152,,12,55,080,43,14,26,251,38*76
$GPGSV,2,2,08,25,78,347,44,29,55,225,46,30,35,292,33,31,27,312,31*7C
$GPGSA,M,3,02,12,14,25,29,,,,,,,,4.1,3.2,2.6*36
Trace #109 at position 27.000000
$GPZDA,090042.03,09,10,201111.965401,N,01258.224710,E,001.7,314.1,091011,0.2,E,A*30
$GPGGA,090043.00,4611.965725,N,01258.224447,E,1,05,3.2,140.40,M,46.25,M,,*67
$GPGLL,4611.965725,N,01258.224447,E,090043.00,A,A*62
$GPVTG,340.5,T,340.7,M,001.1,N,002.0,K,A*23
$GPGSV,2,1,08,02,38,075,43,09,16,152,,12,55,080,43,14,26,251,38*76
$GPGSV,2,2,08,25,78,347,44,29,55,225,46,30,35,292,33,31,27,312,31*7C
$GPGSA,M,3,02,12,14,25,29,,,,,,,,4.1,3.2,2.6*36
Trace #110 at position 27.250000
$GPZDA,090043.04,09,10,2011,00,00*66
$GPRMC,090043.00,A,4611.965725,N,01258.224447,E,001.$GPGGA,090044.00,4611.966025,N,01258.224371,E,1,05,3.2,140.31,M,46.25,M,,*60
$GPGLL,4611.966025,N,01258.224371,E,090044.00,A,A*63
$GPVTG,347.4,T,347.6,M,001.1,N,002.1,K,A*22
$GPGSV,2,1,08,02,38,075,44,09,16,152,,12,55,080,43,14,26,251,37*7E
$GPGSV,2,2,08,25,78,347,43,29,55,225,45,30,35,292,30,31,27,312,*79
$GPGSA,M,3,02,12,14,25,29,,,,,,,,4.1,3.2,2.6*36
Trace #111 at position 27.500000
$GPZDA,090043.04,09,10,2011,00,00*66
$GPRMC,090043.00,A,4611.965725,N,01258.224447,E,001.$GPGGA,090044.00,4611.966025,N,01258.224371,E,1,05,3.2,140.31,M,46.25,M,,*60
$GPGLL,4611.966025,N,01258.224371,E,090044.00,A,A*63
$GPVTG,347.4,T,347.6,M,001.1,N,002.1,K,A*22
$GPGSV,2,1,08,02,38,075,44,09,16,152,,12,55,080,43,14,26,251,37*7E
$GPGSV,2,2,08,25,78,347,43,29,55,225,45,30,35,292,30,31,27,312,*79
$GPGSA,M,3,02,12,14,25,29,,,,,,,,4.1,3.2,2.6*36
Trace #112 at position 27.750000
$GPZDA,090043.04,09,10,2011,00,00*66
$GPRMC,090043.00,A,4611.965725,N,01258.224447,E,001.$GPGGA,090044.00,4611.966025,N,01258.224371,E,1,05,3.2,140.31,M,46.25,M,,*60
$GPGLL,4611.966025,N,01258.224371,E,090044.00,A,A*63
$GPVTG,347.4,T,347.6,M,001.1,N,002.1,K,A*22
$GPGSV,2,1,08,02,38,075,44,09,16,152,,12,55,080,43,14,26,251,37*7E
$GPGSV,2,2,08,25,78,347,43,29,55,225,45,30,35,292,30,31,27,312,*79
$GPGSA,M,3,02,12,14,25,29,,,,,,,,4.1,3.2,2.6*36
Trace #113 at position 28.000000
$GPZDA,090043.04,09,10,2011,00,00*66
$GPRMC,090043.00,A,4611.965725,N,01258.224447,E,001.$GPGGA,090044.00,4611.966025,N,01258.224371,E,1,05,3.2,140.31,M,46.25,M,,*60
$GPGLL,4611.966025,N,01258.224371,E,090044.00,A,A*63
$GPVTG,347.4,T,347.6,M,001.1,N,002.1,K,A*22
$GPGSV,2,1,08,02,38,075,44,09,16,152,,12,55,080,43,14,26,251,37*7E
$GPGSV,2,2,08,25,78,347,43,29,55,225,45,30,35,292,30,31,27,312,*79
$GPGSA,M,3,02,12,14,25,29,,,,,,,,4.1,3.2,2.6*36
Trace #114 at position 28.250000
$GPZDA,090044.04,09,10,2011,00,00*61
$GPRMC,090044.00,A,4611.966025,N,01258.224371,E,001.1,347.4,091011,0.2,E,A*31
$GPGGA,090045.00,4611.966153,N,01258.224364,E,1,04,5.6,140.28,M,46.25,M,,*6E
$GPGLL,4611.966153,N,01258.224364,E,090045.00,A,A*66
$GPVTG,277.9,T,278.1,M,000.1,N,000.2,K,A*27
$GPGSV,2,1,08,02,38,075,45,09,16,152,,12,55,080,43,14,26,251,35*7D
$GPGSV,2,2,08,25,78,347,44,29,55,225,47,30,35,292,29,31,27,312,28*7E
$GPGSA,M,3,02,12,25,29,,,,,,,,,9.8,5.6,8.0*39
Trace #115 at position 28.500000
$GPZDA,090044.04,09,10,2011,00,00*61
$GPRMC,090044.00,A,4611.966025,N,01258.224371,E,001.1,347.4,091011,0.2,E,A*31
$GPGGA,090045.00,4611.966153,N,01258.224364,E,1,04,5.6,140.28,M,46.25,M,,*6E
$GPGLL,4611.966153,N,01258.224364,E,090045.00,A,A*66
$GPVTG,277.9,T,278.1,M,000.1,N,000.2,K,A*27
$GPGSV,2,1,08,02,38,075,45,09,16,152,,12,55,080,43,14,26,251,35*7D
$GPGSV,2,2,08,25,78,347,44,29,55,225,47,30,35,292,29,31,27,312,28*7E
$GPGSA,M,3,02,12,25,29,,,,,,,,,9.8,5.6,8.0*39
Trace #116 at position 28.750000
$GPZDA,090044.04,09,10,2011,00,00*61
