Trace #1 at position 0.000000
$GPZDA,125523.03,06,10,2011,00,00*62
$GPRMC,125523.00,A,4611.953538,N,01258.209198,E,000.3,123.7,061011,0.2,E,$GPGGA,125524.00,4611.953506,N,01258.209250,E,1,04,10.1,124.18,M,46.25,M,,*5A
$GPGLL,4611.953506,N,01258.209250,E,125524.00,A,A*60
$GPVTG,293.5,T,293.7,M,000.3,N,000.5,K,A*27
$GPGSV,3,1,09,16,47,305,,31,13,212,,18,32,139,42,29,29,086,38*71
$GPGSV,3,2,09,30,34,159,40,21,78,086,38,22,08,173,,03,26,286,*73
$GPGSV,3,3,09,06,41,287,,,,,,,,,,,,,*4E
$GPGSA,M,3,18,29,30,21,,,,,,,,,15.9,10.1,12.3*01
Trace #2 at position 0.250000
$GPRMC,125531.00,A,4611.953491,N,01258.209282,E,000.1,144.6,061011,0.2,E,A*3B
$GPGGA,125532.00,4611.953482,N,01258.209273,E,1,04,10.0,124.35,M,46.25,M,,*5F
$GPGLL,4611.953482,N,01258.209273,E,125532.00,A,A*6B
$GPVTG,298.8,T,299.0,M,000.3,N,000.6,K,A*2F
$GPGSV,3,1,09,16,47,305,,31,13,212,,18,32,139,40,29,28,086,39*73
$GPGSV,3,2,09,30,34,159,40,21,78,086,34,22,08,173,,03,26,287,*7E
$GPGSV,3,3,09,06,42,287,,,,,,,,,,,,,*4D
$GPGSA,M,3,18,29,30,21,,,,,,,,,15.7,10.0,12.2*0F
Trace #3 at position 0.500000
$GPZDA,125533.03,06,10,2011,00,00*63
$GPRMC,125533.00,A,4611.953467,N,01258.209334,$GPGGA,125534.00,4611.953419,N,01258.209499,E,1,04,9.9,124.65,M,46.25,M,,*6D
$GPGLL,4611.953419,N,01258.209499,E,125534.00,A,A*6D
$GPVTG,108.8,T,109.0,M,000.4,N,000.7,K,A*29
$GPGSV,3,1,09,16,47,305,,31,13,212,,18,32,139,37,29,28,086,37*7D
$GPGSV,3,2,09,30,34,159,41,21,78,086,36,22,08,173,,03,26,287,*7D
$GPGSV,3,3,09,06,42,287,,,,,,,,,,,,,*4D
$GPGSA,M,3,18,29,30,21,,,,,,,,,15.7,9.9,12.2*3E
Trace #4 at position 0.750000
$GPZDA,125534.03,06,10,2011,00,00*64
$GPRMC,125534.00,A,4611.953419,N,01258.209499,E,000.4,108.8,061011,0.2,E,A*$GPGGA,125535.00,4611.953440,N,01258.209457,E,1,04,9.9,124.52,M,46.25,M,,*66
$GPGLL,4611.953440,N,01258.209457,E,125535.00,A,A*62
$GPVTG,299.8,T,299.9,M,000.6,N,001.2,K,A*27
$GPGSV,3,1,09,16,47,304,,31,13,212,,18,32,139,40,29,28,086,37*7C
$GPGSV,3,2,09,30,34,159,41,21,78,086,36,22,08,173,,03,26,287,*7D
$GPGSV,3,3,09,06,42,287,,,,,,,,,,,,,*4D
$GPGSA,M,3,18,29,30,21,,,,,,,,,15.7,9.9,12.1*3D
Trace #5 at position 1.000000
$GPZDA,125535.03,06,10,2011,00,00*65
$GPRMC,125535.00,A,4611.953440,N,01258.209457,E,000.6,299.8,061011,0.2,E,A*$GPGGA,125536.00,4611.953474,N,01258.209402,E,1,04,9.9,124.43,M,46.25,M,,*62
$GPGLL,4611.953474,N,01258.209402,E,125536.00,A,A*66
$GPVTG,90.2,T,90.4,M,000.2,N,000.5,K,A*22
$GPGSV,3,1,09,16,47,304,,31,13,212,,18,32,139,39,29,28,086,37*72
$GPGSV,3,2,09,30,34,159,41,21,78,086,36,22,08,173,,03,26,287,*7D
$GPGSV,3,3,09,06,42,287,,,,,,,,,,,,,*4D
$GPGSA,M,3,18,29,30,21,,,,,,,,,15.7,9.9,12.1*3D
Trace #6 at position 1.250000
$GPZDA,125536.03,06,10,2011,00,00*66
$GPRMC,125536.00,A,4611.953474,N,01258.209402,E,000.2,90.2,061011,0.2,E,A*06$GPGGA,125537.00,4611.953478,N,01258.209441,E,1,04,9.9,124.52,M,46.25,M,,*68
$GPGLL,4611.953478,N,01258.209441,E,125537.00,A,A*6C
$GPVTG,345.1,T,345.2,M,000.1,N,000.1,K,A*20
$GPGSV,3,1,09,16,47,304,,31,13,212,,18,32,139,40,29,28,086,39*72
$GPGSV,3,2,09,30,34,159,39,21,78,086,37,22,08,173,,03,26,287,*73
$GPGSV,3,3,09,06,42,287,,,,,,,,,,,,,*4D
$GPGSA,M,3,18,29,30,21,,,,,,,,,15.6,9.9,12.1*3C
Trace #7 at position 1.500000
$GPZDA,125537.03,06,10,2011,00,00*67
$GPRMC,125537.00,A,4611.953478,N,01258.209441,E,000.1,345.1,061011,0.2,E,A*$GPGGA,125538.00,4611.953520,N,01258.209378,E,1,04,9.9,124.47,M,46.25,M,,*62
$GPGLL,4611.953520,N,01258.209378,E,125538.00,A,A*62
$GPVTG,312.0,T,312.2,M,000.4,N,000.8,K,A*2D
$GPGSV,3,1,09,16,47,304,,31,13,212,,18,32,139,40,29,28,086,39*72
$GPGSV,3,2,09,30,34,159,39,21,78,086,36,22,08,173,,03,26,287,*72
$GPGSV,3,3,09,06,42,287,,,,,,,,,,,,,*4D
$GPGSA,M,3,18,29,30,21,,,,,,,,,15.6,9.9,12.1*3C
Trace #8 at position 1.750000
$GPZDA,125539.03,06,10,2011,00,00*69
$GPRMC,125539.00,A,4611.953546,N,01258.209258,E,000.3,250.9,061011,0.2,E,A*1258.209216,E,1,04,9.9,124.67,M,46.25,M,,*6E
$GPGLL,4611.953539,N,01258.209216,E,125540.00,A,A*6C
$GPVTG,120.5,T,120.7,M,000.1,N,000.2,K,A*22
$GPGSV,3,1,09,16,47,304,,31,13,212,,18,32,139,39,29,28,086,39*7C
$GPGSV,3,2,09,30,34,159,38,21,78,086,36,22,08,173,,03,26,287,31*71
$GPGSV,3,3,09,06,42,287,,,,,,,,,,,,,*4D
$GPGSA,M,3,18,29,30,21,,,,,,,,,15.6,9.9,12.1*3C
Trace #9 at position 2.000000
$GPZDA,125540.03,06,10,2011,00,00*67
$GPRMC,125540.00,A,4611.953539,N,01258.209216,E,000.1,120.5,061011,0.2,E,A*32
$GPGGA,125541.00,4611.953609150,E,125541.00,A,A*60
$GPVTG,325.1,T,325.3,M,000.8,N,001.5,K,A*2D
$GPGSV,3,1,09,16,47,304,,31,13,212,,18,32,139,40,29,28,086,40*7C
$GPGSV,3,2,09,30,34,159,38,21,78,086,37,22,08,173,,03,26,287,*72
$GPGSV,3,3,09,06,42,287,,,,,,,,,,,,,*4D
$GPGSA,M,3,18,29,30,21,,,,,,,,,15.5,9.8,12.0*3F
Trace #10 at position 2.250000
$GPZDA,125541.03,06,10,2011,00,00*66
$GPRMC,125541.00,A,4611.953641,N,01258.209150,E,000.8,325.1,061011,0.2,E,A*34
$GPGGA,125542.00,4611.953855,N,01258.208918,E,1,04,9.8,124.48,M,46.25,M,,*63
$GPGLL,4611.953855,N,01204,,31,13,212,,18,32,139,40,29,28,086,39*72
$GPGSV,3,2,09,30,34,159,38,21,78,086,37,22,08,173,,03,26,287,29*79
$GPGSV,3,3,09,06,42,287,,,,,,,,,,,,,*4D
$GPGSA,M,3,18,29,30,21,,,,,,,,,15.5,9.8,12.0*3F
Trace #11 at position 2.500000
$GPZDA,125542.03,06,10,2011,00,00*65
$GPRMC,125542.00,A,4611.953855,N,01258.208918,E,001.1,314.0,061011,0.2,E,A*32
$GPGGA,125543.00,4611.954011,N,01258.208709,E,1,04,9.8,124.11,M,46.25,M,,*6F
$GPGLL,4611.954011,N,01258.208709,E,125543.00,A,A*6D
$GPVTG,305.9,T,306.1,M,000.6,N,001.1,K,A*2E
$GPGSV,3,1,09,131*72
$GPGSV,3,3,09,06,42,287,,,,,,,,,,,,,*4D
$GPGSA,M,3,18,29,30,21,,,,,,,,,15.5,9.8,12.0*3F
Trace #12 at position 2.750000
$GPZDA,125542.03,06,10,2011,00,00*65
$GPRMC,125542.00,A,4611.953855,N,01258.208918,E,001.1,314.0,061011,0.2,E,A*32
$GPGGA,125543.00,4611.954011,N,01258.208709,E,1,04,9.8,124.11,M,46.25,M,,*6F
$GPGLL,4611.954011,N,01258.208709,E,125543.00,A,A*6D
$GPVTG,305.9,T,306.1,M,000.6,N,001.1,K,A*2E
$GPGSV,3,1,09,131*72
$GPGSV,3,3,09,06,42,287,,,,,,,,,,,,,*4D
$GPGSA,M,3,18,29,30,21,,,,,,,,,15.5,9.8,12.0*3F
Trace #13 at position 3.000000
$GPZDA,125543.03,06,10,2011,00,00*64
$GPRMC,125543.00,A,4611.954011,N,01258.208709,E,000.6,305.9,061011,0.2,E,A*3D
$GPGGA,125544.00,4611.954126,N,01258.208649,E,1,04,9.8,124.02,M,46.25,M,,*6A
$GPGLL,4611.954126,N,01258.208649,E,125544.00,A,A*6A
$GPVTG,350.7,T,350.9,M,000.5,N,001.0,K,A*29
$GPGSV,3,1,09,16,47,304,,31,13,212,,18,32,138,41,29,28,086,40*7C
$GPGSV,3,2,09,30,34,159,39,21,78,085,37,22,08,173,,03,28,29,30,21,,,,,,,,,15.5,9.8,12.0*3F
$GPZDA,125544.03,06,10,2011,00,00*63
$GPRMC,125544.00,A,4611.954126,N,01258.208649,E,000.5,350.7,061011,0.2,E,A*37
$GPGGA,125545.00,4611.954270,N,01258.208597,E,1,04,9.8,123.93,M,46.25,M,,*64
$GPGLL,4611.954270,N,01258.208597,E,125545.00,A,A*6B
$GPVTG,325.4,T,325.6,M,000.7,N,001.4,K,A*23
$GPGSV,3,1,09,16,47,304,,31,13,212,,18,32,138,39,29,28,086,39*7D
$GPGSV,3,2,09,30,34,159,39,21,78,085,36,22,08,173,,03,26,287,28*7B
$GPGSV,3,3,09,06,42,287,,,,,,,,,,,,,*4D
$GPGSA0,2011,00,00*62
Trace #14 at position 3.250000
$GPRMC,125545.00,A,4611.954270,N,01258.208597,E,000.7,325.4,061011,0.2,E,A*35
$GPGGA,125546.00,4611.954348,N,01258.208626,E,1,04,9.8,123.93,M,46.25,M,,*64
$GPGLL,4611.954348,N,01258.208626,E,125546.00,A,A*6B
$GPVTG,83.6,T,83.7,M,000.3,N,000.6,K,A*27
$GPGSV,3,1,09,16,47,304,,31,13,212,,18,32,138,39,29,28,086,40*73
$GPGSV,3,2,09,30,34,159,39,21,78,085,37,22,08,173,,03,26,287,29*7B
$GPGSV,3,3,09,06,42,287,,,,,,,,,,,,,*4D
$GPGSA,M,3,18,29,30,21,,,,,,,,,15.5,9.8,12.0*3F
Trace #15 at position 3.500000
$GPZDA,125546.03,26,E,000.3,83.6,061011,0.2,E,A*0C
$GPGGA,125547.00,4611.954404,N,01258.208675,E,1,04,9.8,124.03,M,46.25,M,,*62
$GPGLL,4611.954404,N,01258.208675,E,125547.00,A,A*63
$GPVTG,324.0,T,324.2,M,000.5,N,001.0,K,A*25
$GPGSV,3,1,09,16,47,304,,31,13,212,,18,32,138,40,29,28,086,39*73
$GPGSV,3,2,09,30,34,159,39,21,78,085,37,22,08,173,,03,26,287,32*71
$GPGSV,3,3,09,06,42,287,,,,,,,,,,,,,*4D
$GPGSA,M,3,18,29,30,21,,,,,,,,,15.4,9.8,11.9*34
Trace #16 at position 3.750000
$GPZDA,125547.03,06,10,2011,00,00*60
$GPRMC,125547.00,A,4611.954404,N,01258$GPGGA,125548.00,4611.954541,N,01258.208601,E,1,04,9.8,124.05,M,46.25,M,,*68
$GPGLL,4611.954541,N,01258.208601,E,125548.00,A,A*6F
$GPVTG,336.4,T,336.6,M,000.7,N,001.3,K,A*24
$GPGSV,3,1,09,16,47,304,,31,13,212,,18,32,138,40,29,28,086,40*7D
$GPGSV,3,2,09,30,34,159,38,21,78,085,35,22,08,173,,03,26,287,*73
$GPGSV,3,3,09,06,42,287,,,,,,,,,,,,,*4D
$GPGSA,M,3,18,29,30,21,,,,,,,,,15.4,9.8,11.9*34
Trace #17 at position 4.000000
$GPZDA,125548.03,06,10,2011,00,00*6F
$GPRMC,125548.00,A,4611.954541,N,01258.208601,E,000.7,336.4,061011,0.2,E,A*$GPGGA,125549.00,4611.954687,N,01258.208591,E,1,04,9.7,124.03,M,46.25,M,,*63
$GPGLL,4611.954687,N,01258.208591,E,125549.00,A,A*6D
$GPVTG,10.2,T,10.4,M,000.5,N,000.9,K,A*29
$GPGSV,3,1,09,16,47,304,,31,13,212,,18,32,138,40,29,28,086,39*73
$GPGSV,3,2,09,30,34,159,39,21,78,085,36,22,08,173,,03,26,287,31*73
$GPGSV,3,3,09,06,42,287,,,,,,,,,,,,,*4D
$GPGSA,M,3,18,29,30,21,,,,,,,,,15.4,9.7,11.9*3B
Trace #18 at position 4.250000
$GPZDA,125549.03,06,10,2011,00,00*6E
$GPRMC,125549.00,A,4611.954687,N,01258.208591,E,000.5,10.2,061011,0.2,E,A*0$GPGGA,125550.00,4611.954856,N,01258.208519,E,1,04,9.7,123.87,M,46.25,M,,*62
$GPGLL,4611.954856,N,01258.208519,E,125550.00,A,A*67
$GPVTG,323.9,T,324.1,M,001.0,N,001.9,K,A*25
$GPGSV,3,1,09,16,47,304,,31,13,212,,18,32,138,40,29,28,086,39*73
$GPGSV,3,2,09,30,34,159,38,21,78,085,37,22,08,173,,03,26,287,32*70
$GPGSV,3,3,09,06,42,287,,,,,,,,,,,,,*4D
$GPGSA,M,3,18,29,30,21,,,,,,,,,15.4,9.7,11.9*3B
Trace #19 at position 4.500000
$GPZDA,125551.03,06,10,2011,00,00*67
$GPRMC,125551.00,A,4611.955051,N,01258.208434,E,000.7,0.0,061011,0.2,E,A*38
$GPGGA,125552.00,4611.955195,N,01258.208387,E,1,04,9.7,123.90,M,46.25,M,,*60
$GPGLL,4611.955195,N,01258.208387,E,125552.00,A,A*63
$GPVTG,320.5,T,320.6,M,000.7,N,001.2,K,A*24
$GPGSV,3,1,09,16,47,304,,31,13,212,,18,32,138,40,29,28,086,39*73
$GPGSV,3,2,09,30,34,159,39,21,78,085,36,22,08,173,,03,26,287,32*70
$GPGSV,3,3,09,06,42,287,,,,,,,,,,,,,*4D
$GPGSA,M,3,18,29,30,21,,,,,,,,,15.3,9.7,11.9*3C
Trace #20 at position 4.750000
$GPZDA,125551.03,06,10,2011,00,00*67
$GPRMC,125551.00,A,4611.955051,N,01258.208434,E,000.7,0.0,061011,0.2,E,A*38
$GPGGA,125552.00,4611.955195,N,01258.208387,E,1,04,9.7,123.90,M,46.25,M,,*60
$GPGLL,4611.955195,N,01258.208387,E,125552.00,A,A*63
$GPVTG,320.5,T,320.6,M,000.7,N,001.2,K,A*24
$GPGSV,3,1,09,16,47,304,,31,13,212,,18,32,138,40,29,28,086,39*73
$GPGSV,3,2,09,30,34,159,39,21,78,085,36,22,08,173,,03,26,287,32*70
$GPGSV,3,3,09,06,42,287,,,,,,,,,,,,,*4D
$GPGSA,M,3,18,29,30,21,,,,,,,,,15.3,9.7,11.9*3C
Trace #21 at position 5.000000
$GPZDA,125552.03,06,10,2011,00,00*64
$GPRMC,125552.00,A,4611.955195,N,01258.208387,E,000.7,320.5,061011,0.2,E,$GPGGA,125553.00,4611.955313,N,01258.208246,E,1,04,9.7,123.92,M,46.25,M,,*63
$GPGLL,4611.955313,N,01258.208246,E,125553.00,A,A*62
$GPVTG,314.8,T,314.9,M,000.7,N,001.4,K,A*20
$GPGSV,3,1,09,16,47,304,,31,13,212,,18,32,138,41,29,28,086,41*7D
$GPGSV,3,2,09,30,34,159,39,21,78,085,36,22,08,173,,03,26,287,31*73
$GPGSV,3,3,09,06,42,287,,,,,,,,,,,,,*4D
$GPGSA,M,3,18,29,30,21,,,,,,,,,15.3,9.7,11.8*3D
Trace #22 at position 5.250000
$GPZDA,125553.04,06,10,2011,00,00*62
$GPRMC,125553.00,A,4611.955313,N,01258.208246,E,000.7,314.8,061011,0.2,E,,4611.955094,N,01258.208973,E,1,05,1.5,125.36,M,46.25,M,,*66
$GPGLL,4611.955094,N,01258.208973,E,125554.00,A,A*64
$GPVTG,326.0,T,326.1,M,000.2,N,000.4,K,A*24
$GPGSV,3,1,09,16,47,304,,31,13,212,,18,32,138,39,29,28,086,40*73
$GPGSV,3,2,09,30,34,159,38,21,78,085,37,22,08,173,,03,26,287,33*71
$GPGSV,3,3,09,06,42,287,,,,,,,,,,,,,*4D
$GPGSA,M,3,18,29,30,21,03,,,,,,,,2.8,1.5,2.4*37
Trace #23 at position 5.500000
$GPZDA,125554.04,06,10,2011,00,00*65
$GPRMC,125554.00,A,4611.955094,N,01258.208973,E,000.2,326.0,061011,0.2,E,A*38
$GPGGA,12509524,E,125555.00,A,A*6E
$GPVTG,333.8,T,333.9,M,000.5,N,000.9,K,A*2E
$GPGSV,3,1,09,16,47,304,,31,13,212,,18,32,138,39,29,28,086,38*7C
$GPGSV,3,2,09,30,34,159,39,21,78,085,36,22,08,173,,03,26,287,32*70
$GPGSV,3,3,09,06,42,287,,,,,,,,,,,,,*4D
$GPGSA,M,3,18,29,30,21,03,,,,,,,,2.8,1.5,2.4*37
Trace #24 at position 5.750000
$GPZDA,125555.03,06,10,2011,00,00*63
$GPRMC,125555.00,A,4611.954954,N,01258.209524,E,000.5,333.8,061011,0.2,E,A*39
$GPGGA,125556.00,4611.954868,N,01258.210016,E,1,05,1.5,127.42,M,46.25,M,,*6C
$GPGLL,4611.954868,N,000.8,K,A*2E
$GPGSV,3,1,09,16,47,304,,31,13,212,,18,32,138,40,29,28,086,40*7D
$GPGSV,3,2,09,30,34,159,39,21,78,085,36,22,08,173,,03,26,287,31*73
$GPGSV,3,3,09,06,42,287,,,,,,,,,,,,,*4D
$GPGSA,M,3,18,29,30,21,03,,,,,,,,2.8,1.5,2.4*37
Trace #25 at position 6.000000
$GPZDA,125556.03,06,10,2011,00,00*60
$GPRMC,125556.00,A,4611.954868,N,01258.210016,E,000.4,346.2,061011,0.2,E,A*31
$GPGGA,125557.00,4611.954760,N,01258.210491,E,1,05,1.5,128.33,M,46.25,M,,*68
$GPGLL,4611.954760,N,01258.210491,E,125557.00,A,A*62
$GPVTG,359.2,T,359.3,M,00008,173,,03,26,287,30*73
$GPGSV,3,3,09,06,42,287,,,,,,,,,,,,,*4D
$GPGSA,M,3,18,29,30,21,03,,,,,,,,2.8,1.5,2.4*37
Trace #26 at position 6.250000
$GPZDA,125557.03,06,10,2011,00,00*61
$GPRMC,125557.00,A,4611.954760,N,01258.210491,E,000.1,359.2,061011,0.2,E,A*37
$GPGGA,125558.00,4611.954667,N,01258.210918,E,1,05,1.5,129.15,M,46.25,M,,*68
$GPGLL,4611.954667,N,01258.210918,E,125558.00,A,A*67
$GPVTG,349.0,T,349.1,M,000.4,N,000.7,K,A*21
$GPGSV,3,1,09,16,47,304,,31,13,212,,18,32,138,41,29,28,086,38*73
$GPGSV,3,2,09,30,34,159,38,21,78,085,,,,*4D
$GPGSA,M,3,18,29,30,21,03,,,,,,,,2.8,1.5,2.4*37
Trace #27 at position 6.500000
$GPZDA,125557.03,06,10,2011,00,00*61
$GPRMC,125557.00,A,4611.954760,N,01258.210491,E,000.1,359.2,061011,0.2,E,A*37
$GPGGA,125558.00,4611.954667,N,01258.210918,E,1,05,1.5,129.15,M,46.25,M,,*68
$GPGLL,4611.954667,N,01258.210918,E,125558.00,A,A*67
$GPVTG,349.0,T,349.1,M,000.4,N,000.7,K,A*21
$GPGSV,3,1,09,16,47,304,,31,13,212,,18,32,138,41,29,28,086,38*73
$GPGSV,3,2,09,30,34,159,38,21,78,085,,,,*4D
$GPGSA,M,3,18,29,30,21,03,,,,,,,,2.8,1.5,2.4*37
Trace #28 at position 6.750000
$GPZDA,125557.03,06,10,2011,00,00*61
$GPRMC,125557.00,A,4611.954760,N,01258.210491,E,000.1,359.2,061011,0.2,E,A*37
$GPGGA,125558.00,4611.954667,N,01258.210918,E,1,05,1.5,129.15,M,46.25,M,,*68
$GPGLL,4611.954667,N,01258.210918,E,125558.00,A,A*67
$GPVTG,349.0,T,349.1,M,000.4,N,000.7,K,A*21
$GPGSV,3,1,09,16,47,304,,31,13,212,,18,32,138,41,29,28,086,38*73
$GPGSV,3,2,09,30,34,159,38,21,78,085,,,,*4D
$GPGSA,M,3,18,29,30,21,03,,,,,,,,2.8,1.5,2.4*37
Trace #29 at position 7.000000
$GPZDA,125558.03,06,10,2011,00,00*6E
$GPRMC,125558.00,A,4611.954667,N,01258.210918,E,000.4,349.0,061011,0.2,E,A*34
$GPGGA,125559.00,4611.954957,N,01258.210460,E,1,04,9.6,128.37,M,46.25,M,,*6C
$GPGLL,4611.954957,N,01258.210460,E,125559.00,A,A*68
$GPVTG,316.8,T,317.0,M,001.4,N,002.7,K,A*2A
$GPGSV,3,1,09,16,47,304,,31,13,212,,18,32,138,40,29,28,086,39*73
$GPGSV,3,2,09,30,34,159,39,21,78,085,37,22,09,173,,03,26,287,29*7A
$GPGSV,3,3,09,06,42,287,,,,60,E,001.4,316.8,061011,0.2,E,A*38
$GPGGA,125600.00,4611.955275,N,01258.209972,E,1,04,9.6,127.22,M,46.25,M,,*64
$GPGLL,4611.955275,N,01258.209972,E,125600.00,A,A*6B
$GPVTG,338.1,T,338.2,M,000.6,N,001.1,K,A*26
$GPGSV,3,1,09,16,47,304,,31,13,212,,18,32,138,41,29,28,086,38*73
$GPGSV,3,2,09,30,34,159,39,21,78,085,34,22,09,173,,03,26,287,29*79
$GPGSV,3,3,09,06,42,287,,,,,,,,,,,,,*4D
$GPGSA,M,3,18,29,30,21,,,,,,,,,15.2,9.6,11.8*3D
Trace #30 at position 7.250000
$GPZDA,125600.03,06,10,2011,00,00*60
$GPRMC,125600.00,A,4611.955275,N,0125$GPGGA,125601.00,4611.955444,N,01258.209819,E,1,04,9.6,126.65,M,46.25,M,,*6F
$GPGLL,4611.955444,N,01258.209819,E,125601.00,A,A*62
$GPVTG,84.3,T,84.5,M,000.6,N,001.1,K,A*23
$GPGSV,3,1,09,16,47,304,,31,13,212,,18,32,138,40,29,28,086,40*7D
$GPGSV,3,2,09,30,34,159,39,21,78,085,34,22,09,173,,03,26,287,31*70
$GPGSV,3,3,09,06,42,287,,,,,,,,,,,,,*4D
$GPGSA,M,3,18,29,30,21,,,,,,,,,15.2,9.6,11.7*32
Trace #31 at position 7.500000
$GPZDA,125601.03,06,10,2011,00,00*61
$GPRMC,125601.00,A,4611.955444,N,01258.209819,E,000.6,84.3,061011,0.2,E,A*0$GPGGA,125602.00,4611.955555,N,01258.209695,E,1,04,9.6,126.50,M,46.25,M,,*61
$GPGLL,4611.955555,N,01258.209695,E,125602.00,A,A*6A
$GPVTG,325.6,T,325.8,M,000.1,N,000.3,K,A*2F
$GPGSV,3,1,09,16,47,304,,31,13,212,,18,32,138,40,29,28,086,39*73
$GPGSV,3,2,09,30,34,159,37,21,78,085,34,22,09,173,,03,26,287,32*7D
$GPGSV,3,3,09,06,42,287,,,,,,,,,,,,,*4D
$GPGSA,M,3,18,29,30,21,,,,,,,,,15.2,9.6,11.7*32
Trace #32 at position 7.750000
$GPZDA,125601.03,06,10,2011,00,00*61
$GPRMC,125601.00,A,4611.955444,N,01258.209819,E,000.6,84.3,061011,0.2,E,A*0$GPGGA,125602.00,4611.955555,N,01258.209695,E,1,04,9.6,126.50,M,46.25,M,,*61
$GPGLL,4611.955555,N,01258.209695,E,125602.00,A,A*6A
$GPVTG,325.6,T,325.8,M,000.1,N,000.3,K,A*2F
$GPGSV,3,1,09,16,47,304,,31,13,212,,18,32,138,40,29,28,086,39*73
$GPGSV,3,2,09,30,34,159,37,21,78,085,34,22,09,173,,03,26,287,32*7D
$GPGSV,3,3,09,06,42,287,,,,,,,,,,,,,*4D
$GPGSA,M,3,18,29,30,21,,,,,,,,,15.2,9.6,11.7*32
Trace #33 at position 8.000000
$GPZDA,125602.03,06,10,2011,00,00*62
$GPRMC,125602.00,A,4611.955555,N,01258.209695,E,000.1,325.6,061011,0.2,E,$GPGGA,125603.00,4611.955744,N,01258.209470,E,1,04,9.6,126.30,M,46.25,M,,*6D
$GPGLL,4611.955744,N,01258.209470,E,125603.00,A,A*60
$GPVTG,355.3,T,355.5,M,000.7,N,001.3,K,A*20
$GPGSV,3,1,09,16,47,304,,31,13,212,,18,32,138,40,29,28,086,39*73
$GPGSV,3,2,09,30,34,159,37,21,78,085,34,22,09,173,,03,26,287,33*7C
$GPGSV,3,3,09,06,42,287,,,,,,,,,,,,,*4D
$GPGSA,M,3,18,29,30,21,,,,,,,,,15.1,9.6,11.7*31
Trace #34 at position 8.250000
$GPZDA,125603.03,06,10,2011,00,00*63
$GPRMC,125603.00,A,4611.955744,N,01258.209470,E,000.7,355.3,061011,0.2,E,$GPGGA,125604.00,4611.955988,N,01258.209341,E,1,04,9.6,126.19,M,46.25,M,,*6A
$GPGLL,4611.955988,N,01258.209341,E,125604.00,A,A*6C
$GPVTG,32.5,T,32.6,M,000.7,N,001.3,K,A*25
$GPGSV,3,1,09,16,47,304,,31,13,212,,18,32,138,41,29,28,086,38*73
$GPGSV,3,2,09,30,34,159,39,21,78,085,35,22,09,173,,03,26,287,32*72
$GPGSV,3,3,09,06,42,287,,,,,,,,,,,,,*4D
$GPGSA,M,3,18,29,30,21,,,,,,,,,15.1,9.6,11.7*31
Trace #35 at position 8.500000
$GPZDA,125603.03,06,10,2011,00,00*63
$GPRMC,125603.00,A,4611.955744,N,01258.209470,E,000.7,355.3,061011,0.2,E,$GPGGA,125604.00,4611.955988,N,01258.209341,E,1,04,9.6,126.19,M,46.25,M,,*6A
$GPGLL,4611.955988,N,01258.209341,E,125604.00,A,A*6C
$GPVTG,32.5,T,32.6,M,000.7,N,001.3,K,A*25
$GPGSV,3,1,09,16,47,304,,31,13,212,,18,32,138,41,29,28,086,38*73
$GPGSV,3,2,09,30,34,159,39,21,78,085,35,22,09,173,,03,26,287,32*72
$GPGSV,3,3,09,06,42,287,,,,,,,,,,,,,*4D
$GPGSA,M,3,18,29,30,21,,,,,,,,,15.1,9.6,11.7*31
Trace #36 at position 8.750000
$GPZDA,125604.03,06,10,2011,00,00*64
$GPRMC,125604.00,A,4611.955988,N,01258.209341,E,000.7,32.5,061011,0.2,E,A*0$GPGGA,125605.00,4611.956263,N,01258.209202,E,1,04,9.6,126.05,M,46.25,M,,*6D
$GPGLL,4611.956263,N,01258.209202,E,125605.00,A,A*66
$GPVTG,353.0,T,353.2,M,001.0,N,001.8,K,A*29
$GPGSV,3,1,09,16,47,304,,31,13,212,,18,32,138,40,29,28,086,40*7D
$GPGSV,3,2,09,30,34,159,39,21,78,085,36,22,09,173,,03,26,287,32*71
$GPGSV,3,3,09,06,42,287,,,,,,,,,,,,,*4D
$GPGSA,M,3,18,29,30,21,,,,,,,,,15.1,9.6,11.7*31
Trace #37 at position 9.000000
$GPZDA,125605.03,06,10,2011,00,00*65
$GPRMC,125605.00,A,4611.956263,N,01258.209202,E,001.0,353.0,061011,0.2,E,$GPGGA,125606.00,4611.956480,N,01258.208983,E,1,04,9.6,125.90,M,46.25,M,,*69
$GPGLL,4611.956480,N,01258.208983,E,125606.00,A,A*6D
$GPVTG,331.9,T,332.1,M,000.3,N,000.5,K,A*2E
$GPGSV,3,1,09,16,47,304,,31,13,212,,18,32,138,39,29,28,086,38*7C
$GPGSV,3,2,09,30,34,159,40,21,78,085,35,22,09,173,,03,26,287,33*7D
$GPGSV,3,3,09,06,42,287,,,,,,,,,,,,,*4D
$GPGSA,M,3,18,29,30,21,,,,,,,,,15.1,9.6,11.7*31
Trace #38 at position 9.250000
$GPZDA,125606.03,06,10,2011,00,00*66
$GPRMC,125606.00,A,4611.956480,N,01258.208983,E,000.3,331.9,061011,0.2,E,1258.208769,E,1,04,9.5,125.81,M,46.25,M,,*6B
$GPGLL,4611.956622,N,01258.208769,E,125607.00,A,A*6C
$GPVTG,334.6,T,334.7,M,000.5,N,000.9,K,A*2E
$GPGSV,3,1,09,16,47,304,,31,13,212,,18,32,138,40,29,28,086,40*7D
$GPGSV,3,2,09,30,34,159,40,21,78,085,34,22,09,173,,03,26,287,31*7E
$GPGSV,3,3,09,06,42,287,,,,,,,,,,,,,*4D
$GPGSA,M,3,18,29,30,21,,,,,,,,,15.1,9.5,11.6*33
Trace #39 at position 9.500000
$GPZDA,125607.03,06,10,2011,00,00*67
$GPRMC,125607.00,A,4611.956622,N,01258.208769,E,000.5,334.6,061011,0.2,E,A*32
$GPGGA,125608.00,4611.9568956809,N,01258.208665,E,125608.00,A,A*69
$GPVTG,32.4,T,32.5,M,000.7,N,001.3,K,A*27
$GPGSV,3,1,09,16,47,304,,31,13,212,,18,32,138,40,29,28,086,39*73
$GPGSV,3,2,09,30,34,159,39,21,78,085,33,22,09,173,,03,26,287,*75
$GPGSV,3,3,09,06,42,287,,,,,,,,,,,,,*4D
$GPGSA,M,3,18,29,30,21,,,,,,,,,15.1,9.5,11.6*33
Trace #40 at position 9.750000
$GPZDA,125608.03,06,10,2011,00,00*68
$GPRMC,125608.00,A,4611.956809,N,01258.208665,E,000.7,32.4,061011,0.2,E,A*02
$GPGGA,125609.00,4611.957011,N,01258.208611,E,1,04,9.5,125.87,M,46.25,M,,*6A
$GPGLL,46112B
$GPGSV,3,1,09,16,47,304,,31,13,212,,18,32,138,40,29,28,086,39*73
$GPGSV,3,2,09,30,33,159,40,21,78,085,35,22,09,173,,03,26,287,*7A
$GPGSV,3,3,09,06,42,287,,,,,,,,,,,,,*4D
$GPGSA,M,3,18,29,30,21,,,,,,,,,15.0,9.5,11.6*32
Trace #41 at position 10.000000
$GPZDA,125609.03,06,10,2011,00,00*69
$GPRMC,125609.00,A,4611.957011,N,01258.208611,E,000.6,5.7,061011,0.2,E,A*36
$GPGGA,125610.00,4611.957223,N,01258.208415,E,1,04,9.5,125.73,M,46.25,M,,*6C
$GPGLL,4611.957223,N,01258.208415,E,125610.00,A,A*66
$GPVTG,326.7,T,326.8,M,000.9,N,001.6,K,,39*73
$GPGSV,3,2,09,30,33,159,40,21,78,085,35,22,09,173,,03,26,287,31*78
$GPGSV,3,3,09,06,42,287,,,,,,,,,,,,,*4D
$GPGSA,M,3,18,29,30,21,,,,,,,,,15.0,9.5,11.6*32
Trace #42 at position 10.250000
$GPZDA,125609.03,06,10,2011,00,00*69
$GPRMC,125609.00,A,4611.957011,N,01258.208611,E,000.6,5.7,061011,0.2,E,A*36
$GPGGA,125610.00,4611.957223,N,01258.208415,E,1,04,9.5,125.73,M,46.25,M,,*6C
$GPGLL,4611.957223,N,01258.208415,E,125610.00,A,A*66
$GPVTG,326.7,T,326.8,M,000.9,N,001.6,K,,39*73
$GPGSV,3,2,09,30,33,159,40,21,78,085,35,22,09,173,,03,26,287,31*78
$GPGSV,3,3,09,06,42,287,,,,,,,,,,,,,*4D
$GPGSA,M,3,18,29,30,21,,,,,,,,,15.0,9.5,11.6*32
Trace #43 at position 10.500000
$GPZDA,125610.03,06,10,2011,00,00*61
$GPRMC,125610.00,A,4611.957223,N,01258.208415,E,000.9,326.7,061011,0.2,E,A*36
$GPGGA,125611.00,4611.957432,N,01258.208220,E,1,04,9.5,125.61,M,46.25,M,,*68
$GPGLL,4611.957432,N,01258.208220,E,125611.00,A,A*61
$GPVTG,353.3,T,353.5,M,000.6,N,001.2,K,A*20
$GPGSV,3,1,09,16,47,304,,31,13,212,,18,32,138,40,29,,03,26,287,31*75
$GPGSV,3,3,09,06,42,288,,,,,,,,,,,,,*42
$GPGSA,M,3,18,29,30,21,,,,,,,,,15.0,9.5,11.6*32
Trace #44 at position 10.750000
$GPZDA,125611.03,06,10,2011,00,00*60
$GPRMC,125611.00,A,4611.957432,N,01258.208220,E,000.6,353.3,061011,0.2,E,A*38
$GPGGA,125612.00,4611.957660,N,01258.208080,E,1,04,9.5,125.52,M,46.25,M,,*66
$GPGLL,4611.957660,N,01258.208080,E,125612.00,A,A*6F
$GPVTG,346.6,T,346.8,M,000.9,N,001.7,K,A*22
$GPGSV,3,1,09,16,47,304,,31,13,212,,18,32,138,40,29,28,086,39*73
$GPGSV,3,2,09,30,33,159,39,21,78,085,36,22,09,30,21,,,,,,,,,15.0,9.5,11.6*32
$GPZDA,125612.03,06,10,2011,00,00*63
$GPRMC,125612.00,A,4611.957660,N,01258.208080,E,000.9,346.6,061011,0.2,E,A*38
$GPGGA,125613.00,4611.957854,N,01258.207950,E,1,04,9.5,125.44,M,46.25,M,,*62
$GPGLL,4611.957854,N,01258.207950,E,125613.00,A,A*6C
$GPVTG,351.0,T,351.1,M,000.4,N,000.8,K,A*2E
$GPGSV,3,1,09,16,47,304,,31,13,212,,18,32,138,40,29,28,086,40*7D
$GPGSV,3,2,09,30,33,159,39,21,78,085,36,22,09,173,,03,26,287,31*75
$GPGSV,3,3,09,06,42,288,,,,,,,,,,,,,*42
$GPGSA,M,011,00,00*62
Trace #45 at position 11.000000
$GPRMC,125613.00,A,4611.957854,N,01258.207950,E,000.4,351.0,061011,0.2,E,A*36
$GPGGA,125614.00,4611.957981,N,01258.207837,E,1,04,9.5,125.41,M,46.25,M,,*69
$GPGLL,4611.957981,N,01258.207837,E,125614.00,A,A*62
$GPVTG,340.6,T,340.8,M,000.4,N,000.8,K,A*21
$GPGSV,3,1,09,16,47,304,,31,13,212,,18,32,138,40,29,28,086,40*7D
$GPGSV,3,2,09,30,33,159,40,21,78,085,35,22,09,173,,03,26,287,31*78
$GPGSV,3,3,09,06,42,288,,,,,,,,,,,,,*42
$GPGSA,M,3,18,29,30,21,,,,,,,,,14.9,9.5,11.6*3A
Trace #46 at position 11.250000
$GPZDA,125615.03,06,10,2011,00,00*64
$GPRMC,125615.00,A,4611.958108,N,01258.2$GPGGA,125616.00,4611.958269,N,01258.207796,E,1,04,9.5,125.64,M,46.25,M,,*6A
$GPGLL,4611.958269,N,01258.207796,E,125616.00,A,A*66
$GPVTG,29.6,T,29.8,M,000.8,N,001.4,K,A*20
$GPGSV,3,1,09,16,47,304,,31,13,212,,18,32,138,40,29,28,086,39*73
$GPGSV,3,2,09,30,33,159,38,21,77,084,36,22,09,173,,03,26,287,*78
$GPGSV,3,3,09,06,42,288,,,,,,,,,,,,,*42
$GPGSA,M,3,18,29,30,21,,,,,,,,,14.9,9.5,11.5*39
Trace #47 at position 11.500000
$GPZDA,125615.03,06,10,2011,00,00*64
$GPRMC,125615.00,A,4611.958108,N,01258.2$GPGGA,125616.00,4611.958269,N,01258.207796,E,1,04,9.5,125.64,M,46.25,M,,*6A
$GPGLL,4611.958269,N,01258.207796,E,125616.00,A,A*66
$GPVTG,29.6,T,29.8,M,000.8,N,001.4,K,A*20
$GPGSV,3,1,09,16,47,304,,31,13,212,,18,32,138,40,29,28,086,39*73
$GPGSV,3,2,09,30,33,159,38,21,77,084,36,22,09,173,,03,26,287,*78
$GPGSV,3,3,09,06,42,288,,,,,,,,,,,,,*42
$GPGSA,M,3,18,29,30,21,,,,,,,,,14.9,9.5,11.5*39
Trace #48 at position 11.750000
$GPZDA,125616.03,06,10,2011,00,00*67
$GPRMC,125616.00,A,4611.958269,N,01258.207796,E,000.8,29.6,061011,0.2,E,A*0A$GPGGA,125617.00,4611.958459,N,01258.207777,E,1,04,9.4,125.67,M,46.25,M,,*63
$GPGLL,4611.958459,N,01258.207777,E,125617.00,A,A*6D
$GPVTG,357.2,T,357.3,M,000.6,N,001.2,K,A*27
$GPGSV,3,1,09,16,47,304,,31,13,212,,18,32,138,39,29,28,086,38*7C
$GPGSV,3,2,09,30,33,159,39,21,77,084,36,22,09,173,,03,26,287,28*73
$GPGSV,3,3,09,06,42,288,,,,,,,,,,,,,*42
$GPGSA,M,3,18,29,30,21,,,,,,,,,14.9,9.4,11.5*38
Trace #49 at position 12.000000
$GPZDA,125617.03,06,10,2011,00,00*66
$GPRMC,125617.00,A,4611.958459,N,01258.207777,E,000.6,357.2,061011,0.2,E,$GPGGA,125618.00,4611.958570,N,01258.207825,E,1,04,9.4,125.84,M,46.25,M,,*63
$GPGLL,4611.958570,N,01258.207825,E,125618.00,A,A*60
$GPVTG,81.9,T,82.1,M,000.8,N,001.4,K,A*25
$GPGSV,3,1,09,16,47,304,,31,13,212,,18,32,138,40,29,28,086,39*73
$GPGSV,3,2,09,30,33,159,39,21,77,084,36,22,09,173,,03,26,287,32*78
$GPGSV,3,3,09,06,42,288,,,,,,,,,,,,,*42
$GPGSA,M,3,18,29,30,21,,,,,,,,,14.9,9.4,11.5*38
Trace #50 at position 12.250000
$GPZDA,125618.03,06,10,2011,00,00*69
$GPRMC,125618.00,A,4611.958570,N,01258.207825,E,000.8,81.9,061011,0.2,E,A*0$GPGGA,125619.00,4611.958657,N,01258.207891,E,1,04,9.4,125.94,M,46.25,M,,*6A
$GPGLL,4611.958657,N,01258.207891,E,125619.00,A,A*68
$GPVTG,18.8,T,18.9,M,000.4,N,000.8,K,A*2E
$GPGSV,3,1,09,16,47,304,,31,13,212,,18,32,138,41,29,28,086,39*72
$GPGSV,3,2,09,30,33,159,39,21,77,084,37,22,09,173,,03,26,287,33*78
$GPGSV,3,3,09,06,42,288,,,,,,,,,,,,,*42
$GPGSA,M,3,18,29,30,21,,,,,,,,,14.8,9.4,11.5*39
Trace #51 at position 12.500000
$GPZDA,125620.03,06,10,2011,00,00*62
$GPRMC,125620.00,A,4611.958785,N,01258.207760,E,000.5,332.3,061011,0.2,E,1258.207478,E,1,04,9.4,125.59,M,46.25,M,,*6F
$GPGLL,4611.958909,N,01258.207478,E,125621.00,A,A*6C
$GPVTG,298.6,T,298.8,M,000.8,N,001.5,K,A*21
$GPGSV,3,1,09,16,48,304,,31,13,212,,18,32,138,40,29,28,086,38*7D
$GPGSV,3,2,09,30,33,159,39,21,77,084,37,22,09,173,,03,26,287,32*79
$GPGSV,3,3,09,06,42,288,,,,,,,,,,,,,*42
$GPGSA,M,3,18,29,30,21,,,,,,,,,14.8,9.4,11.5*39
Trace #52 at position 12.750000
$GPZDA,125621.03,06,10,2011,00,00*63
$GPRMC,125621.00,A,4611.958909,N,01258.207478,E,000.8,298.6,061011,0.2,E,A*38
$GPGGA,125622.00,4611.9586958691,N,01258.207995,E,125622.00,A,A*6F
$GPVTG,273.6,T,273.8,M,000.3,N,000.6,K,A*28
$GPGSV,3,1,09,16,48,304,,31,13,212,,18,32,138,40,29,28,086,39*7C
$GPGSV,3,2,09,30,33,159,38,21,77,084,37,22,09,173,,03,26,287,33*79
$GPGSV,3,3,09,06,42,288,,,,,,,,,,,,,*42
$GPGSA,M,3,18,29,30,21,03,,,,,,,,2.8,1.5,2.4*37
Trace #53 at position 13.000000
$GPZDA,125622.03,06,10,2011,00,00*60
$GPRMC,125622.00,A,4611.958691,N,01258.207995,E,000.3,273.6,061011,0.2,E,A*35
$GPGGA,125623.00,4611.958521,N,01258.208370,E,1,05,1.5,127.83,M,46.25,M,,*66
$GPGLL01.0,K,A*26
$GPGSV,3,1,09,16,48,304,,31,13,212,,18,32,138,40,29,28,086,39*7C
$GPGSV,3,2,09,30,33,159,39,21,77,084,36,22,09,173,,03,26,287,30*7A
$GPGSV,3,3,09,06,42,288,,,,,,,,,,,,,*42
$GPGSA,M,3,18,29,30,21,03,,,,,,,,2.8,1.5,2.4*37
Trace #54 at position 13.250000
$GPZDA,125623.03,06,10,2011,00,00*61
$GPRMC,125623.00,A,4611.958521,N,01258.208370,E,000.6,281.4,061011,0.2,E,A*38
$GPGGA,125624.00,4611.958532,N,01258.208670,E,1,05,1.5,128.46,M,46.25,M,,*60
$GPGLL,4611.958532,N,01258.208670,E,125624.00,A,A*68
$GPVTG,341.9,T,342.1,M,0013,3,09,06,42,288,,,,,,,,,,,,,*42
$GPGSA,M,3,18,29,30,21,03,,,,,,,,2.8,1.5,2.4*37
Trace #55 at position 13.500000
$GPZDA,125624.03,06,10,2011,00,00*66
$GPRMC,125624.00,A,4611.958532,N,01258.208670,E,001.2,341.9,061011,0.2,E,A*3D
$GPGGA,125625.00,4611.958858,N,01258.208415,E,1,04,9.3,127.80,M,46.25,M,,*6B
$GPGLL,4611.958858,N,01258.208415,E,125625.00,A,A*69
$GPVTG,13.7,T,13.9,M,000.7,N,001.3,K,A*28
$GPGSV,3,1,09,16,48,304,,31,13,212,,18,32,138,39,29,28,086,37*7C
$GPGSV,3,2,09,30,33,159,39,21,77,084,36,22,09,173,,03,26,287,30*7A
$GP258.208415,E,000.7,13.7,061011,0.2,E,A*02
$GPGGA,125626.00,4611.959109,N,01258.208139,E,1,04,9.3,127.25,M,46.25,M,,*60
$GPGLL,4611.959109,N,01258.208139,E,125626.00,A,A*6D
$GPVTG,329.3,T,329.5,M,000.8,N,001.5,K,A*29
$GPGSV,3,1,09,16,48,304,,31,13,212,,18,32,138,40,29,28,086,38*7D
$GPGSV,3,2,09,30,33,159,40,21,77,084,36,22,09,173,,03,26,287,31*75
$GPGSV,3,3,09,06,42,288,,,,,,,,,,,,,*42
$GPGSA,M,3,18,29,30,21,,,,,,,,,14.7,9.3,11.4*30
Trace #56 at position 13.750000
$GPZDA,125626.03,06,10,2011,00,00*64
$GPRMC,125626.00,A,4611.959109$GPGGA,125627.00,4611.959344,N,01258.207769,E,1,04,9.3,126.66,M,46.25,M,,*60
$GPGLL,4611.959344,N,01258.207769,E,125627.00,A,A*6B
$GPVTG,320.8,T,321.0,M,000.9,N,001.7,K,A*25
$GPGSV,3,1,09,16,48,304,,31,13,212,,18,32,138,40,29,28,086,38*7D
$GPGSV,3,2,09,30,33,159,40,21,77,084,36,22,09,173,,03,26,287,*77
$GPGSV,3,3,09,06,42,288,,,,,,,,,,,,,*42
$GPGSA,M,3,18,29,30,21,,,,,,,,,14.7,9.3,11.4*30
Trace #57 at position 14.000000
$GPZDA,125627.03,06,10,2011,00,00*65
$GPRMC,125627.00,A,4611.959344,N,01258.207769,E,000.9,320.8,061011,0.2,E,A*$GPGGA,125628.00,4611.959479,N,01258.207577,E,1,04,9.3,126.50,M,46.25,M,,*6E
$GPGLL,4611.959479,N,01258.207577,E,125628.00,A,A*60
$GPVTG,92.7,T,92.8,M,000.4,N,000.8,K,A*20
$GPGSV,3,1,09,16,48,304,,31,13,212,,18,32,138,40,29,28,086,39*7C
$GPGSV,3,2,09,30,33,159,39,21,77,084,37,22,09,173,,03,26,287,32*79
$GPGSV,3,3,09,06,42,288,,,,,,,,,,,,,*42
$GPGSA,M,3,18,29,30,21,,,,,,,,,14.7,9.3,11.4*30
Trace #58 at position 14.250000
$GPZDA,125628.03,06,10,2011,00,00*6A
$GPRMC,125628.00,A,4611.959479,N,01258.207577,E,000.4,92.7,061011,0.2,E,A*0$GPGGA,125629.00,4611.959557,N,01258.207468,E,1,04,9.3,126.49,M,46.25,M,,*65
$GPGLL,4611.959557,N,01258.207468,E,125629.00,A,A*63
$GPVTG,327.1,T,327.3,M,000.3,N,000.5,K,A*27
$GPGSV,3,1,09,16,48,304,,31,12,212,,18,32,138,39,29,28,086,40*7D
$GPGSV,3,2,09,30,33,159,40,21,77,084,35,22,09,173,,03,26,287,30*77
$GPGSV,3,3,09,06,42,288,,,,,,,,,,,,,*42
$GPGSA,M,3,18,29,30,21,,,,,,,,,14.7,9.3,11.3*37
Trace #59 at position 14.500000
$GPZDA,125629.03,06,10,2011,00,00*6B
$GPRMC,125629.00,A,4611.959557,N,01258.207468,E,000.3,327.1,061011,0.2,E,$GPGGA,125630.00,4611.959682,N,01258.207256,E,1,04,9.3,126.34,M,46.25,M,,*67
$GPGLL,4611.959682,N,01258.207256,E,125630.00,A,A*6B
$GPVTG,331.7,T,331.8,M,000.4,N,000.8,K,A*20
$GPGSV,3,1,09,16,48,304,,31,12,212,,18,32,138,39,29,28,086,38*72
$GPGSV,3,2,09,30,33,159,40,21,77,084,36,22,09,173,,03,26,287,32*76
$GPGSV,3,3,09,06,42,288,,,,,,,,,,,,,*42
$GPGSA,M,3,18,29,30,21,,,,,,,,,14.7,9.3,11.3*37
Trace #60 at position 14.750000
$GPZDA,125630.03,06,10,2011,00,00*63
$GPRMC,125630.00,A,4611.959682,N,01258.207256,E,000.4,331.7,061011,0.2,E,$GPGGA,125631.00,4611.959588,N,01258.207813,E,1,05,1.5,127.59,M,46.25,M,,*61
$GPGLL,4611.959588,N,01258.207813,E,125631.00,A,A*68
$GPVTG,337.3,T,337.5,M,000.9,N,001.6,K,A*2B
$GPGSV,3,1,09,16,48,304,,31,12,212,,18,32,138,39,29,28,086,38*72
$GPGSV,3,2,09,30,33,159,41,21,77,084,36,22,09,173,,03,26,287,33*76
$GPGSV,3,3,09,06,42,288,,,,,,,,,,,,,*42
$GPGSA,M,3,18,29,30,21,03,,,,,,,,2.8,1.5,2.4*37
Trace #61 at position 15.000000
$GPZDA,125631.03,06,10,2011,00,00*62
$GPRMC,125631.00,A,4611.959588,N,01258.207813,E,000.9,337.3,061011,0.2,E,$GPGGA,125632.00,4611.959663,N,01258.208181,E,1,05,1.5,128.43,M,46.25,M,,*6D
$GPGLL,4611.959663,N,01258.208181,E,125632.00,A,A*60
$GPVTG,344.9,T,345.0,M,001.2,N,002.3,K,A*29
$GPGSV,3,1,09,16,48,304,,31,12,212,,18,32,138,40,29,28,086,38*7C
$GPGSV,3,2,09,30,33,159,40,21,77,084,35,22,09,173,,03,26,287,30*77
$GPGSV,3,3,09,06,42,288,,,,,,,,,,,,,*42
$GPGSA,M,3,18,29,30,21,03,,,,,,,,2.8,1.5,2.4*37
Trace #62 at position 15.250000
$GPZDA,125631.03,06,10,2011,00,00*62
$GPRMC,125631.00,A,4611.959588,N,01258.207813,E,000.9,337.3,061011,0.2,E,$GPGGA,125632.00,4611.959663,N,01258.208181,E,1,05,1.5,128.43,M,46.25,M,,*6D
$GPGLL,4611.959663,N,01258.208181,E,125632.00,A,A*60
$GPVTG,344.9,T,345.0,M,001.2,N,002.3,K,A*29
$GPGSV,3,1,09,16,48,304,,31,12,212,,18,32,138,40,29,28,086,38*7C
$GPGSV,3,2,09,30,33,159,40,21,77,084,35,22,09,173,,03,26,287,30*77
$GPGSV,3,3,09,06,42,288,,,,,,,,,,,,,*42
$GPGSA,M,3,18,29,30,21,03,,,,,,,,2.8,1.5,2.4*37
Trace #63 at position 15.500000
$GPZDA,125632.03,06,10,2011,00,00*61
$GPRMC,125632.00,A,4611.959663,N,01258.208181,E,001.2,344.9,061011,0.2,E,1258.207914,E,1,04,9.3,127.99,M,46.25,M,,*69
$GPGLL,4611.959903,N,01258.207914,E,125633.00,A,A*63
$GPVTG,348.6,T,348.7,M,000.2,N,000.4,K,A*24
$GPGSV,3,1,09,16,48,304,,31,12,212,,18,32,138,39,29,28,086,39*73
$GPGSV,3,2,09,30,33,159,39,21,77,084,37,22,09,173,,03,26,287,32*79
$GPGSV,3,3,09,06,42,288,,,,,,,,,,,,,*42
$GPGSA,M,3,18,29,30,21,,,,,,,,,14.6,9.3,11.3*36
Trace #64 at position 15.750000
$GPZDA,125633.03,06,10,2011,00,00*60
$GPRMC,125633.00,A,4611.959903,N,01258.207914,E,000.2,348.6,061011,0.2,E,A*31
$GPGGA,125634.00,4611.9597959782,N,01258.208462,E,125634.00,A,A*60
$GPVTG,349.9,T,350.0,M,000.7,N,001.3,K,A*27
$GPGSV,3,1,09,16,48,304,,31,12,212,,18,32,138,39,29,28,086,38*72
$GPGSV,3,2,09,30,33,159,39,21,77,084,35,22,09,173,,03,26,287,32*7B
$GPGSV,3,3,09,06,42,288,,,,,,,,,,,,,*42
$GPGSA,M,3,18,29,30,21,03,,,,,,,,2.8,1.5,2.4*37
Trace #65 at position 16.000000
$GPZDA,125634.03,06,10,2011,00,00*67
$GPRMC,125634.00,A,4611.959782,N,01258.208462,E,000.7,349.9,061011,0.2,E,A*39
$GPGGA,125635.00,4611.959753,N,01258.208925,E,1,05,1.5,129.94,M,46.25,M,,*65
$GPGLLGSV,3,1,09,16,48,304,,31,12,212,,18,32,138,40,29,28,086,38*7C
$GPGSV,3,2,09,30,33,159,39,21,77,084,36,22,09,173,,03,26,287,32*78
$GPGSV,3,3,09,06,42,288,,,,,,,,,,,,,*42
$GPGSA,M,3,18,29,30,21,03,,,,,,,,2.8,1.5,2.4*37
Trace #66 at position 16.250000
$GPZDA,125635.03,06,10,2011,00,00*66
$GPRMC,125635.00,A,4611.959753,N,01258.208925,E,000.7,352.3,061011,0.2,E,A*3A
$GPGGA,125636.00,4611.959695,N,01258.209337,E,1,05,1.5,130.70,M,46.25,M,,*67
$GPGLL,4611.959695,N,01258.209337,E,125636.00,A,A*63
$GPVTG,354.6,T,354.7,M,000.3,N,000.6,K,A*209,30,33,159,39,21,77,084,36,22,09,173,,03,26,287,32*78
$GPGSV,3,3,09,06,42,288,,,,,,,,,,,,,*42
$GPGSA,M,3,18,29,30,21,03,,,,,,,,2.8,1.5,2.4*37
Trace #67 at position 16.500000
$GPZDA,125636.03,06,10,2011,00,00*65
$GPRMC,125636.00,A,4611.959695,N,01258.209337,E,000.3,354.6,061011,0.2,E,A*3D
$GPGGA,125637.00,4611.959660,N,01258.209679,E,1,05,1.5,131.20,M,46.25,M,,*67
$GPGLL,4611.959660,N,01258.209679,E,125637.00,A,A*67
$GPVTG,343.8,T,343.9,M,000.8,N,001.4,K,A*2F
$GPGSV,3,1,09,16,48,304,,31,12,212,,18,32,138,39,29,28,086,38*72
$GPGSGPGSV,3,3,09,06,42,288,,,,,,,,,,,,,*42
$GPGSA,M,3,18,29,30,21,03,,,,,,,,2.8,1.5,2.4*37
Trace #68 at position 16.750000
$GPZDA,125636.03,06,10,2011,00,00*65
$GPRMC,125636.00,A,4611.959695,N,01258.209337,E,000.3,354.6,061011,0.2,E,A*3D
$GPGGA,125637.00,4611.959660,N,01258.209679,E,1,05,1.5,131.20,M,46.25,M,,*67
$GPGLL,4611.959660,N,01258.209679,E,125637.00,A,A*67
$GPVTG,343.8,T,343.9,M,000.8,N,001.4,K,A*2F
$GPGSV,3,1,09,16,48,304,,31,12,212,,18,32,138,39,29,28,086,38*72
$GPGSGPGSV,3,3,09,06,42,288,,,,,,,,,,,,,*42
$GPGSA,M,3,18,29,30,21,03,,,,,,,,2.8,1.5,2.4*37
Trace #69 at position 17.000000
$GPZDA,125637.03,06,10,2011,00,00*64
$GPRMC,125637.00,A,4611.959660,N,01258.209679,E,000.8,343.8,061011,0.2,E,A*3A
$GPGGA,125638.00,4611.959725,N,01258.209950,E,1,05,1.5,131.55,M,46.25,M,,*6E
$GPGLL,4611.959725,N,01258.209950,E,125638.00,A,A*6C
$GPVTG,349.5,T,349.7,M,001.0,N,001.9,K,A*28
$GPGSV,3,1,09,16,48,304,,31,12,212,,18,32,138,40,29,28,086,39*7D
$GPGSV,3,2,09,30,33,159,39,21,77,084,36,22,09,173,,03,26,287,31.8,1.5,2.4*37
$GPZDA,125638.03,06,10,2011,00,00*6B
$GPRMC,125638.00,A,4611.959725,N,01258.209950,E,001.0,349.5,061011,0.2,E,A*3F
$GPGGA,125639.00,4611.960129,N,01258.209268,E,1,04,9.2,130.52,M,46.25,M,,*67
$GPGLL,4611.960129,N,01258.209268,E,125639.00,A,A*6D
$GPVTG,320.2,T,320.4,M,001.2,N,002.3,K,A*27
$GPGSV,3,1,09,16,48,304,,31,12,212,,18,32,138,40,29,28,087,39*7C
$GPGSV,3,2,09,30,33,159,39,21,77,084,36,22,09,173,,03,26,287,*79
$GPGSV,3,3,09,06,42,288,,,,,,,,,,,,,*42
$GPGSA,M,3,18,29,30,21,,,,,,,,125639.00,A,4611.960129,N,01258.209268,E,001.2,320.2,061011,0.2,E,A*34
Trace #70 at position 17.250000
$GPZDA,125640.03,06,10,2011,00,00*64
$$GPGGA,125641.00,4611.960598,N,01258.208136,E,1,04,9.2,128.98,M,46.25,M,,*60
$GPGLL,4611.960598,N,01258.208136,E,125641.00,A,A*65
$GPVTG,312.6,T,312.7,M,000.8,N,001.6,K,A*2D
$GPGSV,3,1,09,16,48,304,,31,12,212,,18,32,138,39,29,28,087,39*72
$GPGSV,3,2,09,30,33,159,38,21,77,084,36,22,09,173,,03,26,287,31*7A
$GPGSV,3,3,09,06,42,288,,,,,,,,,,,,,*42
$GPGSA,M,3,18,29,30,21,,,,,,,,,14.5,9.2,11.2*35
Trace #71 at position 17.500000
$GPZDA,125641.03,06,10,2011,00,00*65
$GPRMC,125641.00,A,4611.960598,N,01258.208136,E,000.8,312.6,061011,0.2,E,$GPGGA,125642.00,4611.960881,N,01258.207639,E,1,04,9.2,128.25,M,46.25,M,,*67
$GPGLL,4611.960881,N,01258.207639,E,125642.00,A,A*64
$GPVTG,333.9,T,334.1,M,000.9,N,001.7,K,A*23
$GPGSV,3,1,09,16,48,304,,31,12,212,,18,32,138,40,29,28,087,39*7C
$GPGSV,3,2,09,30,33,159,38,21,77,084,36,22,09,173,,03,26,287,31*7A
$GPGSV,3,3,09,06,42,288,,,,,,,,,,,,,*42
$GPGSA,M,3,18,29,30,21,,,,,,,,,14.5,9.2,11.2*35
Trace #72 at position 17.750000
$GPZDA,125642.03,06,10,2011,00,00*66
$GPRMC,125642.00,A,4611.960881,N,01258.207639,E,000.9,333.9,061011,0.2,E,$GPGGA,125643.00,4611.961146,N,01258.207294,E,1,04,9.2,127.67,M,46.25,M,,*6F
$GPGLL,4611.961146,N,01258.207294,E,125643.00,A,A*65
$GPVTG,352.3,T,352.4,M,000.6,N,001.0,K,A*23
$GPGSV,3,1,09,16,48,304,,31,12,212,,18,32,138,40,29,28,087,38*7D
$GPGSV,3,2,09,30,33,159,39,21,77,084,36,22,09,173,,03,26,287,30*7A
$GPGSV,3,3,09,06,42,288,,,,,,,,,,,,,*42
$GPGSA,M,3,18,29,30,21,,,,,,,,,14.4,9.2,11.2*34
Trace #73 at position 18.000000
$GPZDA,125643.03,06,10,2011,00,00*67
$GPRMC,125643.00,A,4611.961146,N,01258.207294,E,000.6,352.3,061011,0.2,E,$GPGGA,125644.00,4611.961403,N,01258.207039,E,1,04,9.2,127.15,M,46.25,M,,*6C
$GPGLL,4611.961403,N,01258.207039,E,125644.00,A,A*63
$GPVTG,353.2,T,353.3,M,000.9,N,001.7,K,A*2D
$GPGSV,3,1,09,16,48,304,,31,12,212,,18,32,138,40,29,28,087,39*7C
$GPGSV,3,2,09,30,33,159,39,21,77,084,36,22,09,173,,03,26,287,32*78
$GPGSV,3,3,09,06,42,288,,,,,,,,,,,,,*42
$GPGSA,M,3,18,29,30,21,,,,,,,,,14.4,9.2,11.2*34
Trace #74 at position 18.250000
$GPZDA,125649.03,06,10,2011,00,00*6D
$GPRMC,125649.00,A,4611.961921,N,01258.206034,E,000.1,73.0,061011,0.2,E,A*03
$GPGGA,125650.00,4611.962057,N,01258.205895,E,1,04,9.1,126.25,M,46.25,M,,*62
$GPGLL,4611.962057,N,01258.205895,E,125650.00,A,A*6C
$GPVTG,334.1,T,334.2,M,000.7,N,001.2,K,A*24
$GPGSV,3,1,09,16,48,304,,31,12,212,,18,32,138,411*7A
$GPGSV,3,3,09,06,42,288,,,,,,,,,,,,,*42
$GPGSA,M,3,18,29,30,21,,,,,,,,,14.3,9.1,11.1*33
Trace #75 at position 18.500000
$GPZDA,125649.03,06,10,2011,00,00*6D
$GPRMC,125649.00,A,4611.961921,N,01258.206034,E,000.1,73.0,061011,0.2,E,A*03
$GPGGA,125650.00,4611.962057,N,01258.205895,E,1,04,9.1,126.25,M,46.25,M,,*62
$GPGLL,4611.962057,N,01258.205895,E,125650.00,A,A*6C
$GPVTG,334.1,T,334.2,M,000.7,N,001.2,K,A*24
$GPGSV,3,1,09,16,48,304,,31,12,212,,18,32,138,411*7A
$GPGSV,3,3,09,06,42,288,,,,,,,,,,,,,*42
$GPGSA,M,3,18,29,30,21,,,,,,,,,14.3,9.1,11.1*33
Trace #76 at position 18.750000
$GPZDA,125650.03,06,10,2011,00,00*65
$GPRMC,125650.00,A,4611.962057,N,01258.205895,E,000.7,334.1,061011,0.2,E,A*37
$GPGGA,125651.00,4611.961984,N,01258.206423,E,1,05,1.5,127.41,M,46.25,M,,*6B
$GPGLL,4611.961984,N,01258.206423,E,125651.00,A,A*6B
$GPVTG,323.9,T,324.1,M,000.8,N,001.5,K,A*20
$GPGSV,3,1,09,16,48,304,,31,12,212,,18,32,138,40,29,28,087,39*7C
$GPGSV,3,2,09,30,33,159,38,21,77,084,36,22,09,173,,03,27651.03,06,10,2011,00,00*64
$GPRMC,125651.00,A,4611.961984,N,01258.206423,E,000.8,323.9,061011,0.2,E,A*31
$GPGGA,125652.00,4611.962077,N,01258.206253,E,1,04,9.1,127.25,M,46.25,M,,*60
$GPGLL,4611.962077,N,01258.206253,E,125652.00,A,A*6F
$GPVTG,142.6,T,142.7,M,000.4,N,000.8,K,A*2E
$GPGSV,3,1,09,16,48,304,,31,12,212,,18,32,138,40,29,28,087,38*7D
$GPGSV,3,2,09,30,33,159,38,21,77,084,36,22,09,173,,03,27,287,20*7B
$GPGSV,3,3,09,06,42,288,,,,,,,,,,,,,*42
$GPGSA,M,3,18,29,30,21,,,,,,,,,14.3,9.1,11.1*33
Trace #77 at position 19.000000
$GPZDA,125650.03,06,10,2011,00,00*65
$GPRMC,125650.00,A,4611.962057,N,01258.205895,E,000.7,334.1,061011,0.2,E,A*37
$GPGGA,125651.00,4611.961984,N,01258.206423,E,1,05,1.5,127.41,M,46.25,M,,*6B
$GPGLL,4611.961984,N,01258.206423,E,125651.00,A,A*6B
$GPVTG,323.9,T,324.1,M,000.8,N,001.5,K,A*20
$GPGSV,3,1,09,16,48,304,,31,12,212,,18,32,138,40,29,28,087,39*7C
$GPGSV,3,2,09,30,33,159,38,21,77,084,36,22,09,173,,03,27651.03,06,10,2011,00,00*64
$GPRMC,125651.00,A,4611.961984,N,01258.206423,E,000.8,323.9,061011,0.2,E,A*31
$GPGGA,125652.00,4611.962077,N,01258.206253,E,1,04,9.1,127.25,M,46.25,M,,*60
$GPGLL,4611.962077,N,01258.206253,E,125652.00,A,A*6F
$GPVTG,142.6,T,142.7,M,000.4,N,000.8,K,A*2E
$GPGSV,3,1,09,16,48,304,,31,12,212,,18,32,138,40,29,28,087,38*7D
$GPGSV,3,2,09,30,33,159,38,21,77,084,36,22,09,173,,03,27,287,20*7B
$GPGSV,3,3,09,06,42,288,,,,,,,,,,,,,*42
$GPGSA,M,3,18,29,30,21,,,,,,,,,14.3,9.1,11.1*33
Trace #78 at position 19.250000
$GPZ,N,01258.206253,E,000.4,142.6,061011,0.2,E,A*33
$GPGGA,125653.00,4611.962109,N,01258.206148,E,1,04,9.1,127.03,M,46.25,M,,*64
$GPGLL,4611.962109,N,01258.206148,E,125653.00,A,A*6F
$GPVTG,338.6,T,338.7,M,000.1,N,000.3,K,A*20
$GPGSV,3,1,09,16,48,304,,31,12,212,,18,32,138,39,29,28,087,38*73
$GPGSV,3,2,09,30,33,159,38,21,77,084,35,22,09,173,,03,27,287,29*71
$GPGSV,3,3,09,06,42,288,,,,,,,,,,,,,*42
$GPGSA,M,3,18,29,30,21,,,,,,,,,14.3,9.1,11.0*32
Trace #79 at position 19.500000
$GPZDA,125653.04,06,10,2011,00,00*61
$GPRMC,125653.00,A,4611.$GPGGA,125654.00,4611.962217,N,01258.205948,E,1,04,9.1,126.64,M,46.25,M,,*64
$GPGLL,4611.962217,N,01258.205948,E,125654.00,A,A*6F
$GPVTG,312.1,T,312.2,M,000.4,N,000.8,K,A*2C
$GPGSV,3,1,09,16,48,304,,31,12,212,,18,32,138,39,29,28,087,39*72
$GPGSV,3,2,09,30,33,159,39,21,77,084,36,22,09,173,,03,27,287,32*79
$GPGSV,3,3,09,06,42,288,,,,,,,,,,,,,*42
$GPGSA,M,3,18,29,30,21,,,,,,,,,14.3,9.1,11.0*32
Trace #80 at position 19.750000
$GPZDA,125654.03,06,10,2011,00,00*61
$GPRMC,125654.00,A,4611.962217,N,01258.205948,E,000.4,312.1,061011,0.2,E,$GPGGA,125655.00,4611.962294,N,01258.205762,E,1,04,9.1,126.27,M,46.25,M,,*6F
$GPGLL,4611.962294,N,01258.205762,E,125655.00,A,A*63
$GPVTG,274.3,T,274.4,M,000.1,N,000.2,K,A*27
$GPGSV,3,1,09,16,48,304,,31,12,212,,18,32,138,39,29,28,087,39*72
$GPGSV,3,2,09,30,33,159,38,21,77,084,36,22,09,173,,03,27,287,23*78
$GPGSV,3,3,09,06,42,288,,,,,,,,,,,,,*42
$GPGSA,M,3,18,29,30,21,,,,,,,,,14.3,9.1,11.0*32
Trace #81 at position 20.000000
$GPZDA,125655.03,06,10,2011,00,00*60
$GPRMC,125655.00,A,4611.962294,N,01258.205762,E,000.1,274.3,061011,0.2,E,$GPGGA,125656.00,4611.962393,N,01258.205690,E,1,04,9.1,126.12,M,46.25,M,,*60
$GPGLL,4611.962393,N,01258.205690,E,125656.00,A,A*6A
$GPVTG,22.0,T,22.2,M,000.5,N,001.0,K,A*25
$GPGSV,3,1,09,16,48,304,,31,12,212,,18,32,138,40,29,28,087,39*7C
$GPGSV,3,2,09,30,33,159,37,21,77,084,36,22,09,173,,03,27,287,32*77
$GPGSV,3,3,09,06,42,288,,,,,,,,,,,,,*42
$GPGSA,M,3,18,29,30,21,,,,,,,,,14.3,9.1,11.0*32
Trace #82 at position 20.250000
$GPZDA,125656.03,06,10,2011,00,00*63
$GPRMC,125656.00,A,4611.962393,N,01258.205690,E,000.5,22.0,061011,0.2,E,A*0$GPGGA,125657.00,4611.962552,N,01258.205693,E,1,04,9.1,126.00,M,46.25,M,,*6A
$GPGLL,4611.962552,N,01258.205693,E,125657.00,A,A*63
$GPVTG,39.0,T,39.1,M,000.5,N,001.0,K,A*26
$GPGSV,3,1,09,16,48,304,,31,12,212,,18,32,138,40,29,28,087,39*7C
$GPGSV,3,2,09,30,33,159,39,21,77,084,37,22,09,173,,03,27,287,31*7B
$GPGSV,3,3,09,06,42,288,,,,,,,,,,,,,*42
$GPGSA,M,3,18,29,30,21,,,,,,,,,14.3,9.1,11.0*32
Trace #83 at position 20.500000
$GPZDA,125657.03,06,10,2011,00,00*62
$GPRMC,125657.00,A,4611.962552,N,01258.205693,E,000.5,39.0,061011,0.2,E,A*0$GPGGA,125658.00,4611.962685,N,01258.205720,E,1,04,9.1,125.85,M,46.25,M,,*6B
$GPGLL,4611.962685,N,01258.205720,E,125658.00,A,A*6C
$GPVTG,46.4,T,46.5,M,000.5,N,000.9,K,A*2E
$GPGSV,3,1,09,16,48,304,,31,12,212,,18,32,138,39,29,28,087,38*73
$GPGSV,3,2,09,30,33,159,39,21,77,084,37,22,09,173,,03,27,287,30*7A
$GPGSV,3,3,09,06,42,288,,,,,,,,,,,,,*42
$GPGSA,M,3,18,29,30,21,,,,,,,,,14.3,9.1,11.0*32
Trace #84 at position 20.750000
$GPZDA,125658.03,06,10,2011,00,00*6D
$GPRMC,125658.00,A,4611.962685,N,01258.205720,E,000.5,46.4,061011,0.2,E,A*0,4611.962916,N,01258.205631,E,1,04,9.0,125.51,M,46.25,M,,*66
$GPGLL,4611.962916,N,01258.205631,E,125659.00,A,A*69
$GPVTG,345.6,T,345.7,M,001.3,N,002.3,K,A*21
$GPGSV,3,1,09,16,48,304,,31,12,212,,18,32,138,40,29,28,087,38*7D
$GPGSV,3,2,09,30,33,159,40,21,77,083,36,22,09,173,,03,27,287,29*7A
$GPGSV,3,3,09,06,42,288,,,,,,,,,,,,,*42
$GPGSA,M,3,18,29,30,21,,,,,,,,,14.2,9.0,11.0*32
Trace #85 at position 21.000000
$GPZDA,125659.03,06,10,2011,00,00*6C
$GPRMC,125659.00,A,4611.962916,N,01258.205631,E,001.3,345.6,061011,0.2,E,A*36
$GPGGA,125963124,N,01258.205554,E,125700.00,A,A*6C
$GPVTG,62.7,T,62.9,M,000.5,N,000.9,K,A*21
$GPGSV,3,1,09,16,48,304,,31,12,212,,18,32,138,40,29,28,087,39*7C
$GPGSV,3,2,09,30,33,159,40,21,77,083,36,22,09,173,,03,27,287,31*73
$GPGSV,3,3,09,06,42,288,,,,,,,,,,,,,*42
$GPGSA,M,3,18,29,30,21,,,,,,,,,14.2,9.0,11.0*32
Trace #86 at position 21.250000
$GPZDA,125700.03,06,10,2011,00,00*61
$GPRMC,125700.00,A,4611.963124,N,01258.205554,E,000.5,62.7,061011,0.2,E,A*03
$GPGGA,125701.00,4611.963270,N,01258.205597,E,1,04,9.0,125.44,M,46.25,M,,*6B
$GPGLL,46,1,09,16,48,304,,31,12,212,30,18,32,138,40,29,28,087,38*7E
$GPGSV,3,2,09,30,33,159,40,21,77,083,35,22,09,173,,03,27,287,29*79
$GPGSV,3,3,09,06,42,288,,,,,,,,,,,,,*42
$GPGSA,M,3,18,29,30,21,,,,,,,,,14.1,9.0,10.9*39
Trace #87 at position 21.500000
$GPZDA,125701.03,06,10,2011,00,00*60
$GPRMC,125701.00,A,4611.963270,N,01258.205597,E,000.8,21.2,061011,0.2,E,A*00
$GPGGA,125702.00,4611.963470,N,01258.205327,E,1,04,9.0,125.33,M,46.25,M,,*63
$GPGLL,4611.963470,N,01258.205327,E,125702.00,A,A*68
$GPVTG,298.1,T,298.2,M,001.4,N,002.7,K,A*20
$3,09,06,42,288,,,,,,,,,,,,,*42
$GPGSA,M,3,18,29,30,21,,,,,,,,,14.1,9.0,10.9*39
Trace #88 at position 21.750000
$GPZDA,125701.03,06,10,2011,00,00*60
$GPRMC,125701.00,A,4611.963270,N,01258.205597,E,000.8,21.2,061011,0.2,E,A*00
$GPGGA,125702.00,4611.963470,N,01258.205327,E,1,04,9.0,125.33,M,46.25,M,,*63
$GPGLL,4611.963470,N,01258.205327,E,125702.00,A,A*68
$GPVTG,298.1,T,298.2,M,001.4,N,002.7,K,A*20
$3,09,06,42,288,,,,,,,,,,,,,*42
$GPGSA,M,3,18,29,30,21,,,,,,,,,14.1,9.0,10.9*39
Trace #89 at position 22.000000
$GPZDA,125702.03,06,10,2011,00,00*63
$GPRMC,125702.00,A,4611.963470,N,01258.205327,E,001.4,298.1,061011,0.2,E,A*36
$GPGGA,125703.00,4611.963568,N,01258.204990,E,1,04,9.0,125.19,M,46.25,M,,*65
$GPGLL,4611.963568,N,01258.204990,E,125703.00,A,A*66
$GPVTG,264.6,T,264.7,M,000.2,N,000.4,K,A*24
$GPGSV,3,1,09,16,48,304,,31,12,212,30,18,32,138,40,29,28,087,38*7E
$GPGSV,3,2,09,30,33,159,37,21,77,083,35,22,09,173,,03,27,287,32*73
$,,,,,,,14.1,9.0,10.9*39
$GPZDA,125703.03,06,10,2011,00,00*62
$GPRMC,125703.00,A,4611.963568,N,01258.204990,E,000.2,264.6,061011,0.2,E,A*3B
$GPGGA,125704.00,4611.963623,N,01258.204899,E,1,04,9.0,125.26,M,46.25,M,,*6A
$GPGLL,4611.963623,N,01258.204899,E,125704.00,A,A*65
$GPVTG,348.0,T,348.2,M,000.3,N,000.6,K,A*24
$GPGSV,3,1,09,16,48,304,,31,12,212,30,18,32,138,40,29,28,087,38*7E
$GPGSV,3,2,09,30,33,159,38,21,77,083,36,22,09,173,,03,27,287,30*7D
$GPGSV,3,3,09,06,42,288,,,,,,,,,,,,,*42
$GPGSA,M,3,18,2900*65
Trace #90 at position 22.250000
$GPRMC,125704.00,A,4611.963623,N,01258.204899,E,000.3,348.0,061011,0.2,E,A*30
$GPGGA,125705.00,4611.963738,N,01258.204808,E,1,04,8.9,125.47,M,46.25,M,,*67
$GPGLL,4611.963738,N,01258.204808,E,125705.00,A,A*67
$GPVTG,328.2,T,328.3,M,000.5,N,000.8,K,A*2F
$GPGSV,3,1,09,16,48,304,,31,12,212,31,18,32,138,40,29,28,087,39*7E
$GPGSV,3,2,09,30,33,159,39,21,77,083,34,22,09,173,,03,27,287,31*7F
$GPGSV,3,3,09,06,42,288,,,,,,,,,,,,,*42
$GPGSA,M,3,18,29,30,21,,,,,,,,,14.1,8.9,10.9*31
Trace #91 at position 22.500000
$GPRMC,125704.00,A,4611.963623,N,01258.204899,E,000.3,348.0,061011,0.2,E,A*30
$GPGGA,125705.00,4611.963738,N,01258.204808,E,1,04,8.9,125.47,M,46.25,M,,*67
$GPGLL,4611.963738,N,01258.204808,E,125705.00,A,A*67
$GPVTG,328.2,T,328.3,M,000.5,N,000.8,K,A*2F
$GPGSV,3,1,09,16,48,304,,31,12,212,31,18,32,138,40,29,28,087,39*7E
$GPGSV,3,2,09,30,33,159,39,21,77,083,34,22,09,173,,03,27,287,31*7F
$GPGSV,3,3,09,06,42,288,,,,,,,,,,,,,*42
$GPGSA,M,3,18,29,30,21,,,,,,,,,14.1,8.9,10.9*31
Trace #92 at position 22.750000
$GPZDA,125705.03,06,10,00.5,328.2,061011,0.2,E,A*30
$GPGGA,125706.00,4611.963899,N,01258.204722,E,1,04,8.9,125.55,M,46.25,M,,*64
$GPGLL,4611.963899,N,01258.204722,E,125706.00,A,A*67
$GPVTG,353.0,T,353.1,M,000.7,N,001.4,K,A*20
$GPGSV,3,1,09,16,48,304,,31,12,212,,18,32,138,39,29,28,087,39*72
$GPGSV,3,2,09,30,33,159,39,21,77,083,36,22,09,173,,03,27,287,31*7D
$GPGSV,3,3,09,06,42,288,,,,,,,,,,,,,*42
$GPGSA,M,3,18,29,30,21,,,,,,,,,14.1,8.9,10.9*31
Trace #93 at position 23.000000
$GPZDA,125706.03,06,10,2011,00,00*67
$GPRMC,125706.00,A,4611.963899,N,01258.2047$GPGGA,125707.00,4611.963972,N,01258.204730,E,1,04,8.9,125.64,M,46.25,M,,*60
$GPGLL,4611.963972,N,01258.204730,E,125707.00,A,A*61
$GPVTG,137.5,T,137.7,M,000.4,N,000.8,K,A*2D
$GPGSV,3,1,09,16,48,304,,31,12,212,32,18,32,138,40,29,28,087,40*73
$GPGSV,3,2,09,30,33,159,38,21,77,083,36,22,09,173,,03,27,287,33*7E
$GPGSV,3,3,09,06,42,288,,,,,,,,,,,,,*42
$GPGSA,M,3,18,29,30,21,,,,,,,,,14.1,8.9,10.9*31
Trace #94 at position 23.250000
$GPZDA,125707.03,06,10,2011,00,00*66
$GPRMC,125707.00,A,4611.963972,N,01258.204730,E,000.4,137.5,061011,0.2,$GPGGA,125708.00,4611.964037,N,01258.204706,E,1,04,8.9,125.71,M,46.25,M,,*61
$GPGLL,4611.964037,N,01258.204706,E,125708.00,A,A*64
$GPVTG,337.3,T,337.4,M,000.7,N,001.3,K,A*21
$GPGSV,3,1,09,16,48,304,,31,12,212,30,18,32,138,40,29,28,087,38*7E
$GPGSV,3,2,09,30,33,159,39,21,77,083,36,22,09,173,,03,27,287,31*7D
$GPGSV,3,3,09,06,42,288,,,,,,,,,,,,,*42
$GPGSA,M,3,18,29,30,21,,,,,,,,,14.1,8.9,10.9*31
Trace #95 at position 23.500000
$GPZDA,125708.03,06,10,2011,00,00*69
$GPRMC,125708.00,A,4611.964037,N,01258.204706,E,000.7,337.3,061011,0.2,$GPGGA,125709.00,4611.964148,N,01258.204742,E,1,04,8.9,125.80,M,46.25,M,,*67
$GPGLL,4611.964148,N,01258.204742,E,125709.00,A,A*6C
$GPVTG,89.6,T,89.7,M,000.6,N,001.2,K,A*27
$GPGSV,3,1,09,16,48,304,,31,12,212,31,18,32,138,41,29,28,087,38*7E
$GPGSV,3,2,09,30,33,159,40,21,77,083,36,22,09,173,,03,27,287,30*72
$GPGSV,3,3,09,06,42,288,,,,,,,,,,,,,*42
$GPGSA,M,3,18,29,30,21,,,,,,,,,14.0,8.9,10.8*31
Trace #96 at position 23.750000
$GPZDA,125709.03,06,10,2011,00,00*68
$GPRMC,125709.00,A,4611.964148,N,01258.204742,E,000.6,89.6,061011,0.2,E,A$GPGGA,125710.00,4611.964242,N,01258.204801,E,1,04,8.9,126.05,M,46.25,M,,*60
$GPGLL,4611.964242,N,01258.204801,E,125710.00,A,A*65
$GPVTG,354.9,T,355.0,M,000.5,N,000.9,K,A*27
$GPGSV,3,1,09,16,48,304,,31,12,212,29,18,32,138,40,29,28,087,38*76
$GPGSV,3,2,09,30,33,159,40,21,77,083,36,22,09,173,,03,27,287,31*73
$GPGSV,3,3,09,06,42,288,,,,,,,,,,,,,*42
$GPGSA,M,3,18,29,30,21,,,,,,,,,14.0,8.9,10.8*31
Trace #97 at position 24.000000
$GPZDA,125709.03,06,10,2011,00,00*68
$GPRMC,125709.00,A,4611.964148,N,01258.204742,E,000.6,89.6,061011,0.2,E,A$GPGGA,125710.00,4611.964242,N,01258.204801,E,1,04,8.9,126.05,M,46.25,M,,*60
$GPGLL,4611.964242,N,01258.204801,E,125710.00,A,A*65
$GPVTG,354.9,T,355.0,M,000.5,N,000.9,K,A*27
$GPGSV,3,1,09,16,48,304,,31,12,212,29,18,32,138,40,29,28,087,38*76
$GPGSV,3,2,09,30,33,159,40,21,77,083,36,22,09,173,,03,27,287,31*73
$GPGSV,3,3,09,06,42,288,,,,,,,,,,,,,*42
$GPGSA,M,3,18,29,30,21,,,,,,,,,14.0,8.9,10.8*31
Trace #98 at position 24.250000
$GPZDA,125710.03,06,10,2011,00,00*60
$GPRMC,125710.00,A,4611.964242,N,01258.204801,E,000.5,354.9,061011,0.2,$GPGGA,125711.00,4611.964458,N,01258.204659,E,1,04,8.9,125.81,M,46.25,M,,*60
$GPGLL,4611.964458,N,01258.204659,E,125711.00,A,A*6A
$GPVTG,333.4,T,333.5,M,001.0,N,001.9,K,A*2B
$GPGSV,3,1,09,16,48,304,,31,12,212,29,18,32,138,40,29,28,087,39*77
$GPGSV,3,2,09,30,33,159,38,21,77,083,36,22,09,173,,03,27,287,31*7C
$GPGSV,3,3,09,06,42,288,,,,,,,,,,,,,*42
$GPGSA,M,3,18,29,30,21,,,,,,,,,14.0,8.9,10.8*31
Trace #99 at position 24.500000
$GPZDA,125711.03,06,10,2011,00,00*61
$GPRMC,125711.00,A,4611.964458,N,01258.204659,E,001.0,333.4,061011,0.2,$GPGGA,125712.00,4611.964717,N,01258.204366,E,1,04,8.9,125.50,M,46.25,M,,*6E
$GPGLL,4611.964717,N,01258.204366,E,125712.00,A,A*68
$GPVTG,315.2,T,315.4,M,001.2,N,002.3,K,A*27
$GPGSV,3,1,09,16,48,304,,31,12,212,30,18,32,138,39,29,28,087,39*71
$GPGSV,3,2,09,30,33,159,39,21,77,083,35,22,09,173,,03,27,287,31*7E
$GPGSV,3,3,09,06,42,288,,,,,,,,,,,,,*42
$GPGSA,M,3,18,29,30,21,,,,,,,,,14.0,8.9,10.8*31
Trace #100 at position 24.750000
$GPZDA,125712.03,06,10,2011,00,00*62
$GPRMC,125712.00,A,4611.964717,N,01258.204366,E,001.2,315.2,061011,0.2,46.25,M,,*6D
$GPGLL,4611.964911,N,01258.204194,E,125713.00,A,A*6E
$GPVTG,3.8,T,4.0,M,000.5,N,001.0,K,A*28
$GPGSV,3,1,09,16,48,304,,31,12,212,,18,32,138,41,29,28,087,39*7D
$GPGSV,3,2,09,30,33,159,40,21,77,083,36,22,09,173,,03,27,287,26*75
$GPGSV,3,3,09,06,42,288,,,,,,,,,,,,,*42
$GPGSA,M,3,18,29,30,21,,,,,,,,,14.0,8.9,10.8*31
Trace #101 at position 25.000000
$GPZDA,125713.03,06,10,2011,00,00*63
$GPRMC,125713.00,A,4611.964911,N,01258.204194,E,000.5,3.8,061011,0.2,E,A*39
$GPGGA,125714.00,4611.965043,N,01258.204140,E,1,04,8.9,125.71,M,,N,001.0,K,A*26
$GPGSV,3,1,09,16,48,304,,31,12,212,30,18,32,138,41,29,28,087,39*7E
$GPGSV,3,2,09,30,33,159,39,21,77,083,36,22,09,173,,03,27,287,31*7D
$GPGSV,3,3,09,06,42,288,,,,,,,,,,,,,*42
$GPGSA,M,3,18,29,30,21,,,,,,,,,14.0,8.9,10.8*31
Trace #102 at position 25.250000
$GPZDA,125714.03,06,10,2011,00,00*64
$GPRMC,125714.00,A,4611.965043,N,01258.204140,E,000.5,325.4,061011,0.2,E,A*33
$GPGGA,125715.00,4611.965102,N,01258.204063,E,1,04,8.8,125.79,M,46.25,M,,*66
$GPGLL,4611.965102,N,01258.204063,E,125715.00,A,A*6A
$GPVTG,233.0,T,233.2,159,38,21,77,083,36,22,09,173,,03,27,287,32*7F
$GPGSV,3,3,09,06,42,288,,,,,,,,,,,,,*42
$GPGSA,M,3,18,29,30,21,,,,,,,,,13.9,8.8,10.8*3E
Trace #103 at position 25.500000
$GPZDA,125715.03,06,10,2011,00,00*65
$GPRMC,125715.00,A,4611.965102,N,01258.204063,E,000.1,233.0,061011,0.2,E,A*30
$GPGGA,125716.00,4611.965233,N,01258.203984,E,1,04,8.8,125.70,M,46.25,M,,*6A
$GPGLL,4611.965233,N,01258.203984,E,125716.00,A,A*6F
$GPVTG,340.0,T,340.2,M,001.1,N,002.0,K,A*23
$GPGSV,3,1,09,16,48,304,,31,12,212,32,18,32,138,39,29,28,087,39*73
$GPGSV,3,2,
$GPGSA,M,3,18,29,30,21,,,,,,,,,13.9,8.8,10.8*3E
Trace #104 at position 25.750000
$GPZDA,125720.03,06,10,2011,00,00*63
$GPRMC,125720.00,A,4611.965678,N,01258.205108,E,000.6,11.3,061011,0.2,E,A$GPGGA,125721.00,4611.965611,N,01258.205599,E,1,05,1.5,128.70,M,46.25,M,,*64
$GPGLL,4611.965611,N,01258.205599,E,125721.00,A,A*69
$GPVTG,344.7,T,344.9,M,000.4,N,000.7,K,A*2E
$GPGSV,3,1,09,16,48,304,,31,12,212,32,18,33,138,41,29,28,087,39*7D
$GPGSV,3,2,09,30,33,159,40,21,77,083,37,22,09,173,,03,27,287,33*70
$GPGSV,3,3,09,06,42,288,,,,,,,,,,,,,*42
$GPGSA,M,3,18,29,30,21,03,,,,,,,,2.8,1.5,2.4*37
Trace #105 at position 26.000000
$GPZDA,125721.03,06,10,2011,00,00*62
$GPRMC,125721.00,A,4611.965611,N,01258.205599,E,000.4,344.7,061011,0.2,$GPGGA,125722.00,4611.965520,N,01258.206038,E,1,06,1.3,129.53,M,46.25,M,,*6E
$GPGLL,4611.965520,N,01258.206038,E,125722.00,A,A*66
$GPVTG,16.1,T,16.2,M,000.1,N,000.3,K,A*22
$GPGSV,3,1,09,16,48,304,,31,12,212,34,18,33,138,38,29,28,087,37*7B
$GPGSV,3,2,09,30,33,159,39,21,77,083,38,22,09,173,,03,27,287,31*73
$GPGSV,3,3,09,06,42,288,,,,,,,,,,,,,*42
$GPGSA,M,3,31,18,29,30,21,03,,,,,,,2.5,1.3,2.2*38
Trace #106 at position 26.250000
$GPZDA,125722.03,06,10,2011,00,00*61
$GPRMC,125722.00,A,4611.965520,N,01258.206038,E,000.1,16.1,061011,0.2,E$GPGGA,125723.00,4611.965371,N,01258.206482,E,1,05,2.0,130.35,M,46.25,M,,*63
$GPGLL,4611.965371,N,01258.206482,E,125723.00,A,A*60
$GPVTG,324.9,T,325.1,M,000.1,N,000.1,K,A*2A
$GPGSV,3,1,09,16,48,304,,31,12,212,33,18,33,138,39,29,28,087,38*72
$GPGSV,3,2,09,30,33,159,39,21,77,083,38,22,09,173,,03,27,287,23*70
$GPGSV,3,3,09,06,42,288,,,,,,,,,,,,,*42
$GPGSA,M,3,31,18,29,30,21,,,,,,,,3.1,2.0,2.3*3F
Trace #107 at position 26.500000
$GPZDA,125723.04,06,10,2011,00,00*67
$GPRMC,125723.00,A,4611.965371,N,01258.206482,E,000.1,324.9,061011,0.2,$GPGGA,125724.00,4611.965214,N,01258.206899,E,1,05,2.0,131.08,M,46.25,M,,*6F
$GPGLL,4611.965214,N,01258.206899,E,125724.00,A,A*63
$GPVTG,104.1,T,104.3,M,000.1,N,000.2,K,A*22
$GPGSV,3,1,09,16,48,304,,31,12,212,31,18,33,138,40,29,28,087,38*7E
$GPGSV,3,2,09,30,33,159,39,21,77,083,38,22,09,173,,03,27,287,*71
$GPGSV,3,3,09,06,42,288,,,,,,,,,,,,,*42
$GPGSA,M,3,31,18,29,30,21,,,,,,,,3.1,2.0,2.3*3F
Trace #108 at position 26.750000
$GPZDA,125724.03,06,10,2011,00,00*67
$GPRMC,125724.00,A,4611.965214,N,01258.206899,E,000.1,104.1,061011,0.2,E,$GPGGA,125725.00,4611.965022,N,01258.207370,E,1,05,2.0,131.88,M,46.25,M,,*6C
$GPGLL,4611.965022,N,01258.207370,E,125725.00,A,A*68
$GPVTG,147.5,T,147.7,M,000.1,N,000.2,K,A*22
$GPGSV,3,1,09,16,48,304,,31,12,212,34,18,33,138,40,29,28,087,39*7A
$GPGSV,3,2,09,30,33,159,40,21,77,083,38,22,09,173,,03,27,287,*7F
$GPGSV,3,3,09,06,42,288,,,,,,,,,,,,,*42
$GPGSA,M,3,31,18,29,30,21,,,,,,,,3.1,2.0,2.3*3F
Trace #109 at position 27.000000
$GPZDA,125724.03,06,10,2011,00,00*67
$GPRMC,125724.00,A,4611.965214,N,01258.206899,E,000.1,104.1,061011,0.2,E,$GPGGA,125725.00,4611.965022,N,01258.207370,E,1,05,2.0,131.88,M,46.25,M,,*6C
$GPGLL,4611.965022,N,01258.207370,E,125725.00,A,A*68
$GPVTG,147.5,T,147.7,M,000.1,N,000.2,K,A*22
$GPGSV,3,1,09,16,48,304,,31,12,212,34,18,33,138,40,29,28,087,39*7A
$GPGSV,3,2,09,30,33,159,40,21,77,083,38,22,09,173,,03,27,287,*7F
