Trace #1 at position 0.000000
$GPZDA,084258.04,09,10,2011,00,00*6B
$GPRMC,084258.00,A,4611.978760,N,01258.217110,E,000.1,256.6,091$GPGGA,084259.00,4611.978706,N,01258.217124,E,1,06,1.6,140.77,M,46.25,M,,*67
$GPGLL,4611.978706,N,01258.217124,E,084259.00,A,A*63
$GPVTG,178.9,T,179.0,M,000.3,N,000.5,K,A*2D
$GPGSV,3,1,09,02,38,085,34,04,16,042,41,09,24,150,26,12,61,070,29*76
$GPGSV,3,2,09,14,31,258,41,25,73,319,45,29,46,220,44,30,28,287,42*7E
$GPGSV,3,3,09,31,20,314,43,,,,,,,,,,,,*41
$GPGSA,M,3,04,14,25,29,30,31,,,,,,,2.7,1.6,2.2*30
Trace #2 at position 0.250000
$GPZDA,084300.04,09,10,2011,00,00*67
$GPRMC,084300.00,A,4611.978650,N,01258.217184,E,000.2,119.9,091$GPGGA,084301.00,4611.978628,N,01258.217178,E,1,05,4.5,140.72,M,46.25,M,,*6F
$GPGLL,4611.978628,N,01258.217178,E,084301.00,A,A*6B
$GPVTG,150.4,T,150.5,M,000.1,N,000.2,K,A*21
$GPGSV,3,1,09,02,38,085,33,04,16,042,35,09,24,150,,12,61,070,34*7A
$GPGSV,3,2,09,14,31,258,42,25,73,319,46,29,46,220,44,30,28,287,43*7F
$GPGSV,3,3,09,31,20,314,43,,,,,,,,,,,,*41
$GPGSA,M,3,14,25,29,30,31,,,,,,,,7.1,4.5,5.5*31
Trace #3 at position 0.500000
$GPZDA,084301.04,09,10,2011,00,00*66
$GPRMC,084301.00,A,4611.978628,N,01258.217178,E,000.1,150.4,091011,PGLL,4611.978631,N,01258.217094,E,084302.00,A,A*63
$GPVTG,286.9,T,287.0,M,000.2,N,000.4,K,A*2D
$GPGSV,3,1,09,02,38,085,34,04,16,042,35,09,24,150,,12,61,070,33*7A
$GPGSV,3,2,09,14,31,258,42,25,73,319,47,29,46,220,44,30,28,287,44*79
$GPGSV,3,3,09,31,20,314,39,,,,,,,,,,,,*4C
$GPGSA,M,3,14,25,29,30,31,,,,,,,,7.1,4.5,5.5*31
Trace #4 at position 0.750000
$GPZDA,084301.04,09,10,2011,00,00*66
$GPRMC,084301.00,A,4611.978628,N,01258.217178,E,000.1,150.4,091011,PGLL,4611.978631,N,01258.217094,E,084302.00,A,A*63
$GPVTG,286.9,T,287.0,M,000.2,N,000.4,K,A*2D
$GPGSV,3,1,09,02,38,085,34,04,16,042,35,09,24,150,,12,61,070,33*7A
$GPGSV,3,2,09,14,31,258,42,25,73,319,47,29,46,220,44,30,28,287,44*79
$GPGSV,3,3,09,31,20,314,39,,,,,,,,,,,,*4C
$GPGSA,M,3,14,25,29,30,31,,,,,,,,7.1,4.5,5.5*31
Trace #5 at position 1.000000
$GPZDA,084302.04,09,10,2011,00,00*65
$GPRMC,084302.00,A,4611.978631,N,01258.217094,E,000.2,286.9,091011,0.2,E,A*32
$GPGGA,084303.00,4611.978604,N,01258.217194,E,1,04,5.7,140.77,M,46.24,31,258,41,25,73,319,47,29,46,220,44,30,28,287,36*7F
$GPGSV,3,3,09,31,20,314,38,,,,,,,,,,,,*4D
$GPGSA,M,3,14,25,29,31,,,,,,,,,8.6,5.7,6.4*3B
Trace #6 at position 1.250000
$GPZDA,084302.04,09,10,2011,00,00*65
$GPRMC,084302.00,A,4611.978631,N,01258.217094,E,000.2,286.9,091011,0.2,E,A*32
$GPGGA,084303.00,4611.978604,N,01258.217194,E,1,04,5.7,140.77,M,46.24,31,258,41,25,73,319,47,29,46,220,44,30,28,287,36*7F
$GPGSV,3,3,09,31,20,314,38,,,,,,,,,,,,*4D
$GPGSA,M,3,14,25,29,31,,,,,,,,,8.6,5.7,6.4*3B
Trace #7 at position 1.500000
$GPZDA,084302.04,09,10,2011,00,00*65
$GPRMC,084302.00,A,4611.978631,N,01258.217094,E,000.2,286.9,091011,0.2,E,A*32
$GPGGA,084303.00,4611.978604,N,01258.217194,E,1,04,5.7,140.77,M,46.24,31,258,41,25,73,319,47,29,46,220,44,30,28,287,36*7F
$GPGSV,3,3,09,31,20,314,38,,,,,,,,,,,,*4D
$GPGSA,M,3,14,25,29,31,,,,,,,,,8.6,5.7,6.4*3B
Trace #8 at position 1.750000
$GPZDA,084302.04,09,10,2011,00,00*65
$GPRMC,084302.00,A,4611.978631,N,01258.217094,E,000.2,286.9,091011,0.2,E,A*32
$GPGGA,084303.00,4611.978604,N,01258.217194,E,1,04,5.7,140.77,M,46.24,31,258,41,25,73,319,47,29,46,220,44,30,28,287,36*7F
$GPGSV,3,3,09,31,20,314,38,,,,,,,,,,,,*4D
$GPGSA,M,3,14,25,29,31,,,,,,,,,8.6,5.7,6.4*3B
Trace #9 at position 2.000000
$GPZDA,084303.04,09,10,2011,00,00*64
$GPRMC,084303.00,A,4611.978604,N,01258.217194,E,000.5,268.4,091011,0.2,E,A*3E
$GPGGA,084304.00,4611.978607,N,01258.217125,E,1,07,1.4,140.95,M,46.25,M,,*60
$GPGLL,4611.978607,N,01258.217125,E,084304.00,A,A*6B
$GPVTG,131.8,T,132.0,M,000.0,N,000.1,K,A*29
$GPGSV,3,1,09,02,38,085,42,04,16,042,40,09,24,150,,12,61,070,41*7C
$GPGS4304.00,A,4611.978607,N,01258.217125,E,000.0,131.8,091011,0.2,E,A*36
$GPGGA,084305.00,4611.978610,N,01258.217161,E,1,07,1.4,140.96,M,46.25,M,,*64
$GPGLL,4611.978610,N,01258.217161,E,084305.00,A,A*6C
$GPVTG,146.0,T,146.1,M,000.0,N,000.1,K,A*23
$GPGSV,3,1,09,02,38,085,41,04,16,042,41,09,24,150,,12,61,070,41*7E
$GPGSV,3,2,09,14,31,258,42,25,73,319,48,29,46,220,45,30,28,287,34*70
$GPGSV,3,3,09,31,20,314,40,,,,,,,,,,,,*42
$GPGSA,M,3,02,04,12,14,25,29,31,,,,,,2.4,1.4,1.9*3B
Trace #10 at position 2.250000
$GPZDA,084303.04,09,10,2011,00,00*64
$GPRMC,084303.00,A,4611.978604,N,01258.217194,E,000.5,268.4,091011,0.2,E,A*3E
$GPGGA,084304.00,4611.978607,N,01258.217125,E,1,07,1.4,140.95,M,46.25,M,,*60
$GPGLL,4611.978607,N,01258.217125,E,084304.00,A,A*6B
$GPVTG,131.8,T,132.0,M,000.0,N,000.1,K,A*29
$GPGSV,3,1,09,02,38,085,42,04,16,042,40,09,24,150,,12,61,070,41*7C
$GPGS4304.00,A,4611.978607,N,01258.217125,E,000.0,131.8,091011,0.2,E,A*36
$GPGGA,084305.00,4611.978610,N,01258.217161,E,1,07,1.4,140.96,M,46.25,M,,*64
$GPGLL,4611.978610,N,01258.217161,E,084305.00,A,A*6C
$GPVTG,146.0,T,146.1,M,000.0,N,000.1,K,A*23
$GPGSV,3,1,09,02,38,085,41,04,16,042,41,09,24,150,,12,61,070,41*7E
$GPGSV,3,2,09,14,31,258,42,25,73,319,48,29,46,220,45,30,28,287,34*70
$GPGSV,3,3,09,31,20,314,40,,,,,,,,,,,,*42
$GPGSA,M,3,02,04,12,14,25,29,31,,,,,,2.4,1.4,1.9*3B
Trace #11 at position 2.500000
$GPZDA,084303.04,09,10,2011,00,00*64
$GPRMC,084303.00,A,4611.978604,N,01258.217194,E,000.5,268.4,091011,0.2,E,A*3E
$GPGGA,084304.00,4611.978607,N,01258.217125,E,1,07,1.4,140.95,M,46.25,M,,*60
$GPGLL,4611.978607,N,01258.217125,E,084304.00,A,A*6B
$GPVTG,131.8,T,132.0,M,000.0,N,000.1,K,A*29
$GPGSV,3,1,09,02,38,085,42,04,16,042,40,09,24,150,,12,61,070,41*7C
$GPGS4304.00,A,4611.978607,N,01258.217125,E,000.0,131.8,091011,0.2,E,A*36
$GPGGA,084305.00,4611.978610,N,01258.217161,E,1,07,1.4,140.96,M,46.25,M,,*64
$GPGLL,4611.978610,N,01258.217161,E,084305.00,A,A*6C
$GPVTG,146.0,T,146.1,M,000.0,N,000.1,K,A*23
$GPGSV,3,1,09,02,38,085,41,04,16,042,41,09,24,150,,12,61,070,41*7E
$GPGSV,3,2,09,14,31,258,42,25,73,319,48,29,46,220,45,30,28,287,34*70
$GPGSV,3,3,09,31,20,314,40,,,,,,,,,,,,*42
$GPGSA,M,3,02,04,12,14,25,29,31,,,,,,2.4,1.4,1.9*3B
Trace #12 at position 2.750000
$GPZDA,084305.04,09,10,2011,00,$GPGGA,084306.00,4611.978620,N,01258.217181,E,1,07,1.4,141.00,M,46.25,M,,*64
$GPGLL,4611.978620,N,01258.217181,E,084306.00,A,A*62
$GPVTG,304.9,T,305.0,M,000.0,N,000.1,K,A*2A
$GPGSV,3,1,09,02,38,085,42,04,16,042,41,09,24,150,,12,61,070,41*7D
$GPGSV,3,2,09,14,31,258,43,25,73,320,48,29,46,220,44,30,28,287,33*7D
$GPGSV,3,3,09,31,20,314,40,,,,,,,,,,,,*42
$GPGSA,M,3,02,04,12,14,25,29,31,,,,,,2.4,1.4,1.9*3B
Trace #13 at position 3.000000
$GPZDA,084305.04,09,10,2011,00,$GPGGA,084306.00,4611.978620,N,01258.217181,E,1,07,1.4,141.00,M,46.25,M,,*64
$GPGLL,4611.978620,N,01258.217181,E,084306.00,A,A*62
$GPVTG,304.9,T,305.0,M,000.0,N,000.1,K,A*2A
$GPGSV,3,1,09,02,38,085,42,04,16,042,41,09,24,150,,12,61,070,41*7D
$GPGSV,3,2,09,14,31,258,43,25,73,320,48,29,46,220,44,30,28,287,33*7D
$GPGSV,3,3,09,31,20,314,40,,,,,,,,,,,,*42
$GPGSA,M,3,02,04,12,14,25,29,31,,,,,,2.4,1.4,1.9*3B
Trace #14 at position 3.250000
$GPZDA,084306.04,09,10,2011,00,00*61
$GPRMC,084306.00,A,4611.978620,N,01258.217181,E,000.0,304.9,091$GPGGA,084307.00,4611.978622,N,01258.217201,E,1,07,1.4,141.01,M,46.25,M,,*6D
$GPGLL,4611.978622,N,01258.217201,E,084307.00,A,A*6A
$GPVTG,155.0,T,155.2,M,000.1,N,000.2,K,A*22
$GPGSV,3,1,09,02,38,085,41,04,16,042,40,09,24,150,,12,61,070,44*7A
$GPGSV,3,2,09,14,31,258,44,25,73,320,47,29,46,220,44,30,28,287,34*72
$GPGSV,3,3,09,31,20,314,40,,,,,,,,,,,,*42
$GPGSA,M,3,02,04,12,14,25,29,31,,,,,,2.4,1.4,1.9*3B
Trace #15 at position 3.500000
$GPZDA,084306.04,09,10,2011,00,00*61
$GPRMC,084306.00,A,4611.978620,N,01258.217181,E,000.0,304.9,091$GPGGA,084307.00,4611.978622,N,01258.217201,E,1,07,1.4,141.01,M,46.25,M,,*6D
$GPGLL,4611.978622,N,01258.217201,E,084307.00,A,A*6A
$GPVTG,155.0,T,155.2,M,000.1,N,000.2,K,A*22
$GPGSV,3,1,09,02,38,085,41,04,16,042,40,09,24,150,,12,61,070,44*7A
$GPGSV,3,2,09,14,31,258,44,25,73,320,47,29,46,220,44,30,28,287,34*72
$GPGSV,3,3,09,31,20,314,40,,,,,,,,,,,,*42
$GPGSA,M,3,02,04,12,14,25,29,31,,,,,,2.4,1.4,1.9*3B
Trace #16 at position 3.750000
$GPZDA,084306.04,09,10,2011,00,00*61
$GPRMC,084306.00,A,4611.978620,N,01258.217181,E,000.0,304.9,091$GPGGA,084307.00,4611.978622,N,01258.217201,E,1,07,1.4,141.01,M,46.25,M,,*6D
$GPGLL,4611.978622,N,01258.217201,E,084307.00,A,A*6A
$GPVTG,155.0,T,155.2,M,000.1,N,000.2,K,A*22
$GPGSV,3,1,09,02,38,085,41,04,16,042,40,09,24,150,,12,61,070,44*7A
$GPGSV,3,2,09,14,31,258,44,25,73,320,47,29,46,220,44,30,28,287,34*72
$GPGSV,3,3,09,31,20,314,40,,,,,,,,,,,,*42
$GPGSA,M,3,02,04,12,14,25,29,31,,,,,,2.4,1.4,1.9*3B
Trace #17 at position 4.000000
$GPZDA,084307.04,09,10,2011,00,00*60
$GPRMC,084307.00,A,4611.978622,N,01258.217201,E,000.1,155.0,091$GPGGA,084308.00,4611.978460,N,01258.217235,E,1,07,1.4,141.01,M,46.25,M,,*61
$GPGLL,4611.978460,N,01258.217235,E,084308.00,A,A*66
$GPVTG,179.1,T,179.2,M,001.2,N,002.2,K,A*23
$GPGSV,3,1,09,02,38,085,43,04,16,042,41,09,24,150,,12,61,070,43*7E
$GPGSV,3,2,09,14,31,258,43,25,73,320,49,29,46,220,44,30,29,287,38*76
$GPGSV,3,3,09,31,20,314,36,,,,,,,,,,,,*43
$GPGSA,M,3,02,04,12,14,25,29,31,,,,,,2.4,1.4,1.9*3B
Trace #18 at position 4.250000
$GPZDA,084307.04,09,10,2011,00,00*60
$GPRMC,084307.00,A,4611.978622,N,01258.217201,E,000.1,155.0,091$GPGGA,084308.00,4611.978460,N,01258.217235,E,1,07,1.4,141.01,M,46.25,M,,*61
$GPGLL,4611.978460,N,01258.217235,E,084308.00,A,A*66
$GPVTG,179.1,T,179.2,M,001.2,N,002.2,K,A*23
$GPGSV,3,1,09,02,38,085,43,04,16,042,41,09,24,150,,12,61,070,43*7E
$GPGSV,3,2,09,14,31,258,43,25,73,320,49,29,46,220,44,30,29,287,38*76
$GPGSV,3,3,09,31,20,314,36,,,,,,,,,,,,*43
$GPGSA,M,3,02,04,12,14,25,29,31,,,,,,2.4,1.4,1.9*3B
Trace #19 at position 4.500000
$GPZDA,084307.04,09,10,2011,00,00*60
$GPRMC,084307.00,A,4611.978622,N,01258.217201,E,000.1,155.0,091$GPGGA,084308.00,4611.978460,N,01258.217235,E,1,07,1.4,141.01,M,46.25,M,,*61
$GPGLL,4611.978460,N,01258.217235,E,084308.00,A,A*66
$GPVTG,179.1,T,179.2,M,001.2,N,002.2,K,A*23
$GPGSV,3,1,09,02,38,085,43,04,16,042,41,09,24,150,,12,61,070,43*7E
$GPGSV,3,2,09,14,31,258,43,25,73,320,49,29,46,220,44,30,29,287,38*76
$GPGSV,3,3,09,31,20,314,36,,,,,,,,,,,,*43
$GPGSA,M,3,02,04,12,14,25,29,31,,,,,,2.4,1.4,1.9*3B
Trace #20 at position 4.750000
$GPZDA,084307.04,09,10,2011,00,00*60
$GPRMC,084307.00,A,4611.978622,N,01258.217201,E,000.1,155.0,091$GPGGA,084308.00,4611.978460,N,01258.217235,E,1,07,1.4,141.01,M,46.25,M,,*61
$GPGLL,4611.978460,N,01258.217235,E,084308.00,A,A*66
$GPVTG,179.1,T,179.2,M,001.2,N,002.2,K,A*23
$GPGSV,3,1,09,02,38,085,43,04,16,042,41,09,24,150,,12,61,070,43*7E
$GPGSV,3,2,09,14,31,258,43,25,73,320,49,29,46,220,44,30,29,287,38*76
$GPGSV,3,3,09,31,20,314,36,,,,,,,,,,,,*43
$GPGSA,M,3,02,04,12,14,25,29,31,,,,,,2.4,1.4,1.9*3B
Trace #21 at position 5.000000
$GPZDA,084308.04,09,10,2011,00,00*6F
$GPRMC,084308.00,A,4611.978460,N,01258.217235,E,001.2,179.1,091$GPGGA,084309.00,4611.978225,N,01258.217269,E,1,08,1.3,141.08,M,46.25,M,,*6F
$GPGLL,4611.978225,N,01258.217269,E,084309.00,A,A*69
$GPVTG,170.1,T,170.3,M,000.7,N,001.3,K,A*24
$GPGSV,3,1,09,02,38,085,40,04,16,042,40,09,24,150,,12,61,070,43*7C
$GPGSV,3,2,09,14,31,258,42,25,73,320,50,29,46,220,43,30,29,287,43*74
$GPGSV,3,3,09,31,20,314,40,,,,,,,,,,,,*42
$GPGSA,M,3,02,04,12,14,25,29,30,31,,,,,2.3,1.3,1.9*38
Trace #22 at position 5.250000
$GPZDA,084308.04,09,10,2011,00,00*6F
$GPRMC,084308.00,A,4611.978460,N,01258.217235,E,001.2,179.1,091$GPGGA,084309.00,4611.978225,N,01258.217269,E,1,08,1.3,141.08,M,46.25,M,,*6F
$GPGLL,4611.978225,N,01258.217269,E,084309.00,A,A*69
$GPVTG,170.1,T,170.3,M,000.7,N,001.3,K,A*24
$GPGSV,3,1,09,02,38,085,40,04,16,042,40,09,24,150,,12,61,070,43*7C
$GPGSV,3,2,09,14,31,258,42,25,73,320,50,29,46,220,43,30,29,287,43*74
$GPGSV,3,3,09,31,20,314,40,,,,,,,,,,,,*42
$GPGSA,M,3,02,04,12,14,25,29,30,31,,,,,2.3,1.3,1.9*38
Trace #23 at position 5.500000
$GPZDA,084308.04,09,10,2011,00,00*6F
$GPRMC,084308.00,A,4611.978460,N,01258.217235,E,001.2,179.1,091$GPGGA,084309.00,4611.978225,N,01258.217269,E,1,08,1.3,141.08,M,46.25,M,,*6F
$GPGLL,4611.978225,N,01258.217269,E,084309.00,A,A*69
$GPVTG,170.1,T,170.3,M,000.7,N,001.3,K,A*24
$GPGSV,3,1,09,02,38,085,40,04,16,042,40,09,24,150,,12,61,070,43*7C
$GPGSV,3,2,09,14,31,258,42,25,73,320,50,29,46,220,43,30,29,287,43*74
$GPGSV,3,3,09,31,20,314,40,,,,,,,,,,,,*42
$GPGSA,M,3,02,04,12,14,25,29,30,31,,,,,2.3,1.3,1.9*38
Trace #24 at position 5.750000
$GPZDA,084308.04,09,10,2011,00,00*6F
$GPRMC,084308.00,A,4611.978460,N,01258.217235,E,001.2,179.1,091$GPGGA,084309.00,4611.978225,N,01258.217269,E,1,08,1.3,141.08,M,46.25,M,,*6F
$GPGLL,4611.978225,N,01258.217269,E,084309.00,A,A*69
$GPVTG,170.1,T,170.3,M,000.7,N,001.3,K,A*24
$GPGSV,3,1,09,02,38,085,40,04,16,042,40,09,24,150,,12,61,070,43*7C
$GPGSV,3,2,09,14,31,258,42,25,73,320,50,29,46,220,43,30,29,287,43*74
$GPGSV,3,3,09,31,20,314,40,,,,,,,,,,,,*42
$GPGSA,M,3,02,04,12,14,25,29,30,31,,,,,2.3,1.3,1.9*38
Trace #25 at position 6.000000
$GPZDA,084309.04,09,10,2011,00,00*6E
$GPRMC,084309.00,A,4611.978225,N,01258.217269,E,000.7,170.1,0$GPGGA,084310.00,4611.977959,N,01258.217364,E,1,07,1.5,141.04,M,46.25,M,,*61
$GPGLL,4611.977959,N,01258.217364,E,084310.00,A,A*62
$GPVTG,173.2,T,173.4,M,001.3,N,002.3,K,A*26
$GPGSV,3,1,09,02,38,085,35,04,16,042,41,09,24,150,,12,61,070,42*7E
$GPGSV,3,2,09,14,31,258,42,25,73,320,49,29,46,220,45,30,29,287,42*7B
$GPGSV,3,3,09,31,20,314,39,,,,,,,,,,,,*4C
$GPGSA,M,3,04,12,14,25,29,30,31,,,,,,2.5,1.5,2.0*30
Trace #26 at position 6.250000
$GPZDA,084309.04,09,10,2011,00,00*6E
$GPRMC,084309.00,A,4611.978225,N,01258.217269,E,000.7,170.1,0$GPGGA,084310.00,4611.977959,N,01258.217364,E,1,07,1.5,141.04,M,46.25,M,,*61
$GPGLL,4611.977959,N,01258.217364,E,084310.00,A,A*62
$GPVTG,173.2,T,173.4,M,001.3,N,002.3,K,A*26
$GPGSV,3,1,09,02,38,085,35,04,16,042,41,09,24,150,,12,61,070,42*7E
$GPGSV,3,2,09,14,31,258,42,25,73,320,49,29,46,220,45,30,29,287,42*7B
$GPGSV,3,3,09,31,20,314,39,,,,,,,,,,,,*4C
$GPGSA,M,3,04,12,14,25,29,30,31,,,,,,2.5,1.5,2.0*30
Trace #27 at position 6.500000
$GPZDA,084309.04,09,10,2011,00,00*6E
$GPRMC,084309.00,A,4611.978225,N,01258.217269,E,000.7,170.1,0$GPGGA,084310.00,4611.977959,N,01258.217364,E,1,07,1.5,141.04,M,46.25,M,,*61
$GPGLL,4611.977959,N,01258.217364,E,084310.00,A,A*62
$GPVTG,173.2,T,173.4,M,001.3,N,002.3,K,A*26
$GPGSV,3,1,09,02,38,085,35,04,16,042,41,09,24,150,,12,61,070,42*7E
$GPGSV,3,2,09,14,31,258,42,25,73,320,49,29,46,220,45,30,29,287,42*7B
$GPGSV,3,3,09,31,20,314,39,,,,,,,,,,,,*4C
$GPGSA,M,3,04,12,14,25,29,30,31,,,,,,2.5,1.5,2.0*30
Trace #28 at position 6.750000
$GPZDA,084310.04,09,10,2011,00,00*66
$GPRMC,084310.00,A,4611.977959,N,01258.217364,E,001.3,173.2,09108,1.3,141.02,M,46.25,M,,*6F
$GPGLL,4611.977632,N,01258.217506,E,084311.00,A,A*63
$GPVTG,157.9,T,158.0,M,001.4,N,002.5,K,A*27
$GPGSV,3,1,09,02,38,085,39,04,16,042,41,09,24,150,,12,61,070,43*73
$GPGSV,3,2,09,14,31,258,40,25,73,320,48,29,46,220,43,30,29,287,42*7E
$GPGSV,3,3,09,31,20,314,43,,,,,,,,,,,,*41
$GPGSA,M,3,02,04,12,14,25,29,30,31,,,,,2.3,1.3,1.9*38
Trace #29 at position 7.000000
$GPZDA,084310.04,09,10,2011,00,00*66
$GPRMC,084310.00,A,4611.977959,N,01258.217364,E,001.3,173.2,09108,1.3,141.02,M,46.25,M,,*6F
$GPGLL,4611.977632,N,01258.217506,E,084311.00,A,A*63
$GPVTG,157.9,T,158.0,M,001.4,N,002.5,K,A*27
$GPGSV,3,1,09,02,38,085,39,04,16,042,41,09,24,150,,12,61,070,43*73
$GPGSV,3,2,09,14,31,258,40,25,73,320,48,29,46,220,43,30,29,287,42*7E
$GPGSV,3,3,09,31,20,314,43,,,,,,,,,,,,*41
$GPGSA,M,3,02,04,12,14,25,29,30,31,,,,,2.3,1.3,1.9*38
Trace #30 at position 7.250000
$GPZDA,084310.04,09,10,2011,00,00*66
$GPRMC,084310.00,A,4611.977959,N,01258.217364,E,001.3,173.2,09108,1.3,141.02,M,46.25,M,,*6F
$GPGLL,4611.977632,N,01258.217506,E,084311.00,A,A*63
$GPVTG,157.9,T,158.0,M,001.4,N,002.5,K,A*27
$GPGSV,3,1,09,02,38,085,39,04,16,042,41,09,24,150,,12,61,070,43*73
$GPGSV,3,2,09,14,31,258,40,25,73,320,48,29,46,220,43,30,29,287,42*7E
$GPGSV,3,3,09,31,20,314,43,,,,,,,,,,,,*41
$GPGSA,M,3,02,04,12,14,25,29,30,31,,,,,2.3,1.3,1.9*38
Trace #31 at position 7.500000
$GPZDA,084310.04,09,10,2011,00,00*66
$GPRMC,084310.00,A,4611.977959,N,01258.217364,E,001.3,173.2,09108,1.3,141.02,M,46.25,M,,*6F
$GPGLL,4611.977632,N,01258.217506,E,084311.00,A,A*63
$GPVTG,157.9,T,158.0,M,001.4,N,002.5,K,A*27
$GPGSV,3,1,09,02,38,085,39,04,16,042,41,09,24,150,,12,61,070,43*73
$GPGSV,3,2,09,14,31,258,40,25,73,320,48,29,46,220,43,30,29,287,42*7E
$GPGSV,3,3,09,31,20,314,43,,,,,,,,,,,,*41
$GPGSA,M,3,02,04,12,14,25,29,30,31,,,,,2.3,1.3,1.9*38
Trace #32 at position 7.750000
$GPZDA,084311.04,09,10,2011,00,00*67
$GPRMC,084311.00,A,4611.977632,N,01258.217506,E,001.4,157.9,091011,0.2,E,A*3A
$GPGGA,084312.00,4611.977313,N7,E,084312.00,A,A*62
$GPVTG,126.7,T,126.8,M,001.8,N,003.4,K,A*22
$GPGSV,3,1,09,02,38,085,39,04,16,042,40,09,24,150,,12,61,070,43*72
$GPGSV,3,2,09,14,31,258,41,25,73,320,48,29,46,220,43,30,29,287,41*7C
$GPGSV,3,3,09,31,20,314,43,,,,,,,,,,,,*41
$GPGSA,M,3,02,04,12,14,25,29,30,31,,,,,2.3,1.3,1.9*38
Trace #33 at position 8.000000
$GPZDA,084311.04,09,10,2011,00,00*67
$GPRMC,084311.00,A,4611.977632,N,01258.217506,E,001.4,157.9,091011,0.2,E,A*3A
$GPGGA,084312.00,4611.977313,N7,E,084312.00,A,A*62
$GPVTG,126.7,T,126.8,M,001.8,N,003.4,K,A*22
$GPGSV,3,1,09,02,38,085,39,04,16,042,40,09,24,150,,12,61,070,43*72
$GPGSV,3,2,09,14,31,258,41,25,73,320,48,29,46,220,43,30,29,287,41*7C
$GPGSV,3,3,09,31,20,314,43,,,,,,,,,,,,*41
$GPGSA,M,3,02,04,12,14,25,29,30,31,,,,,2.3,1.3,1.9*38
Trace #34 at position 8.250000
$GPZDA,084311.04,09,10,2011,00,00*67
$GPRMC,084311.00,A,4611.977632,N,01258.217506,E,001.4,157.9,091011,0.2,E,A*3A
$GPGGA,084312.00,4611.977313,N7,E,084312.00,A,A*62
$GPVTG,126.7,T,126.8,M,001.8,N,003.4,K,A*22
$GPGSV,3,1,09,02,38,085,39,04,16,042,40,09,24,150,,12,61,070,43*72
$GPGSV,3,2,09,14,31,258,41,25,73,320,48,29,46,220,43,30,29,287,41*7C
$GPGSV,3,3,09,31,20,314,43,,,,,,,,,,,,*41
$GPGSA,M,3,02,04,12,14,25,29,30,31,,,,,2.3,1.3,1.9*38
Trace #35 at position 8.500000
$GPZDA,084311.04,09,10,2011,00,00*67
$GPRMC,084311.00,A,4611.977632,N,01258.217506,E,001.4,157.9,091011,0.2,E,A*3A
$GPGGA,084312.00,4611.977313,N7,E,084312.00,A,A*62
$GPVTG,126.7,T,126.8,M,001.8,N,003.4,K,A*22
$GPGSV,3,1,09,02,38,085,39,04,16,042,40,09,24,150,,12,61,070,43*72
$GPGSV,3,2,09,14,31,258,41,25,73,320,48,29,46,220,43,30,29,287,41*7C
$GPGSV,3,3,09,31,20,314,43,,,,,,,,,,,,*41
$GPGSA,M,3,02,04,12,14,25,29,30,31,,,,,2.3,1.3,1.9*38
Trace #36 at position 8.750000
$GPZDA,084312.04,09,10,2011,00,00*64
$GPRMC,084312.00,A,4611.977313,N,01258.217887,E,001.8,126.7,091011,0.2,E,A*3F
$GPGGA,084313.00,4611.976922,N,01258.218171,E,1,08,1.3,141.08,M,46.25,M,,*63
$GPGLL,4611.97*2F
$GPGSV,3,1,09,02,38,085,39,04,16,042,40,09,24,150,,12,61,070,42*73
$GPGSV,3,2,09,14,31,258,41,25,73,320,48,29,46,220,43,30,29,287,41*7C
$GPGSV,3,3,09,31,20,314,43,,,,,,,,,,,,*41
$GPGSA,M,3,02,04,12,14,25,29,30,31,,,,,2.3,1.3,1.9*38
Trace #37 at position 9.000000
$GPZDA,084312.04,09,10,2011,00,00*64
$GPRMC,084312.00,A,4611.977313,N,01258.217887,E,001.8,126.7,091011,0.2,E,A*3F
$GPGGA,084313.00,4611.976922,N,01258.218171,E,1,08,1.3,141.08,M,46.25,M,,*63
$GPGLL,4611.97*2F
$GPGSV,3,1,09,02,38,085,39,04,16,042,40,09,24,150,,12,61,070,42*73
$GPGSV,3,2,09,14,31,258,41,25,73,320,48,29,46,220,43,30,29,287,41*7C
$GPGSV,3,3,09,31,20,314,43,,,,,,,,,,,,*41
$GPGSA,M,3,02,04,12,14,25,29,30,31,,,,,2.3,1.3,1.9*38
Trace #38 at position 9.250000
$GPZDA,084313.04,09,10,2011,00,00*65
$GPRMC,084313.00,A,4611.976922,N,01258.218171,E,001.8,176.0,091011,0.2,E,A*3A
$GPGGA,084314.00,4611.976495,N,01258.218339,E,1,08,1.3,140.98,M,46.25,M,,*63
$GPGLL,4611.976495,N,01258.218339,E,084314.00,A,A*6D
$GPVTG,148.6,T,148.8,M
$GPGSV,3,3,09,31,20,314,44,,,,,,,,,,,,*46
$GPGSA,M,3,02,04,12,14,25,29,30,31,,,,,2.3,1.3,1.9*38
Trace #39 at position 9.500000
$GPZDA,084313.04,09,10,2011,00,00*65
$GPRMC,084313.00,A,4611.976922,N,01258.218171,E,001.8,176.0,091011,0.2,E,A*3A
$GPGGA,084314.00,4611.976495,N,01258.218339,E,1,08,1.3,140.98,M,46.25,M,,*63
$GPGLL,4611.976495,N,01258.218339,E,084314.00,A,A*6D
$GPVTG,148.6,T,148.8,M
$GPGSV,3,3,09,31,20,314,44,,,,,,,,,,,,*46
$GPGSA,M,3,02,04,12,14,25,29,30,31,,,,,2.3,1.3,1.9*38
Trace #40 at position 9.750000
$GPZDA,084313.04,09,10,2011,00,00*65
$GPRMC,084313.00,A,4611.976922,N,01258.218171,E,001.8,176.0,091011,0.2,E,A*3A
$GPGGA,084314.00,4611.976495,N,01258.218339,E,1,08,1.3,140.98,M,46.25,M,,*63
$GPGLL,4611.976495,N,01258.218339,E,084314.00,A,A*6D
$GPVTG,148.6,T,148.8,M
$GPGSV,3,3,09,31,20,314,44,,,,,,,,,,,,*46
$GPGSA,M,3,02,04,12,14,25,29,30,31,,,,,2.3,1.3,1.9*38
Trace #41 at position 10.000000
$GPZDA,084313.04,09,10,2011,00,00*65
$GPRMC,084313.00,A,4611.976922,N,01258.218171,E,001.8,176.0,091011,0.2,E,A*3A
$GPGGA,084314.00,4611.976495,N,01258.218339,E,1,08,1.3,140.98,M,46.25,M,,*63
$GPGLL,4611.976495,N,01258.218339,E,084314.00,A,A*6D
$GPVTG,148.6,T,148.8,M
$GPGSV,3,3,09,31,20,314,44,,,,,,,,,,,,*46
$GPGSA,M,3,02,04,12,14,25,29,30,31,,,,,2.3,1.3,1.9*38
Trace #42 at position 10.250000
$GPZDA,084313.04,09,10,2011,00,00*65
$GPRMC,084313.00,A,4611.976922,N,01258.218171,E,001.8,176.0,091011,0.2,E,A*3A
$GPGGA,084314.00,4611.976495,N,01258.218339,E,1,08,1.3,140.98,M,46.25,M,,*63
$GPGLL,4611.976495,N,01258.218339,E,084314.00,A,A*6D
$GPVTG,148.6,T,148.8,M
$GPGSV,3,3,09,31,20,314,44,,,,,,,,,,,,*46
$GPGSA,M,3,02,04,12,14,25,29,30,31,,,,,2.3,1.3,1.9*38
Trace #43 at position 10.500000
$GPZDA,084313.04,09,10,2011,00,00*65
$GPRMC,084313.00,A,4611.976922,N,01258.218171,E,001.8,176.0,091011,0.2,E,A*3A
$GPGGA,084314.00,4611.976495,N,01258.218339,E,1,08,1.3,140.98,M,46.25,M,,*63
$GPGLL,4611.976495,N,01258.218339,E,084314.00,A,A*6D
$GPVTG,148.6,T,148.8,M
$GPGSV,3,3,09,31,20,314,44,,,,,,,,,,,,*46
$GPGSA,M,3,02,04,12,14,25,29,30,31,,,,,2.3,1.3,1.9*38
Trace #44 at position 10.750000
$GPZDA,084313.04,09,10,2011,00,00*65
$GPRMC,084313.00,A,4611.976922,N,01258.218171,E,001.8,176.0,091011,0.2,E,A*3A
$GPGGA,084314.00,4611.976495,N,01258.218339,E,1,08,1.3,140.98,M,46.25,M,,*63
$GPGLL,4611.976495,N,01258.218339,E,084314.00,A,A*6D
$GPVTG,148.6,T,148.8,M
$GPGSV,3,3,09,31,20,314,44,,,,,,,,,,,,*46
$GPGSA,M,3,02,04,12,14,25,29,30,31,,,,,2.3,1.3,1.9*38
Trace #45 at position 11.000000
$GPZDA,084314.04,09,10,2011,00,00*62
$GPRMC,084314.00,A,4611.976495,N,01258.218339,E,001.6,148.6,091011,0.2,E,A*37
$GPGGA,084315.00,4611.976179,N,01258.218605,E,1,08,1.3,141.03,M,46.25,M,,*6C
$GPGLL,4611.976179,N,01258.218605,E,084315.00,A,A*61
$GPVTG,144.3,T,144.5,M,001.2,N,002.1,K,A*25
$GPGSV,3,1,09,02,38,085,40,04,16,042,40,09,24,150,,12,61,070,43*7C
$GPGSV,3,2,09,14,31,258,42,25,73,320,48,29,46,220,411.976179,N,01258.218605,E,001.2,144.3,091011,0.2,E,A*36
$GPGGA,084316.00,4611.975786,N,01258.218771,E,1,08,1.3,141.01,M,46.25,M,,*6A
$GPGLL,4611.975786,N,01258.218771,E,084316.00,A,A*65
$GPVTG,169.4,T,169.5,M,002.0,N,003.6,K,A*25
$GPGSV,3,1,09,02,38,085,39,04,16,042,40,09,24,150,,12,61,070,43*72
$GPGSV,3,2,09,14,31,258,42,25,73,320,48,29,46,220,43,30,29,287,42*7C
$GPGSV,3,3,09,31,20,314,42,,,,,,,,,,,,*40
$GPGSA,M,3,02,04,12,14,25,29,30,31,,,,,2.3,1.3,1.9*38
Trace #46 at position 11.250000
$GPZDA,084314.04,09,10,2011,00,00*62
$GPRMC,084314.00,A,4611.976495,N,01258.218339,E,001.6,148.6,091011,0.2,E,A*37
$GPGGA,084315.00,4611.976179,N,01258.218605,E,1,08,1.3,141.03,M,46.25,M,,*6C
$GPGLL,4611.976179,N,01258.218605,E,084315.00,A,A*61
$GPVTG,144.3,T,144.5,M,001.2,N,002.1,K,A*25
$GPGSV,3,1,09,02,38,085,40,04,16,042,40,09,24,150,,12,61,070,43*7C
$GPGSV,3,2,09,14,31,258,42,25,73,320,48,29,46,220,411.976179,N,01258.218605,E,001.2,144.3,091011,0.2,E,A*36
$GPGGA,084316.00,4611.975786,N,01258.218771,E,1,08,1.3,141.01,M,46.25,M,,*6A
$GPGLL,4611.975786,N,01258.218771,E,084316.00,A,A*65
$GPVTG,169.4,T,169.5,M,002.0,N,003.6,K,A*25
$GPGSV,3,1,09,02,38,085,39,04,16,042,40,09,24,150,,12,61,070,43*72
$GPGSV,3,2,09,14,31,258,42,25,73,320,48,29,46,220,43,30,29,287,42*7C
$GPGSV,3,3,09,31,20,314,42,,,,,,,,,,,,*40
$GPGSA,M,3,02,04,12,14,25,29,30,31,,,,,2.3,1.3,1.9*38
Trace #47 at position 11.500000
$GPZDA,084314.04,09,10,2011,00,00*62
$GPRMC,084314.00,A,4611.976495,N,01258.218339,E,001.6,148.6,091011,0.2,E,A*37
$GPGGA,084315.00,4611.976179,N,01258.218605,E,1,08,1.3,141.03,M,46.25,M,,*6C
$GPGLL,4611.976179,N,01258.218605,E,084315.00,A,A*61
$GPVTG,144.3,T,144.5,M,001.2,N,002.1,K,A*25
$GPGSV,3,1,09,02,38,085,40,04,16,042,40,09,24,150,,12,61,070,43*7C
$GPGSV,3,2,09,14,31,258,42,25,73,320,48,29,46,220,411.976179,N,01258.218605,E,001.2,144.3,091011,0.2,E,A*36
$GPGGA,084316.00,4611.975786,N,01258.218771,E,1,08,1.3,141.01,M,46.25,M,,*6A
$GPGLL,4611.975786,N,01258.218771,E,084316.00,A,A*65
$GPVTG,169.4,T,169.5,M,002.0,N,003.6,K,A*25
$GPGSV,3,1,09,02,38,085,39,04,16,042,40,09,24,150,,12,61,070,43*72
$GPGSV,3,2,09,14,31,258,42,25,73,320,48,29,46,220,43,30,29,287,42*7C
$GPGSV,3,3,09,31,20,314,42,,,,,,,,,,,,*40
$GPGSA,M,3,02,04,12,14,25,29,30,31,,,,,2.3,1.3,1.9*38
Trace #48 at position 11.750000
$GPZDA,084316.04,09,10,2011,00,00*60
$GP$GPGGA,084317.00,4611.975356,N,01258.218851,E,1,08,1.3,140.99,M,46.25,M,,*6F
$GPGLL,4611.975356,N,01258.218851,E,084317.00,A,A*60
$GPVTG,172.5,T,172.7,M,001.2,N,002.2,K,A*22
$GPGSV,3,1,09,02,38,085,39,04,16,042,40,09,24,150,,12,61,070,42*73
$GPGSV,3,2,09,14,31,258,41,25,73,320,48,29,46,220,43,30,29,287,41*7C
$GPGSV,3,3,09,31,20,314,42,,,,,,,,,,,,*40
$GPGSA,M,3,02,04,12,14,25,29,30,31,,,,,2.3,1.3,1.9*38
Trace #49 at position 12.000000
$GPZDA,084316.04,09,10,2011,00,00*60
$GP$GPGGA,084317.00,4611.975356,N,01258.218851,E,1,08,1.3,140.99,M,46.25,M,,*6F
$GPGLL,4611.975356,N,01258.218851,E,084317.00,A,A*60
$GPVTG,172.5,T,172.7,M,001.2,N,002.2,K,A*22
$GPGSV,3,1,09,02,38,085,39,04,16,042,40,09,24,150,,12,61,070,42*73
$GPGSV,3,2,09,14,31,258,41,25,73,320,48,29,46,220,43,30,29,287,41*7C
$GPGSV,3,3,09,31,20,314,42,,,,,,,,,,,,*40
$GPGSA,M,3,02,04,12,14,25,29,30,31,,,,,2.3,1.3,1.9*38
Trace #50 at position 12.250000
$GPZDA,084316.04,09,10,2011,00,00*60
$GP$GPGGA,084317.00,4611.975356,N,01258.218851,E,1,08,1.3,140.99,M,46.25,M,,*6F
$GPGLL,4611.975356,N,01258.218851,E,084317.00,A,A*60
$GPVTG,172.5,T,172.7,M,001.2,N,002.2,K,A*22
$GPGSV,3,1,09,02,38,085,39,04,16,042,40,09,24,150,,12,61,070,42*73
$GPGSV,3,2,09,14,31,258,41,25,73,320,48,29,46,220,43,30,29,287,41*7C
$GPGSV,3,3,09,31,20,314,42,,,,,,,,,,,,*40
$GPGSA,M,3,02,04,12,14,25,29,30,31,,,,,2.3,1.3,1.9*38
Trace #51 at position 12.500000
$GPZDA,084316.04,09,10,2011,00,00*60
$GP$GPGGA,084317.00,4611.975356,N,01258.218851,E,1,08,1.3,140.99,M,46.25,M,,*6F
$GPGLL,4611.975356,N,01258.218851,E,084317.00,A,A*60
$GPVTG,172.5,T,172.7,M,001.2,N,002.2,K,A*22
$GPGSV,3,1,09,02,38,085,39,04,16,042,40,09,24,150,,12,61,070,42*73
$GPGSV,3,2,09,14,31,258,41,25,73,320,48,29,46,220,43,30,29,287,41*7C
$GPGSV,3,3,09,31,20,314,42,,,,,,,,,,,,*40
$GPGSA,M,3,02,04,12,14,25,29,30,31,,,,,2.3,1.3,1.9*38
Trace #52 at position 12.750000
$GPZDA,084317.04,09,10,2011,00,00*61
$GPRMC,084317.00,A,4611.975356,N,01258.218851,E,001.2,172.5,0$GPGGA,084318.00,4611.974910,N,01258.218901,E,1,08,1.3,141.03,M,46.25,M,,*6F
$GPGLL,4611.974910,N,01258.218901,E,084318.00,A,A*62
$GPVTG,176.8,T,176.9,M,002.0,N,003.7,K,A*24
$GPGSV,3,1,09,02,38,085,39,04,16,042,38,09,24,150,,12,61,070,42*7C
$GPGSV,3,2,09,14,31,258,41,25,73,320,47,29,46,220,44,30,29,287,41*74
$GPGSV,3,3,09,31,20,314,43,,,,,,,,,,,,*41
$GPGSA,M,3,02,04,12,14,25,29,30,31,,,,,2.3,1.3,1.9*38
Trace #53 at position 13.000000
$GPZDA,084317.04,09,10,2011,00,00*61
$GPRMC,084317.00,A,4611.975356,N,01258.218851,E,001.2,172.5,0$GPGGA,084318.00,4611.974910,N,01258.218901,E,1,08,1.3,141.03,M,46.25,M,,*6F
$GPGLL,4611.974910,N,01258.218901,E,084318.00,A,A*62
$GPVTG,176.8,T,176.9,M,002.0,N,003.7,K,A*24
$GPGSV,3,1,09,02,38,085,39,04,16,042,38,09,24,150,,12,61,070,42*7C
$GPGSV,3,2,09,14,31,258,41,25,73,320,47,29,46,220,44,30,29,287,41*74
$GPGSV,3,3,09,31,20,314,43,,,,,,,,,,,,*41
$GPGSA,M,3,02,04,12,14,25,29,30,31,,,,,2.3,1.3,1.9*38
Trace #54 at position 13.250000
$GPZDA,084317.04,09,10,2011,00,00*61
$GPRMC,084317.00,A,4611.975356,N,01258.218851,E,001.2,172.5,0$GPGGA,084318.00,4611.974910,N,01258.218901,E,1,08,1.3,141.03,M,46.25,M,,*6F
$GPGLL,4611.974910,N,01258.218901,E,084318.00,A,A*62
$GPVTG,176.8,T,176.9,M,002.0,N,003.7,K,A*24
$GPGSV,3,1,09,02,38,085,39,04,16,042,38,09,24,150,,12,61,070,42*7C
$GPGSV,3,2,09,14,31,258,41,25,73,320,47,29,46,220,44,30,29,287,41*74
$GPGSV,3,3,09,31,20,314,43,,,,,,,,,,,,*41
$GPGSA,M,3,02,04,12,14,25,29,30,31,,,,,2.3,1.3,1.9*38
Trace #55 at position 13.500000
$GPZDA,084317.04,09,10,2011,00,00*61
$GPRMC,084317.00,A,4611.975356,N,01258.218851,E,001.2,172.5,0$GPGGA,084318.00,4611.974910,N,01258.218901,E,1,08,1.3,141.03,M,46.25,M,,*6F
$GPGLL,4611.974910,N,01258.218901,E,084318.00,A,A*62
$GPVTG,176.8,T,176.9,M,002.0,N,003.7,K,A*24
$GPGSV,3,1,09,02,38,085,39,04,16,042,38,09,24,150,,12,61,070,42*7C
$GPGSV,3,2,09,14,31,258,41,25,73,320,47,29,46,220,44,30,29,287,41*74
$GPGSV,3,3,09,31,20,314,43,,,,,,,,,,,,*41
$GPGSA,M,3,02,04,12,14,25,29,30,31,,,,,2.3,1.3,1.9*38
Trace #56 at position 13.750000
$GPZDA,084318.04,09,10,2011,00,00*6E
$GPRMC,084318.00,A,4611.974910,N,01258.218901,E,002.0,176.8,0$GPGGA,084319.00,4611.974418,N,01258.218981,E,1,08,1.3,141.01,M,46.25,M,,*61
$GPGLL,4611.974418,N,01258.218981,E,084319.00,A,A*6E
$GPVTG,172.5,T,172.7,M,001.5,N,002.8,K,A*2F
$GPGSV,3,1,09,02,38,085,39,04,16,042,39,09,24,150,,12,61,070,41*7E
$GPGSV,3,2,09,14,31,258,40,25,73,320,47,29,46,220,42,30,29,287,42*70
$GPGSV,3,3,09,31,20,314,44,,,,,,,,,,,,*46
$GPGSA,M,3,02,04,12,14,25,29,30,31,,,,,2.3,1.3,1.9*38
Trace #57 at position 14.000000
$GPZDA,084318.04,09,10,2011,00,00*6E
$GPRMC,084318.00,A,4611.974910,N,01258.218901,E,002.0,176.8,0$GPGGA,084319.00,4611.974418,N,01258.218981,E,1,08,1.3,141.01,M,46.25,M,,*61
$GPGLL,4611.974418,N,01258.218981,E,084319.00,A,A*6E
$GPVTG,172.5,T,172.7,M,001.5,N,002.8,K,A*2F
$GPGSV,3,1,09,02,38,085,39,04,16,042,39,09,24,150,,12,61,070,41*7E
$GPGSV,3,2,09,14,31,258,40,25,73,320,47,29,46,220,42,30,29,287,42*70
$GPGSV,3,3,09,31,20,314,44,,,,,,,,,,,,*46
$GPGSA,M,3,02,04,12,14,25,29,30,31,,,,,2.3,1.3,1.9*38
Trace #58 at position 14.250000
$GPZDA,084318.04,09,10,2011,00,00*6E
$GPRMC,084318.00,A,4611.974910,N,01258.218901,E,002.0,176.8,0$GPGGA,084319.00,4611.974418,N,01258.218981,E,1,08,1.3,141.01,M,46.25,M,,*61
$GPGLL,4611.974418,N,01258.218981,E,084319.00,A,A*6E
$GPVTG,172.5,T,172.7,M,001.5,N,002.8,K,A*2F
$GPGSV,3,1,09,02,38,085,39,04,16,042,39,09,24,150,,12,61,070,41*7E
$GPGSV,3,2,09,14,31,258,40,25,73,320,47,29,46,220,42,30,29,287,42*70
$GPGSV,3,3,09,31,20,314,44,,,,,,,,,,,,*46
$GPGSA,M,3,02,04,12,14,25,29,30,31,,,,,2.3,1.3,1.9*38
Trace #59 at position 14.500000
$GPZDA,084318.04,09,10,2011,00,00*6E
$GPRMC,084318.00,A,4611.974910,N,01258.218901,E,002.0,176.8,0$GPGGA,084319.00,4611.974418,N,01258.218981,E,1,08,1.3,141.01,M,46.25,M,,*61
$GPGLL,4611.974418,N,01258.218981,E,084319.00,A,A*6E
$GPVTG,172.5,T,172.7,M,001.5,N,002.8,K,A*2F
$GPGSV,3,1,09,02,38,085,39,04,16,042,39,09,24,150,,12,61,070,41*7E
$GPGSV,3,2,09,14,31,258,40,25,73,320,47,29,46,220,42,30,29,287,42*70
$GPGSV,3,3,09,31,20,314,44,,,,,,,,,,,,*46
$GPGSA,M,3,02,04,12,14,25,29,30,31,,,,,2.3,1.3,1.9*38
Trace #60 at position 14.750000
$GPZDA,084319.04,09,10,2011,00,00*6F
$GPRMC,084319.00,A,4611.974418,N,01258.218981,E,001.5,172.5,0$GPGGA,084320.00,4611.974022,N,01258.219179,E,1,08,1.3,141.09,M,46.25,M,,*60
$GPGLL,4611.974022,N,01258.219179,E,084320.00,A,A*67
$GPVTG,150.7,T,150.9,M,001.4,N,002.6,K,A*2C
$GPGSV,3,1,09,02,38,085,40,04,16,042,39,09,24,150,,12,61,070,41*70
$GPGSV,3,2,09,14,31,258,41,25,73,320,48,29,47,220,43,30,29,287,41*7D
$GPGSV,3,3,09,31,20,314,42,,,,,,,,,,,,*40
$GPGSA,M,3,02,04,12,14,25,29,30,31,,,,,2.3,1.3,1.9*38
Trace #61 at position 15.000000
$GPZDA,084319.04,09,10,2011,00,00*6F
$GPRMC,084319.00,A,4611.974418,N,01258.218981,E,001.5,172.5,0$GPGGA,084320.00,4611.974022,N,01258.219179,E,1,08,1.3,141.09,M,46.25,M,,*60
$GPGLL,4611.974022,N,01258.219179,E,084320.00,A,A*67
$GPVTG,150.7,T,150.9,M,001.4,N,002.6,K,A*2C
$GPGSV,3,1,09,02,38,085,40,04,16,042,39,09,24,150,,12,61,070,41*70
$GPGSV,3,2,09,14,31,258,41,25,73,320,48,29,47,220,43,30,29,287,41*7D
$GPGSV,3,3,09,31,20,314,42,,,,,,,,,,,,*40
$GPGSA,M,3,02,04,12,14,25,29,30,31,,,,,2.3,1.3,1.9*38
Trace #62 at position 15.250000
$GPZDA,084319.04,09,10,2011,00,00*6F
$GPRMC,084319.00,A,4611.974418,N,01258.218981,E,001.5,172.5,0$GPGGA,084320.00,4611.974022,N,01258.219179,E,1,08,1.3,141.09,M,46.25,M,,*60
$GPGLL,4611.974022,N,01258.219179,E,084320.00,A,A*67
$GPVTG,150.7,T,150.9,M,001.4,N,002.6,K,A*2C
$GPGSV,3,1,09,02,38,085,40,04,16,042,39,09,24,150,,12,61,070,41*70
$GPGSV,3,2,09,14,31,258,41,25,73,320,48,29,47,220,43,30,29,287,41*7D
$GPGSV,3,3,09,31,20,314,42,,,,,,,,,,,,*40
$GPGSA,M,3,02,04,12,14,25,29,30,31,,,,,2.3,1.3,1.9*38
Trace #63 at position 15.500000
$GPZDA,084319.04,09,10,2011,00,00*6F
$GPRMC,084319.00,A,4611.974418,N,01258.218981,E,001.5,172.5,0$GPGGA,084320.00,4611.974022,N,01258.219179,E,1,08,1.3,141.09,M,46.25,M,,*60
$GPGLL,4611.974022,N,01258.219179,E,084320.00,A,A*67
$GPVTG,150.7,T,150.9,M,001.4,N,002.6,K,A*2C
$GPGSV,3,1,09,02,38,085,40,04,16,042,39,09,24,150,,12,61,070,41*70
$GPGSV,3,2,09,14,31,258,41,25,73,320,48,29,47,220,43,30,29,287,41*7D
$GPGSV,3,3,09,31,20,314,42,,,,,,,,,,,,*40
$GPGSA,M,3,02,04,12,14,25,29,30,31,,,,,2.3,1.3,1.9*38
Trace #64 at position 15.750000
$GPZDA,084320.04,09,10,2011,00,00*65
$GPRMC,084320.00,A,4611.974022,N,01258.219179,E,001.4,150.7,0$GPGGA,084321.00,4611.973562,N,01258.219569,E,1,08,1.3,141.11,M,46.25,M,,*6B
$GPGLL,4611.973562,N,01258.219569,E,084321.00,A,A*65
$GPVTG,146.7,T,146.9,M,002.3,N,004.3,K,A*2B
$GPGSV,3,1,09,02,38,085,40,04,16,042,37,09,24,150,,12,61,070,41*7E
$GPGSV,3,2,09,14,31,258,41,25,73,320,48,29,47,220,45,30,29,287,41*7B
$GPGSV,3,3,09,31,20,314,41,,,,,,,,,,,,*43
$GPGSA,M,3,02,04,12,14,25,29,30,31,,,,,2.3,1.3,1.9*38
Trace #65 at position 16.000000
$GPZDA,084320.04,09,10,2011,00,00*65
$GPRMC,084320.00,A,4611.974022,N,01258.219179,E,001.4,150.7,0$GPGGA,084321.00,4611.973562,N,01258.219569,E,1,08,1.3,141.11,M,46.25,M,,*6B
$GPGLL,4611.973562,N,01258.219569,E,084321.00,A,A*65
$GPVTG,146.7,T,146.9,M,002.3,N,004.3,K,A*2B
$GPGSV,3,1,09,02,38,085,40,04,16,042,37,09,24,150,,12,61,070,41*7E
$GPGSV,3,2,09,14,31,258,41,25,73,320,48,29,47,220,45,30,29,287,41*7B
$GPGSV,3,3,09,31,20,314,41,,,,,,,,,,,,*43
$GPGSA,M,3,02,04,12,14,25,29,30,31,,,,,2.3,1.3,1.9*38
Trace #66 at position 16.250000
$GPZDA,084320.04,09,10,2011,00,00*65
$GPRMC,084320.00,A,4611.974022,N,01258.219179,E,001.4,150.7,0$GPGGA,084321.00,4611.973562,N,01258.219569,E,1,08,1.3,141.11,M,46.25,M,,*6B
$GPGLL,4611.973562,N,01258.219569,E,084321.00,A,A*65
$GPVTG,146.7,T,146.9,M,002.3,N,004.3,K,A*2B
$GPGSV,3,1,09,02,38,085,40,04,16,042,37,09,24,150,,12,61,070,41*7E
$GPGSV,3,2,09,14,31,258,41,25,73,320,48,29,47,220,45,30,29,287,41*7B
$GPGSV,3,3,09,31,20,314,41,,,,,,,,,,,,*43
$GPGSA,M,3,02,04,12,14,25,29,30,31,,,,,2.3,1.3,1.9*38
Trace #67 at position 16.500000
$GPZDA,084320.04,09,10,2011,00,00*65
$GPRMC,084320.00,A,4611.974022,N,01258.219179,E,001.4,150.7,0$GPGGA,084321.00,4611.973562,N,01258.219569,E,1,08,1.3,141.11,M,46.25,M,,*6B
$GPGLL,4611.973562,N,01258.219569,E,084321.00,A,A*65
$GPVTG,146.7,T,146.9,M,002.3,N,004.3,K,A*2B
$GPGSV,3,1,09,02,38,085,40,04,16,042,37,09,24,150,,12,61,070,41*7E
$GPGSV,3,2,09,14,31,258,41,25,73,320,48,29,47,220,45,30,29,287,41*7B
$GPGSV,3,3,09,31,20,314,41,,,,,,,,,,,,*43
$GPGSA,M,3,02,04,12,14,25,29,30,31,,,,,2.3,1.3,1.9*38
Trace #68 at position 16.750000
$GPZDA,084321.04,09,10,2011,00,00*64
$GPRMC,084321.00,A,4611.973562,N,01258.219569,E,002.3,146.7,0$GPGGA,084322.00,4611.973060,N,01258.219938,E,1,08,1.3,141.13,M,46.25,M,,*65
$GPGLL,4611.973060,N,01258.219938,E,084322.00,A,A*69
$GPVTG,156.2,T,156.4,M,001.7,N,003.1,K,A*21
$GPGSV,3,1,09,02,38,085,38,04,16,042,39,09,24,150,35,12,61,070,42*7A
$GPGSV,3,2,09,14,31,258,41,25,73,320,47,29,47,220,42,30,29,287,42*70
$GPGSV,3,3,09,31,21,314,43,,,,,,,,,,,,*40
$GPGSA,M,3,02,04,12,14,25,29,30,31,,,,,2.3,1.3,1.9*38
Trace #69 at position 17.000000
$GPZDA,084321.04,09,10,2011,00,00*64
$GPRMC,084321.00,A,4611.973562,N,01258.219569,E,002.3,146.7,0$GPGGA,084322.00,4611.973060,N,01258.219938,E,1,08,1.3,141.13,M,46.25,M,,*65
$GPGLL,4611.973060,N,01258.219938,E,084322.00,A,A*69
$GPVTG,156.2,T,156.4,M,001.7,N,003.1,K,A*21
$GPGSV,3,1,09,02,38,085,38,04,16,042,39,09,24,150,35,12,61,070,42*7A
$GPGSV,3,2,09,14,31,258,41,25,73,320,47,29,47,220,42,30,29,287,42*70
$GPGSV,3,3,09,31,21,314,43,,,,,,,,,,,,*40
$GPGSA,M,3,02,04,12,14,25,29,30,31,,,,,2.3,1.3,1.9*38
Trace #70 at position 17.250000
$GPZDA,084321.04,09,10,2011,00,00*64
$GPRMC,084321.00,A,4611.973562,N,01258.219569,E,002.3,146.7,0$GPGGA,084322.00,4611.973060,N,01258.219938,E,1,08,1.3,141.13,M,46.25,M,,*65
$GPGLL,4611.973060,N,01258.219938,E,084322.00,A,A*69
$GPVTG,156.2,T,156.4,M,001.7,N,003.1,K,A*21
$GPGSV,3,1,09,02,38,085,38,04,16,042,39,09,24,150,35,12,61,070,42*7A
$GPGSV,3,2,09,14,31,258,41,25,73,320,47,29,47,220,42,30,29,287,42*70
$GPGSV,3,3,09,31,21,314,43,,,,,,,,,,,,*40
$GPGSA,M,3,02,04,12,14,25,29,30,31,,,,,2.3,1.3,1.9*38
Trace #71 at position 17.500000
$GPZDA,084321.04,09,10,2011,00,00*64
$GPRMC,084321.00,A,4611.973562,N,01258.219569,E,002.3,146.7,0$GPGGA,084322.00,4611.973060,N,01258.219938,E,1,08,1.3,141.13,M,46.25,M,,*65
$GPGLL,4611.973060,N,01258.219938,E,084322.00,A,A*69
$GPVTG,156.2,T,156.4,M,001.7,N,003.1,K,A*21
$GPGSV,3,1,09,02,38,085,38,04,16,042,39,09,24,150,35,12,61,070,42*7A
$GPGSV,3,2,09,14,31,258,41,25,73,320,47,29,47,220,42,30,29,287,42*70
$GPGSV,3,3,09,31,21,314,43,,,,,,,,,,,,*40
$GPGSA,M,3,02,04,12,14,25,29,30,31,,,,,2.3,1.3,1.9*38
Trace #72 at position 17.750000
$GPZDA,084322.04,09,10,2011,00,00*67
$GPRMC,084322.00,A,4611.973060,N,01258.219938,E,001.7,156.2$GPGGA,084323.00,4611.972534,N,01258.220025,E,1,08,1.3,141.09,M,46.25,M,,*65
$GPGLL,4611.972534,N,01258.220025,E,084323.00,A,A*62
$GPVTG,184.7,T,184.9,M,002.2,N,004.1,K,A*28
$GPGSV,3,1,09,02,38,085,39,04,16,042,37,09,24,150,36,12,61,070,42*76
$GPGSV,3,2,09,14,31,258,42,25,73,320,47,29,47,220,43,30,29,287,40*70
$GPGSV,3,3,09,31,21,314,42,,,,,,,,,,,,*41
$GPGSA,M,3,02,04,12,14,25,29,30,31,,,,,2.3,1.3,1.9*38
Trace #73 at position 18.000000
$GPZDA,084322.04,09,10,2011,00,00*67
$GPRMC,084322.00,A,4611.973060,N,01258.219938,E,001.7,156.2$GPGGA,084323.00,4611.972534,N,01258.220025,E,1,08,1.3,141.09,M,46.25,M,,*65
$GPGLL,4611.972534,N,01258.220025,E,084323.00,A,A*62
$GPVTG,184.7,T,184.9,M,002.2,N,004.1,K,A*28
$GPGSV,3,1,09,02,38,085,39,04,16,042,37,09,24,150,36,12,61,070,42*76
$GPGSV,3,2,09,14,31,258,42,25,73,320,47,29,47,220,43,30,29,287,40*70
$GPGSV,3,3,09,31,21,314,42,,,,,,,,,,,,*41
$GPGSA,M,3,02,04,12,14,25,29,30,31,,,,,2.3,1.3,1.9*38
Trace #74 at position 18.250000
$GPZDA,084322.04,09,10,2011,00,00*67
$GPRMC,084322.00,A,4611.973060,N,01258.219938,E,001.7,156.2$GPGGA,084323.00,4611.972534,N,01258.220025,E,1,08,1.3,141.09,M,46.25,M,,*65
$GPGLL,4611.972534,N,01258.220025,E,084323.00,A,A*62
$GPVTG,184.7,T,184.9,M,002.2,N,004.1,K,A*28
$GPGSV,3,1,09,02,38,085,39,04,16,042,37,09,24,150,36,12,61,070,42*76
$GPGSV,3,2,09,14,31,258,42,25,73,320,47,29,47,220,43,30,29,287,40*70
$GPGSV,3,3,09,31,21,314,42,,,,,,,,,,,,*41
$GPGSA,M,3,02,04,12,14,25,29,30,31,,,,,2.3,1.3,1.9*38
Trace #75 at position 18.500000
$GPZDA,084323.04,09,10,2011,00,00*66
$GPRMC,084323.00,A,4611.972534,N,01258.220025,E,002.2,184.7,N,01258.220248,E,084324.00,A,A*62
$GPVTG,155.0,T,155.1,M,003.1,N,005.8,K,A*2D
$GPGSV,3,1,09,02,38,085,39,04,16,042,39,09,24,150,35,12,61,070,43*7A
$GPGSV,3,2,09,14,31,258,41,25,73,320,48,29,47,220,43,30,29,287,42*7E
$GPGSV,3,3,09,31,21,314,42,,,,,,,,,,,,*41
$GPGSA,M,3,02,04,12,14,25,29,30,31,,,,,2.3,1.3,1.9*38
Trace #76 at position 18.750000
$GPZDA,084323.04,09,10,2011,00,00*66
$GPRMC,084323.00,A,4611.972534,N,01258.220025,E,002.2,184.7,N,01258.220248,E,084324.00,A,A*62
$GPVTG,155.0,T,155.1,M,003.1,N,005.8,K,A*2D
$GPGSV,3,1,09,02,38,085,39,04,16,042,39,09,24,150,35,12,61,070,43*7A
$GPGSV,3,2,09,14,31,258,41,25,73,320,48,29,47,220,43,30,29,287,42*7E
$GPGSV,3,3,09,31,21,314,42,,,,,,,,,,,,*41
$GPGSA,M,3,02,04,12,14,25,29,30,31,,,,,2.3,1.3,1.9*38
Trace #77 at position 19.000000
$GPZDA,084324.04,09,10,2011,00,00*61
$GPRMC,084324.00,A,4611.971852,N,01258.220248,E,003.1,155.0,091011,0.2,E,A*37
$GPGGA,084325.00,4611.971243,N,01258.220531,E,1,08,1.3,140.68,M,46.25,M,,*61*28
$GPGSV,3,1,09,02,38,085,40,04,16,042,40,09,24,150,36,12,61,070,43*79
$GPGSV,3,2,09,14,31,258,42,25,73,320,47,29,47,220,43,30,29,287,43*73
$GPGSV,3,3,09,31,21,314,42,,,,,,,,,,,,*41
$GPGSA,M,3,02,04,12,14,25,29,30,31,,,,,2.3,1.3,1.9*38
Trace #78 at position 19.250000
$GPZDA,084324.04,09,10,2011,00,00*61
$GPRMC,084324.00,A,4611.971852,N,01258.220248,E,003.1,155.0,091011,0.2,E,A*37
$GPGGA,084325.00,4611.971243,N,01258.220531,E,1,08,1.3,140.68,M,46.25,M,,*61*28
$GPGSV,3,1,09,02,38,085,40,04,16,042,40,09,24,150,36,12,61,070,43*79
$GPGSV,3,2,09,14,31,258,42,25,73,320,47,29,47,220,43,30,29,287,43*73
$GPGSV,3,3,09,31,21,314,42,,,,,,,,,,,,*41
$GPGSA,M,3,02,04,12,14,25,29,30,31,,,,,2.3,1.3,1.9*38
Trace #79 at position 19.500000
$GPZDA,084324.04,09,10,2011,00,00*61
$GPRMC,084324.00,A,4611.971852,N,01258.220248,E,003.1,155.0,091011,0.2,E,A*37
$GPGGA,084325.00,4611.971243,N,01258.220531,E,1,08,1.3,140.68,M,46.25,M,,*61*28
$GPGSV,3,1,09,02,38,085,40,04,16,042,40,09,24,150,36,12,61,070,43*79
$GPGSV,3,2,09,14,31,258,42,25,73,320,47,29,47,220,43,30,29,287,43*73
$GPGSV,3,3,09,31,21,314,42,,,,,,,,,,,,*41
$GPGSA,M,3,02,04,12,14,25,29,30,31,,,,,2.3,1.3,1.9*38
Trace #80 at position 19.750000
$GPZDA,084325.04,09,10,2011,00,00*60
$GPRMC,084325.00,A,4611.971243,N,01258.220531,E,001.8,175.4,091011,0.2,E,A*38
$GPGGA,084326.00,4611.970766,N,01258.220679,E,1,08,1.3,140.62,M,46.25,M,,*64
$GPGLL,4611.970766,N,01258.220679,E,084326.00,A,A*6F
$GPVTG,162.4,T,162.6,61,070,43*79
$GPGSV,3,2,09,14,31,258,41,25,73,320,48,29,47,220,44,30,29,287,43*78
$GPGSV,3,3,09,31,21,314,43,,,,,,,,,,,,*40
$GPGSA,M,3,02,04,12,14,25,29,30,31,,,,,2.3,1.3,1.9*38
Trace #81 at position 20.000000
$GPZDA,084325.04,09,10,2011,00,00*60
$GPRMC,084325.00,A,4611.971243,N,01258.220531,E,001.8,175.4,091011,0.2,E,A*38
$GPGGA,084326.00,4611.970766,N,01258.220679,E,1,08,1.3,140.62,M,46.25,M,,*64
$GPGLL,4611.970766,N,01258.220679,E,084326.00,A,A*6F
$GPVTG,162.4,T,162.6,61,070,43*79
$GPGSV,3,2,09,14,31,258,41,25,73,320,48,29,47,220,44,30,29,287,43*78
$GPGSV,3,3,09,31,21,314,43,,,,,,,,,,,,*40
$GPGSA,M,3,02,04,12,14,25,29,30,31,,,,,2.3,1.3,1.9*38
Trace #82 at position 20.250000
$GPZDA,084325.04,09,10,2011,00,00*60
$GPRMC,084325.00,A,4611.971243,N,01258.220531,E,001.8,175.4,091011,0.2,E,A*38
$GPGGA,084326.00,4611.970766,N,01258.220679,E,1,08,1.3,140.62,M,46.25,M,,*64
$GPGLL,4611.970766,N,01258.220679,E,084326.00,A,A*6F
$GPVTG,162.4,T,162.6,61,070,43*79
$GPGSV,3,2,09,14,31,258,41,25,73,320,48,29,47,220,44,30,29,287,43*78
$GPGSV,3,3,09,31,21,314,43,,,,,,,,,,,,*40
$GPGSA,M,3,02,04,12,14,25,29,30,31,,,,,2.3,1.3,1.9*38
Trace #83 at position 20.500000
$GPZDA,084325.04,09,10,2011,00,00*60
$GPRMC,084325.00,A,4611.971243,N,01258.220531,E,001.8,175.4,091011,0.2,E,A*38
$GPGGA,084326.00,4611.970766,N,01258.220679,E,1,08,1.3,140.62,M,46.25,M,,*64
$GPGLL,4611.970766,N,01258.220679,E,084326.00,A,A*6F
$GPVTG,162.4,T,162.6,61,070,43*79
$GPGSV,3,2,09,14,31,258,41,25,73,320,48,29,47,220,44,30,29,287,43*78
$GPGSV,3,3,09,31,21,314,43,,,,,,,,,,,,*40
$GPGSA,M,3,02,04,12,14,25,29,30,31,,,,,2.3,1.3,1.9*38
Trace #84 at position 20.750000
$GPZDA,084325.04,09,10,2011,00,00*60
$GPRMC,084325.00,A,4611.971243,N,01258.220531,E,001.8,175.4,091011,0.2,E,A*38
$GPGGA,084326.00,4611.970766,N,01258.220679,E,1,08,1.3,140.62,M,46.25,M,,*64
$GPGLL,4611.970766,N,01258.220679,E,084326.00,A,A*6F
$GPVTG,162.4,T,162.6,61,070,43*79
$GPGSV,3,2,09,14,31,258,41,25,73,320,48,29,47,220,44,30,29,287,43*78
$GPGSV,3,3,09,31,21,314,43,,,,,,,,,,,,*40
$GPGSA,M,3,02,04,12,14,25,29,30,31,,,,,2.3,1.3,1.9*38
Trace #85 at position 21.000000
$GPZDA,084326.04,09,10,2011,00,00*63
$GPRMC,084326.00,A,4611.970766,N,01258.220679,E,002.0,162.4,091011,0.2,E,A*3A
$GPGGA,084327.00,4611.970300,N,01258.220943,E,1,08,1.3,140.50,M,46.25,M,,*66
$GPGLL,4611.970300,N,01258.220943,E,084327.00,A,A*6C
$GPVTG,155.6,T,155.7,M,001.8,N,003.4,K,A*2C
$GPGSV,3,1,09,02,38,085,38,04,16,04,30,31,,,,,2.3,1.3,1.9*38
$GPZDA,084327.04,09,10,2011,00,00*62
$GPRMC,084327.00,A,4611.970300,N,01258.220943,E,001.8,155.6,091011,0.2,E,A*34
$GPGGA,084328.00,4611.969870,N,01258.221124,E,1,08,1.3,140.43,M,46.25,M,,*67
$GPGLL,4611.969870,N,01258.221124,E,084328.00,A,A*6F
$GPVTG,173.7,T,173.8,M,001.6,N,003.0,K,A*28
$GPGSV,3,1,09,02,38,085,39,04,16,042,41,09,24,150,38,12,61,070,43*78
$GPGSV,3,2,09,14,31,258,42,25,73,320,47,29,47,220,44,30,29,287,43*74
$GPGSV,3,3,09,31,21,314,43,,,,,,,,,,,,*40
$GPGSA,M*6D
Trace #86 at position 21.250000
$GPZDA,084326.04,09,10,2011,00,00*63
$GPRMC,084326.00,A,4611.970766,N,01258.220679,E,002.0,162.4,091011,0.2,E,A*3A
$GPGGA,084327.00,4611.970300,N,01258.220943,E,1,08,1.3,140.50,M,46.25,M,,*66
$GPGLL,4611.970300,N,01258.220943,E,084327.00,A,A*6C
$GPVTG,155.6,T,155.7,M,001.8,N,003.4,K,A*2C
$GPGSV,3,1,09,02,38,085,38,04,16,04,30,31,,,,,2.3,1.3,1.9*38
$GPZDA,084327.04,09,10,2011,00,00*62
$GPRMC,084327.00,A,4611.970300,N,01258.220943,E,001.8,155.6,091011,0.2,E,A*34
$GPGGA,084328.00,4611.969870,N,01258.221124,E,1,08,1.3,140.43,M,46.25,M,,*67
$GPGLL,4611.969870,N,01258.221124,E,084328.00,A,A*6F
$GPVTG,173.7,T,173.8,M,001.6,N,003.0,K,A*28
$GPGSV,3,1,09,02,38,085,39,04,16,042,41,09,24,150,38,12,61,070,43*78
$GPGSV,3,2,09,14,31,258,42,25,73,320,47,29,47,220,44,30,29,287,43*74
$GPGSV,3,3,09,31,21,314,43,,,,,,,,,,,,*40
$GPGSA,M*6D
Trace #87 at position 21.500000
$GPZDA,084326.04,09,10,2011,00,00*63
$GPRMC,084326.00,A,4611.970766,N,01258.220679,E,002.0,162.4,091011,0.2,E,A*3A
$GPGGA,084327.00,4611.970300,N,01258.220943,E,1,08,1.3,140.50,M,46.25,M,,*66
$GPGLL,4611.970300,N,01258.220943,E,084327.00,A,A*6C
$GPVTG,155.6,T,155.7,M,001.8,N,003.4,K,A*2C
$GPGSV,3,1,09,02,38,085,38,04,16,04,30,31,,,,,2.3,1.3,1.9*38
$GPZDA,084327.04,09,10,2011,00,00*62
$GPRMC,084327.00,A,4611.970300,N,01258.220943,E,001.8,155.6,091011,0.2,E,A*34
$GPGGA,084328.00,4611.969870,N,01258.221124,E,1,08,1.3,140.43,M,46.25,M,,*67
$GPGLL,4611.969870,N,01258.221124,E,084328.00,A,A*6F
$GPVTG,173.7,T,173.8,M,001.6,N,003.0,K,A*28
$GPGSV,3,1,09,02,38,085,39,04,16,042,41,09,24,150,38,12,61,070,43*78
$GPGSV,3,2,09,14,31,258,42,25,73,320,47,29,47,220,44,30,29,287,43*74
$GPGSV,3,3,09,31,21,314,43,,,,,,,,,,,,*40
$GPGSA,M*6D
Trace #88 at position 21.750000
$GPRMC,084328.00,A,4611.969870,N,01258.221124,E,001.6,173.7,091011,0.2,E,A*3C
$GPGGA,084329.00,4611.969475,N,01258.221380,E,1,08,1.3,140.41,M,46.25,M,,*61
$GPGLL,4611.969475,N,01258.221380,E,084329.00,A,A*6B
$GPVTG,139.7,T,139.9,M,001.8,N,003.3,K,A*24
$GPGSV,3,1,09,02,38,085,40,04,16,042,40,09,24,150,38,12,61,070,42*76
$GPGSV,3,2,09,14,31,258,42,25,73,320,47,29,47,220,45,30,29,287,42*74
$GPGSV,3,3,09,31,21,314,42,,,,,,,,,,,,*41
$GPGSA,M,3,02,04,12,14,25,29,30,31,,,,,2.3,1.3,1.9*38
Trace #89 at position 22.000000
$GPRMC,084328.00,A,4611.969870,N,01258.221124,E,001.6,173.7,091011,0.2,E,A*3C
$GPGGA,084329.00,4611.969475,N,01258.221380,E,1,08,1.3,140.41,M,46.25,M,,*61
$GPGLL,4611.969475,N,01258.221380,E,084329.00,A,A*6B
$GPVTG,139.7,T,139.9,M,001.8,N,003.3,K,A*24
$GPGSV,3,1,09,02,38,085,40,04,16,042,40,09,24,150,38,12,61,070,42*76
$GPGSV,3,2,09,14,31,258,42,25,73,320,47,29,47,220,45,30,29,287,42*74
$GPGSV,3,3,09,31,21,314,42,,,,,,,,,,,,*41
$GPGSA,M,3,02,04,12,14,25,29,30,31,,,,,2.3,1.3,1.9*38
Trace #90 at position 22.250000
$GPRMC,084328.00,A,4611.969870,N,01258.221124,E,001.6,173.7,091011,0.2,E,A*3C
$GPGGA,084329.00,4611.969475,N,01258.221380,E,1,08,1.3,140.41,M,46.25,M,,*61
$GPGLL,4611.969475,N,01258.221380,E,084329.00,A,A*6B
$GPVTG,139.7,T,139.9,M,001.8,N,003.3,K,A*24
$GPGSV,3,1,09,02,38,085,40,04,16,042,40,09,24,150,38,12,61,070,42*76
$GPGSV,3,2,09,14,31,258,42,25,73,320,47,29,47,220,45,30,29,287,42*74
$GPGSV,3,3,09,31,21,314,42,,,,,,,,,,,,*41
$GPGSA,M,3,02,04,12,14,25,29,30,31,,,,,2.3,1.3,1.9*38
Trace #91 at position 22.500000
$GPZDA,084329E,A*38
$GPGGA,084330.00,4611.969090,N,01258.221620,E,1,08,1.3,140.43,M,46.25,M,,*6B
$GPGLL,4611.969090,N,01258.221620,E,084330.00,A,A*63
$GPVTG,173.0,T,173.2,M,001.5,N,002.8,K,A*2F
$GPGSV,3,1,09,02,38,085,38,04,16,042,39,09,24,150,39,12,61,070,43*77
$GPGSV,3,2,09,14,31,258,42,25,73,320,47,29,47,220,43,30,29,287,42*72
$GPGSV,3,3,09,31,21,314,42,,,,,,,,,,,,*41
$GPGSA,M,3,02,04,12,14,25,29,30,31,,,,,2.3,1.3,1.9*38
Trace #92 at position 22.750000
$GPZDA,084329E,A*38
$GPGGA,084330.00,4611.969090,N,01258.221620,E,1,08,1.3,140.43,M,46.25,M,,*6B
$GPGLL,4611.969090,N,01258.221620,E,084330.00,A,A*63
$GPVTG,173.0,T,173.2,M,001.5,N,002.8,K,A*2F
$GPGSV,3,1,09,02,38,085,38,04,16,042,39,09,24,150,39,12,61,070,43*77
$GPGSV,3,2,09,14,31,258,42,25,73,320,47,29,47,220,43,30,29,287,42*72
$GPGSV,3,3,09,31,21,314,42,,,,,,,,,,,,*41
$GPGSA,M,3,02,04,12,14,25,29,30,31,,,,,2.3,1.3,1.9*38
Trace #93 at position 23.000000
$GPZDA,084329E,A*38
$GPGGA,084330.00,4611.969090,N,01258.221620,E,1,08,1.3,140.43,M,46.25,M,,*6B
$GPGLL,4611.969090,N,01258.221620,E,084330.00,A,A*63
$GPVTG,173.0,T,173.2,M,001.5,N,002.8,K,A*2F
$GPGSV,3,1,09,02,38,085,38,04,16,042,39,09,24,150,39,12,61,070,43*77
$GPGSV,3,2,09,14,31,258,42,25,73,320,47,29,47,220,43,30,29,287,42*72
$GPGSV,3,3,09,31,21,314,42,,,,,,,,,,,,*41
$GPGSA,M,3,02,04,12,14,25,29,30,31,,,,,2.3,1.3,1.9*38
Trace #94 at position 23.250000
$GPZDA,084330.04,09,10,2011,00,00*64
$GPRMC,084330.00,A,4611.969090,N,01258.221620,E,001$GPGGA,084331.00,4611.968721,N,01258.221673,E,1,09,0.9,140.39,M,46.25,M,,*67
$GPGLL,4611.968721,N,01258.221673,E,084331.00,A,A*68
$GPVTG,174.3,T,174.5,M,001.4,N,002.5,K,A*27
$GPGSV,3,1,09,02,38,085,39,04,16,042,40,09,24,150,40,12,61,070,43*76
$GPGSV,3,2,09,14,31,258,41,25,73,320,47,29,47,220,43,30,29,287,42*71
$GPGSV,3,3,09,31,21,314,41,,,,,,,,,,,,*42
$GPGSA,M,3,02,04,09,12,14,25,29,30,31,,,,1.8,0.9,1.5*3E
Trace #95 at position 23.500000
$GPZDA,084330.04,09,10,2011,00,00*64
$GPRMC,084330.00,A,4611.969090,N,01258.221620,E,001$GPGGA,084331.00,4611.968721,N,01258.221673,E,1,09,0.9,140.39,M,46.25,M,,*67
$GPGLL,4611.968721,N,01258.221673,E,084331.00,A,A*68
$GPVTG,174.3,T,174.5,M,001.4,N,002.5,K,A*27
$GPGSV,3,1,09,02,38,085,39,04,16,042,40,09,24,150,40,12,61,070,43*76
$GPGSV,3,2,09,14,31,258,41,25,73,320,47,29,47,220,43,30,29,287,42*71
$GPGSV,3,3,09,31,21,314,41,,,,,,,,,,,,*42
$GPGSA,M,3,02,04,09,12,14,25,29,30,31,,,,1.8,0.9,1.5*3E
Trace #96 at position 23.750000
$GPZDA,084331.04,09,10,2011,00,00*65
$GPRMC,084331.00,A,4611.968721,N,01258.221673,E,001.4,174$GPGGA,084332.00,4611.968334,N,01258.221655,E,1,09,0.9,140.21,M,46.25,M,,*69
$GPGLL,4611.968334,N,01258.221655,E,084332.00,A,A*6F
$GPVTG,187.9,T,188.1,M,001.6,N,003.0,K,A*20
$GPGSV,3,1,09,02,38,085,39,04,16,042,39,09,24,150,38,12,61,070,42*76
$GPGSV,3,2,09,14,31,258,41,25,73,320,47,29,47,220,43,30,29,287,42*71
$GPGSV,3,3,09,31,21,314,42,,,,,,,,,,,,*41
$GPGSA,M,3,02,04,09,12,14,25,29,30,31,,,,1.8,0.9,1.5*3E
Trace #97 at position 24.000000
$GPZDA,084331.04,09,10,2011,00,00*65
$GPRMC,084331.00,A,4611.968721,N,01258.221673,E,001.4,174$GPGGA,084332.00,4611.968334,N,01258.221655,E,1,09,0.9,140.21,M,46.25,M,,*69
$GPGLL,4611.968334,N,01258.221655,E,084332.00,A,A*6F
$GPVTG,187.9,T,188.1,M,001.6,N,003.0,K,A*20
$GPGSV,3,1,09,02,38,085,39,04,16,042,39,09,24,150,38,12,61,070,42*76
$GPGSV,3,2,09,14,31,258,41,25,73,320,47,29,47,220,43,30,29,287,42*71
$GPGSV,3,3,09,31,21,314,42,,,,,,,,,,,,*41
$GPGSA,M,3,02,04,09,12,14,25,29,30,31,,,,1.8,0.9,1.5*3E
Trace #98 at position 24.250000
$GPZDA,084335.04,09,10,2011,00,00*61
$GPRMC,084335.00,A,4611.967305,N,01258.222153,E,001.3,151.8,4611.966967,N,01258.222406,E,1,08,1.3,140.43,M,46.25,M,,*66
$GPGLL,4611.966967,N,01258.222406,E,084336.00,A,A*6E
$GPVTG,154.0,T,154.1,M,001.3,N,002.5,K,A*27
$GPGSV,3,1,09,02,38,085,39,04,16,042,40,09,24,150,37,12,61,070,42*77
$GPGSV,3,2,09,14,31,258,41,25,73,320,47,29,47,220,44,30,29,287,42*76
$GPGSV,3,3,09,31,21,314,42,,,,,,,,,,,,*41
$GPGSA,M,3,02,04,12,14,25,29,30,31,,,,,2.3,1.3,1.9*38
Trace #99 at position 24.500000
$GPZDA,084335.04,09,10,2011,00,00*61
$GPRMC,084335.00,A,4611.967305,N,01258.222153,E,001.3,151.8,4611.966967,N,01258.222406,E,1,08,1.3,140.43,M,46.25,M,,*66
$GPGLL,4611.966967,N,01258.222406,E,084336.00,A,A*6E
$GPVTG,154.0,T,154.1,M,001.3,N,002.5,K,A*27
$GPGSV,3,1,09,02,38,085,39,04,16,042,40,09,24,150,37,12,61,070,42*77
$GPGSV,3,2,09,14,31,258,41,25,73,320,47,29,47,220,44,30,29,287,42*76
$GPGSV,3,3,09,31,21,314,42,,,,,,,,,,,,*41
$GPGSA,M,3,02,04,12,14,25,29,30,31,,,,,2.3,1.3,1.9*38
Trace #100 at position 24.750000
$GPZDA,084336.04,09,10,2011,00,00*62
$GPRMC,084336.00,A,4611.966967,N,01258.222406,E,001.3,154.0,091011,0.2,E,A*2,38,085,40,04,16,042,39,09,24,150,34,12,61,070,42*74
$GPGSV,3,2,09,14,31,258,42,25,73,320,47,29,47,220,43,30,29,287,41*71
$GPGSV,3,3,09,31,21,314,42,,,,,,,,,,,,*41
$GPGSA,M,3,02,04,12,14,25,29,30,31,,,,,2.3,1.3,1.9*38
Trace #101 at position 25.000000
$GPZDA,084336.04,09,10,2011,00,00*62
$GPRMC,084336.00,A,4611.966967,N,01258.222406,E,001.3,154.0,091011,0.2,E,A*2,38,085,40,04,16,042,39,09,24,150,34,12,61,070,42*74
$GPGSV,3,2,09,14,31,258,42,25,73,320,47,29,47,220,43,30,29,287,41*71
$GPGSV,3,3,09,31,21,314,42,,,,,,,,,,,,*41
$GPGSA,M,3,02,04,12,14,25,29,30,31,,,,,2.3,1.3,1.9*38
Trace #102 at position 25.250000
$GPZDA,084336.04,09,10,2011,00,00*62
$GPRMC,084336.00,A,4611.966967,N,01258.222406,E,001.3,154.0,091011,0.2,E,A*2,38,085,40,04,16,042,39,09,24,150,34,12,61,070,42*74
$GPGSV,3,2,09,14,31,258,42,25,73,320,47,29,47,220,43,30,29,287,41*71
$GPGSV,3,3,09,31,21,314,42,,,,,,,,,,,,*41
$GPGSA,M,3,02,04,12,14,25,29,30,31,,,,,2.3,1.3,1.9*38
Trace #103 at position 25.500000
$GPZDA,084336.04,09,10,2011,00,00*62
$GPRMC,084336.00,A,4611.966967,N,01258.222406,E,001.3,154.0,091011,0.2,E,A*2,38,085,40,04,16,042,39,09,24,150,34,12,61,070,42*74
$GPGSV,3,2,09,14,31,258,42,25,73,320,47,29,47,220,43,30,29,287,41*71
$GPGSV,3,3,09,31,21,314,42,,,,,,,,,,,,*41
$GPGSA,M,3,02,04,12,14,25,29,30,31,,,,,2.3,1.3,1.9*38
Trace #104 at position 25.750000
$GPZDA,084336.04,09,10,2011,00,00*62
$GPRMC,084336.00,A,4611.966967,N,01258.222406,E,001.3,154.0,091011,0.2,E,A*2,38,085,40,04,16,042,39,09,24,150,34,12,61,070,42*74
$GPGSV,3,2,09,14,31,258,42,25,73,320,47,29,47,220,43,30,29,287,41*71
$GPGSV,3,3,09,31,21,314,42,,,,,,,,,,,,*41
$GPGSA,M,3,02,04,12,14,25,29,30,31,,,,,2.3,1.3,1.9*38
Trace #105 at position 26.000000
$GPZDA,084336.04,09,10,2011,00,00*62
$GPRMC,084336.00,A,4611.966967,N,01258.222406,E,001.3,154.0,091011,0.2,E,A*2,38,085,40,04,16,042,39,09,24,150,34,12,61,070,42*74
$GPGSV,3,2,09,14,31,258,42,25,73,320,47,29,47,220,43,30,29,287,41*71
$GPGSV,3,3,09,31,21,314,42,,,,,,,,,,,,*41
$GPGSA,M,3,02,04,12,14,25,29,30,31,,,,,2.3,1.3,1.9*38
Trace #106 at position 26.250000
$GPZDA,084336.04,09,10,2011,00,00*62
$GPRMC,084336.00,A,4611.966967,N,01258.222406,E,001.3,154.0,091011,0.2,E,A*2,38,085,40,04,16,042,39,09,24,150,34,12,61,070,42*74
$GPGSV,3,2,09,14,31,258,42,25,73,320,47,29,47,220,43,30,29,287,41*71
$GPGSV,3,3,09,31,21,314,42,,,,,,,,,,,,*41
$GPGSA,M,3,02,04,12,14,25,29,30,31,,,,,2.3,1.3,1.9*38
Trace #107 at position 26.500000
$GPZDA,084337.04,09,10,2011,00,00*63
$GPRMC,084337.00,A,4611.966593,N,01258.222631,E,001.5,159.2,091011,0.2,E,A*33
$GPGGA,084338.00,4611.966314,N,01258.222701,E,1,08,1.3,140.35,M,46.25,M,,*63
$GPGLL,4611.966314,N,01258.222701,E,084338.00,A,A*6A
$GPVTG,203.5,T,203.6,M,000.6,N,001.1,K,A,2.3,1.3,1.9*38
$GPZDA,084338.04,09,10,2011,00,00*6C
$GPRMC,084338.00,A,4611.966314,N,01258.222701,E,000.6,203.5,091011,0.2,E,A*3E
$GPGGA,084339.00,4611.966120,N,01258.222652,E,1,08,1.3,140.29,M,46.25,M,,*6D
$GPGLL,4611.966120,N,01258.222652,E,084339.00,A,A*69
$GPVTG,191.9,T,192.0,M,000.8,N,001.5,K,A*25
$GPGSV,3,1,09,02,38,085,38,04,16,042,38,09,24,150,,12,61,070,42*7D
$GPGSV,3,2,09,14,31,258,41,25,73,320,45,29,47,220,44,30,29,287,41*77
$GPGSV,3,3,09,31,21,314,44,,,,,,,,,,,,*47
$GPGSA,M,3,02,04,12,084339.00,A,4611.966120,N,01258.222652,E,000.8,191.9,091011,0.2,E,A*37
Trace #108 at position 26.750000
$GPZDA,084337.04,09,10,2011,00,00*63
$GPRMC,084337.00,A,4611.966593,N,01258.222631,E,001.5,159.2,091011,0.2,E,A*33
$GPGGA,084338.00,4611.966314,N,01258.222701,E,1,08,1.3,140.35,M,46.25,M,,*63
$GPGLL,4611.966314,N,01258.222701,E,084338.00,A,A*6A
$GPVTG,203.5,T,203.6,M,000.6,N,001.1,K,A,2.3,1.3,1.9*38
$GPZDA,084338.04,09,10,2011,00,00*6C
$GPRMC,084338.00,A,4611.966314,N,01258.222701,E,000.6,203.5,091011,0.2,E,A*3E
$GPGGA,084339.00,4611.966120,N,01258.222652,E,1,08,1.3,140.29,M,46.25,M,,*6D
$GPGLL,4611.966120,N,01258.222652,E,084339.00,A,A*69
$GPVTG,191.9,T,192.0,M,000.8,N,001.5,K,A*25
$GPGSV,3,1,09,02,38,085,38,04,16,042,38,09,24,150,,12,61,070,42*7D
$GPGSV,3,2,09,14,31,258,41,25,73,320,45,29,47,220,44,30,29,287,41*77
$GPGSV,3,3,09,31,21,314,44,,,,,,,,,,,,*47
$GPGSA,M,3,02,04,12,084339.00,A,4611.966120,N,01258.222652,E,000.8,191.9,091011,0.2,E,A*37
Trace #109 at position 27.000000
$GPZDA,084337.04,09,10,2011,00,00*63
$GPRMC,084337.00,A,4611.966593,N,01258.222631,E,001.5,159.2,091011,0.2,E,A*33
$GPGGA,084338.00,4611.966314,N,01258.222701,E,1,08,1.3,140.35,M,46.25,M,,*63
$GPGLL,4611.966314,N,01258.222701,E,084338.00,A,A*6A
$GPVTG,203.5,T,203.6,M,000.6,N,001.1,K,A,2.3,1.3,1.9*38
$GPZDA,084338.04,09,10,2011,00,00*6C
$GPRMC,084338.00,A,4611.966314,N,01258.222701,E,000.6,203.5,091011,0.2,E,A*3E
$GPGGA,084339.00,4611.966120,N,01258.222652,E,1,08,1.3,140.29,M,46.25,M,,*6D
$GPGLL,4611.966120,N,01258.222652,E,084339.00,A,A*69
$GPVTG,191.9,T,192.0,M,000.8,N,001.5,K,A*25
$GPGSV,3,1,09,02,38,085,38,04,16,042,38,09,24,150,,12,61,070,42*7D
$GPGSV,3,2,09,14,31,258,41,25,73,320,45,29,47,220,44,30,29,287,41*77
$GPGSV,3,3,09,31,21,314,44,,,,,,,,,,,,*47
$GPGSA,M,3,02,04,12,084339.00,A,4611.966120,N,01258.222652,E,000.8,191.9,091011,0.2,E,A*37
Trace #110 at position 27.250000
$GPZDA,084337.04,09,10,2011,00,00*63
$GPRMC,084337.00,A,4611.966593,N,01258.222631,E,001.5,159.2,091011,0.2,E,A*33
$GPGGA,084338.00,4611.966314,N,01258.222701,E,1,08,1.3,140.35,M,46.25,M,,*63
$GPGLL,4611.966314,N,01258.222701,E,084338.00,A,A*6A
$GPVTG,203.5,T,203.6,M,000.6,N,001.1,K,A,2.3,1.3,1.9*38
$GPZDA,084338.04,09,10,2011,00,00*6C
$GPRMC,084338.00,A,4611.966314,N,01258.222701,E,000.6,203.5,091011,0.2,E,A*3E
$GPGGA,084339.00,4611.966120,N,01258.222652,E,1,08,1.3,140.29,M,46.25,M,,*6D
$GPGLL,4611.966120,N,01258.222652,E,084339.00,A,A*69
