Trace #1 at position 0.000000
$GPZDA,084651.04,09,10,2011,00,00*66
$GPRMC,084651.00,A,4611.979061,N,01258.217783,E,000.2,75.4,091011$GPGGA,084652.00,4611.978995,N,01258.217736,E,1,06,1.6,139.30,M,46.25,M,,*64
$GPGLL,4611.978995,N,01258.217736,E,084652.00,A,A*6D
$GPVTG,194.3,T,194.5,M,000.4,N,000.8,K,A*29
$GPGSV,3,1,09,02,38,083,27,04,15,041,42,09,22,150,28,12,60,072,*71
$GPGSV,3,2,09,14,30,257,39,25,74,324,45,29,48,221,42,30,30,288,41*7A
$GPGSV,3,3,09,31,22,313,41,,,,,,,,,,,,*46
$GPGSA,M,3,04,14,25,29,30,31,,,,,,,2.7,1.6,2.2*30
Trace #2 at position 0.250000
$GPZDA,084654.04,09,10,2011,00,00*63
$GPRMC,084654.00,A,4611.978970,N,01258.217394,E,000.1,5.4,091011,0.2,E,A*3A
$GPGGA,0849,22,150,31,12,60,072,32*7E
$GPGSV,3,2,09,14,30,257,43,25,74,324,47,29,48,221,42,30,30,288,46*72
$GPGSV,3,3,09,31,22,313,44,,,,,,,,,,,,*43
$GPGSA,M,3,04,14,25,29,30,31,,,,,,,2.7,1.6,2.2*30
Trace #3 at position 0.500000
$GPZDA,084655.04,09,10,2011,00,00*62
$GPRMC,084655.00,A,4611.978982,N,01258.217368,E,000.1,311.0,091011,0.2,E,A*37
$GPGGA,084656.00,4611.979007,N,01258.217082,E,1,05,5.1,140.43,M,46.25,M,,*61
$GPGLL,4611.979007,N,01258.217082,E,084656.00,A,A*62
$GPVTG,269.4,T,269.5,M,000.1,N,000.2,K,A*21
$GPGSV,3,1,09,02,38,083,36,30,30,288,43*7C
$GPGSV,3,3,09,31,22,313,42,,,,,,,,,,,,*45
$GPGSA,M,3,14,25,29,30,31,,,,,,,,8.2,5.1,6.5*3B
Trace #4 at position 0.750000
$GPZDA,084655.04,09,10,2011,00,00*62
$GPRMC,084655.00,A,4611.978982,N,01258.217368,E,000.1,311.0,091011,0.2,E,A*37
$GPGGA,084656.00,4611.979007,N,01258.217082,E,1,05,5.1,140.43,M,46.25,M,,*61
$GPGLL,4611.979007,N,01258.217082,E,084656.00,A,A*62
$GPVTG,269.4,T,269.5,M,000.1,N,000.2,K,A*21
$GPGSV,3,1,09,02,38,083,36,30,30,288,43*7C
$GPGSV,3,3,09,31,22,313,42,,,,,,,,,,,,*45
$GPGSA,M,3,14,25,29,30,31,,,,,,,,8.2,5.1,6.5*3B
Trace #5 at position 1.000000
$GPZDA,084655.04,09,10,2011,00,00*62
$GPRMC,084655.00,A,4611.978982,N,01258.217368,E,000.1,311.0,091011,0.2,E,A*37
$GPGGA,084656.00,4611.979007,N,01258.217082,E,1,05,5.1,140.43,M,46.25,M,,*61
$GPGLL,4611.979007,N,01258.217082,E,084656.00,A,A*62
$GPVTG,269.4,T,269.5,M,000.1,N,000.2,K,A*21
$GPGSV,3,1,09,02,38,083,36,30,30,288,43*7C
$GPGSV,3,3,09,31,22,313,42,,,,,,,,,,,,*45
$GPGSA,M,3,14,25,29,30,31,,,,,,,,8.2,5.1,6.5*3B
Trace #6 at position 1.250000
$GPZDA,084655.04,09,10,2011,00,00*62
$GPRMC,084655.00,A,4611.978982,N,01258.217368,E,000.1,311.0,091011,0.2,E,A*37
$GPGGA,084656.00,4611.979007,N,01258.217082,E,1,05,5.1,140.43,M,46.25,M,,*61
$GPGLL,4611.979007,N,01258.217082,E,084656.00,A,A*62
$GPVTG,269.4,T,269.5,M,000.1,N,000.2,K,A*21
$GPGSV,3,1,09,02,38,083,36,30,30,288,43*7C
$GPGSV,3,3,09,31,22,313,42,,,,,,,,,,,,*45
$GPGSA,M,3,14,25,29,30,31,,,,,,,,8.2,5.1,6.5*3B
Trace #7 at position 1.500000
$GPZDA,084655.04,09,10,2011,00,00*62
$GPRMC,084655.00,A,4611.978982,N,01258.217368,E,000.1,311.0,091011,0.2,E,A*37
$GPGGA,084656.00,4611.979007,N,01258.217082,E,1,05,5.1,140.43,M,46.25,M,,*61
$GPGLL,4611.979007,N,01258.217082,E,084656.00,A,A*62
$GPVTG,269.4,T,269.5,M,000.1,N,000.2,K,A*21
$GPGSV,3,1,09,02,38,083,36,30,30,288,43*7C
$GPGSV,3,3,09,31,22,313,42,,,,,,,,,,,,*45
$GPGSA,M,3,14,25,29,30,31,,,,,,,,8.2,5.1,6.5*3B
Trace #8 at position 1.750000
$GPZDA,084655.04,09,10,2011,00,00*62
$GPRMC,084655.00,A,4611.978982,N,01258.217368,E,000.1,311.0,091011,0.2,E,A*37
$GPGGA,084656.00,4611.979007,N,01258.217082,E,1,05,5.1,140.43,M,46.25,M,,*61
$GPGLL,4611.979007,N,01258.217082,E,084656.00,A,A*62
$GPVTG,269.4,T,269.5,M,000.1,N,000.2,K,A*21
$GPGSV,3,1,09,02,38,083,36,30,30,288,43*7C
$GPGSV,3,3,09,31,22,313,42,,,,,,,,,,,,*45
$GPGSA,M,3,14,25,29,30,31,,,,,,,,8.2,5.1,6.5*3B
Trace #9 at position 2.000000
$GPZDA,084656.04,09,10,2011,00,00*61
$GPRMC,084656.00,A,4611.979007,N,01258.217082,E,000.1,269.4,091011,0.2,E,A*3C
$GPGGA,084657.00,4611.979024,N,01258.216841,E,1,05,5.1,140.82,M,46.25,M,,*6A
$GPGLL,4611.979024,N,01258.216841,E,084657.00,A,A*64
$GPVTG,330.7,T,330.9,M,000.0,N,000.0,K,A*2D
$GPGSV,3,1,09,02,38,083,37,04,15,041,38,09,22,150,31,12,60,072,34*72
$GPGSV,3,2,09,14,30,257,42,25,74,324,SA,M,3,14,25,29,30,31,,,,,,,,8.2,5.1,6.5*3B
$GPZDA,084657.03,09,10,2011,00,00*67
$GPRMC,084657.00,A,4611.979024,N,01258.216841,E,000.0,330.7,091011,0.2,E,A*35
$GPGGA,084658.00,4611.979015,N,01258.216897,E,1,06,1.6,140.76,M,46.25,M,,*67
$GPGLL,4611.979015,N,01258.216897,E,084658.00,A,A*62
$GPVTG,5.7,T,5.8,M,000.0,N,000.0,K,A*2C
$GPGSV,3,1,09,02,38,083,38,04,15,041,39,09,22,150,30,12,60,072,36*7F
$GPGSV,3,2,09,14,30,256,42,25,74,324,49,29,48,221,46,30,30,288,43*7D
$GPGSV,3,3,09,31,22,313,42,,,,,,,,,,,00.0,5.7,091011,0.2,E,A*36
$GPGGA,084659.00,4611.979004,N,01258.216946,E,1,06,1.6,140.71,M,46.25,M,,*6C
$GPGLL,4611.979004,N,01258.216946,E,084659.00,A,A*6E
$GPVTG,305.0,T,305.2,M,000.0,N,000.0,K,A*21
$GPGSV,3,1,09,02,38,083,38,04,15,041,39,09,22,150,28,12,60,072,36*76
$GPGSV,3,2,09,14,30,256,41,25,74,324,49,29,48,221,46,30,30,288,43*7E
$GPGSV,3,3,09,31,22,313,42,,,,,,,,,,,,*45
$GPGSA,M,3,04,14,25,29,30,31,,,,,,,2.7,1.6,2.2*30
Trace #10 at position 2.250000
$GPZDA,084656.04,09,10,2011,00,00*61
$GPRMC,084656.00,A,4611.979007,N,01258.217082,E,000.1,269.4,091011,0.2,E,A*3C
$GPGGA,084657.00,4611.979024,N,01258.216841,E,1,05,5.1,140.82,M,46.25,M,,*6A
$GPGLL,4611.979024,N,01258.216841,E,084657.00,A,A*64
$GPVTG,330.7,T,330.9,M,000.0,N,000.0,K,A*2D
$GPGSV,3,1,09,02,38,083,37,04,15,041,38,09,22,150,31,12,60,072,34*72
$GPGSV,3,2,09,14,30,257,42,25,74,324,SA,M,3,14,25,29,30,31,,,,,,,,8.2,5.1,6.5*3B
$GPZDA,084657.03,09,10,2011,00,00*67
$GPRMC,084657.00,A,4611.979024,N,01258.216841,E,000.0,330.7,091011,0.2,E,A*35
$GPGGA,084658.00,4611.979015,N,01258.216897,E,1,06,1.6,140.76,M,46.25,M,,*67
$GPGLL,4611.979015,N,01258.216897,E,084658.00,A,A*62
$GPVTG,5.7,T,5.8,M,000.0,N,000.0,K,A*2C
$GPGSV,3,1,09,02,38,083,38,04,15,041,39,09,22,150,30,12,60,072,36*7F
$GPGSV,3,2,09,14,30,256,42,25,74,324,49,29,48,221,46,30,30,288,43*7D
$GPGSV,3,3,09,31,22,313,42,,,,,,,,,,,00.0,5.7,091011,0.2,E,A*36
$GPGGA,084659.00,4611.979004,N,01258.216946,E,1,06,1.6,140.71,M,46.25,M,,*6C
$GPGLL,4611.979004,N,01258.216946,E,084659.00,A,A*6E
$GPVTG,305.0,T,305.2,M,000.0,N,000.0,K,A*21
$GPGSV,3,1,09,02,38,083,38,04,15,041,39,09,22,150,28,12,60,072,36*76
$GPGSV,3,2,09,14,30,256,41,25,74,324,49,29,48,221,46,30,30,288,43*7E
$GPGSV,3,3,09,31,22,313,42,,,,,,,,,,,,*45
$GPGSA,M,3,04,14,25,29,30,31,,,,,,,2.7,1.6,2.2*30
Trace #11 at position 2.500000
$GPZDA,084659.04,09,10,2011,00,00*6E
$GPRMC,084659.00,A,4611.979004,N,01$GPGGA,084700.00,4611.978992,N,01258.216985,E,1,06,1.6,140.64,M,46.25,M,,*6D
$GPGLL,4611.978992,N,01258.216985,E,084700.00,A,A*6B
$GPVTG,291.7,T,291.9,M,000.0,N,000.1,K,A*2C
$GPGSV,3,1,09,02,38,083,38,04,15,041,38,09,22,150,28,12,60,072,38*79
$GPGSV,3,2,09,14,30,256,41,25,74,324,48,29,48,221,45,30,30,288,43*7C
$GPGSV,3,3,09,31,22,313,41,,,,,,,,,,,,*46
$GPGSA,M,3,04,14,25,29,30,31,,,,,,,2.7,1.6,2.2*30
Trace #12 at position 2.750000
$GPZDA,084659.04,09,10,2011,00,00*6E
$GPRMC,084659.00,A,4611.979004,N,01$GPGGA,084700.00,4611.978992,N,01258.216985,E,1,06,1.6,140.64,M,46.25,M,,*6D
$GPGLL,4611.978992,N,01258.216985,E,084700.00,A,A*6B
$GPVTG,291.7,T,291.9,M,000.0,N,000.1,K,A*2C
$GPGSV,3,1,09,02,38,083,38,04,15,041,38,09,22,150,28,12,60,072,38*79
$GPGSV,3,2,09,14,30,256,41,25,74,324,48,29,48,221,45,30,30,288,43*7C
$GPGSV,3,3,09,31,22,313,41,,,,,,,,,,,,*46
$GPGSA,M,3,04,14,25,29,30,31,,,,,,,2.7,1.6,2.2*30
Trace #13 at position 3.000000
$GPZDA,084659.04,09,10,2011,00,00*6E
$GPRMC,084659.00,A,4611.979004,N,01$GPGGA,084700.00,4611.978992,N,01258.216985,E,1,06,1.6,140.64,M,46.25,M,,*6D
$GPGLL,4611.978992,N,01258.216985,E,084700.00,A,A*6B
$GPVTG,291.7,T,291.9,M,000.0,N,000.1,K,A*2C
$GPGSV,3,1,09,02,38,083,38,04,15,041,38,09,22,150,28,12,60,072,38*79
$GPGSV,3,2,09,14,30,256,41,25,74,324,48,29,48,221,45,30,30,288,43*7C
$GPGSV,3,3,09,31,22,313,41,,,,,,,,,,,,*46
$GPGSA,M,3,04,14,25,29,30,31,,,,,,,2.7,1.6,2.2*30
Trace #14 at position 3.250000
$GPZDA,084700.04,09,10,2011,00,00*63
$GPRMC,084700.00,A,4611.978992,N,01258.216985,E,000.0,291.7,091$GPGGA,084701.00,4611.978948,N,01258.217031,E,1,08,1.3,140.55,M,46.25,M,,*65
$GPGLL,4611.978948,N,01258.217031,E,084701.00,A,A*6A
$GPVTG,181.1,T,181.2,M,000.2,N,000.4,K,A*26
$GPGSV,3,1,09,02,38,083,39,04,15,041,38,09,22,150,27,12,60,072,43*7B
$GPGSV,3,2,09,14,30,256,43,25,74,324,48,29,48,221,45,30,30,288,42*7F
$GPGSV,3,3,09,31,22,313,41,,,,,,,,,,,,*46
$GPGSA,M,3,02,04,12,14,25,29,30,31,,,,,2.4,1.3,1.9*3F
Trace #15 at position 3.500000
$GPZDA,084700.04,09,10,2011,00,00*63
$GPRMC,084700.00,A,4611.978992,N,01258.216985,E,000.0,291.7,091$GPGGA,084701.00,4611.978948,N,01258.217031,E,1,08,1.3,140.55,M,46.25,M,,*65
$GPGLL,4611.978948,N,01258.217031,E,084701.00,A,A*6A
$GPVTG,181.1,T,181.2,M,000.2,N,000.4,K,A*26
$GPGSV,3,1,09,02,38,083,39,04,15,041,38,09,22,150,27,12,60,072,43*7B
$GPGSV,3,2,09,14,30,256,43,25,74,324,48,29,48,221,45,30,30,288,42*7F
$GPGSV,3,3,09,31,22,313,41,,,,,,,,,,,,*46
$GPGSA,M,3,02,04,12,14,25,29,30,31,,,,,2.4,1.3,1.9*3F
Trace #16 at position 3.750000
$GPZDA,084700.04,09,10,2011,00,00*63
$GPRMC,084700.00,A,4611.978992,N,01258.216985,E,000.0,291.7,091$GPGGA,084701.00,4611.978948,N,01258.217031,E,1,08,1.3,140.55,M,46.25,M,,*65
$GPGLL,4611.978948,N,01258.217031,E,084701.00,A,A*6A
$GPVTG,181.1,T,181.2,M,000.2,N,000.4,K,A*26
$GPGSV,3,1,09,02,38,083,39,04,15,041,38,09,22,150,27,12,60,072,43*7B
$GPGSV,3,2,09,14,30,256,43,25,74,324,48,29,48,221,45,30,30,288,42*7F
$GPGSV,3,3,09,31,22,313,41,,,,,,,,,,,,*46
$GPGSA,M,3,02,04,12,14,25,29,30,31,,,,,2.4,1.3,1.9*3F
Trace #17 at position 4.000000
$GPZDA,084700.04,09,10,2011,00,00*63
$GPRMC,084700.00,A,4611.978992,N,01258.216985,E,000.0,291.7,091$GPGGA,084701.00,4611.978948,N,01258.217031,E,1,08,1.3,140.55,M,46.25,M,,*65
$GPGLL,4611.978948,N,01258.217031,E,084701.00,A,A*6A
$GPVTG,181.1,T,181.2,M,000.2,N,000.4,K,A*26
$GPGSV,3,1,09,02,38,083,39,04,15,041,38,09,22,150,27,12,60,072,43*7B
$GPGSV,3,2,09,14,30,256,43,25,74,324,48,29,48,221,45,30,30,288,42*7F
$GPGSV,3,3,09,31,22,313,41,,,,,,,,,,,,*46
$GPGSA,M,3,02,04,12,14,25,29,30,31,,,,,2.4,1.3,1.9*3F
Trace #18 at position 4.250000
$GPZDA,084701.04,09,10,2011,00,00*62
$GPRMC,084701.00,A,4611.978948,N,01258.217031,E,000.2,181.1$GPGGA,084702.00,4611.978803,N,01258.217208,E,1,08,1.3,140.50,M,46.25,M,,*65
$GPGLL,4611.978803,N,01258.217208,E,084702.00,A,A*6F
$GPVTG,134.6,T,134.8,M,001.0,N,001.8,K,A*25
$GPGSV,3,1,09,02,38,083,41,04,15,041,40,09,22,150,,12,60,072,44*79
$GPGSV,3,2,09,14,30,256,42,25,74,325,48,29,48,221,46,30,30,288,44*7A
$GPGSV,3,3,09,31,22,313,39,,,,,,,,,,,,*49
$GPGSA,M,3,02,04,12,14,25,29,30,31,,,,,2.4,1.3,1.9*3F
Trace #19 at position 4.500000
$GPZDA,084701.04,09,10,2011,00,00*62
$GPRMC,084701.00,A,4611.978948,N,01258.217031,E,000.2,181.1$GPGGA,084702.00,4611.978803,N,01258.217208,E,1,08,1.3,140.50,M,46.25,M,,*65
$GPGLL,4611.978803,N,01258.217208,E,084702.00,A,A*6F
$GPVTG,134.6,T,134.8,M,001.0,N,001.8,K,A*25
$GPGSV,3,1,09,02,38,083,41,04,15,041,40,09,22,150,,12,60,072,44*79
$GPGSV,3,2,09,14,30,256,42,25,74,325,48,29,48,221,46,30,30,288,44*7A
$GPGSV,3,3,09,31,22,313,39,,,,,,,,,,,,*49
$GPGSA,M,3,02,04,12,14,25,29,30,31,,,,,2.4,1.3,1.9*3F
Trace #20 at position 4.750000
$GPZDA,084701.04,09,10,2011,00,00*62
$GPRMC,084701.00,A,4611.978948,N,01258.217031,E,000.2,181.1$GPGGA,084702.00,4611.978803,N,01258.217208,E,1,08,1.3,140.50,M,46.25,M,,*65
$GPGLL,4611.978803,N,01258.217208,E,084702.00,A,A*6F
$GPVTG,134.6,T,134.8,M,001.0,N,001.8,K,A*25
$GPGSV,3,1,09,02,38,083,41,04,15,041,40,09,22,150,,12,60,072,44*79
$GPGSV,3,2,09,14,30,256,42,25,74,325,48,29,48,221,46,30,30,288,44*7A
$GPGSV,3,3,09,31,22,313,39,,,,,,,,,,,,*49
$GPGSA,M,3,02,04,12,14,25,29,30,31,,,,,2.4,1.3,1.9*3F
Trace #21 at position 5.000000
$GPZDA,084701.04,09,10,2011,00,00*62
$GPRMC,084701.00,A,4611.978948,N,01258.217031,E,000.2,181.1$GPGGA,084702.00,4611.978803,N,01258.217208,E,1,08,1.3,140.50,M,46.25,M,,*65
$GPGLL,4611.978803,N,01258.217208,E,084702.00,A,A*6F
$GPVTG,134.6,T,134.8,M,001.0,N,001.8,K,A*25
$GPGSV,3,1,09,02,38,083,41,04,15,041,40,09,22,150,,12,60,072,44*79
$GPGSV,3,2,09,14,30,256,42,25,74,325,48,29,48,221,46,30,30,288,44*7A
$GPGSV,3,3,09,31,22,313,39,,,,,,,,,,,,*49
$GPGSA,M,3,02,04,12,14,25,29,30,31,,,,,2.4,1.3,1.9*3F
Trace #22 at position 5.250000
$GPZDA,084702.04,09,10,2011,00,00*61
$GPRMC,084702.00,A,4611.978803,N,01258.217208,E,001.0,134.6,0$GPGGA,084703.00,4611.978528,N,01258.217384,E,1,08,1.3,140.47,M,46.25,M,,*63
$GPGLL,4611.978528,N,01258.217384,E,084703.00,A,A*6F
$GPVTG,178.0,T,178.2,M,001.2,N,002.2,K,A*22
$GPGSV,3,1,09,02,38,083,40,04,15,041,40,09,22,150,,12,60,072,43*7F
$GPGSV,3,2,09,14,30,256,41,25,74,325,48,29,48,221,45,30,30,288,43*7D
$GPGSV,3,3,09,31,22,313,39,,,,,,,,,,,,*49
$GPGSA,M,3,02,04,12,14,25,29,30,31,,,,,2.4,1.3,1.9*3F
Trace #23 at position 5.500000
$GPZDA,084702.04,09,10,2011,00,00*61
$GPRMC,084702.00,A,4611.978803,N,01258.217208,E,001.0,134.6,0$GPGGA,084703.00,4611.978528,N,01258.217384,E,1,08,1.3,140.47,M,46.25,M,,*63
$GPGLL,4611.978528,N,01258.217384,E,084703.00,A,A*6F
$GPVTG,178.0,T,178.2,M,001.2,N,002.2,K,A*22
$GPGSV,3,1,09,02,38,083,40,04,15,041,40,09,22,150,,12,60,072,43*7F
$GPGSV,3,2,09,14,30,256,41,25,74,325,48,29,48,221,45,30,30,288,43*7D
$GPGSV,3,3,09,31,22,313,39,,,,,,,,,,,,*49
$GPGSA,M,3,02,04,12,14,25,29,30,31,,,,,2.4,1.3,1.9*3F
Trace #24 at position 5.750000
$GPZDA,084702.04,09,10,2011,00,00*61
$GPRMC,084702.00,A,4611.978803,N,01258.217208,E,001.0,134.6,0$GPGGA,084703.00,4611.978528,N,01258.217384,E,1,08,1.3,140.47,M,46.25,M,,*63
$GPGLL,4611.978528,N,01258.217384,E,084703.00,A,A*6F
$GPVTG,178.0,T,178.2,M,001.2,N,002.2,K,A*22
$GPGSV,3,1,09,02,38,083,40,04,15,041,40,09,22,150,,12,60,072,43*7F
$GPGSV,3,2,09,14,30,256,41,25,74,325,48,29,48,221,45,30,30,288,43*7D
$GPGSV,3,3,09,31,22,313,39,,,,,,,,,,,,*49
$GPGSA,M,3,02,04,12,14,25,29,30,31,,,,,2.4,1.3,1.9*3F
Trace #25 at position 6.000000
$GPZDA,084703.04,09,10,2011,00,00*60
$GPRMC,084703.00,A,4611.978528,N,01258.217384,E,001.2,178.0,0$GPGGA,084704.00,4611.978261,N,01258.217405,E,1,08,1.3,140.40,M,46.25,M,,*67
$GPGLL,4611.978261,N,01258.217405,E,084704.00,A,A*6C
$GPVTG,191.0,T,191.2,M,000.7,N,001.3,K,A*24
$GPGSV,3,1,09,02,38,083,39,04,15,041,41,09,22,150,,12,60,072,43*70
$GPGSV,3,2,09,14,30,256,42,25,74,325,49,29,48,221,43,30,30,288,42*78
$GPGSV,3,3,09,31,22,313,43,,,,,,,,,,,,*44
$GPGSA,M,3,02,04,12,14,25,29,30,31,,,,,2.4,1.3,1.9*3F
Trace #26 at position 6.250000
$GPZDA,084703.04,09,10,2011,00,00*60
$GPRMC,084703.00,A,4611.978528,N,01258.217384,E,001.2,178.0,0$GPGGA,084704.00,4611.978261,N,01258.217405,E,1,08,1.3,140.40,M,46.25,M,,*67
$GPGLL,4611.978261,N,01258.217405,E,084704.00,A,A*6C
$GPVTG,191.0,T,191.2,M,000.7,N,001.3,K,A*24
$GPGSV,3,1,09,02,38,083,39,04,15,041,41,09,22,150,,12,60,072,43*70
$GPGSV,3,2,09,14,30,256,42,25,74,325,49,29,48,221,43,30,30,288,42*78
$GPGSV,3,3,09,31,22,313,43,,,,,,,,,,,,*44
$GPGSA,M,3,02,04,12,14,25,29,30,31,,,,,2.4,1.3,1.9*3F
Trace #27 at position 6.500000
$GPZDA,084703.04,09,10,2011,00,00*60
$GPRMC,084703.00,A,4611.978528,N,01258.217384,E,001.2,178.0,0$GPGGA,084704.00,4611.978261,N,01258.217405,E,1,08,1.3,140.40,M,46.25,M,,*67
$GPGLL,4611.978261,N,01258.217405,E,084704.00,A,A*6C
$GPVTG,191.0,T,191.2,M,000.7,N,001.3,K,A*24
$GPGSV,3,1,09,02,38,083,39,04,15,041,41,09,22,150,,12,60,072,43*70
$GPGSV,3,2,09,14,30,256,42,25,74,325,49,29,48,221,43,30,30,288,42*78
$GPGSV,3,3,09,31,22,313,43,,,,,,,,,,,,*44
$GPGSA,M,3,02,04,12,14,25,29,30,31,,,,,2.4,1.3,1.9*3F
Trace #28 at position 6.750000
$GPZDA,084703.04,09,10,2011,00,00*60
$GPRMC,084703.00,A,4611.978528,N,01258.217384,E,001.2,178.0,0$GPGGA,084704.00,4611.978261,N,01258.217405,E,1,08,1.3,140.40,M,46.25,M,,*67
$GPGLL,4611.978261,N,01258.217405,E,084704.00,A,A*6C
$GPVTG,191.0,T,191.2,M,000.7,N,001.3,K,A*24
$GPGSV,3,1,09,02,38,083,39,04,15,041,41,09,22,150,,12,60,072,43*70
$GPGSV,3,2,09,14,30,256,42,25,74,325,49,29,48,221,43,30,30,288,42*78
$GPGSV,3,3,09,31,22,313,43,,,,,,,,,,,,*44
$GPGSA,M,3,02,04,12,14,25,29,30,31,,,,,2.4,1.3,1.9*3F
Trace #29 at position 7.000000
$GPZDA,084704.04,09,10,2011,00,00*67
$GPRMC,084704.00,A,4611.978261,N,01258.217405,E,000.7,191.0,01258.217413,E,1,08,1.3,140.41,M,46.25,M,,*6D
$GPGLL,4611.977997,N,01258.217413,E,084705.00,A,A*67
$GPVTG,184.0,T,184.2,M,001.2,N,002.2,K,A*22
$GPGSV,3,1,09,02,38,083,39,04,15,041,40,09,22,150,,12,60,072,43*71
$GPGSV,3,2,09,14,30,256,42,25,74,325,48,29,48,221,46,30,30,288,41*7F
$GPGSV,3,3,09,31,22,313,43,,,,,,,,,,,,*44
$GPGSA,M,3,02,04,12,14,25,29,30,31,,,,,2.4,1.3,1.9*3F
Trace #30 at position 7.250000
$GPZDA,084704.04,09,10,2011,00,00*67
$GPRMC,084704.00,A,4611.978261,N,01258.217405,E,000.7,191.0,01258.217413,E,1,08,1.3,140.41,M,46.25,M,,*6D
$GPGLL,4611.977997,N,01258.217413,E,084705.00,A,A*67
$GPVTG,184.0,T,184.2,M,001.2,N,002.2,K,A*22
$GPGSV,3,1,09,02,38,083,39,04,15,041,40,09,22,150,,12,60,072,43*71
$GPGSV,3,2,09,14,30,256,42,25,74,325,48,29,48,221,46,30,30,288,41*7F
$GPGSV,3,3,09,31,22,313,43,,,,,,,,,,,,*44
$GPGSA,M,3,02,04,12,14,25,29,30,31,,,,,2.4,1.3,1.9*3F
Trace #31 at position 7.500000
$GPZDA,084704.04,09,10,2011,00,00*67
$GPRMC,084704.00,A,4611.978261,N,01258.217405,E,000.7,191.0,01258.217413,E,1,08,1.3,140.41,M,46.25,M,,*6D
$GPGLL,4611.977997,N,01258.217413,E,084705.00,A,A*67
$GPVTG,184.0,T,184.2,M,001.2,N,002.2,K,A*22
$GPGSV,3,1,09,02,38,083,39,04,15,041,40,09,22,150,,12,60,072,43*71
$GPGSV,3,2,09,14,30,256,42,25,74,325,48,29,48,221,46,30,30,288,41*7F
$GPGSV,3,3,09,31,22,313,43,,,,,,,,,,,,*44
$GPGSA,M,3,02,04,12,14,25,29,30,31,,,,,2.4,1.3,1.9*3F
Trace #32 at position 7.750000
$GPZDA,084705.04,09,10,2011,00,00*66
$GPRMC,084705.00,A,4611.977997,N,01258.217413,E,001.2,184.0,091011,0.2,E,A*3F
$GPGGA,084706.40,N,01258.217542,E,084706.00,A,A*64
$GPVTG,162.9,T,163.1,M,001.5,N,002.8,K,A*24
$GPGSV,3,1,09,02,38,083,37,04,15,040,41,09,22,150,,12,60,072,42*7E
$GPGSV,3,2,09,14,30,256,42,25,74,325,48,29,48,221,44,30,30,288,42*7E
$GPGSV,3,3,09,31,22,313,42,,,,,,,,,,,,*45
$GPGSA,M,3,02,04,12,14,25,29,30,31,,,,,2.4,1.3,1.9*3F
Trace #33 at position 8.000000
$GPZDA,084705.04,09,10,2011,00,00*66
$GPRMC,084705.00,A,4611.977997,N,01258.217413,E,001.2,184.0,091011,0.2,E,A*3F
$GPGGA,084706.40,N,01258.217542,E,084706.00,A,A*64
$GPVTG,162.9,T,163.1,M,001.5,N,002.8,K,A*24
$GPGSV,3,1,09,02,38,083,37,04,15,040,41,09,22,150,,12,60,072,42*7E
$GPGSV,3,2,09,14,30,256,42,25,74,325,48,29,48,221,44,30,30,288,42*7E
$GPGSV,3,3,09,31,22,313,42,,,,,,,,,,,,*45
$GPGSA,M,3,02,04,12,14,25,29,30,31,,,,,2.4,1.3,1.9*3F
Trace #34 at position 8.250000
$GPZDA,084705.04,09,10,2011,00,00*66
$GPRMC,084705.00,A,4611.977997,N,01258.217413,E,001.2,184.0,091011,0.2,E,A*3F
$GPGGA,084706.40,N,01258.217542,E,084706.00,A,A*64
$GPVTG,162.9,T,163.1,M,001.5,N,002.8,K,A*24
$GPGSV,3,1,09,02,38,083,37,04,15,040,41,09,22,150,,12,60,072,42*7E
$GPGSV,3,2,09,14,30,256,42,25,74,325,48,29,48,221,44,30,30,288,42*7E
$GPGSV,3,3,09,31,22,313,42,,,,,,,,,,,,*45
$GPGSA,M,3,02,04,12,14,25,29,30,31,,,,,2.4,1.3,1.9*3F
Trace #35 at position 8.500000
$GPZDA,084705.04,09,10,2011,00,00*66
$GPRMC,084705.00,A,4611.977997,N,01258.217413,E,001.2,184.0,091011,0.2,E,A*3F
$GPGGA,084706.40,N,01258.217542,E,084706.00,A,A*64
$GPVTG,162.9,T,163.1,M,001.5,N,002.8,K,A*24
$GPGSV,3,1,09,02,38,083,37,04,15,040,41,09,22,150,,12,60,072,42*7E
$GPGSV,3,2,09,14,30,256,42,25,74,325,48,29,48,221,44,30,30,288,42*7E
$GPGSV,3,3,09,31,22,313,42,,,,,,,,,,,,*45
$GPGSA,M,3,02,04,12,14,25,29,30,31,,,,,2.4,1.3,1.9*3F
Trace #36 at position 8.750000
$GPZDA,084706.04,09,10,2011,00,00*65
$GPRMC,084706.00,A,4611.977640,N,01258.217542,E,001.5,162.9,091011,0.2,E,A*3A
$GPGGA,084707.00,4611.977181,N,01258.217669,E,1,08,1.3,140.39,M,46.25,M,,*6001.9,N,003.6,K,A*2F
$GPGSV,3,1,09,02,38,083,38,04,15,040,40,09,22,150,,12,60,072,41*73
$GPGSV,3,2,09,14,30,256,42,25,74,325,48,29,48,221,45,30,30,288,42*7F
$GPGSV,3,3,09,31,22,313,42,,,,,,,,,,,,*45
$GPGSA,M,3,02,04,12,14,25,29,30,31,,,,,2.4,1.3,1.9*3F
Trace #37 at position 9.000000
$GPZDA,084706.04,09,10,2011,00,00*65
$GPRMC,084706.00,A,4611.977640,N,01258.217542,E,001.5,162.9,091011,0.2,E,A*3A
$GPGGA,084707.00,4611.977181,N,01258.217669,E,1,08,1.3,140.39,M,46.25,M,,*6001.9,N,003.6,K,A*2F
$GPGSV,3,1,09,02,38,083,38,04,15,040,40,09,22,150,,12,60,072,41*73
$GPGSV,3,2,09,14,30,256,42,25,74,325,48,29,48,221,45,30,30,288,42*7F
$GPGSV,3,3,09,31,22,313,42,,,,,,,,,,,,*45
$GPGSA,M,3,02,04,12,14,25,29,30,31,,,,,2.4,1.3,1.9*3F
Trace #38 at position 9.250000
$GPZDA,084706.04,09,10,2011,00,00*65
$GPRMC,084706.00,A,4611.977640,N,01258.217542,E,001.5,162.9,091011,0.2,E,A*3A
$GPGGA,084707.00,4611.977181,N,01258.217669,E,1,08,1.3,140.39,M,46.25,M,,*6001.9,N,003.6,K,A*2F
$GPGSV,3,1,09,02,38,083,38,04,15,040,40,09,22,150,,12,60,072,41*73
$GPGSV,3,2,09,14,30,256,42,25,74,325,48,29,48,221,45,30,30,288,42*7F
$GPGSV,3,3,09,31,22,313,42,,,,,,,,,,,,*45
$GPGSA,M,3,02,04,12,14,25,29,30,31,,,,,2.4,1.3,1.9*3F
Trace #39 at position 9.500000
$GPZDA,084706.04,09,10,2011,00,00*65
$GPRMC,084706.00,A,4611.977640,N,01258.217542,E,001.5,162.9,091011,0.2,E,A*3A
$GPGGA,084707.00,4611.977181,N,01258.217669,E,1,08,1.3,140.39,M,46.25,M,,*6001.9,N,003.6,K,A*2F
$GPGSV,3,1,09,02,38,083,38,04,15,040,40,09,22,150,,12,60,072,41*73
$GPGSV,3,2,09,14,30,256,42,25,74,325,48,29,48,221,45,30,30,288,42*7F
$GPGSV,3,3,09,31,22,313,42,,,,,,,,,,,,*45
$GPGSA,M,3,02,04,12,14,25,29,30,31,,,,,2.4,1.3,1.9*3F
Trace #40 at position 9.750000
$GPZDA,084706.04,09,10,2011,00,00*65
$GPRMC,084706.00,A,4611.977640,N,01258.217542,E,001.5,162.9,091011,0.2,E,A*3A
$GPGGA,084707.00,4611.977181,N,01258.217669,E,1,08,1.3,140.39,M,46.25,M,,*6001.9,N,003.6,K,A*2F
$GPGSV,3,1,09,02,38,083,38,04,15,040,40,09,22,150,,12,60,072,41*73
$GPGSV,3,2,09,14,30,256,42,25,74,325,48,29,48,221,45,30,30,288,42*7F
$GPGSV,3,3,09,31,22,313,42,,,,,,,,,,,,*45
$GPGSA,M,3,02,04,12,14,25,29,30,31,,,,,2.4,1.3,1.9*3F
Trace #41 at position 10.000000
$GPZDA,084706.04,09,10,2011,00,00*65
$GPRMC,084706.00,A,4611.977640,N,01258.217542,E,001.5,162.9,091011,0.2,E,A*3A
$GPGGA,084707.00,4611.977181,N,01258.217669,E,1,08,1.3,140.39,M,46.25,M,,*6001.9,N,003.6,K,A*2F
$GPGSV,3,1,09,02,38,083,38,04,15,040,40,09,22,150,,12,60,072,41*73
$GPGSV,3,2,09,14,30,256,42,25,74,325,48,29,48,221,45,30,30,288,42*7F
$GPGSV,3,3,09,31,22,313,42,,,,,,,,,,,,*45
$GPGSA,M,3,02,04,12,14,25,29,30,31,,,,,2.4,1.3,1.9*3F
Trace #42 at position 10.250000
$GPZDA,084706.04,09,10,2011,00,00*65
$GPRMC,084706.00,A,4611.977640,N,01258.217542,E,001.5,162.9,091011,0.2,E,A*3A
$GPGGA,084707.00,4611.977181,N,01258.217669,E,1,08,1.3,140.39,M,46.25,M,,*6001.9,N,003.6,K,A*2F
$GPGSV,3,1,09,02,38,083,38,04,15,040,40,09,22,150,,12,60,072,41*73
$GPGSV,3,2,09,14,30,256,42,25,74,325,48,29,48,221,45,30,30,288,42*7F
$GPGSV,3,3,09,31,22,313,42,,,,,,,,,,,,*45
$GPGSA,M,3,02,04,12,14,25,29,30,31,,,,,2.4,1.3,1.9*3F
Trace #43 at position 10.500000
$GPZDA,084706.04,09,10,2011,00,00*65
$GPRMC,084706.00,A,4611.977640,N,01258.217542,E,001.5,162.9,091011,0.2,E,A*3A
$GPGGA,084707.00,4611.977181,N,01258.217669,E,1,08,1.3,140.39,M,46.25,M,,*6001.9,N,003.6,K,A*2F
$GPGSV,3,1,09,02,38,083,38,04,15,040,40,09,22,150,,12,60,072,41*73
$GPGSV,3,2,09,14,30,256,42,25,74,325,48,29,48,221,45,30,30,288,42*7F
$GPGSV,3,3,09,31,22,313,42,,,,,,,,,,,,*45
$GPGSA,M,3,02,04,12,14,25,29,30,31,,,,,2.4,1.3,1.9*3F
Trace #44 at position 10.750000
$GPZDA,084706.04,09,10,2011,00,00*65
$GPRMC,084706.00,A,4611.977640,N,01258.217542,E,001.5,162.9,091011,0.2,E,A*3A
$GPGGA,084707.00,4611.977181,N,01258.217669,E,1,08,1.3,140.39,M,46.25,M,,*6001.9,N,003.6,K,A*2F
$GPGSV,3,1,09,02,38,083,38,04,15,040,40,09,22,150,,12,60,072,41*73
$GPGSV,3,2,09,14,30,256,42,25,74,325,48,29,48,221,45,30,30,288,42*7F
$GPGSV,3,3,09,31,22,313,42,,,,,,,,,,,,*45
$GPGSA,M,3,02,04,12,14,25,29,30,31,,,,,2.4,1.3,1.9*3F
Trace #45 at position 11.000000
$GPZDA,084706.04,09,10,2011,00,00*65
$GPRMC,084706.00,A,4611.977640,N,01258.217542,E,001.5,162.9,091011,0.2,E,A*3A
$GPGGA,084707.00,4611.977181,N,01258.217669,E,1,08,1.3,140.39,M,46.25,M,,*6001.9,N,003.6,K,A*2F
$GPGSV,3,1,09,02,38,083,38,04,15,040,40,09,22,150,,12,60,072,41*73
$GPGSV,3,2,09,14,30,256,42,25,74,325,48,29,48,221,45,30,30,288,42*7F
$GPGSV,3,3,09,31,22,313,42,,,,,,,,,,,,*45
$GPGSA,M,3,02,04,12,14,25,29,30,31,,,,,2.4,1.3,1.9*3F
Trace #46 at position 11.250000
$GPZDA,084707.04,09,10,2011,00,00*64
$GPRMC,084707.00,A,4611.977181,N,01258.217669,E,001.9,182.8,091011,0.2,E,A*38
$GPGGA,084708.00,4611.976640,N,01258.217810,E,1,08,1.3,140.32,M,46.25,M,,*6F
$GPGLL,4611.976640,N,01258.217810,E,084708.00,A,A*61
$GPVTG14,25,29,30,31,,,,,2.4,1.3,1.9*3F
$GPZDA,084708.04,09,10,2011,00,00*6B
$GPRMC,084708.00,A,4611.976640,N,01258.217810,E,002.1,168.7,091011,0.2,E,A*3C
$GPGGA,084709.00,4611.976195,N,01258.217970,E,1,08,1.3,140.22,M,46.25,M,,*67
$GPGLL,4611.976195,N,01258.217970,E,084709.00,A,A*68
$GPVTG,180.5,T,180.7,M,001.3,N,002.4,K,A*25
$GPGSV,3,1,09,02,38,083,38,04,15,040,40,09,22,150,,12,60,072,42*70
$GPGSV,3,2,09,14,30,256,41,25,74,325,48,29,48,221,43,30,30,288,41*79
$GPGSV,3,3,09,31,22,313,41,,,,,,,,,,,,*46
$GC,084709.00,A,4611.976195,N,01258.217970,E,001.3,180.5,091011,0.2,E,A*30
$GPGGA,084710.00,4611.975829,N,01258.218179,E,1,08,1.3,140.20,M,46.25,M,,*6E
$GPGLL,4611.975829,N,01258.218179,E,084710.00,A,A*63
$GPVTG,156.3,T,156.5,M,001.6,N,002.9,K,A*29
$GPGSV,3,1,09,02,38,083,41,04,15,040,41,09,22,150,,12,60,072,42*7F
$GPGSV,3,2,09,14,30,256,41,25,74,325,48,29,48,221,44,30,30,288,42*7D
$GPGSV,3,3,09,31,22,313,42,,,,,,,,,,,,*45
$GPGSA,M,3,02,04,12,14,25,29,30,31,,,,,2.4,1.3,1.9*3F
Trace #47 at position 11.500000
$GPZDA,084707.04,09,10,2011,00,00*64
$GPRMC,084707.00,A,4611.977181,N,01258.217669,E,001.9,182.8,091011,0.2,E,A*38
$GPGGA,084708.00,4611.976640,N,01258.217810,E,1,08,1.3,140.32,M,46.25,M,,*6F
$GPGLL,4611.976640,N,01258.217810,E,084708.00,A,A*61
$GPVTG14,25,29,30,31,,,,,2.4,1.3,1.9*3F
$GPZDA,084708.04,09,10,2011,00,00*6B
$GPRMC,084708.00,A,4611.976640,N,01258.217810,E,002.1,168.7,091011,0.2,E,A*3C
$GPGGA,084709.00,4611.976195,N,01258.217970,E,1,08,1.3,140.22,M,46.25,M,,*67
$GPGLL,4611.976195,N,01258.217970,E,084709.00,A,A*68
$GPVTG,180.5,T,180.7,M,001.3,N,002.4,K,A*25
$GPGSV,3,1,09,02,38,083,38,04,15,040,40,09,22,150,,12,60,072,42*70
$GPGSV,3,2,09,14,30,256,41,25,74,325,48,29,48,221,43,30,30,288,41*79
$GPGSV,3,3,09,31,22,313,41,,,,,,,,,,,,*46
$GC,084709.00,A,4611.976195,N,01258.217970,E,001.3,180.5,091011,0.2,E,A*30
$GPGGA,084710.00,4611.975829,N,01258.218179,E,1,08,1.3,140.20,M,46.25,M,,*6E
$GPGLL,4611.975829,N,01258.218179,E,084710.00,A,A*63
$GPVTG,156.3,T,156.5,M,001.6,N,002.9,K,A*29
$GPGSV,3,1,09,02,38,083,41,04,15,040,41,09,22,150,,12,60,072,42*7F
$GPGSV,3,2,09,14,30,256,41,25,74,325,48,29,48,221,44,30,30,288,42*7D
$GPGSV,3,3,09,31,22,313,42,,,,,,,,,,,,*45
$GPGSA,M,3,02,04,12,14,25,29,30,31,,,,,2.4,1.3,1.9*3F
Trace #48 at position 11.750000
$GPZDA,084707.04,09,10,2011,00,00*64
$GPRMC,084707.00,A,4611.977181,N,01258.217669,E,001.9,182.8,091011,0.2,E,A*38
$GPGGA,084708.00,4611.976640,N,01258.217810,E,1,08,1.3,140.32,M,46.25,M,,*6F
$GPGLL,4611.976640,N,01258.217810,E,084708.00,A,A*61
$GPVTG14,25,29,30,31,,,,,2.4,1.3,1.9*3F
$GPZDA,084708.04,09,10,2011,00,00*6B
$GPRMC,084708.00,A,4611.976640,N,01258.217810,E,002.1,168.7,091011,0.2,E,A*3C
$GPGGA,084709.00,4611.976195,N,01258.217970,E,1,08,1.3,140.22,M,46.25,M,,*67
$GPGLL,4611.976195,N,01258.217970,E,084709.00,A,A*68
$GPVTG,180.5,T,180.7,M,001.3,N,002.4,K,A*25
$GPGSV,3,1,09,02,38,083,38,04,15,040,40,09,22,150,,12,60,072,42*70
$GPGSV,3,2,09,14,30,256,41,25,74,325,48,29,48,221,43,30,30,288,41*79
$GPGSV,3,3,09,31,22,313,41,,,,,,,,,,,,*46
$GC,084709.00,A,4611.976195,N,01258.217970,E,001.3,180.5,091011,0.2,E,A*30
$GPGGA,084710.00,4611.975829,N,01258.218179,E,1,08,1.3,140.20,M,46.25,M,,*6E
$GPGLL,4611.975829,N,01258.218179,E,084710.00,A,A*63
$GPVTG,156.3,T,156.5,M,001.6,N,002.9,K,A*29
$GPGSV,3,1,09,02,38,083,41,04,15,040,41,09,22,150,,12,60,072,42*7F
$GPGSV,3,2,09,14,30,256,41,25,74,325,48,29,48,221,44,30,30,288,42*7D
$GPGSV,3,3,09,31,22,313,42,,,,,,,,,,,,*45
$GPGSA,M,3,02,04,12,14,25,29,30,31,,,,,2.4,1.3,1.9*3F
Trace #49 at position 12.000000
$GPZDA,084707.04,09,10,2011,00,00*64
$GPRMC,084707.00,A,4611.977181,N,01258.217669,E,001.9,182.8,091011,0.2,E,A*38
$GPGGA,084708.00,4611.976640,N,01258.217810,E,1,08,1.3,140.32,M,46.25,M,,*6F
$GPGLL,4611.976640,N,01258.217810,E,084708.00,A,A*61
$GPVTG14,25,29,30,31,,,,,2.4,1.3,1.9*3F
$GPZDA,084708.04,09,10,2011,00,00*6B
$GPRMC,084708.00,A,4611.976640,N,01258.217810,E,002.1,168.7,091011,0.2,E,A*3C
$GPGGA,084709.00,4611.976195,N,01258.217970,E,1,08,1.3,140.22,M,46.25,M,,*67
$GPGLL,4611.976195,N,01258.217970,E,084709.00,A,A*68
$GPVTG,180.5,T,180.7,M,001.3,N,002.4,K,A*25
$GPGSV,3,1,09,02,38,083,38,04,15,040,40,09,22,150,,12,60,072,42*70
$GPGSV,3,2,09,14,30,256,41,25,74,325,48,29,48,221,43,30,30,288,41*79
$GPGSV,3,3,09,31,22,313,41,,,,,,,,,,,,*46
$GC,084709.00,A,4611.976195,N,01258.217970,E,001.3,180.5,091011,0.2,E,A*30
$GPGGA,084710.00,4611.975829,N,01258.218179,E,1,08,1.3,140.20,M,46.25,M,,*6E
$GPGLL,4611.975829,N,01258.218179,E,084710.00,A,A*63
$GPVTG,156.3,T,156.5,M,001.6,N,002.9,K,A*29
$GPGSV,3,1,09,02,38,083,41,04,15,040,41,09,22,150,,12,60,072,42*7F
$GPGSV,3,2,09,14,30,256,41,25,74,325,48,29,48,221,44,30,30,288,42*7D
$GPGSV,3,3,09,31,22,313,42,,,,,,,,,,,,*45
$GPGSA,M,3,02,04,12,14,25,29,30,31,,,,,2.4,1.3,1.9*3F
Trace #50 at position 12.250000
$GPZDA,084710.04,09,10,20$GPGGA,084711.00,4611.975443,N,01258.218576,E,1,08,1.3,140.25,M,46.25,M,,*61
$GPGLL,4611.975443,N,01258.218576,E,084711.00,A,A*69
$GPVTG,141.3,T,141.5,M,001.7,N,003.2,K,A*22
$GPGSV,3,1,09,02,38,083,41,04,15,040,40,09,22,150,,12,60,072,42*7E
$GPGSV,3,2,09,14,30,256,42,25,74,325,48,29,48,221,44,30,30,288,41*7D
$GPGSV,3,3,09,31,22,313,41,,,,,,,,,,,,*46
$GPGSA,M,3,02,04,12,14,25,29,30,31,,,,,2.4,1.3,1.9*3F
Trace #51 at position 12.500000
$GPZDA,084710.04,09,10,20$GPGGA,084711.00,4611.975443,N,01258.218576,E,1,08,1.3,140.25,M,46.25,M,,*61
$GPGLL,4611.975443,N,01258.218576,E,084711.00,A,A*69
$GPVTG,141.3,T,141.5,M,001.7,N,003.2,K,A*22
$GPGSV,3,1,09,02,38,083,41,04,15,040,40,09,22,150,,12,60,072,42*7E
$GPGSV,3,2,09,14,30,256,42,25,74,325,48,29,48,221,44,30,30,288,41*7D
$GPGSV,3,3,09,31,22,313,41,,,,,,,,,,,,*46
$GPGSA,M,3,02,04,12,14,25,29,30,31,,,,,2.4,1.3,1.9*3F
Trace #52 at position 12.750000
$GPZDA,084710.04,09,10,20$GPGGA,084711.00,4611.975443,N,01258.218576,E,1,08,1.3,140.25,M,46.25,M,,*61
$GPGLL,4611.975443,N,01258.218576,E,084711.00,A,A*69
$GPVTG,141.3,T,141.5,M,001.7,N,003.2,K,A*22
$GPGSV,3,1,09,02,38,083,41,04,15,040,40,09,22,150,,12,60,072,42*7E
$GPGSV,3,2,09,14,30,256,42,25,74,325,48,29,48,221,44,30,30,288,41*7D
$GPGSV,3,3,09,31,22,313,41,,,,,,,,,,,,*46
$GPGSA,M,3,02,04,12,14,25,29,30,31,,,,,2.4,1.3,1.9*3F
Trace #53 at position 13.000000
$GPZDA,084710.04,09,10,20$GPGGA,084711.00,4611.975443,N,01258.218576,E,1,08,1.3,140.25,M,46.25,M,,*61
$GPGLL,4611.975443,N,01258.218576,E,084711.00,A,A*69
$GPVTG,141.3,T,141.5,M,001.7,N,003.2,K,A*22
$GPGSV,3,1,09,02,38,083,41,04,15,040,40,09,22,150,,12,60,072,42*7E
$GPGSV,3,2,09,14,30,256,42,25,74,325,48,29,48,221,44,30,30,288,41*7D
$GPGSV,3,3,09,31,22,313,41,,,,,,,,,,,,*46
$GPGSA,M,3,02,04,12,14,25,29,30,31,,,,,2.4,1.3,1.9*3F
Trace #54 at position 13.250000
$GPZDA,084711.04,09,10,2011,00,00*63
$GPRMC,084711.00,A,4611.975443,N,01258.218576,E,001.7,141.3,0$GPGGA,084712.00,4611.975067,N,01258.218930,E,1,08,1.3,140.34,M,46.25,M,,*6E
$GPGLL,4611.975067,N,01258.218930,E,084712.00,A,A*66
$GPVTG,158.4,T,158.5,M,001.4,N,002.6,K,A*23
$GPGSV,3,1,09,02,38,083,40,04,15,040,40,09,22,150,37,12,60,072,43*7A
$GPGSV,3,2,09,14,30,256,41,25,74,325,48,29,48,221,44,30,30,288,41*7E
$GPGSV,3,3,09,31,22,313,41,,,,,,,,,,,,*46
$GPGSA,M,3,02,04,12,14,25,29,30,31,,,,,2.4,1.3,1.9*3F
Trace #55 at position 13.500000
$GPZDA,084711.04,09,10,2011,00,00*63
$GPRMC,084711.00,A,4611.975443,N,01258.218576,E,001.7,141.3,0$GPGGA,084712.00,4611.975067,N,01258.218930,E,1,08,1.3,140.34,M,46.25,M,,*6E
$GPGLL,4611.975067,N,01258.218930,E,084712.00,A,A*66
$GPVTG,158.4,T,158.5,M,001.4,N,002.6,K,A*23
$GPGSV,3,1,09,02,38,083,40,04,15,040,40,09,22,150,37,12,60,072,43*7A
$GPGSV,3,2,09,14,30,256,41,25,74,325,48,29,48,221,44,30,30,288,41*7E
$GPGSV,3,3,09,31,22,313,41,,,,,,,,,,,,*46
$GPGSA,M,3,02,04,12,14,25,29,30,31,,,,,2.4,1.3,1.9*3F
Trace #56 at position 13.750000
$GPZDA,084711.04,09,10,2011,00,00*63
$GPRMC,084711.00,A,4611.975443,N,01258.218576,E,001.7,141.3,0$GPGGA,084712.00,4611.975067,N,01258.218930,E,1,08,1.3,140.34,M,46.25,M,,*6E
$GPGLL,4611.975067,N,01258.218930,E,084712.00,A,A*66
$GPVTG,158.4,T,158.5,M,001.4,N,002.6,K,A*23
$GPGSV,3,1,09,02,38,083,40,04,15,040,40,09,22,150,37,12,60,072,43*7A
$GPGSV,3,2,09,14,30,256,41,25,74,325,48,29,48,221,44,30,30,288,41*7E
$GPGSV,3,3,09,31,22,313,41,,,,,,,,,,,,*46
$GPGSA,M,3,02,04,12,14,25,29,30,31,,,,,2.4,1.3,1.9*3F
Trace #57 at position 14.000000
$GPZDA,084711.04,09,10,2011,00,00*63
$GPRMC,084711.00,A,4611.975443,N,01258.218576,E,001.7,141.3,0$GPGGA,084712.00,4611.975067,N,01258.218930,E,1,08,1.3,140.34,M,46.25,M,,*6E
$GPGLL,4611.975067,N,01258.218930,E,084712.00,A,A*66
$GPVTG,158.4,T,158.5,M,001.4,N,002.6,K,A*23
$GPGSV,3,1,09,02,38,083,40,04,15,040,40,09,22,150,37,12,60,072,43*7A
$GPGSV,3,2,09,14,30,256,41,25,74,325,48,29,48,221,44,30,30,288,41*7E
$GPGSV,3,3,09,31,22,313,41,,,,,,,,,,,,*46
$GPGSA,M,3,02,04,12,14,25,29,30,31,,,,,2.4,1.3,1.9*3F
Trace #58 at position 14.250000
$GPZDA,084712.04,09,10,2011,00,00*60
$GPRMC,084712.00,A,4611.975067,N,01258.218930,E,001.4,158.4$GPGGA,084713.00,4611.974643,N,01258.219145,E,1,08,1.3,140.40,M,46.25,M,,*66
$GPGLL,4611.974643,N,01258.219145,E,084713.00,A,A*6D
$GPVTG,165.7,T,165.8,M,001.6,N,003.1,K,A*29
$GPGSV,3,1,09,02,38,083,39,04,15,040,39,09,22,150,38,12,60,072,43*75
$GPGSV,3,2,09,14,30,256,41,25,74,325,48,29,48,221,43,30,30,288,42*7A
$GPGSV,3,3,09,31,22,313,41,,,,,,,,,,,,*46
$GPGSA,M,3,02,04,12,14,25,29,30,31,,,,,2.4,1.3,1.9*3F
Trace #59 at position 14.500000
$GPZDA,084712.04,09,10,2011,00,00*60
$GPRMC,084712.00,A,4611.975067,N,01258.218930,E,001.4,158.4$GPGGA,084713.00,4611.974643,N,01258.219145,E,1,08,1.3,140.40,M,46.25,M,,*66
$GPGLL,4611.974643,N,01258.219145,E,084713.00,A,A*6D
$GPVTG,165.7,T,165.8,M,001.6,N,003.1,K,A*29
$GPGSV,3,1,09,02,38,083,39,04,15,040,39,09,22,150,38,12,60,072,43*75
$GPGSV,3,2,09,14,30,256,41,25,74,325,48,29,48,221,43,30,30,288,42*7A
$GPGSV,3,3,09,31,22,313,41,,,,,,,,,,,,*46
$GPGSA,M,3,02,04,12,14,25,29,30,31,,,,,2.4,1.3,1.9*3F
Trace #60 at position 14.750000
$GPZDA,084712.04,09,10,2011,00,00*60
$GPRMC,084712.00,A,4611.975067,N,01258.218930,E,001.4,158.4$GPGGA,084713.00,4611.974643,N,01258.219145,E,1,08,1.3,140.40,M,46.25,M,,*66
$GPGLL,4611.974643,N,01258.219145,E,084713.00,A,A*6D
$GPVTG,165.7,T,165.8,M,001.6,N,003.1,K,A*29
$GPGSV,3,1,09,02,38,083,39,04,15,040,39,09,22,150,38,12,60,072,43*75
$GPGSV,3,2,09,14,30,256,41,25,74,325,48,29,48,221,43,30,30,288,42*7A
$GPGSV,3,3,09,31,22,313,41,,,,,,,,,,,,*46
$GPGSA,M,3,02,04,12,14,25,29,30,31,,,,,2.4,1.3,1.9*3F
Trace #61 at position 15.000000
$GPZDA,084712.04,09,10,2011,00,00*60
$GPRMC,084712.00,A,4611.975067,N,01258.218930,E,001.4,158.4$GPGGA,084713.00,4611.974643,N,01258.219145,E,1,08,1.3,140.40,M,46.25,M,,*66
$GPGLL,4611.974643,N,01258.219145,E,084713.00,A,A*6D
$GPVTG,165.7,T,165.8,M,001.6,N,003.1,K,A*29
$GPGSV,3,1,09,02,38,083,39,04,15,040,39,09,22,150,38,12,60,072,43*75
$GPGSV,3,2,09,14,30,256,41,25,74,325,48,29,48,221,43,30,30,288,42*7A
$GPGSV,3,3,09,31,22,313,41,,,,,,,,,,,,*46
$GPGSA,M,3,02,04,12,14,25,29,30,31,,,,,2.4,1.3,1.9*3F
Trace #62 at position 15.250000
$GPZDA,084713.04,09,10,2011,00,00*61
$GPRMC,084713.00,A,4611.974643,N,01258.219145,E,001.6,165.7$GPGGA,084714.00,4611.974187,N,01258.219299,E,1,08,1.3,140.42,M,46.25,M,,*6E
$GPGLL,4611.974187,N,01258.219299,E,084714.00,A,A*67
$GPVTG,173.4,T,173.5,M,001.5,N,002.8,K,A*2C
$GPGSV,3,1,09,02,38,083,38,04,15,040,38,09,22,150,36,12,60,072,42*7A
$GPGSV,3,2,09,14,30,256,41,25,74,325,48,29,48,221,43,30,30,288,42*7A
$GPGSV,3,3,09,31,22,313,42,,,,,,,,,,,,*45
$GPGSA,M,3,02,04,12,14,25,29,30,31,,,,,2.4,1.3,1.9*3F
Trace #63 at position 15.500000
$GPZDA,084713.04,09,10,2011,00,00*61
$GPRMC,084713.00,A,4611.974643,N,01258.219145,E,001.6,165.7$GPGGA,084714.00,4611.974187,N,01258.219299,E,1,08,1.3,140.42,M,46.25,M,,*6E
$GPGLL,4611.974187,N,01258.219299,E,084714.00,A,A*67
$GPVTG,173.4,T,173.5,M,001.5,N,002.8,K,A*2C
$GPGSV,3,1,09,02,38,083,38,04,15,040,38,09,22,150,36,12,60,072,42*7A
$GPGSV,3,2,09,14,30,256,41,25,74,325,48,29,48,221,43,30,30,288,42*7A
$GPGSV,3,3,09,31,22,313,42,,,,,,,,,,,,*45
$GPGSA,M,3,02,04,12,14,25,29,30,31,,,,,2.4,1.3,1.9*3F
Trace #64 at position 15.750000
$GPZDA,084713.04,09,10,2011,00,00*61
$GPRMC,084713.00,A,4611.974643,N,01258.219145,E,001.6,165.7$GPGGA,084714.00,4611.974187,N,01258.219299,E,1,08,1.3,140.42,M,46.25,M,,*6E
$GPGLL,4611.974187,N,01258.219299,E,084714.00,A,A*67
$GPVTG,173.4,T,173.5,M,001.5,N,002.8,K,A*2C
$GPGSV,3,1,09,02,38,083,38,04,15,040,38,09,22,150,36,12,60,072,42*7A
$GPGSV,3,2,09,14,30,256,41,25,74,325,48,29,48,221,43,30,30,288,42*7A
$GPGSV,3,3,09,31,22,313,42,,,,,,,,,,,,*45
$GPGSA,M,3,02,04,12,14,25,29,30,31,,,,,2.4,1.3,1.9*3F
Trace #65 at position 16.000000
$GPZDA,084713.04,09,10,2011,00,00*61
$GPRMC,084713.00,A,4611.974643,N,01258.219145,E,001.6,165.7$GPGGA,084714.00,4611.974187,N,01258.219299,E,1,08,1.3,140.42,M,46.25,M,,*6E
$GPGLL,4611.974187,N,01258.219299,E,084714.00,A,A*67
$GPVTG,173.4,T,173.5,M,001.5,N,002.8,K,A*2C
$GPGSV,3,1,09,02,38,083,38,04,15,040,38,09,22,150,36,12,60,072,42*7A
$GPGSV,3,2,09,14,30,256,41,25,74,325,48,29,48,221,43,30,30,288,42*7A
$GPGSV,3,3,09,31,22,313,42,,,,,,,,,,,,*45
$GPGSA,M,3,02,04,12,14,25,29,30,31,,,,,2.4,1.3,1.9*3F
Trace #66 at position 16.250000
$GPZDA,084714.04,09,10,2011,00,00*66
$GPRMC,084714.00,A,4611.974187,N,01258.219299,E,001.5,173.4$GPGGA,084715.00,4611.973639,N,01258.219510,E,1,08,1.3,140.47,M,46.25,M,,*69
$GPGLL,4611.973639,N,01258.219510,E,084715.00,A,A*65
$GPVTG,164.0,T,164.2,M,002.4,N,004.4,K,A*27
$GPGSV,3,1,09,02,38,083,38,04,15,040,40,09,22,150,33,12,60,072,41*73
$GPGSV,3,2,09,14,30,256,41,25,74,325,48,29,48,221,43,30,30,288,42*7A
$GPGSV,3,3,09,31,22,313,41,,,,,,,,,,,,*46
$GPGSA,M,3,02,04,12,14,25,29,30,31,,,,,2.4,1.3,1.9*3F
Trace #67 at position 16.500000
$GPZDA,084714.04,09,10,2011,00,00*66
$GPRMC,084714.00,A,4611.974187,N,01258.219299,E,001.5,173.4$GPGGA,084715.00,4611.973639,N,01258.219510,E,1,08,1.3,140.47,M,46.25,M,,*69
$GPGLL,4611.973639,N,01258.219510,E,084715.00,A,A*65
$GPVTG,164.0,T,164.2,M,002.4,N,004.4,K,A*27
$GPGSV,3,1,09,02,38,083,38,04,15,040,40,09,22,150,33,12,60,072,41*73
$GPGSV,3,2,09,14,30,256,41,25,74,325,48,29,48,221,43,30,30,288,42*7A
$GPGSV,3,3,09,31,22,313,41,,,,,,,,,,,,*46
$GPGSA,M,3,02,04,12,14,25,29,30,31,,,,,2.4,1.3,1.9*3F
Trace #68 at position 16.750000
$GPZDA,084714.04,09,10,2011,00,00*66
$GPRMC,084714.00,A,4611.974187,N,01258.219299,E,001.5,173.4$GPGGA,084715.00,4611.973639,N,01258.219510,E,1,08,1.3,140.47,M,46.25,M,,*69
$GPGLL,4611.973639,N,01258.219510,E,084715.00,A,A*65
$GPVTG,164.0,T,164.2,M,002.4,N,004.4,K,A*27
$GPGSV,3,1,09,02,38,083,38,04,15,040,40,09,22,150,33,12,60,072,41*73
$GPGSV,3,2,09,14,30,256,41,25,74,325,48,29,48,221,43,30,30,288,42*7A
$GPGSV,3,3,09,31,22,313,41,,,,,,,,,,,,*46
$GPGSA,M,3,02,04,12,14,25,29,30,31,,,,,2.4,1.3,1.9*3F
Trace #69 at position 17.000000
$GPZDA,084714.04,09,10,2011,00,00*66
$GPRMC,084714.00,A,4611.974187,N,01258.219299,E,001.5,173.4$GPGGA,084715.00,4611.973639,N,01258.219510,E,1,08,1.3,140.47,M,46.25,M,,*69
$GPGLL,4611.973639,N,01258.219510,E,084715.00,A,A*65
$GPVTG,164.0,T,164.2,M,002.4,N,004.4,K,A*27
$GPGSV,3,1,09,02,38,083,38,04,15,040,40,09,22,150,33,12,60,072,41*73
$GPGSV,3,2,09,14,30,256,41,25,74,325,48,29,48,221,43,30,30,288,42*7A
$GPGSV,3,3,09,31,22,313,41,,,,,,,,,,,,*46
$GPGSA,M,3,02,04,12,14,25,29,30,31,,,,,2.4,1.3,1.9*3F
Trace #70 at position 17.250000
$GPZDA,084715.04,09,10,2011,00,00*67
$GPRMC,084715.00,A,4611.973639,N,01258.219510,E,002.4,164.0$GPGGA,084716.00,4611.973108,N,01258.219804,E,1,08,1.3,140.58,M,46.25,M,,*69
$GPGLL,4611.973108,N,01258.219804,E,084716.00,A,A*6B
$GPVTG,155.8,T,156.0,M,001.5,N,002.8,K,A*26
$GPGSV,3,1,09,02,38,083,38,04,15,040,41,09,22,150,38,12,60,072,42*7A
$GPGSV,3,2,09,14,30,256,42,25,74,325,47,29,48,221,42,30,30,288,42*77
$GPGSV,3,3,09,31,22,313,43,,,,,,,,,,,,*44
$GPGSA,M,3,02,04,12,14,25,29,30,31,,,,,2.4,1.3,1.9*3F
Trace #71 at position 17.500000
$GPZDA,084715.04,09,10,2011,00,00*67
$GPRMC,084715.00,A,4611.973639,N,01258.219510,E,002.4,164.0$GPGGA,084716.00,4611.973108,N,01258.219804,E,1,08,1.3,140.58,M,46.25,M,,*69
$GPGLL,4611.973108,N,01258.219804,E,084716.00,A,A*6B
$GPVTG,155.8,T,156.0,M,001.5,N,002.8,K,A*26
$GPGSV,3,1,09,02,38,083,38,04,15,040,41,09,22,150,38,12,60,072,42*7A
$GPGSV,3,2,09,14,30,256,42,25,74,325,47,29,48,221,42,30,30,288,42*77
$GPGSV,3,3,09,31,22,313,43,,,,,,,,,,,,*44
$GPGSA,M,3,02,04,12,14,25,29,30,31,,,,,2.4,1.3,1.9*3F
Trace #72 at position 17.750000
$GPZDA,084715.04,09,10,2011,00,00*67
$GPRMC,084715.00,A,4611.973639,N,01258.219510,E,002.4,164.0$GPGGA,084716.00,4611.973108,N,01258.219804,E,1,08,1.3,140.58,M,46.25,M,,*69
$GPGLL,4611.973108,N,01258.219804,E,084716.00,A,A*6B
$GPVTG,155.8,T,156.0,M,001.5,N,002.8,K,A*26
$GPGSV,3,1,09,02,38,083,38,04,15,040,41,09,22,150,38,12,60,072,42*7A
$GPGSV,3,2,09,14,30,256,42,25,74,325,47,29,48,221,42,30,30,288,42*77
$GPGSV,3,3,09,31,22,313,43,,,,,,,,,,,,*44
$GPGSA,M,3,02,04,12,14,25,29,30,31,,,,,2.4,1.3,1.9*3F
Trace #73 at position 18.000000
$GPZDA,084715.04,09,10,2011,00,00*67
$GPRMC,084715.00,A,4611.973639,N,01258.219510,E,002.4,164.0$GPGGA,084716.00,4611.973108,N,01258.219804,E,1,08,1.3,140.58,M,46.25,M,,*69
$GPGLL,4611.973108,N,01258.219804,E,084716.00,A,A*6B
$GPVTG,155.8,T,156.0,M,001.5,N,002.8,K,A*26
$GPGSV,3,1,09,02,38,083,38,04,15,040,41,09,22,150,38,12,60,072,42*7A
$GPGSV,3,2,09,14,30,256,42,25,74,325,47,29,48,221,42,30,30,288,42*77
$GPGSV,3,3,09,31,22,313,43,,,,,,,,,,,,*44
$GPGSA,M,3,02,04,12,14,25,29,30,31,,,,,2.4,1.3,1.9*3F
Trace #74 at position 18.250000
$GPZDA,084716.04,09,10,2011,00,00*64
$GPRMC,084716.00,A,4611.973108,N,01258.219804,E,001.5,155.8PGLL,4611.972662,N,01258.220031,E,084717.00,A,A*64
$GPVTG,167.2,T,167.3,M,001.7,N,003.1,K,A*26
$GPGSV,3,1,09,02,38,083,38,04,15,040,39,09,22,150,34,12,60,072,43*78
$GPGSV,3,2,09,14,30,256,41,25,74,325,48,29,48,221,43,30,30,288,43*7B
$GPGSV,3,3,09,31,22,313,43,,,,,,,,,,,,*44
$GPGSA,M,3,02,04,12,14,25,29,30,31,,,,,2.4,1.3,1.9*3F
Trace #75 at position 18.500000
$GPZDA,084716.04,09,10,2011,00,00*64
$GPRMC,084716.00,A,4611.973108,N,01258.219804,E,001.5,155.8PGLL,4611.972662,N,01258.220031,E,084717.00,A,A*64
$GPVTG,167.2,T,167.3,M,001.7,N,003.1,K,A*26
$GPGSV,3,1,09,02,38,083,38,04,15,040,39,09,22,150,34,12,60,072,43*78
$GPGSV,3,2,09,14,30,256,41,25,74,325,48,29,48,221,43,30,30,288,43*7B
$GPGSV,3,3,09,31,22,313,43,,,,,,,,,,,,*44
$GPGSA,M,3,02,04,12,14,25,29,30,31,,,,,2.4,1.3,1.9*3F
Trace #76 at position 18.750000
$GPZDA,084716.04,09,10,2011,00,00*64
$GPRMC,084716.00,A,4611.973108,N,01258.219804,E,001.5,155.8PGLL,4611.972662,N,01258.220031,E,084717.00,A,A*64
$GPVTG,167.2,T,167.3,M,001.7,N,003.1,K,A*26
$GPGSV,3,1,09,02,38,083,38,04,15,040,39,09,22,150,34,12,60,072,43*78
$GPGSV,3,2,09,14,30,256,41,25,74,325,48,29,48,221,43,30,30,288,43*7B
$GPGSV,3,3,09,31,22,313,43,,,,,,,,,,,,*44
$GPGSA,M,3,02,04,12,14,25,29,30,31,,,,,2.4,1.3,1.9*3F
Trace #77 at position 19.000000
$GPZDA,084716.04,09,10,2011,00,00*64
$GPRMC,084716.00,A,4611.973108,N,01258.219804,E,001.5,155.8PGLL,4611.972662,N,01258.220031,E,084717.00,A,A*64
$GPVTG,167.2,T,167.3,M,001.7,N,003.1,K,A*26
$GPGSV,3,1,09,02,38,083,38,04,15,040,39,09,22,150,34,12,60,072,43*78
$GPGSV,3,2,09,14,30,256,41,25,74,325,48,29,48,221,43,30,30,288,43*7B
$GPGSV,3,3,09,31,22,313,43,,,,,,,,,,,,*44
$GPGSA,M,3,02,04,12,14,25,29,30,31,,,,,2.4,1.3,1.9*3F
Trace #78 at position 19.250000
$GPZDA,084717.04,09,10,2011,00,00*65
$GPRMC,084717.00,A,4611.972662,N,01258.220031,E,001.7,167.2,091011,0.2,E,A*36
$GPGGA,084718.00,4611.972151,N,01258.220211,E,1,08,1.3,140.569.5,T,169.7,M,001.9,N,003.5,K,A*2F
$GPGSV,3,1,09,02,38,083,39,04,15,040,38,09,22,150,35,12,60,072,42*78
$GPGSV,3,2,09,14,30,256,42,25,74,325,47,29,48,221,43,30,30,288,42*76
$GPGSV,3,3,09,31,22,313,42,,,,,,,,,,,,*45
$GPGSA,M,3,02,04,12,14,25,29,30,31,,,,,2.4,1.3,1.9*3F
Trace #79 at position 19.500000
$GPZDA,084717.04,09,10,2011,00,00*65
$GPRMC,084717.00,A,4611.972662,N,01258.220031,E,001.7,167.2,091011,0.2,E,A*36
$GPGGA,084718.00,4611.972151,N,01258.220211,E,1,08,1.3,140.569.5,T,169.7,M,001.9,N,003.5,K,A*2F
$GPGSV,3,1,09,02,38,083,39,04,15,040,38,09,22,150,35,12,60,072,42*78
$GPGSV,3,2,09,14,30,256,42,25,74,325,47,29,48,221,43,30,30,288,42*76
$GPGSV,3,3,09,31,22,313,42,,,,,,,,,,,,*45
$GPGSA,M,3,02,04,12,14,25,29,30,31,,,,,2.4,1.3,1.9*3F
Trace #80 at position 19.750000
$GPZDA,084717.04,09,10,2011,00,00*65
$GPRMC,084717.00,A,4611.972662,N,01258.220031,E,001.7,167.2,091011,0.2,E,A*36
$GPGGA,084718.00,4611.972151,N,01258.220211,E,1,08,1.3,140.569.5,T,169.7,M,001.9,N,003.5,K,A*2F
$GPGSV,3,1,09,02,38,083,39,04,15,040,38,09,22,150,35,12,60,072,42*78
$GPGSV,3,2,09,14,30,256,42,25,74,325,47,29,48,221,43,30,30,288,42*76
$GPGSV,3,3,09,31,22,313,42,,,,,,,,,,,,*45
$GPGSA,M,3,02,04,12,14,25,29,30,31,,,,,2.4,1.3,1.9*3F
Trace #81 at position 20.000000
$GPZDA,084718.04,09,10,2011,00,00*6A
$GPRMC,084718.00,A,4611.972151,N,01258.220211,E,001.9,169.5,091011,0.2,E,A*39
$GPGGA,084719.00,4611.971576,N,01258.220502,E,1,08,1.3,140.44,M,46.25,M,,*65
$GPGLL,4611.971576,N,01258.220502,E,084719,39,04,15,040,39,09,22,150,34,12,60,072,42*78
$GPGSV,3,2,09,14,30,256,40,25,74,325,48,29,48,221,44,30,30,288,42*7C
$GPGSV,3,3,09,31,22,313,43,,,,,,,,,,,,*44
$GPGSA,M,3,02,04,12,14,25,29,30,31,,,,,2.4,1.3,1.9*3F
Trace #82 at position 20.250000
$GPZDA,084718.04,09,10,2011,00,00*6A
$GPRMC,084718.00,A,4611.972151,N,01258.220211,E,001.9,169.5,091011,0.2,E,A*39
$GPGGA,084719.00,4611.971576,N,01258.220502,E,1,08,1.3,140.44,M,46.25,M,,*65
$GPGLL,4611.971576,N,01258.220502,E,084719,39,04,15,040,39,09,22,150,34,12,60,072,42*78
$GPGSV,3,2,09,14,30,256,40,25,74,325,48,29,48,221,44,30,30,288,42*7C
$GPGSV,3,3,09,31,22,313,43,,,,,,,,,,,,*44
$GPGSA,M,3,02,04,12,14,25,29,30,31,,,,,2.4,1.3,1.9*3F
Trace #83 at position 20.500000
$GPZDA,084718.04,09,10,2011,00,00*6A
$GPRMC,084718.00,A,4611.972151,N,01258.220211,E,001.9,169.5,091011,0.2,E,A*39
$GPGGA,084719.00,4611.971576,N,01258.220502,E,1,08,1.3,140.44,M,46.25,M,,*65
$GPGLL,4611.971576,N,01258.220502,E,084719,39,04,15,040,39,09,22,150,34,12,60,072,42*78
$GPGSV,3,2,09,14,30,256,40,25,74,325,48,29,48,221,44,30,30,288,42*7C
$GPGSV,3,3,09,31,22,313,43,,,,,,,,,,,,*44
$GPGSA,M,3,02,04,12,14,25,29,30,31,,,,,2.4,1.3,1.9*3F
Trace #84 at position 20.750000
$GPZDA,084718.04,09,10,2011,00,00*6A
$GPRMC,084718.00,A,4611.972151,N,01258.220211,E,001.9,169.5,091011,0.2,E,A*39
$GPGGA,084719.00,4611.971576,N,01258.220502,E,1,08,1.3,140.44,M,46.25,M,,*65
$GPGLL,4611.971576,N,01258.220502,E,084719,39,04,15,040,39,09,22,150,34,12,60,072,42*78
$GPGSV,3,2,09,14,30,256,40,25,74,325,48,29,48,221,44,30,30,288,42*7C
$GPGSV,3,3,09,31,22,313,43,,,,,,,,,,,,*44
$GPGSA,M,3,02,04,12,14,25,29,30,31,,,,,2.4,1.3,1.9*3F
Trace #85 at position 21.000000
$GPZDA,084718.04,09,10,2011,00,00*6A
$GPRMC,084718.00,A,4611.972151,N,01258.220211,E,001.9,169.5,091011,0.2,E,A*39
$GPGGA,084719.00,4611.971576,N,01258.220502,E,1,08,1.3,140.44,M,46.25,M,,*65
$GPGLL,4611.971576,N,01258.220502,E,084719,39,04,15,040,39,09,22,150,34,12,60,072,42*78
$GPGSV,3,2,09,14,30,256,40,25,74,325,48,29,48,221,44,30,30,288,42*7C
$GPGSV,3,3,09,31,22,313,43,,,,,,,,,,,,*44
$GPGSA,M,3,02,04,12,14,25,29,30,31,,,,,2.4,1.3,1.9*3F
Trace #86 at position 21.250000
$GPZDA,084718.04,09,10,2011,00,00*6A
$GPRMC,084718.00,A,4611.972151,N,01258.220211,E,001.9,169.5,091011,0.2,E,A*39
$GPGGA,084719.00,4611.971576,N,01258.220502,E,1,08,1.3,140.44,M,46.25,M,,*65
$GPGLL,4611.971576,N,01258.220502,E,084719,39,04,15,040,39,09,22,150,34,12,60,072,42*78
$GPGSV,3,2,09,14,30,256,40,25,74,325,48,29,48,221,44,30,30,288,42*7C
$GPGSV,3,3,09,31,22,313,43,,,,,,,,,,,,*44
$GPGSA,M,3,02,04,12,14,25,29,30,31,,,,,2.4,1.3,1.9*3F
Trace #87 at position 21.500000
$GPZDA,084718.04,09,10,2011,00,00*6A
$GPRMC,084718.00,A,4611.972151,N,01258.220211,E,001.9,169.5,091011,0.2,E,A*39
$GPGGA,084719.00,4611.971576,N,01258.220502,E,1,08,1.3,140.44,M,46.25,M,,*65
$GPGLL,4611.971576,N,01258.220502,E,084719,39,04,15,040,39,09,22,150,34,12,60,072,42*78
$GPGSV,3,2,09,14,30,256,40,25,74,325,48,29,48,221,44,30,30,288,42*7C
$GPGSV,3,3,09,31,22,313,43,,,,,,,,,,,,*44
$GPGSA,M,3,02,04,12,14,25,29,30,31,,,,,2.4,1.3,1.9*3F
Trace #88 at position 21.750000
$GPZDA,084718.04,09,10,2011,00,00*6A
$GPRMC,084718.00,A,4611.972151,N,01258.220211,E,001.9,169.5,091011,0.2,E,A*39
$GPGGA,084719.00,4611.971576,N,01258.220502,E,1,08,1.3,140.44,M,46.25,M,,*65
$GPGLL,4611.971576,N,01258.220502,E,084719,39,04,15,040,39,09,22,150,34,12,60,072,42*78
$GPGSV,3,2,09,14,30,256,40,25,74,325,48,29,48,221,44,30,30,288,42*7C
$GPGSV,3,3,09,31,22,313,43,,,,,,,,,,,,*44
$GPGSA,M,3,02,04,12,14,25,29,30,31,,,,,2.4,1.3,1.9*3F
Trace #89 at position 22.000000
$GPZDA,084718.04,09,10,2011,00,00*6A
$GPRMC,084718.00,A,4611.972151,N,01258.220211,E,001.9,169.5,091011,0.2,E,A*39
$GPGGA,084719.00,4611.971576,N,01258.220502,E,1,08,1.3,140.44,M,46.25,M,,*65
$GPGLL,4611.971576,N,01258.220502,E,084719,39,04,15,040,39,09,22,150,34,12,60,072,42*78
$GPGSV,3,2,09,14,30,256,40,25,74,325,48,29,48,221,44,30,30,288,42*7C
$GPGSV,3,3,09,31,22,313,43,,,,,,,,,,,,*44
$GPGSA,M,3,02,04,12,14,25,29,30,31,,,,,2.4,1.3,1.9*3F
Trace #90 at position 22.250000
$GPZDA,084718.04,09,10,2011,00,00*6A
$GPRMC,084718.00,A,4611.972151,N,01258.220211,E,001.9,169.5,091011,0.2,E,A*39
$GPGGA,084719.00,4611.971576,N,01258.220502,E,1,08,1.3,140.44,M,46.25,M,,*65
$GPGLL,4611.971576,N,01258.220502,E,084719,39,04,15,040,39,09,22,150,34,12,60,072,42*78
$GPGSV,3,2,09,14,30,256,40,25,74,325,48,29,48,221,44,30,30,288,42*7C
$GPGSV,3,3,09,31,22,313,43,,,,,,,,,,,,*44
$GPGSA,M,3,02,04,12,14,25,29,30,31,,,,,2.4,1.3,1.9*3F
Trace #91 at position 22.500000
$GPZDA,084719.04,09,10,2011,00,00*6B
$GPRMC,084719.00,A,4611.971576,N,01258.220502,E,002.4,155.6,091011,0.2,E,A*3D
$GPGGA,084720.00,4611.970961,N,01258.220778,E,1,08,1.3,140.33,M,46.25,M,,*6B
$GPGLL,4611.970961,N,01258.220778,E,084720.00,A,A*64
$GPVTG,173.0,T,173.1,M,002.2,N,004.1,K,A*27
$GP2,04,12,14,25,29,30,31,,,,,2.4,1.3,1.9*3F
$GPZDA,084720.04,09,10,2011,00,00*61
$GPRMC,084720.00,A,4611.970961,N,01258.220778,E,002.2,173.0,091011,0.2,E,A*37
$GPGGA,084721.00,4611.970390,N,01258.220895,E,1,08,1.3,140.22,M,46.25,M,,*62
$GPGLL,4611.970390,N,01258.220895,E,084721.00,A,A*6D
$GPVTG,177.1,T,177.3,M,001.9,N,003.5,K,A*2F
$GPGSV,3,1,09,02,38,083,40,04,15,040,40,09,22,150,34,12,60,072,42*78
$GPGSV,3,2,09,14,30,256,42,25,74,325,48,29,48,221,44,30,30,288,42*7E
$GPGSV,3,3,09,31,22,313,42,,,,,,,,,*60
$GPRMC,084721.00,A,4611.970390,N,01258.220895,E,001.9,177.1,091011,0.2,E,A*33
$GPGGA,084722.00,4611.969915,N,01258.221051,E,1,08,1.3,140.23,M,46.25,M,,*6E
$GPGLL,4611.969915,N,01258.221051,E,084722.00,A,A*60
$GPVTG,164.2,T,164.4,M,001.6,N,002.9,K,A*29
$GPGSV,3,1,09,02,38,083,39,04,15,040,39,09,22,150,34,12,60,072,43*79
$GPGSV,3,2,09,14,30,256,42,25,74,325,48,29,48,221,44,30,30,288,42*7E
$GPGSV,3,3,09,31,22,313,43,,,,,,,,,,,,*44
$GPGSA,M,3,02,04,12,14,25,29,30,31,,,,,2.4,1.3,1.9*3F
Trace #92 at position 22.750000
$GPZDA,084719.04,09,10,2011,00,00*6B
$GPRMC,084719.00,A,4611.971576,N,01258.220502,E,002.4,155.6,091011,0.2,E,A*3D
$GPGGA,084720.00,4611.970961,N,01258.220778,E,1,08,1.3,140.33,M,46.25,M,,*6B
$GPGLL,4611.970961,N,01258.220778,E,084720.00,A,A*64
$GPVTG,173.0,T,173.1,M,002.2,N,004.1,K,A*27
$GP2,04,12,14,25,29,30,31,,,,,2.4,1.3,1.9*3F
$GPZDA,084720.04,09,10,2011,00,00*61
$GPRMC,084720.00,A,4611.970961,N,01258.220778,E,002.2,173.0,091011,0.2,E,A*37
$GPGGA,084721.00,4611.970390,N,01258.220895,E,1,08,1.3,140.22,M,46.25,M,,*62
$GPGLL,4611.970390,N,01258.220895,E,084721.00,A,A*6D
$GPVTG,177.1,T,177.3,M,001.9,N,003.5,K,A*2F
$GPGSV,3,1,09,02,38,083,40,04,15,040,40,09,22,150,34,12,60,072,42*78
$GPGSV,3,2,09,14,30,256,42,25,74,325,48,29,48,221,44,30,30,288,42*7E
$GPGSV,3,3,09,31,22,313,42,,,,,,,,,*60
$GPRMC,084721.00,A,4611.970390,N,01258.220895,E,001.9,177.1,091011,0.2,E,A*33
$GPGGA,084722.00,4611.969915,N,01258.221051,E,1,08,1.3,140.23,M,46.25,M,,*6E
$GPGLL,4611.969915,N,01258.221051,E,084722.00,A,A*60
$GPVTG,164.2,T,164.4,M,001.6,N,002.9,K,A*29
$GPGSV,3,1,09,02,38,083,39,04,15,040,39,09,22,150,34,12,60,072,43*79
$GPGSV,3,2,09,14,30,256,42,25,74,325,48,29,48,221,44,30,30,288,42*7E
$GPGSV,3,3,09,31,22,313,43,,,,,,,,,,,,*44
$GPGSA,M,3,02,04,12,14,25,29,30,31,,,,,2.4,1.3,1.9*3F
Trace #93 at position 23.000000
$GPZDA,084719.04,09,10,2011,00,00*6B
$GPRMC,084719.00,A,4611.971576,N,01258.220502,E,002.4,155.6,091011,0.2,E,A*3D
$GPGGA,084720.00,4611.970961,N,01258.220778,E,1,08,1.3,140.33,M,46.25,M,,*6B
$GPGLL,4611.970961,N,01258.220778,E,084720.00,A,A*64
$GPVTG,173.0,T,173.1,M,002.2,N,004.1,K,A*27
$GP2,04,12,14,25,29,30,31,,,,,2.4,1.3,1.9*3F
$GPZDA,084720.04,09,10,2011,00,00*61
$GPRMC,084720.00,A,4611.970961,N,01258.220778,E,002.2,173.0,091011,0.2,E,A*37
$GPGGA,084721.00,4611.970390,N,01258.220895,E,1,08,1.3,140.22,M,46.25,M,,*62
$GPGLL,4611.970390,N,01258.220895,E,084721.00,A,A*6D
$GPVTG,177.1,T,177.3,M,001.9,N,003.5,K,A*2F
$GPGSV,3,1,09,02,38,083,40,04,15,040,40,09,22,150,34,12,60,072,42*78
$GPGSV,3,2,09,14,30,256,42,25,74,325,48,29,48,221,44,30,30,288,42*7E
$GPGSV,3,3,09,31,22,313,42,,,,,,,,,*60
$GPRMC,084721.00,A,4611.970390,N,01258.220895,E,001.9,177.1,091011,0.2,E,A*33
$GPGGA,084722.00,4611.969915,N,01258.221051,E,1,08,1.3,140.23,M,46.25,M,,*6E
$GPGLL,4611.969915,N,01258.221051,E,084722.00,A,A*60
$GPVTG,164.2,T,164.4,M,001.6,N,002.9,K,A*29
$GPGSV,3,1,09,02,38,083,39,04,15,040,39,09,22,150,34,12,60,072,43*79
$GPGSV,3,2,09,14,30,256,42,25,74,325,48,29,48,221,44,30,30,288,42*7E
$GPGSV,3,3,09,31,22,313,43,,,,,,,,,,,,*44
$GPGSA,M,3,02,04,12,14,25,29,30,31,,,,,2.4,1.3,1.9*3F
Trace #94 at position 23.250000
$GPZDA,08472264.2,091011,0.2,E,A*30
$GPGGA,084723.00,4611.969406,N,01258.221309,E,1,08,1.3,140.24,M,46.25,M,,*69
$GPGLL,4611.969406,N,01258.221309,E,084723.00,A,A*60
$GPVTG,163.7,T,163.9,M,002.2,N,004.1,K,A*28
$GPGSV,3,1,09,02,38,083,40,04,15,040,39,09,22,150,34,12,60,072,43*77
$GPGSV,3,2,09,14,30,256,41,25,74,325,48,29,48,221,44,30,30,288,41*7E
$GPGSV,3,3,09,31,22,313,41,,,,,,,,,,,,*46
$GPGSA,M,3,02,04,12,14,25,29,30,31,,,,,2.4,1.3,1.9*3F
Trace #95 at position 23.500000
$GPZDA,08472264.2,091011,0.2,E,A*30
$GPGGA,084723.00,4611.969406,N,01258.221309,E,1,08,1.3,140.24,M,46.25,M,,*69
$GPGLL,4611.969406,N,01258.221309,E,084723.00,A,A*60
$GPVTG,163.7,T,163.9,M,002.2,N,004.1,K,A*28
$GPGSV,3,1,09,02,38,083,40,04,15,040,39,09,22,150,34,12,60,072,43*77
$GPGSV,3,2,09,14,30,256,41,25,74,325,48,29,48,221,44,30,30,288,41*7E
$GPGSV,3,3,09,31,22,313,41,,,,,,,,,,,,*46
$GPGSA,M,3,02,04,12,14,25,29,30,31,,,,,2.4,1.3,1.9*3F
Trace #96 at position 23.750000
$GPZDA,08472264.2,091011,0.2,E,A*30
$GPGGA,084723.00,4611.969406,N,01258.221309,E,1,08,1.3,140.24,M,46.25,M,,*69
$GPGLL,4611.969406,N,01258.221309,E,084723.00,A,A*60
$GPVTG,163.7,T,163.9,M,002.2,N,004.1,K,A*28
$GPGSV,3,1,09,02,38,083,40,04,15,040,39,09,22,150,34,12,60,072,43*77
$GPGSV,3,2,09,14,30,256,41,25,74,325,48,29,48,221,44,30,30,288,41*7E
$GPGSV,3,3,09,31,22,313,41,,,,,,,,,,,,*46
$GPGSA,M,3,02,04,12,14,25,29,30,31,,,,,2.4,1.3,1.9*3F
Trace #97 at position 24.000000
$GPZDA,08472264.2,091011,0.2,E,A*30
$GPGGA,084723.00,4611.969406,N,01258.221309,E,1,08,1.3,140.24,M,46.25,M,,*69
$GPGLL,4611.969406,N,01258.221309,E,084723.00,A,A*60
$GPVTG,163.7,T,163.9,M,002.2,N,004.1,K,A*28
$GPGSV,3,1,09,02,38,083,40,04,15,040,39,09,22,150,34,12,60,072,43*77
$GPGSV,3,2,09,14,30,256,41,25,74,325,48,29,48,221,44,30,30,288,41*7E
$GPGSV,3,3,09,31,22,313,41,,,,,,,,,,,,*46
$GPGSA,M,3,02,04,12,14,25,29,30,31,,,,,2.4,1.3,1.9*3F
Trace #98 at position 24.250000
$GPZDA,084723.04,09,10,2011,00,00*62
$GPRMC,084723.00,A,4611.969406,N,01$GPGGA,084724.00,4611.968902,N,01258.221679,E,1,08,1.3,140.22,M,46.25,M,,*62
$GPGLL,4611.968902,N,01258.221679,E,084724.00,A,A*6D
$GPVTG,142.9,T,143.0,M,001.8,N,003.3,K,A*22
$GPGSV,3,1,09,02,38,083,40,04,15,040,39,09,22,150,33,12,60,072,43*70
$GPGSV,3,2,09,14,30,256,41,25,74,325,48,29,48,221,44,30,30,288,42*7D
$GPGSV,3,3,09,31,22,313,43,,,,,,,,,,,,*44
$GPGSA,M,3,02,04,12,14,25,29,30,31,,,,,2.4,1.3,1.9*3F
Trace #99 at position 24.500000
$GPZDA,084723.04,09,10,2011,00,00*62
$GPRMC,084723.00,A,4611.969406,N,01$GPGGA,084724.00,4611.968902,N,01258.221679,E,1,08,1.3,140.22,M,46.25,M,,*62
$GPGLL,4611.968902,N,01258.221679,E,084724.00,A,A*6D
$GPVTG,142.9,T,143.0,M,001.8,N,003.3,K,A*22
$GPGSV,3,1,09,02,38,083,40,04,15,040,39,09,22,150,33,12,60,072,43*70
$GPGSV,3,2,09,14,30,256,41,25,74,325,48,29,48,221,44,30,30,288,42*7D
$GPGSV,3,3,09,31,22,313,43,,,,,,,,,,,,*44
$GPGSA,M,3,02,04,12,14,25,29,30,31,,,,,2.4,1.3,1.9*3F
Trace #100 at position 24.750000
$GPZDA,084723.04,09,10,2011,00,00*62
$GPRMC,084723.00,A,4611.969406,N,01$GPGGA,084724.00,4611.968902,N,01258.221679,E,1,08,1.3,140.22,M,46.25,M,,*62
$GPGLL,4611.968902,N,01258.221679,E,084724.00,A,A*6D
$GPVTG,142.9,T,143.0,M,001.8,N,003.3,K,A*22
$GPGSV,3,1,09,02,38,083,40,04,15,040,39,09,22,150,33,12,60,072,43*70
$GPGSV,3,2,09,14,30,256,41,25,74,325,48,29,48,221,44,30,30,288,42*7D
$GPGSV,3,3,09,31,22,313,43,,,,,,,,,,,,*44
$GPGSA,M,3,02,04,12,14,25,29,30,31,,,,,2.4,1.3,1.9*3F
Trace #101 at position 25.000000
$GPZDA,084723.04,09,10,2011,00,00*62
$GPRMC,084723.00,A,4611.969406,N,01$GPGGA,084724.00,4611.968902,N,01258.221679,E,1,08,1.3,140.22,M,46.25,M,,*62
$GPGLL,4611.968902,N,01258.221679,E,084724.00,A,A*6D
$GPVTG,142.9,T,143.0,M,001.8,N,003.3,K,A*22
$GPGSV,3,1,09,02,38,083,40,04,15,040,39,09,22,150,33,12,60,072,43*70
$GPGSV,3,2,09,14,30,256,41,25,74,325,48,29,48,221,44,30,30,288,42*7D
$GPGSV,3,3,09,31,22,313,43,,,,,,,,,,,,*44
$GPGSA,M,3,02,04,12,14,25,29,30,31,,,,,2.4,1.3,1.9*3F
Trace #102 at position 25.250000
$GPZDA,084723.04,09,10,2011,00,00*62
$GPRMC,084723.00,A,4611.969406,N,01$GPGGA,084724.00,4611.968902,N,01258.221679,E,1,08,1.3,140.22,M,46.25,M,,*62
$GPGLL,4611.968902,N,01258.221679,E,084724.00,A,A*6D
$GPVTG,142.9,T,143.0,M,001.8,N,003.3,K,A*22
$GPGSV,3,1,09,02,38,083,40,04,15,040,39,09,22,150,33,12,60,072,43*70
$GPGSV,3,2,09,14,30,256,41,25,74,325,48,29,48,221,44,30,30,288,42*7D
$GPGSV,3,3,09,31,22,313,43,,,,,,,,,,,,*44
