Trace #1 at position 0.000000
$GPZDA,101822.03,08,10,2011,00,00*66
$GPRMC,101822.00,A,4611.968041,N,01258.210385,E,000.6,192.3,081011,0.2,E,A*3A
$GPGGA,101823.00,4611.967738,N,01258.210620,E,1,04,10.5,130.29,M,46.25,M,,*56
$GPGLL,4611.967738,N,01258.210620,E,101823.00,A,A*6F
$GPVTG,190.2,T,190.4,M,000.3,N,000.5,K,A*23
$GPGSV,2,1,07,21,24,186,33,02,22,046,44,12,27,109,,25,61,103,*7B
$GPGSV,2,2,07,29,84,323,39,30,69,307,39,31,51,286,41,,,,*4C
$GPGSA,M,3,02,29,30,31,,,,,,,,,13.0,10.5,7.7*30
Trace #2 at position 0.250000
$GPZDA,101827.03,08,10,2011,00,00*63
$GPRMC,101827.00,A,4611.967239,N,01258.211420,E,000.2,318.9,081011,0.2,E,A*3A
$GPGGA,101828.00,4611.967021,N,01258.211552,E,1,04,10.5,127.01,M,46.25,M,,*59
$GPGLL,4611.967021,N,01258.211552,E,101828.00,A,A*6C
$GPVTG,175.2,T,175.4,M,001.0,N,001.9,K,A*2C
$GPGSV,2,1,07,21,24,186,33,02,22,046,40,12,27,109,36,25,61,103,41*7F
$GPGSV,2,2,07,29,84,323,43,30,69,307,42,31,51,286,42,,,,*4E
$GPGSA,M,3,02,29,30,31,,,,,,,,,13.0,10.5,7.7*30
Trace #3 at position 0.500000
$GPZDA,101827.03,08,10,2011,00,00*63
$GPRMC,101827.00,A,4611.967239,N,01258.211420,E,000.2,318.9,081011,0.2,E,A*3A
$GPGGA,101828.00,4611.967021,N,01258.211552,E,1,04,10.5,127.01,M,46.25,M,,*59
$GPGLL,4611.967021,N,01258.211552,E,101828.00,A,A*6C
$GPVTG,175.2,T,175.4,M,001.0,N,001.9,K,A*2C
$GPGSV,2,1,07,21,24,186,33,02,22,046,40,12,27,109,36,25,61,103,41*7F
$GPGSV,2,2,07,29,84,323,43,30,69,307,42,31,51,286,42,,,,*4E
$GPGSA,M,3,02,29,30,31,,,,,,,,,13.0,10.5,7.7*30
Trace #4 at position 0.750000
$GPZDA,101828.03,08,10,2011,00,00*6C
$GPRMC,101828.00,A,4611.967021,N,01258.211552,E,001.0,175.2,081011,0.2,E,A*3B
$GPGGA,101829.00,4611.966873,N,01258.211723,E,1,04,10.5,126.56,M,46.25,M,,*51
$GPGLL,4611.966873,N,01258.211723,E,101829.00,A,A*67
$GPVTG,13.9,T,14.0,M,000.7,N,001.2,K,A*29
$GPGSV,2,1,07,21,24,186,30,02,22,046,40,12,27,109,37,25,61,103,40*7C
$GPGSV,2,2,07,29,84,323,42,30,69,307,41,31,51,286,40,,,,*4E
$GPGSA,M,3,02,29,30,31,,,,,,,,,13.0,10.5,7.7*30
Trace #5 at position 1.000000
$GPZDA,101828.03,08,10,2011,00,00*6C
$GPRMC,101828.00,A,4611.967021,N,01258.211552,E,001.0,175.2,081011,0.2,E,A*3B
$GPGGA,101829.00,4611.966873,N,01258.211723,E,1,04,10.5,126.56,M,46.25,M,,*51
$GPGLL,4611.966873,N,01258.211723,E,101829.00,A,A*67
$GPVTG,13.9,T,14.0,M,000.7,N,001.2,K,A*29
$GPGSV,2,1,07,21,24,186,30,02,22,046,40,12,27,109,37,25,61,103,40*7C
$GPGSV,2,2,07,29,84,323,42,30,69,307,41,31,51,286,40,,,,*4E
$GPGSA,M,3,02,29,30,31,,,,,,,,,13.0,10.5,7.7*30
Trace #6 at position 1.250000
$GPZDA,101829.03,08,10,2011,00,00*6D
$GPRMC,101829.00,A,4611.966873,N,01258.211723,E,000.7,13.9,081011,0.2,E,A*0C
$GPGGA,101830.00,4611.968074,N,01258.211725,E,1,05,4.0,127.94,M,46.25,M,,*60
$GPGLL,4611.968074,N,01258.211725,E,101830.00,A,A*68
$GPVTG,138.6,T,138.8,M,001.2,N,002.3,K,A*2F
$GPGSV,2,1,07,21,24,186,26,02,22,046,40,12,27,109,36,25,61,103,41*7B
$GPGSV,2,2,07,29,84,324,41,30,69,307,41,31,51,286,41,,,,*4B
$GPGSA,M,3,02,25,29,30,31,,,,,,,,6.3,4.0,4.9*3D
Trace #7 at position 1.500000
$GPZDA,101829.03,08,10,2011,00,00*6D
$GPRMC,101829.00,A,4611.966873,N,01258.211723,E,000.7,13.9,081011,0.2,E,A*0C
$GPGGA,101830.00,4611.968074,N,01258.211725,E,1,05,4.0,127.94,M,46.25,M,,*60
$GPGLL,4611.968074,N,01258.211725,E,101830.00,A,A*68
$GPVTG,138.6,T,138.8,M,001.2,N,002.3,K,A*2F
$GPGSV,2,1,07,21,24,186,26,02,22,046,40,12,27,109,36,25,61,103,41*7B
$GPGSV,2,2,07,29,84,324,41,30,69,307,41,31,51,286,41,,,,*4B
$GPGSA,M,3,02,25,29,30,31,,,,,,,,6.3,4.0,4.9*3D
Trace #8 at position 1.750000
$GPZDA,101829.03,08,10,2011,00,00*6D
$GPRMC,101829.00,A,4611.966873,N,01258.211723,E,000.7,13.9,081011,0.2,E,A*0C
$GPGGA,101830.00,4611.968074,N,01258.211725,E,1,05,4.0,127.94,M,46.25,M,,*60
$GPGLL,4611.968074,N,01258.211725,E,101830.00,A,A*68
$GPVTG,138.6,T,138.8,M,001.2,N,002.3,K,A*2F
$GPGSV,2,1,07,21,24,186,26,02,22,046,40,12,27,109,36,25,61,103,41*7B
$GPGSV,2,2,07,29,84,324,41,30,69,307,41,31,51,286,41,,,,*4B
$GPGSA,M,3,02,25,29,30,31,,,,,,,,6.3,4.0,4.9*3D
Trace #9 at position 2.000000
$GPZDA,101830.03,08,10,2011,00,00*65
$GPRMC,101830.00,A,4611.968074,N,01258.211725,E,001.2,138.6,081011,0.2,E,A*30
$GPGGA,101831.00,4611.968774,N,01258.211846,E,1,05,4.0,129.00,M,46.25,M,,*6F
$GPGLL,4611.968774,N,01258.211846,E,101831.00,A,A*64
$GPVTG,123.2,T,123.4,M,000.7,N,001.2,K,A*21
$GPGSV,2,1,07,21,24,186,29,02,22,046,40,12,27,109,32,25,61,103,41*70
$GPGSV,2,2,07,29,84,324,41,30,69,307,41,31,51,286,41,,,,*4B
$GPGSA,M,3,02,25,29,30,31,,,,,,,,6.3,4.0,4.9*3D
Trace #10 at position 2.250000
$GPZDA,101830.03,08,10,2011,00,00*65
$GPRMC,101830.00,A,4611.968074,N,01258.211725,E,001.2,138.6,081011,0.2,E,A*30
$GPGGA,101831.00,4611.968774,N,01258.211846,E,1,05,4.0,129.00,M,46.25,M,,*6F
$GPGLL,4611.968774,N,01258.211846,E,101831.00,A,A*64
$GPVTG,123.2,T,123.4,M,000.7,N,001.2,K,A*21
$GPGSV,2,1,07,21,24,186,29,02,22,046,40,12,27,109,32,25,61,103,41*70
$GPGSV,2,2,07,29,84,324,41,30,69,307,41,31,51,286,41,,,,*4B
$GPGSA,M,3,02,25,29,30,31,,,,,,,,6.3,4.0,4.9*3D
Trace #11 at position 2.500000
$GPZDA,101830.03,08,10,2011,00,00*65
$GPRMC,101830.00,A,4611.968074,N,01258.211725,E,001.2,138.6,081011,0.2,E,A*30
$GPGGA,101831.00,4611.968774,N,01258.211846,E,1,05,4.0,129.00,M,46.25,M,,*6F
$GPGLL,4611.968774,N,01258.211846,E,101831.00,A,A*64
$GPVTG,123.2,T,123.4,M,000.7,N,001.2,K,A*21
$GPGSV,2,1,07,21,24,186,29,02,22,046,40,12,27,109,32,25,61,103,41*70
$GPGSV,2,2,07,29,84,324,41,30,69,307,41,31,51,286,41,,,,*4B
$GPGSA,M,3,02,25,29,30,31,,,,,,,,6.3,4.0,4.9*3D
Trace #12 at position 2.750000
$GPZDA,101831.03,08,10,2011,00,00*64
$GPRMC,101831.00,A,4611.968774,N,01258.211846,E,000.7,123.2,081011,0.2,E,A*36
$GPGGA,101832.00,4611.969253,N,01258.211862,E,1,05,4.0,129.90,M,46.25,M,,*62
$GPGLL,4611.969253,N,01258.211862,E,101832.00,A,A*60
$GPVTG,173.3,T,173.5,M,001.7,N,003.2,K,A*22
$GPGSV,2,1,07,21,24,186,30,02,22,046,41,12,27,109,,25,61,103,40*79
$GPGSV,2,2,07,29,84,324,42,30,69,307,41,31,51,286,41,,,,*48
$GPGSA,M,3,02,25,29,30,31,,,,,,,,6.3,4.0,4.9*3D
Trace #13 at position 3.000000
$GPZDA,101831.03,08,10,2011,00,00*64
$GPRMC,101831.00,A,4611.968774,N,01258.211846,E,000.7,123.2,081011,0.2,E,A*36
$GPGGA,101832.00,4611.969253,N,01258.211862,E,1,05,4.0,129.90,M,46.25,M,,*62
$GPGLL,4611.969253,N,01258.211862,E,101832.00,A,A*60
$GPVTG,173.3,T,173.5,M,001.7,N,003.2,K,A*22
$GPGSV,2,1,07,21,24,186,30,02,22,046,41,12,27,109,,25,61,103,40*79
$GPGSV,2,2,07,29,84,324,42,30,69,307,41,31,51,286,41,,,,*48
$GPGSA,M,3,02,25,29,30,31,,,,,,,,6.3,4.0,4.9*3D
Trace #14 at position 3.250000
$GPZDA,101831.03,08,10,2011,00,00*64
$GPRMC,101831.00,A,4611.968774,N,01258.211846,E,000.7,123.2,081011,0.2,E,A*36
$GPGGA,101832.00,4611.969253,N,01258.211862,E,1,05,4.0,129.90,M,46.25,M,,*62
$GPGLL,4611.969253,N,01258.211862,E,101832.00,A,A*60
$GPVTG,173.3,T,173.5,M,001.7,N,003.2,K,A*22
$GPGSV,2,1,07,21,24,186,30,02,22,046,41,12,27,109,,25,61,103,40*79
$GPGSV,2,2,07,29,84,324,42,30,69,307,41,31,51,286,41,,,,*48
$GPGSA,M,3,02,25,29,30,31,,,,,,,,6.3,4.0,4.9*3D
Trace #15 at position 3.500000
$GPZDA,101832.03,08,10,2011,00,00*67
$GPRMC,101832.00,A,4611.969253,N,01258.211862,E,001.7,173.3,081011,0.2,E,A*37
$GPGGA,101833.00,4611.969450,N,01258.211818,E,1,05,4.0,130.37,M,46.25,M,,*6E
$GPGLL,4611.969450,N,01258.211818,E,101833.00,A,A*69
$GPVTG,176.1,T,176.2,M,001.8,N,003.4,K,A*2E
$GPGSV,2,1,07,21,24,186,31,02,22,046,41,12,27,109,34,25,61,103,41*7E
$GPGSV,2,2,07,29,84,324,41,30,69,307,42,31,51,286,41,,,,*48
$GPGSA,M,3,02,25,29,30,31,,,,,,,,6.3,4.0,4.9*3D
Trace #16 at position 3.750000
$GPZDA,101832.03,08,10,2011,00,00*67
$GPRMC,101832.00,A,4611.969253,N,01258.211862,E,001.7,173.3,081011,0.2,E,A*37
$GPGGA,101833.00,4611.969450,N,01258.211818,E,1,05,4.0,130.37,M,46.25,M,,*6E
$GPGLL,4611.969450,N,01258.211818,E,101833.00,A,A*69
$GPVTG,176.1,T,176.2,M,001.8,N,003.4,K,A*2E
$GPGSV,2,1,07,21,24,186,31,02,22,046,41,12,27,109,34,25,61,103,41*7E
$GPGSV,2,2,07,29,84,324,41,30,69,307,42,31,51,286,41,,,,*48
$GPGSA,M,3,02,25,29,30,31,,,,,,,,6.3,4.0,4.9*3D
Trace #17 at position 4.000000
$GPZDA,101832.03,08,10,2011,00,00*67
$GPRMC,101832.00,A,4611.969253,N,01258.211862,E,001.7,173.3,081011,0.2,E,A*37
$GPGGA,101833.00,4611.969450,N,01258.211818,E,1,05,4.0,130.37,M,46.25,M,,*6E
$GPGLL,4611.969450,N,01258.211818,E,101833.00,A,A*69
$GPVTG,176.1,T,176.2,M,001.8,N,003.4,K,A*2E
$GPGSV,2,1,07,21,24,186,31,02,22,046,41,12,27,109,34,25,61,103,41*7E
$GPGSV,2,2,07,29,84,324,41,30,69,307,42,31,51,286,41,,,,*48
$GPGSA,M,3,02,25,29,30,31,,,,,,,,6.3,4.0,4.9*3D
Trace #18 at position 4.250000
$GPZDA,101832.03,08,10,2011,00,00*67
$GPRMC,101832.00,A,4611.969253,N,01258.211862,E,001.7,173.3,081011,0.2,E,A*37
$GPGGA,101833.00,4611.969450,N,01258.211818,E,1,05,4.0,130.37,M,46.25,M,,*6E
$GPGLL,4611.969450,N,01258.211818,E,101833.00,A,A*69
$GPVTG,176.1,T,176.2,M,001.8,N,003.4,K,A*2E
$GPGSV,2,1,07,21,24,186,31,02,22,046,41,12,27,109,34,25,61,103,41*7E
$GPGSV,2,2,07,29,84,324,41,30,69,307,42,31,51,286,41,,,,*48
$GPGSA,M,3,02,25,29,30,31,,,,,,,,6.3,4.0,4.9*3D
Trace #19 at position 4.500000
$GPZDA,101833.03,08,10,2011,00,00*66
$GPRMC,101833.00,A,4611.969450,N,01258.211818,E,001.8,176.1,081011,0.2,E,A*36
$GPGGA,101834.00,4611.969752,N,01258.211713,E,1,05,4.0,130.93,M,46.25,M,,*62
$GPGLL,4611.969752,N,01258.211713,E,101834.00,A,A*6B
$GPVTG,187.5,T,187.7,M,001.3,N,002.4,K,A*25
$GPGSV,2,1,07,21,24,186,30,02,22,046,39,12,27,109,33,25,61,103,41*77
$GPGSV,2,2,07,29,84,324,41,30,69,307,41,31,51,286,40,,,,*4A
$GPGSA,M,3,02,25,29,30,31,,,,,,,,6.3,4.0,4.9*3D
Trace #20 at position 4.750000
$GPZDA,101833.03,08,10,2011,00,00*66
$GPRMC,101833.00,A,4611.969450,N,01258.211818,E,001.8,176.1,081011,0.2,E,A*36
$GPGGA,101834.00,4611.969752,N,01258.211713,E,1,05,4.0,130.93,M,46.25,M,,*62
$GPGLL,4611.969752,N,01258.211713,E,101834.00,A,A*6B
$GPVTG,187.5,T,187.7,M,001.3,N,002.4,K,A*25
$GPGSV,2,1,07,21,24,186,30,02,22,046,39,12,27,109,33,25,61,103,41*77
$GPGSV,2,2,07,29,84,324,41,30,69,307,41,31,51,286,40,,,,*4A
$GPGSA,M,3,02,25,29,30,31,,,,,,,,6.3,4.0,4.9*3D
Trace #21 at position 5.000000
$GPZDA,101833.03,08,10,2011,00,00*66
$GPRMC,101833.00,A,4611.969450,N,01258.211818,E,001.8,176.1,081011,0.2,E,A*36
$GPGGA,101834.00,4611.969752,N,01258.211713,E,1,05,4.0,130.93,M,46.25,M,,*62
$GPGLL,4611.969752,N,01258.211713,E,101834.00,A,A*6B
$GPVTG,187.5,T,187.7,M,001.3,N,002.4,K,A*25
$GPGSV,2,1,07,21,24,186,30,02,22,046,39,12,27,109,33,25,61,103,41*77
$GPGSV,2,2,07,29,84,324,41,30,69,307,41,31,51,286,40,,,,*4A
$GPGSA,M,3,02,25,29,30,31,,,,,,,,6.3,4.0,4.9*3D
Trace #22 at position 5.250000
$GPZDA,101834.03,08,10,2011,00,00*61
$GPRMC,101834.00,A,4611.969752,N,01258.211713,E,001.3,187.5,081011,0.2,E,A*35
$GPGGA,101835.00,4611.969959,N,01258.211687,E,1,05,4.0,131.52,M,46.25,M,,*66
$GPGLL,4611.969959,N,01258.211687,E,101835.00,A,A*63
$GPVTG,168.7,T,168.9,M,001.8,N,003.3,K,A*24
$GPGSV,2,1,07,21,24,186,31,02,22,046,39,12,27,109,31,25,61,103,39*7B
$GPGSV,2,2,07,29,84,324,41,30,69,307,41,31,51,286,41,,,,*4B
$GPGSA,M,3,02,25,29,30,31,,,,,,,,6.3,4.0,4.9*3D
Trace #23 at position 5.500000
$GPZDA,101834.03,08,10,2011,00,00*61
$GPRMC,101834.00,A,4611.969752,N,01258.211713,E,001.3,187.5,081011,0.2,E,A*35
$GPGGA,101835.00,4611.969959,N,01258.211687,E,1,05,4.0,131.52,M,46.25,M,,*66
$GPGLL,4611.969959,N,01258.211687,E,101835.00,A,A*63
$GPVTG,168.7,T,168.9,M,001.8,N,003.3,K,A*24
$GPGSV,2,1,07,21,24,186,31,02,22,046,39,12,27,109,31,25,61,103,39*7B
$GPGSV,2,2,07,29,84,324,41,30,69,307,41,31,51,286,41,,,,*4B
$GPGSA,M,3,02,25,29,30,31,,,,,,,,6.3,4.0,4.9*3D
Trace #24 at position 5.750000
$GPZDA,101834.03,08,10,2011,00,00*61
$GPRMC,101834.00,A,4611.969752,N,01258.211713,E,001.3,187.5,081011,0.2,E,A*35
$GPGGA,101835.00,4611.969959,N,01258.211687,E,1,05,4.0,131.52,M,46.25,M,,*66
$GPGLL,4611.969959,N,01258.211687,E,101835.00,A,A*63
$GPVTG,168.7,T,168.9,M,001.8,N,003.3,K,A*24
$GPGSV,2,1,07,21,24,186,31,02,22,046,39,12,27,109,31,25,61,103,39*7B
$GPGSV,2,2,07,29,84,324,41,30,69,307,41,31,51,286,41,,,,*4B
$GPGSA,M,3,02,25,29,30,31,,,,,,,,6.3,4.0,4.9*3D
Trace #25 at position 6.000000
$GPZDA,101835.03,08,10,2011,00,00*60
$GPRMC,101835.00,A,4611.969959,N,01258.211687,E,001.8,168.7,081011,0.2,E,A*35
$GPGGA,101836.00,4611.970103,N,01258.211806,E,1,05,4.0,132.06,M,46.25,M,,*6F
$GPGLL,4611.970103,N,01258.211806,E,101836.00,A,A*68
$GPVTG,154.5,T,154.7,M,001.2,N,002.2,K,A*22
$GPGSV,2,1,07,21,24,186,32,02,22,046,39,12,27,109,34,25,61,103,42*71
$GPGSV,2,2,07,29,84,324,42,30,69,307,40,31,51,286,41,,,,*49
$GPGSA,M,3,02,25,29,30,31,,,,,,,,6.3,4.0,4.9*3D
Trace #26 at position 6.250000
$GPZDA,101835.03,08,10,2011,00,00*60
$GPRMC,101835.00,A,4611.969959,N,01258.211687,E,001.8,168.7,081011,0.2,E,A*35
$GPGGA,101836.00,4611.970103,N,01258.211806,E,1,05,4.0,132.06,M,46.25,M,,*6F
$GPGLL,4611.970103,N,01258.211806,E,101836.00,A,A*68
$GPVTG,154.5,T,154.7,M,001.2,N,002.2,K,A*22
$GPGSV,2,1,07,21,24,186,32,02,22,046,39,12,27,109,34,25,61,103,42*71
$GPGSV,2,2,07,29,84,324,42,30,69,307,40,31,51,286,41,,,,*49
$GPGSA,M,3,02,25,29,30,31,,,,,,,,6.3,4.0,4.9*3D
Trace #27 at position 6.500000
$GPZDA,101835.03,08,10,2011,00,00*60
$GPRMC,101835.00,A,4611.969959,N,01258.211687,E,001.8,168.7,081011,0.2,E,A*35
$GPGGA,101836.00,4611.970103,N,01258.211806,E,1,05,4.0,132.06,M,46.25,M,,*6F
$GPGLL,4611.970103,N,01258.211806,E,101836.00,A,A*68
$GPVTG,154.5,T,154.7,M,001.2,N,002.2,K,A*22
$GPGSV,2,1,07,21,24,186,32,02,22,046,39,12,27,109,34,25,61,103,42*71
$GPGSV,2,2,07,29,84,324,42,30,69,307,40,31,51,286,41,,,,*49
$GPGSA,M,3,02,25,29,30,31,,,,,,,,6.3,4.0,4.9*3D
Trace #28 at position 6.750000
$GPZDA,101835.03,08,10,2011,00,00*60
$GPRMC,101835.00,A,4611.969959,N,01258.211687,E,001.8,168.7,081011,0.2,E,A*35
$GPGGA,101836.00,4611.970103,N,01258.211806,E,1,05,4.0,132.06,M,46.25,M,,*6F
$GPGLL,4611.970103,N,01258.211806,E,101836.00,A,A*68
$GPVTG,154.5,T,154.7,M,001.2,N,002.2,K,A*22
$GPGSV,2,1,07,21,24,186,32,02,22,046,39,12,27,109,34,25,61,103,42*71
$GPGSV,2,2,07,29,84,324,42,30,69,307,40,31,51,286,41,,,,*49
$GPGSA,M,3,02,25,29,30,31,,,,,,,,6.3,4.0,4.9*3D
Trace #29 at position 7.000000
$GPZDA,101836.03,08,10,2011,00,00*63
$GPRMC,101836.00,A,4611.970103,N,01258.211806,E,001.2,154.5,081011,0.2,E,A*39
$GPGGA,101837.00,4611.970134,N,01258.211804,E,1,05,4.0,132.48,M,46.25,M,,*62
$GPGLL,4611.970134,N,01258.211804,E,101837.00,A,A*6F
$GPVTG,190.8,T,190.9,M,002.1,N,003.8,K,A*2A
$GPGSV,2,1,07,21,24,186,30,02,22,046,39,12,27,109,35,25,61,103,41*71
$GPGSV,2,2,07,29,84,324,40,30,69,307,40,31,51,286,42,,,,*48
$GPGSA,M,3,02,25,29,30,31,,,,,,,,6.3,4.0,4.9*3D
Trace #30 at position 7.250000
$GPZDA,101836.03,08,10,2011,00,00*63
$GPRMC,101836.00,A,4611.970103,N,01258.211806,E,001.2,154.5,081011,0.2,E,A*39
$GPGGA,101837.00,4611.970134,N,01258.211804,E,1,05,4.0,132.48,M,46.25,M,,*62
$GPGLL,4611.970134,N,01258.211804,E,101837.00,A,A*6F
$GPVTG,190.8,T,190.9,M,002.1,N,003.8,K,A*2A
$GPGSV,2,1,07,21,24,186,30,02,22,046,39,12,27,109,35,25,61,103,41*71
$GPGSV,2,2,07,29,84,324,40,30,69,307,40,31,51,286,42,,,,*48
$GPGSA,M,3,02,25,29,30,31,,,,,,,,6.3,4.0,4.9*3D
Trace #31 at position 7.500000
$GPZDA,101836.03,08,10,2011,00,00*63
$GPRMC,101836.00,A,4611.970103,N,01258.211806,E,001.2,154.5,081011,0.2,E,A*39
$GPGGA,101837.00,4611.970134,N,01258.211804,E,1,05,4.0,132.48,M,46.25,M,,*62
$GPGLL,4611.970134,N,01258.211804,E,101837.00,A,A*6F
$GPVTG,190.8,T,190.9,M,002.1,N,003.8,K,A*2A
$GPGSV,2,1,07,21,24,186,30,02,22,046,39,12,27,109,35,25,61,103,41*71
$GPGSV,2,2,07,29,84,324,40,30,69,307,40,31,51,286,42,,,,*48
$GPGSA,M,3,02,25,29,30,31,,,,,,,,6.3,4.0,4.9*3D
Trace #32 at position 7.750000
$GPZDA,101837.03,08,10,2011,00,00*62
$GPRMC,101837.00,A,4611.970134,N,01258.211804,E,002.1,190.8,081011,0.2,E,A*3B
$GPGGA,101838.00,4611.970015,N,01258.211844,E,1,05,4.0,132.80,M,46.25,M,,*6F
$GPGLL,4611.970015,N,01258.211844,E,101838.00,A,A*66
$GPVTG,161.5,T,161.7,M,001.9,N,003.5,K,A*2F
$GPGSV,2,1,07,21,24,186,31,02,22,046,39,12,27,109,33,25,61,103,39*79
$GPGSV,2,2,07,29,84,324,41,30,69,307,40,31,51,286,41,,,,*4A
$GPGSA,M,3,02,25,29,30,31,,,,,,,,6.3,4.0,4.9*3D
Trace #33 at position 8.000000
$GPZDA,101837.03,08,10,2011,00,00*62
$GPRMC,101837.00,A,4611.970134,N,01258.211804,E,002.1,190.8,081011,0.2,E,A*3B
$GPGGA,101838.00,4611.970015,N,01258.211844,E,1,05,4.0,132.80,M,46.25,M,,*6F
$GPGLL,4611.970015,N,01258.211844,E,101838.00,A,A*66
$GPVTG,161.5,T,161.7,M,001.9,N,003.5,K,A*2F
$GPGSV,2,1,07,21,24,186,31,02,22,046,39,12,27,109,33,25,61,103,39*79
$GPGSV,2,2,07,29,84,324,41,30,69,307,40,31,51,286,41,,,,*4A
$GPGSA,M,3,02,25,29,30,31,,,,,,,,6.3,4.0,4.9*3D
Trace #34 at position 8.250000
$GPZDA,101837.03,08,10,2011,00,00*62
$GPRMC,101837.00,A,4611.970134,N,01258.211804,E,002.1,190.8,081011,0.2,E,A*3B
$GPGGA,101838.00,4611.970015,N,01258.211844,E,1,05,4.0,132.80,M,46.25,M,,*6F
$GPGLL,4611.970015,N,01258.211844,E,101838.00,A,A*66
$GPVTG,161.5,T,161.7,M,001.9,N,003.5,K,A*2F
$GPGSV,2,1,07,21,24,186,31,02,22,046,39,12,27,109,33,25,61,103,39*79
$GPGSV,2,2,07,29,84,324,41,30,69,307,40,31,51,286,41,,,,*4A
$GPGSA,M,3,02,25,29,30,31,,,,,,,,6.3,4.0,4.9*3D
Trace #35 at position 8.500000
$GPZDA,101838.03,08,10,2011,00,00*6D
$GPRMC,101838.00,A,4611.970015,N,01258.211844,E,001.9,161.5,081011,0.2,E,A*3A
$GPGGA,101839.00,4611.969834,N,01258.212002,E,1,05,4.0,133.04,M,46.25,M,,*69
$GPGLL,4611.969834,N,01258.212002,E,101839.00,A,A*6D
$GPVTG,174.3,T,174.5,M,002.2,N,004.0,K,A*21
$GPGSV,2,1,07,21,24,186,28,02,22,046,40,12,27,109,33,25,61,103,41*70
$GPGSV,2,2,07,29,84,324,41,30,69,307,40,31,51,286,41,,,,*4A
$GPGSA,M,3,02,25,29,30,31,,,,,,,,6.3,4.0,4.9*3D
Trace #36 at position 8.750000
$GPZDA,101838.03,08,10,2011,00,00*6D
$GPRMC,101838.00,A,4611.970015,N,01258.211844,E,001.9,161.5,081011,0.2,E,A*3A
$GPGGA,101839.00,4611.969834,N,01258.212002,E,1,05,4.0,133.04,M,46.25,M,,*69
$GPGLL,4611.969834,N,01258.212002,E,101839.00,A,A*6D
$GPVTG,174.3,T,174.5,M,002.2,N,004.0,K,A*21
$GPGSV,2,1,07,21,24,186,28,02,22,046,40,12,27,109,33,25,61,103,41*70
$GPGSV,2,2,07,29,84,324,41,30,69,307,40,31,51,286,41,,,,*4A
$GPGSA,M,3,02,25,29,30,31,,,,,,,,6.3,4.0,4.9*3D
Trace #37 at position 9.000000
$GPZDA,101838.03,08,10,2011,00,00*6D
$GPRMC,101838.00,A,4611.970015,N,01258.211844,E,001.9,161.5,081011,0.2,E,A*3A
$GPGGA,101839.00,4611.969834,N,01258.212002,E,1,05,4.0,133.04,M,46.25,M,,*69
$GPGLL,4611.969834,N,01258.212002,E,101839.00,A,A*6D
$GPVTG,174.3,T,174.5,M,002.2,N,004.0,K,A*21
$GPGSV,2,1,07,21,24,186,28,02,22,046,40,12,27,109,33,25,61,103,41*70
$GPGSV,2,2,07,29,84,324,41,30,69,307,40,31,51,286,41,,,,*4A
$GPGSA,M,3,02,25,29,30,31,,,,,,,,6.3,4.0,4.9*3D
Trace #38 at position 9.250000
$GPZDA,101839.03,08,10,2011,00,00*6C
$GPRMC,101839.00,A,4611.969834,N,01258.212002,E,002.2,174.3,081011,0.2,E,A*3B
$GPGGA,101840.00,4611.969697,N,01258.212193,E,1,05,4.0,133.27,M,46.25,M,,*68
$GPGLL,4611.969697,N,01258.212193,E,101840.00,A,A*6D
$GPVTG,148.6,T,148.8,M,001.4,N,002.7,K,A*2D
$GPGSV,2,1,07,21,24,186,28,02,22,046,39,12,27,109,34,25,61,103,40*78
$GPGSV,2,2,07,29,84,324,40,30,69,307,39,31,51,286,41,,,,*45
$GPGSA,M,3,02,25,29,30,31,,,,,,,,6.3,4.0,4.9*3D
Trace #39 at position 9.500000
$GPZDA,101839.03,08,10,2011,00,00*6C
$GPRMC,101839.00,A,4611.969834,N,01258.212002,E,002.2,174.3,081011,0.2,E,A*3B
$GPGGA,101840.00,4611.969697,N,01258.212193,E,1,05,4.0,133.27,M,46.25,M,,*68
$GPGLL,4611.969697,N,01258.212193,E,101840.00,A,A*6D
$GPVTG,148.6,T,148.8,M,001.4,N,002.7,K,A*2D
$GPGSV,2,1,07,21,24,186,28,02,22,046,39,12,27,109,34,25,61,103,40*78
$GPGSV,2,2,07,29,84,324,40,30,69,307,39,31,51,286,41,,,,*45
$GPGSA,M,3,02,25,29,30,31,,,,,,,,6.3,4.0,4.9*3D
Trace #40 at position 9.750000
$GPZDA,101839.03,08,10,2011,00,00*6C
$GPRMC,101839.00,A,4611.969834,N,01258.212002,E,002.2,174.3,081011,0.2,E,A*3B
$GPGGA,101840.00,4611.969697,N,01258.212193,E,1,05,4.0,133.27,M,46.25,M,,*68
$GPGLL,4611.969697,N,01258.212193,E,101840.00,A,A*6D
$GPVTG,148.6,T,148.8,M,001.4,N,002.7,K,A*2D
$GPGSV,2,1,07,21,24,186,28,02,22,046,39,12,27,109,34,25,61,103,40*78
$GPGSV,2,2,07,29,84,324,40,30,69,307,39,31,51,286,41,,,,*45
$GPGSA,M,3,02,25,29,30,31,,,,,,,,6.3,4.0,4.9*3D
Trace #41 at position 10.000000
$GPZDA,101840.03,08,10,2011,00,00*62
$GPRMC,101840.00,A,4611.969697,N,01258.212193,E,001.4,148.6,081011,0.2,E,A*34
$GPGGA,101841.00,4611.969566,N,01258.212445,E,1,05,4.0,133.51,M,46.25,M,,*6B
$GPGLL,4611.969566,N,01258.212445,E,101841.00,A,A*6F
$GPVTG,163.3,T,163.5,M,001.9,N,003.5,K,A*2B
$GPGSV,2,1,07,21,24,186,30,02,22,046,41,12,27,109,35,25,61,103,40*7F
$GPGSV,2,2,07,29,84,324,41,30,69,307,41,31,51,286,40,,,,*4A
$GPGSA,M,3,02,25,29,30,31,,,,,,,,6.3,4.0,4.9*3D
Trace #42 at position 10.250000
$GPZDA,101840.03,08,10,2011,00,00*62
$GPRMC,101840.00,A,4611.969697,N,01258.212193,E,001.4,148.6,081011,0.2,E,A*34
$GPGGA,101841.00,4611.969566,N,01258.212445,E,1,05,4.0,133.51,M,46.25,M,,*6B
$GPGLL,4611.969566,N,01258.212445,E,101841.00,A,A*6F
$GPVTG,163.3,T,163.5,M,001.9,N,003.5,K,A*2B
$GPGSV,2,1,07,21,24,186,30,02,22,046,41,12,27,109,35,25,61,103,40*7F
$GPGSV,2,2,07,29,84,324,41,30,69,307,41,31,51,286,40,,,,*4A
$GPGSA,M,3,02,25,29,30,31,,,,,,,,6.3,4.0,4.9*3D
Trace #43 at position 10.500000
$GPZDA,101840.03,08,10,2011,00,00*62
$GPRMC,101840.00,A,4611.969697,N,01258.212193,E,001.4,148.6,081011,0.2,E,A*34
$GPGGA,101841.00,4611.969566,N,01258.212445,E,1,05,4.0,133.51,M,46.25,M,,*6B
$GPGLL,4611.969566,N,01258.212445,E,101841.00,A,A*6F
$GPVTG,163.3,T,163.5,M,001.9,N,003.5,K,A*2B
$GPGSV,2,1,07,21,24,186,30,02,22,046,41,12,27,109,35,25,61,103,40*7F
$GPGSV,2,2,07,29,84,324,41,30,69,307,41,31,51,286,40,,,,*4A
$GPGSA,M,3,02,25,29,30,31,,,,,,,,6.3,4.0,4.9*3D
Trace #44 at position 10.750000
$GPZDA,101840.03,08,10,2011,00,00*62
$GPRMC,101840.00,A,4611.969697,N,01258.212193,E,001.4,148.6,081011,0.2,E,A*34
$GPGGA,101841.00,4611.969566,N,01258.212445,E,1,05,4.0,133.51,M,46.25,M,,*6B
$GPGLL,4611.969566,N,01258.212445,E,101841.00,A,A*6F
$GPVTG,163.3,T,163.5,M,001.9,N,003.5,K,A*2B
$GPGSV,2,1,07,21,24,186,30,02,22,046,41,12,27,109,35,25,61,103,40*7F
$GPGSV,2,2,07,29,84,324,41,30,69,307,41,31,51,286,40,,,,*4A
$GPGSA,M,3,02,25,29,30,31,,,,,,,,6.3,4.0,4.9*3D
Trace #45 at position 11.000000
$GPZDA,101841.03,08,10,2011,00,00*63
$GPRMC,101841.00,A,4611.969566,N,01258.212445,E,001.9,163.3,081011,0.2,E,A*37
$GPGGA,101842.00,4611.969378,N,01258.212680,E,1,05,4.0,133.77,M,46.25,M,,*6E
$GPGLL,4611.969378,N,01258.212680,E,101842.00,A,A*6E
$GPVTG,153.9,T,154.1,M,001.6,N,002.9,K,A*20
$GPGSV,2,1,07,21,24,186,,02,22,046,40,12,27,109,31,25,61,103,41*78
$GPGSV,2,2,07,29,84,324,41,30,69,307,41,31,51,286,40,,,,*4A
$GPGSA,M,3,02,25,29,30,31,,,,,,,,6.3,4.0,4.9*3D
Trace #46 at position 11.250000
$GPZDA,101841.03,08,10,2011,00,00*63
$GPRMC,101841.00,A,4611.969566,N,01258.212445,E,001.9,163.3,081011,0.2,E,A*37
$GPGGA,101842.00,4611.969378,N,01258.212680,E,1,05,4.0,133.77,M,46.25,M,,*6E
$GPGLL,4611.969378,N,01258.212680,E,101842.00,A,A*6E
$GPVTG,153.9,T,154.1,M,001.6,N,002.9,K,A*20
$GPGSV,2,1,07,21,24,186,,02,22,046,40,12,27,109,31,25,61,103,41*78
$GPGSV,2,2,07,29,84,324,41,30,69,307,41,31,51,286,40,,,,*4A
$GPGSA,M,3,02,25,29,30,31,,,,,,,,6.3,4.0,4.9*3D
Trace #47 at position 11.500000
$GPZDA,101841.03,08,10,2011,00,00*63
$GPRMC,101841.00,A,4611.969566,N,01258.212445,E,001.9,163.3,081011,0.2,E,A*37
$GPGGA,101842.00,4611.969378,N,01258.212680,E,1,05,4.0,133.77,M,46.25,M,,*6E
$GPGLL,4611.969378,N,01258.212680,E,101842.00,A,A*6E
$GPVTG,153.9,T,154.1,M,001.6,N,002.9,K,A*20
$GPGSV,2,1,07,21,24,186,,02,22,046,40,12,27,109,31,25,61,103,41*78
$GPGSV,2,2,07,29,84,324,41,30,69,307,41,31,51,286,40,,,,*4A
$GPGSA,M,3,02,25,29,30,31,,,,,,,,6.3,4.0,4.9*3D
Trace #48 at position 11.750000
$GPZDA,101842.03,08,10,2011,00,00*60
$GPRMC,101842.00,A,4611.969378,N,01258.212680,E,001.6,153.9,081011,0.2,E,A*30
$GPGGA,101843.00,4611.969125,N,01258.212884,E,1,05,4.0,133.94,M,46.25,M,,*62
$GPGLL,4611.969125,N,01258.212884,E,101843.00,A,A*6F
$GPVTG,168.4,T,168.5,M,002.0,N,003.8,K,A*2B
$GPGSV,2,1,07,21,24,186,30,02,22,046,40,12,27,109,32,25,61,103,39*77
$GPGSV,2,2,07,29,84,324,41,30,69,307,41,31,51,286,40,,,,*4A
$GPGSA,M,3,02,25,29,30,31,,,,,,,,6.3,4.0,4.9*3D
Trace #49 at position 12.000000
$GPZDA,101842.03,08,10,2011,00,00*60
$GPRMC,101842.00,A,4611.969378,N,01258.212680,E,001.6,153.9,081011,0.2,E,A*30
$GPGGA,101843.00,4611.969125,N,01258.212884,E,1,05,4.0,133.94,M,46.25,M,,*62
$GPGLL,4611.969125,N,01258.212884,E,101843.00,A,A*6F
$GPVTG,168.4,T,168.5,M,002.0,N,003.8,K,A*2B
$GPGSV,2,1,07,21,24,186,30,02,22,046,40,12,27,109,32,25,61,103,39*77
$GPGSV,2,2,07,29,84,324,41,30,69,307,41,31,51,286,40,,,,*4A
$GPGSA,M,3,02,25,29,30,31,,,,,,,,6.3,4.0,4.9*3D
Trace #50 at position 12.250000
$GPZDA,101842.03,08,10,2011,00,00*60
$GPRMC,101842.00,A,4611.969378,N,01258.212680,E,001.6,153.9,081011,0.2,E,A*30
$GPGGA,101843.00,4611.969125,N,01258.212884,E,1,05,4.0,133.94,M,46.25,M,,*62
$GPGLL,4611.969125,N,01258.212884,E,101843.00,A,A*6F
$GPVTG,168.4,T,168.5,M,002.0,N,003.8,K,A*2B
$GPGSV,2,1,07,21,24,186,30,02,22,046,40,12,27,109,32,25,61,103,39*77
$GPGSV,2,2,07,29,84,324,41,30,69,307,41,31,51,286,40,,,,*4A
$GPGSA,M,3,02,25,29,30,31,,,,,,,,6.3,4.0,4.9*3D
Trace #51 at position 12.500000
$GPZDA,101842.03,08,10,2011,00,00*60
$GPRMC,101842.00,A,4611.969378,N,01258.212680,E,001.6,153.9,081011,0.2,E,A*30
$GPGGA,101843.00,4611.969125,N,01258.212884,E,1,05,4.0,133.94,M,46.25,M,,*62
$GPGLL,4611.969125,N,01258.212884,E,101843.00,A,A*6F
$GPVTG,168.4,T,168.5,M,002.0,N,003.8,K,A*2B
$GPGSV,2,1,07,21,24,186,30,02,22,046,40,12,27,109,32,25,61,103,39*77
$GPGSV,2,2,07,29,84,324,41,30,69,307,41,31,51,286,40,,,,*4A
$GPGSA,M,3,02,25,29,30,31,,,,,,,,6.3,4.0,4.9*3D
Trace #52 at position 12.750000
$GPZDA,101843.03,08,10,2011,00,00*61
$GPRMC,101843.00,A,4611.969125,N,01258.212884,E,002.0,168.4,081011,0.2,E,A*31
$GPGGA,101844.00,4611.968834,N,01258.213183,E,1,05,4.0,134.06,M,46.25,M,,*6E
$GPGLL,4611.968834,N,01258.213183,E,101844.00,A,A*6F
$GPVTG,142.5,T,142.7,M,002.0,N,003.6,K,A*26
$GPGSV,2,1,07,21,24,186,31,02,22,046,40,12,27,109,31,25,61,103,40*7B
$GPGSV,2,2,07,29,84,324,42,30,69,307,41,31,51,286,41,,,,*48
$GPGSA,M,3,02,25,29,30,31,,,,,,,,6.3,4.0,4.9*3D
Trace #53 at position 13.000000
$GPZDA,101843.03,08,10,2011,00,00*61
$GPRMC,101843.00,A,4611.969125,N,01258.212884,E,002.0,168.4,081011,0.2,E,A*31
$GPGGA,101844.00,4611.968834,N,01258.213183,E,1,05,4.0,134.06,M,46.25,M,,*6E
$GPGLL,4611.968834,N,01258.213183,E,101844.00,A,A*6F
$GPVTG,142.5,T,142.7,M,002.0,N,003.6,K,A*26
$GPGSV,2,1,07,21,24,186,31,02,22,046,40,12,27,109,31,25,61,103,40*7B
$GPGSV,2,2,07,29,84,324,42,30,69,307,41,31,51,286,41,,,,*48
$GPGSA,M,3,02,25,29,30,31,,,,,,,,6.3,4.0,4.9*3D
Trace #54 at position 13.250000
$GPZDA,101843.03,08,10,2011,00,00*61
$GPRMC,101843.00,A,4611.969125,N,01258.212884,E,002.0,168.4,081011,0.2,E,A*31
$GPGGA,101844.00,4611.968834,N,01258.213183,E,1,05,4.0,134.06,M,46.25,M,,*6E
$GPGLL,4611.968834,N,01258.213183,E,101844.00,A,A*6F
$GPVTG,142.5,T,142.7,M,002.0,N,003.6,K,A*26
$GPGSV,2,1,07,21,24,186,31,02,22,046,40,12,27,109,31,25,61,103,40*7B
$GPGSV,2,2,07,29,84,324,42,30,69,307,41,31,51,286,41,,,,*48
$GPGSA,M,3,02,25,29,30,31,,,,,,,,6.3,4.0,4.9*3D
Trace #55 at position 13.500000
$GPZDA,101844.03,08,10,2011,00,00*66
$GPRMC,101844.00,A,4611.968834,N,01258.213183,E,002.0,142.5,081011,0.2,E,A*38
$GPGGA,101845.00,4611.968544,N,01258.213522,E,1,05,4.0,134.22,M,46.25,M,,*6C
$GPGLL,4611.968544,N,01258.213522,E,101845.00,A,A*6B
$GPVTG,158.2,T,158.3,M,001.9,N,003.5,K,A*2C
$GPGSV,2,1,07,21,24,186,32,02,22,046,40,12,27,109,29,25,61,104,39*78
$GPGSV,2,2,07,29,84,325,41,30,69,307,41,31,51,285,40,,,,*48
$GPGSA,M,3,02,25,29,30,31,,,,,,,,6.3,4.0,4.9*3D
Trace #56 at position 13.750000
$GPZDA,101844.03,08,10,2011,00,00*66
$GPRMC,101844.00,A,4611.968834,N,01258.213183,E,002.0,142.5,081011,0.2,E,A*38
$GPGGA,101845.00,4611.968544,N,01258.213522,E,1,05,4.0,134.22,M,46.25,M,,*6C
$GPGLL,4611.968544,N,01258.213522,E,101845.00,A,A*6B
$GPVTG,158.2,T,158.3,M,001.9,N,003.5,K,A*2C
$GPGSV,2,1,07,21,24,186,32,02,22,046,40,12,27,109,29,25,61,104,39*78
$GPGSV,2,2,07,29,84,325,41,30,69,307,41,31,51,285,40,,,,*48
$GPGSA,M,3,02,25,29,30,31,,,,,,,,6.3,4.0,4.9*3D
Trace #57 at position 14.000000
$GPZDA,101844.03,08,10,2011,00,00*66
$GPRMC,101844.00,A,4611.968834,N,01258.213183,E,002.0,142.5,081011,0.2,E,A*38
$GPGGA,101845.00,4611.968544,N,01258.213522,E,1,05,4.0,134.22,M,46.25,M,,*6C
$GPGLL,4611.968544,N,01258.213522,E,101845.00,A,A*6B
$GPVTG,158.2,T,158.3,M,001.9,N,003.5,K,A*2C
$GPGSV,2,1,07,21,24,186,32,02,22,046,40,12,27,109,29,25,61,104,39*78
$GPGSV,2,2,07,29,84,325,41,30,69,307,41,31,51,285,40,,,,*48
$GPGSA,M,3,02,25,29,30,31,,,,,,,,6.3,4.0,4.9*3D
Trace #58 at position 14.250000
$GPZDA,101844.03,08,10,2011,00,00*66
$GPRMC,101844.00,A,4611.968834,N,01258.213183,E,002.0,142.5,081011,0.2,E,A*38
$GPGGA,101845.00,4611.968544,N,01258.213522,E,1,05,4.0,134.22,M,46.25,M,,*6C
$GPGLL,4611.968544,N,01258.213522,E,101845.00,A,A*6B
$GPVTG,158.2,T,158.3,M,001.9,N,003.5,K,A*2C
$GPGSV,2,1,07,21,24,186,32,02,22,046,40,12,27,109,29,25,61,104,39*78
$GPGSV,2,2,07,29,84,325,41,30,69,307,41,31,51,285,40,,,,*48
$GPGSA,M,3,02,25,29,30,31,,,,,,,,6.3,4.0,4.9*3D
Trace #59 at position 14.500000
$GPZDA,101845.03,08,10,2011,00,00*67
$GPRMC,101845.00,A,4611.968544,N,01258.213522,E,001.9,158.2,081011,0.2,E,A*3A
$GPGGA,101846.00,4611.968245,N,01258.213659,E,1,05,4.0,134.34,M,46.25,M,,*61
$GPGLL,4611.968245,N,01258.213659,E,101846.00,A,A*61
$GPVTG,174.5,T,174.7,M,001.5,N,002.7,K,A*20
$GPGSV,2,1,07,21,24,186,30,02,22,046,41,12,27,109,31,25,61,104,41*7D
$GPGSV,2,2,07,29,84,325,41,30,69,307,40,31,51,285,40,,,,*49
$GPGSA,M,3,02,25,29,30,31,,,,,,,,6.3,4.0,4.9*3D
Trace #60 at position 14.750000
$GPZDA,101845.03,08,10,2011,00,00*67
$GPRMC,101845.00,A,4611.968544,N,01258.213522,E,001.9,158.2,081011,0.2,E,A*3A
$GPGGA,101846.00,4611.968245,N,01258.213659,E,1,05,4.0,134.34,M,46.25,M,,*61
$GPGLL,4611.968245,N,01258.213659,E,101846.00,A,A*61
$GPVTG,174.5,T,174.7,M,001.5,N,002.7,K,A*20
$GPGSV,2,1,07,21,24,186,30,02,22,046,41,12,27,109,31,25,61,104,41*7D
$GPGSV,2,2,07,29,84,325,41,30,69,307,40,31,51,285,40,,,,*49
$GPGSA,M,3,02,25,29,30,31,,,,,,,,6.3,4.0,4.9*3D
Trace #61 at position 15.000000
$GPZDA,101845.03,08,10,2011,00,00*67
$GPRMC,101845.00,A,4611.968544,N,01258.213522,E,001.9,158.2,081011,0.2,E,A*3A
$GPGGA,101846.00,4611.968245,N,01258.213659,E,1,05,4.0,134.34,M,46.25,M,,*61
$GPGLL,4611.968245,N,01258.213659,E,101846.00,A,A*61
$GPVTG,174.5,T,174.7,M,001.5,N,002.7,K,A*20
$GPGSV,2,1,07,21,24,186,30,02,22,046,41,12,27,109,31,25,61,104,41*7D
$GPGSV,2,2,07,29,84,325,41,30,69,307,40,31,51,285,40,,,,*49
$GPGSA,M,3,02,25,29,30,31,,,,,,,,6.3,4.0,4.9*3D
Trace #62 at position 15.250000
$GPZDA,101846.03,08,10,2011,00,00*64
$GPRMC,101846.00,A,4611.968245,N,01258.213659,E,001.5,174.5,081011,0.2,E,A*35
$GPGGA,101847.00,4611.967885,N,01258.213789,E,1,05,4.0,134.33,M,46.25,M,,*62
$GPGLL,4611.967885,N,01258.213789,E,101847.00,A,A*65
$GPVTG,164.0,T,164.1,M,002.2,N,004.1,K,A*27
$GPGSV,2,1,07,21,24,186,31,02,22,046,40,12,27,109,31,25,61,104,38*73
$GPGSV,2,2,07,29,84,325,41,30,69,307,41,31,51,285,41,,,,*49
$GPGSA,M,3,02,25,29,30,31,,,,,,,,6.3,4.0,4.9*3D
Trace #63 at position 15.500000
$GPZDA,101846.03,08,10,2011,00,00*64
$GPRMC,101846.00,A,4611.968245,N,01258.213659,E,001.5,174.5,081011,0.2,E,A*35
$GPGGA,101847.00,4611.967885,N,01258.213789,E,1,05,4.0,134.33,M,46.25,M,,*62
$GPGLL,4611.967885,N,01258.213789,E,101847.00,A,A*65
$GPVTG,164.0,T,164.1,M,002.2,N,004.1,K,A*27
$GPGSV,2,1,07,21,24,186,31,02,22,046,40,12,27,109,31,25,61,104,38*73
$GPGSV,2,2,07,29,84,325,41,30,69,307,41,31,51,285,41,,,,*49
$GPGSA,M,3,02,25,29,30,31,,,,,,,,6.3,4.0,4.9*3D
Trace #64 at position 15.750000
$GPZDA,101846.03,08,10,2011,00,00*64
$GPRMC,101846.00,A,4611.968245,N,01258.213659,E,001.5,174.5,081011,0.2,E,A*35
$GPGGA,101847.00,4611.967885,N,01258.213789,E,1,05,4.0,134.33,M,46.25,M,,*62
$GPGLL,4611.967885,N,01258.213789,E,101847.00,A,A*65
$GPVTG,164.0,T,164.1,M,002.2,N,004.1,K,A*27
$GPGSV,2,1,07,21,24,186,31,02,22,046,40,12,27,109,31,25,61,104,38*73
$GPGSV,2,2,07,29,84,325,41,30,69,307,41,31,51,285,41,,,,*49
$GPGSA,M,3,02,25,29,30,31,,,,,,,,6.3,4.0,4.9*3D
Trace #65 at position 16.000000
$GPZDA,101847.03,08,10,2011,00,00*65
$GPRMC,101847.00,A,4611.967885,N,01258.213789,E,002.2,164.0,081011,0.2,E,A*31
$GPGGA,101848.00,4611.967451,N,01258.213987,E,1,05,4.0,134.29,M,46.25,M,,*63
$GPGLL,4611.967451,N,01258.213987,E,101848.00,A,A*6F
$GPVTG,166.9,T,167.1,M,002.0,N,003.7,K,A*2C
$GPGSV,2,1,07,21,24,186,36,02,22,046,41,12,27,109,28,25,61,104,41*73
$GPGSV,2,2,07,29,84,325,42,30,69,307,38,31,51,285,40,,,,*45
$GPGSA,M,3,02,25,29,30,31,,,,,,,,6.3,4.0,4.9*3D
Trace #66 at position 16.250000
$GPZDA,101847.03,08,10,2011,00,00*65
$GPRMC,101847.00,A,4611.967885,N,01258.213789,E,002.2,164.0,081011,0.2,E,A*31
$GPGGA,101848.00,4611.967451,N,01258.213987,E,1,05,4.0,134.29,M,46.25,M,,*63
$GPGLL,4611.967451,N,01258.213987,E,101848.00,A,A*6F
$GPVTG,166.9,T,167.1,M,002.0,N,003.7,K,A*2C
$GPGSV,2,1,07,21,24,186,36,02,22,046,41,12,27,109,28,25,61,104,41*73
$GPGSV,2,2,07,29,84,325,42,30,69,307,38,31,51,285,40,,,,*45
$GPGSA,M,3,02,25,29,30,31,,,,,,,,6.3,4.0,4.9*3D
Trace #67 at position 16.500000
$GPZDA,101847.03,08,10,2011,00,00*65
$GPRMC,101847.00,A,4611.967885,N,01258.213789,E,002.2,164.0,081011,0.2,E,A*31
$GPGGA,101848.00,4611.967451,N,01258.213987,E,1,05,4.0,134.29,M,46.25,M,,*63
$GPGLL,4611.967451,N,01258.213987,E,101848.00,A,A*6F
$GPVTG,166.9,T,167.1,M,002.0,N,003.7,K,A*2C
$GPGSV,2,1,07,21,24,186,36,02,22,046,41,12,27,109,28,25,61,104,41*73
$GPGSV,2,2,07,29,84,325,42,30,69,307,38,31,51,285,40,,,,*45
$GPGSA,M,3,02,25,29,30,31,,,,,,,,6.3,4.0,4.9*3D
Trace #68 at position 16.750000
$GPZDA,101848.03,08,10,2011,00,00*6A
$GPRMC,101848.00,A,4611.967451,N,01258.213987,E,002.0,166.9,081011,0.2,E,A*32
$GPGGA,101849.00,4611.967061,N,01258.214103,E,1,05,3.9,134.43,M,46.25,M,,*64
$GPGLL,4611.967061,N,01258.214103,E,101849.00,A,A*6A
$GPVTG,175.4,T,175.6,M,001.7,N,003.2,K,A*26
$GPGSV,2,1,07,21,24,186,36,02,22,046,43,12,27,109,,25,61,104,39*74
$GPGSV,2,2,07,29,84,325,43,30,69,307,40,31,51,285,40,,,,*4B
$GPGSA,M,3,02,25,29,30,31,,,,,,,,6.3,3.9,4.9*33
Trace #69 at position 17.000000
$GPZDA,101848.03,08,10,2011,00,00*6A
$GPRMC,101848.00,A,4611.967451,N,01258.213987,E,002.0,166.9,081011,0.2,E,A*32
$GPGGA,101849.00,4611.967061,N,01258.214103,E,1,05,3.9,134.43,M,46.25,M,,*64
$GPGLL,4611.967061,N,01258.214103,E,101849.00,A,A*6A
$GPVTG,175.4,T,175.6,M,001.7,N,003.2,K,A*26
$GPGSV,2,1,07,21,24,186,36,02,22,046,43,12,27,109,,25,61,104,39*74
$GPGSV,2,2,07,29,84,325,43,30,69,307,40,31,51,285,40,,,,*4B
$GPGSA,M,3,02,25,29,30,31,,,,,,,,6.3,3.9,4.9*33
Trace #70 at position 17.250000
$GPZDA,101848.03,08,10,2011,00,00*6A
$GPRMC,101848.00,A,4611.967451,N,01258.213987,E,002.0,166.9,081011,0.2,E,A*32
$GPGGA,101849.00,4611.967061,N,01258.214103,E,1,05,3.9,134.43,M,46.25,M,,*64
$GPGLL,4611.967061,N,01258.214103,E,101849.00,A,A*6A
$GPVTG,175.4,T,175.6,M,001.7,N,003.2,K,A*26
$GPGSV,2,1,07,21,24,186,36,02,22,046,43,12,27,109,,25,61,104,39*74
$GPGSV,2,2,07,29,84,325,43,30,69,307,40,31,51,285,40,,,,*4B
$GPGSA,M,3,02,25,29,30,31,,,,,,,,6.3,3.9,4.9*33
Trace #71 at position 17.500000
$GPZDA,101849.03,08,10,2011,00,00*6B
$GPRMC,101849.00,A,4611.967061,N,01258.214103,E,001.7,175.4,081011,0.2,E,A*3C
$GPGGA,101850.00,4611.966753,N,01258.214101,E,1,05,3.9,134.54,M,46.25,M,,*6F
$GPGLL,4611.966753,N,01258.214101,E,101850.00,A,A*67
$GPVTG,189.8,T,189.9,M,001.3,N,002.5,K,A*27
$GPGSV,2,1,07,21,24,186,37,02,22,046,41,12,27,109,,25,61,104,42*7B
$GPGSV,2,2,07,29,84,325,43,30,69,307,39,31,51,285,41,,,,*44
$GPGSA,M,3,02,25,29,30,31,,,,,,,,6.3,3.9,4.9*33
Trace #72 at position 17.750000
$GPZDA,101849.03,08,10,2011,00,00*6B
$GPRMC,101849.00,A,4611.967061,N,01258.214103,E,001.7,175.4,081011,0.2,E,A*3C
$GPGGA,101850.00,4611.966753,N,01258.214101,E,1,05,3.9,134.54,M,46.25,M,,*6F
$GPGLL,4611.966753,N,01258.214101,E,101850.00,A,A*67
$GPVTG,189.8,T,189.9,M,001.3,N,002.5,K,A*27
$GPGSV,2,1,07,21,24,186,37,02,22,046,41,12,27,109,,25,61,104,42*7B
$GPGSV,2,2,07,29,84,325,43,30,69,307,39,31,51,285,41,,,,*44
$GPGSA,M,3,02,25,29,30,31,,,,,,,,6.3,3.9,4.9*33
Trace #73 at position 18.000000
$GPZDA,101849.03,08,10,2011,00,00*6B
$GPRMC,101849.00,A,4611.967061,N,01258.214103,E,001.7,175.4,081011,0.2,E,A*3C
$GPGGA,101850.00,4611.966753,N,01258.214101,E,1,05,3.9,134.54,M,46.25,M,,*6F
$GPGLL,4611.966753,N,01258.214101,E,101850.00,A,A*67
$GPVTG,189.8,T,189.9,M,001.3,N,002.5,K,A*27
$GPGSV,2,1,07,21,24,186,37,02,22,046,41,12,27,109,,25,61,104,42*7B
$GPGSV,2,2,07,29,84,325,43,30,69,307,39,31,51,285,41,,,,*44
$GPGSA,M,3,02,25,29,30,31,,,,,,,,6.3,3.9,4.9*33
Trace #74 at position 18.250000
$GPZDA,101849.03,08,10,2011,00,00*6B
$GPRMC,101849.00,A,4611.967061,N,01258.214103,E,001.7,175.4,081011,0.2,E,A*3C
$GPGGA,101850.00,4611.966753,N,01258.214101,E,1,05,3.9,134.54,M,46.25,M,,*6F
$GPGLL,4611.966753,N,01258.214101,E,101850.00,A,A*67
$GPVTG,189.8,T,189.9,M,001.3,N,002.5,K,A*27
$GPGSV,2,1,07,21,24,186,37,02,22,046,41,12,27,109,,25,61,104,42*7B
$GPGSV,2,2,07,29,84,325,43,30,69,307,39,31,51,285,41,,,,*44
$GPGSA,M,3,02,25,29,30,31,,,,,,,,6.3,3.9,4.9*33
Trace #75 at position 18.500000
$GPZDA,101850.03,08,10,2011,00,00*63
$GPRMC,101850.00,A,4611.966753,N,01258.214101,E,001.3,189.8,081011,0.2,E,A*3A
$GPGGA,101851.00,4611.966544,N,01258.214186,E,1,05,3.9,134.76,M,46.25,M,,*65
$GPGLL,4611.966544,N,01258.214186,E,101851.00,A,A*6D
$GPVTG,149.1,T,149.3,M,000.9,N,001.7,K,A*2E
$GPGSV,2,1,07,21,24,186,32,02,22,046,41,12,27,109,,25,61,104,40*7C
$GPGSV,2,2,07,29,84,325,41,30,69,307,40,31,51,285,40,,,,*49
$GPGSA,M,3,02,25,29,30,31,,,,,,,,6.3,3.9,4.9*33
Trace #76 at position 18.750000
$GPZDA,101850.03,08,10,2011,00,00*63
$GPRMC,101850.00,A,4611.966753,N,01258.214101,E,001.3,189.8,081011,0.2,E,A*3A
$GPGGA,101851.00,4611.966544,N,01258.214186,E,1,05,3.9,134.76,M,46.25,M,,*65
$GPGLL,4611.966544,N,01258.214186,E,101851.00,A,A*6D
$GPVTG,149.1,T,149.3,M,000.9,N,001.7,K,A*2E
$GPGSV,2,1,07,21,24,186,32,02,22,046,41,12,27,109,,25,61,104,40*7C
$GPGSV,2,2,07,29,84,325,41,30,69,307,40,31,51,285,40,,,,*49
$GPGSA,M,3,02,25,29,30,31,,,,,,,,6.3,3.9,4.9*33
Trace #77 at position 19.000000
$GPZDA,101850.03,08,10,2011,00,00*63
$GPRMC,101850.00,A,4611.966753,N,01258.214101,E,001.3,189.8,081011,0.2,E,A*3A
$GPGGA,101851.00,4611.966544,N,01258.214186,E,1,05,3.9,134.76,M,46.25,M,,*65
$GPGLL,4611.966544,N,01258.214186,E,101851.00,A,A*6D
$GPVTG,149.1,T,149.3,M,000.9,N,001.7,K,A*2E
$GPGSV,2,1,07,21,24,186,32,02,22,046,41,12,27,109,,25,61,104,40*7C
$GPGSV,2,2,07,29,84,325,41,30,69,307,40,31,51,285,40,,,,*49
$GPGSA,M,3,02,25,29,30,31,,,,,,,,6.3,3.9,4.9*33
Trace #78 at position 19.250000
$GPZDA,101851.03,08,10,2011,00,00*62
$GPRMC,101851.00,A,4611.966544,N,01258.214186,E,000.9,149.1,081011,0.2,E,A*3E
$GPGGA,101852.00,4611.966292,N,01258.214325,E,1,05,3.9,134.94,M,46.25,M,,*6D
$GPGLL,4611.966292,N,01258.214325,E,101852.00,A,A*69
$GPVTG,180.1,T,180.2,M,001.5,N,002.7,K,A*21
$GPGSV,2,1,07,21,24,186,34,02,22,046,41,12,27,109,,25,61,104,40*7A
$GPGSV,2,2,07,29,84,325,41,30,69,307,38,31,51,285,39,,,,*48
$GPGSA,M,3,02,25,29,30,31,,,,,,,,6.3,3.9,4.9*33
Trace #79 at position 19.500000
$GPZDA,101851.03,08,10,2011,00,00*62
$GPRMC,101851.00,A,4611.966544,N,01258.214186,E,000.9,149.1,081011,0.2,E,A*3E
$GPGGA,101852.00,4611.966292,N,01258.214325,E,1,05,3.9,134.94,M,46.25,M,,*6D
$GPGLL,4611.966292,N,01258.214325,E,101852.00,A,A*69
$GPVTG,180.1,T,180.2,M,001.5,N,002.7,K,A*21
$GPGSV,2,1,07,21,24,186,34,02,22,046,41,12,27,109,,25,61,104,40*7A
$GPGSV,2,2,07,29,84,325,41,30,69,307,38,31,51,285,39,,,,*48
$GPGSA,M,3,02,25,29,30,31,,,,,,,,6.3,3.9,4.9*33
Trace #80 at position 19.750000
$GPZDA,101851.03,08,10,2011,00,00*62
$GPRMC,101851.00,A,4611.966544,N,01258.214186,E,000.9,149.1,081011,0.2,E,A*3E
$GPGGA,101852.00,4611.966292,N,01258.214325,E,1,05,3.9,134.94,M,46.25,M,,*6D
$GPGLL,4611.966292,N,01258.214325,E,101852.00,A,A*69
$GPVTG,180.1,T,180.2,M,001.5,N,002.7,K,A*21
$GPGSV,2,1,07,21,24,186,34,02,22,046,41,12,27,109,,25,61,104,40*7A
$GPGSV,2,2,07,29,84,325,41,30,69,307,38,31,51,285,39,,,,*48
$GPGSA,M,3,02,25,29,30,31,,,,,,,,6.3,3.9,4.9*33
Trace #81 at position 20.000000
$GPZDA,101852.03,08,10,2011,00,00*61
$GPRMC,101852.00,A,4611.966292,N,01258.214325,E,001.5,180.1,081011,0.2,E,A*32
$GPGGA,101853.00,4611.965910,N,01258.214534,E,1,05,3.9,134.96,M,46.25,M,,*6A
$GPGLL,4611.965910,N,01258.214534,E,101853.00,A,A*6C
$GPVTG,153.2,T,153.4,M,001.8,N,003.4,K,A*2B
$GPGSV,2,1,07,21,24,186,35,02,22,046,43,12,27,109,,25,61,104,41*78
$GPGSV,2,2,07,29,84,326,41,30,69,307,39,31,51,285,41,,,,*45
$GPGSA,M,3,02,25,29,30,31,,,,,,,,6.3,3.9,4.9*33
Trace #82 at position 20.250000
$GPZDA,101852.03,08,10,2011,00,00*61
$GPRMC,101852.00,A,4611.966292,N,01258.214325,E,001.5,180.1,081011,0.2,E,A*32
$GPGGA,101853.00,4611.965910,N,01258.214534,E,1,05,3.9,134.96,M,46.25,M,,*6A
$GPGLL,4611.965910,N,01258.214534,E,101853.00,A,A*6C
$GPVTG,153.2,T,153.4,M,001.8,N,003.4,K,A*2B
$GPGSV,2,1,07,21,24,186,35,02,22,046,43,12,27,109,,25,61,104,41*78
$GPGSV,2,2,07,29,84,326,41,30,69,307,39,31,51,285,41,,,,*45
$GPGSA,M,3,02,25,29,30,31,,,,,,,,6.3,3.9,4.9*33
Trace #83 at position 20.500000
$GPZDA,101852.03,08,10,2011,00,00*61
$GPRMC,101852.00,A,4611.966292,N,01258.214325,E,001.5,180.1,081011,0.2,E,A*32
$GPGGA,101853.00,4611.965910,N,01258.214534,E,1,05,3.9,134.96,M,46.25,M,,*6A
$GPGLL,4611.965910,N,01258.214534,E,101853.00,A,A*6C
$GPVTG,153.2,T,153.4,M,001.8,N,003.4,K,A*2B
$GPGSV,2,1,07,21,24,186,35,02,22,046,43,12,27,109,,25,61,104,41*78
$GPGSV,2,2,07,29,84,326,41,30,69,307,39,31,51,285,41,,,,*45
$GPGSA,M,3,02,25,29,30,31,,,,,,,,6.3,3.9,4.9*33
Trace #84 at position 20.750000
$GPZDA,101853.03,08,10,2011,00,00*60
$GPRMC,101853.00,A,4611.965910,N,01258.214534,E,001.8,153.2,081011,0.2,E,A*37
$GPGGA,101854.00,4611.965571,N,01258.214762,E,1,05,3.9,135.05,M,46.25,M,,*6C
$GPGLL,4611.965571,N,01258.214762,E,101854.00,A,A*61
$GPVTG,170.2,T,170.4,M,001.1,N,002.0,K,A*27
$GPGSV,2,1,07,21,24,186,34,02,22,046,42,12,27,109,,25,61,104,40*79
$GPGSV,2,2,07,29,84,326,42,30,69,307,39,31,51,285,41,,,,*46
$GPGSA,M,3,02,25,29,30,31,,,,,,,,6.3,3.9,4.9*33
Trace #85 at position 21.000000
$GPZDA,101853.03,08,10,2011,00,00*60
$GPRMC,101853.00,A,4611.965910,N,01258.214534,E,001.8,153.2,081011,0.2,E,A*37
$GPGGA,101854.00,4611.965571,N,01258.214762,E,1,05,3.9,135.05,M,46.25,M,,*6C
$GPGLL,4611.965571,N,01258.214762,E,101854.00,A,A*61
$GPVTG,170.2,T,170.4,M,001.1,N,002.0,K,A*27
$GPGSV,2,1,07,21,24,186,34,02,22,046,42,12,27,109,,25,61,104,40*79
$GPGSV,2,2,07,29,84,326,42,30,69,307,39,31,51,285,41,,,,*46
$GPGSA,M,3,02,25,29,30,31,,,,,,,,6.3,3.9,4.9*33
Trace #86 at position 21.250000
$GPZDA,101853.03,08,10,2011,00,00*60
$GPRMC,101853.00,A,4611.965910,N,01258.214534,E,001.8,153.2,081011,0.2,E,A*37
$GPGGA,101854.00,4611.965571,N,01258.214762,E,1,05,3.9,135.05,M,46.25,M,,*6C
$GPGLL,4611.965571,N,01258.214762,E,101854.00,A,A*61
$GPVTG,170.2,T,170.4,M,001.1,N,002.0,K,A*27
$GPGSV,2,1,07,21,24,186,34,02,22,046,42,12,27,109,,25,61,104,40*79
$GPGSV,2,2,07,29,84,326,42,30,69,307,39,31,51,285,41,,,,*46
$GPGSA,M,3,02,25,29,30,31,,,,,,,,6.3,3.9,4.9*33
Trace #87 at position 21.500000
$GPZDA,101853.03,08,10,2011,00,00*60
$GPRMC,101853.00,A,4611.965910,N,01258.214534,E,001.8,153.2,081011,0.2,E,A*37
$GPGGA,101854.00,4611.965571,N,01258.214762,E,1,05,3.9,135.05,M,46.25,M,,*6C
$GPGLL,4611.965571,N,01258.214762,E,101854.00,A,A*61
$GPVTG,170.2,T,170.4,M,001.1,N,002.0,K,A*27
$GPGSV,2,1,07,21,24,186,34,02,22,046,42,12,27,109,,25,61,104,40*79
$GPGSV,2,2,07,29,84,326,42,30,69,307,39,31,51,285,41,,,,*46
$GPGSA,M,3,02,25,29,30,31,,,,,,,,6.3,3.9,4.9*33
Trace #88 at position 21.750000
$GPZDA,101854.03,08,10,2011,00,00*67
$GPRMC,101854.00,A,4611.965571,N,01258.214762,E,001.1,170.2,081011,0.2,E,A*32
$GPGGA,101855.00,4611.965053,N,01258.214767,E,1,05,3.9,134.76,M,46.25,M,,*68
$GPGLL,4611.965053,N,01258.214767,E,101855.00,A,A*60
$GPVTG,187.7,T,187.9,M,003.0,N,005.6,K,A*2D
$GPGSV,2,1,07,21,24,186,31,02,22,046,40,12,27,109,,25,61,104,40*7E
$GPGSV,2,2,07,29,84,326,40,30,69,307,39,31,51,285,39,,,,*4B
$GPGSA,M,3,02,25,29,30,31,,,,,,,,6.3,3.9,4.9*33
Trace #89 at position 22.000000
$GPZDA,101854.03,08,10,2011,00,00*67
$GPRMC,101854.00,A,4611.965571,N,01258.214762,E,001.1,170.2,081011,0.2,E,A*32
$GPGGA,101855.00,4611.965053,N,01258.214767,E,1,05,3.9,134.76,M,46.25,M,,*68
$GPGLL,4611.965053,N,01258.214767,E,101855.00,A,A*60
$GPVTG,187.7,T,187.9,M,003.0,N,005.6,K,A*2D
$GPGSV,2,1,07,21,24,186,31,02,22,046,40,12,27,109,,25,61,104,40*7E
$GPGSV,2,2,07,29,84,326,40,30,69,307,39,31,51,285,39,,,,*4B
$GPGSA,M,3,02,25,29,30,31,,,,,,,,6.3,3.9,4.9*33
Trace #90 at position 22.250000
$GPZDA,101854.03,08,10,2011,00,00*67
$GPRMC,101854.00,A,4611.965571,N,01258.214762,E,001.1,170.2,081011,0.2,E,A*32
$GPGGA,101855.00,4611.965053,N,01258.214767,E,1,05,3.9,134.76,M,46.25,M,,*68
$GPGLL,4611.965053,N,01258.214767,E,101855.00,A,A*60
$GPVTG,187.7,T,187.9,M,003.0,N,005.6,K,A*2D
$GPGSV,2,1,07,21,24,186,31,02,22,046,40,12,27,109,,25,61,104,40*7E
$GPGSV,2,2,07,29,84,326,40,30,69,307,39,31,51,285,39,,,,*4B
$GPGSA,M,3,02,25,29,30,31,,,,,,,,6.3,3.9,4.9*33
Trace #91 at position 22.500000
$GPZDA,101855.03,08,10,2011,00,00*66
$GPRMC,101855.00,A,4611.965053,N,01258.214767,E,003.0,187.7,081011,0.2,E,A*3D
$GPGGA,101856.00,4611.964358,N,01258.214788,E,1,05,3.9,134.31,M,46.25,M,,*60
$GPGLL,4611.964358,N,01258.214788,E,101856.00,A,A*6B
$GPVTG,176.4,T,176.6,M,002.6,N,004.8,K,A*29
$GPGSV,2,1,07,21,24,186,31,02,22,046,41,12,27,109,,25,61,104,42*7D
$GPGSV,2,2,07,29,84,326,41,30,69,307,40,31,51,285,41,,,,*4B
$GPGSA,M,3,02,25,29,30,31,,,,,,,,6.3,3.9,4.9*33
Trace #92 at position 22.750000
$GPZDA,101855.03,08,10,2011,00,00*66
$GPRMC,101855.00,A,4611.965053,N,01258.214767,E,003.0,187.7,081011,0.2,E,A*3D
$GPGGA,101856.00,4611.964358,N,01258.214788,E,1,05,3.9,134.31,M,46.25,M,,*60
$GPGLL,4611.964358,N,01258.214788,E,101856.00,A,A*6B
$GPVTG,176.4,T,176.6,M,002.6,N,004.8,K,A*29
$GPGSV,2,1,07,21,24,186,31,02,22,046,41,12,27,109,,25,61,104,42*7D
$GPGSV,2,2,07,29,84,326,41,30,69,307,40,31,51,285,41,,,,*4B
$GPGSA,M,3,02,25,29,30,31,,,,,,,,6.3,3.9,4.9*33
Trace #93 at position 23.000000
$GPZDA,101855.03,08,10,2011,00,00*66
$GPRMC,101855.00,A,4611.965053,N,01258.214767,E,003.0,187.7,081011,0.2,E,A*3D
$GPGGA,101856.00,4611.964358,N,01258.214788,E,1,05,3.9,134.31,M,46.25,M,,*60
$GPGLL,4611.964358,N,01258.214788,E,101856.00,A,A*6B
$GPVTG,176.4,T,176.6,M,002.6,N,004.8,K,A*29
$GPGSV,2,1,07,21,24,186,31,02,22,046,41,12,27,109,,25,61,104,42*7D
$GPGSV,2,2,07,29,84,326,41,30,69,307,40,31,51,285,41,,,,*4B
$GPGSA,M,3,02,25,29,30,31,,,,,,,,6.3,3.9,4.9*33
Trace #94 at position 23.250000
$GPZDA,101856.03,08,10,2011,00,00*65
$GPRMC,101856.00,A,4611.964358,N,01258.214788,E,002.6,176.4,081011,0.2,E,A*3C
$GPGGA,101857.00,4611.963885,N,01258.215134,E,1,05,3.9,134.39,M,46.25,M,,*65
$GPGLL,4611.963885,N,01258.215134,E,101857.00,A,A*66
$GPVTG,138.2,T,138.4,M,001.9,N,003.6,K,A*28
$GPGSV,2,1,07,21,24,186,35,02,22,046,42,12,27,109,31,25,61,104,41*7B
$GPGSV,2,2,07,29,84,326,43,30,69,307,39,31,51,285,41,,,,*47
$GPGSA,M,3,02,25,29,30,31,,,,,,,,6.2,3.9,4.9*32
Trace #95 at position 23.500000
$GPZDA,101856.03,08,10,2011,00,00*65
$GPRMC,101856.00,A,4611.964358,N,01258.214788,E,002.6,176.4,081011,0.2,E,A*3C
$GPGGA,101857.00,4611.963885,N,01258.215134,E,1,05,3.9,134.39,M,46.25,M,,*65
$GPGLL,4611.963885,N,01258.215134,E,101857.00,A,A*66
$GPVTG,138.2,T,138.4,M,001.9,N,003.6,K,A*28
$GPGSV,2,1,07,21,24,186,35,02,22,046,42,12,27,109,31,25,61,104,41*7B
$GPGSV,2,2,07,29,84,326,43,30,69,307,39,31,51,285,41,,,,*47
$GPGSA,M,3,02,25,29,30,31,,,,,,,,6.2,3.9,4.9*32
Trace #96 at position 23.750000
$GPZDA,101856.03,08,10,2011,00,00*65
$GPRMC,101856.00,A,4611.964358,N,01258.214788,E,002.6,176.4,081011,0.2,E,A*3C
$GPGGA,101857.00,4611.963885,N,01258.215134,E,1,05,3.9,134.39,M,46.25,M,,*65
$GPGLL,4611.963885,N,01258.215134,E,101857.00,A,A*66
$GPVTG,138.2,T,138.4,M,001.9,N,003.6,K,A*28
$GPGSV,2,1,07,21,24,186,35,02,22,046,42,12,27,109,31,25,61,104,41*7B
$GPGSV,2,2,07,29,84,326,43,30,69,307,39,31,51,285,41,,,,*47
$GPGSA,M,3,02,25,29,30,31,,,,,,,,6.2,3.9,4.9*32
Trace #97 at position 24.000000
$GPZDA,101857.03,08,10,2011,00,00*64
$GPRMC,101857.00,A,4611.963885,N,01258.215134,E,001.9,138.2,081011,0.2,E,A*31
$GPGGA,101858.00,4611.963522,N,01258.215536,E,1,05,3.9,134.47,M,46.25,M,,*65
$GPGLL,4611.963522,N,01258.215536,E,101858.00,A,A*6F
$GPVTG,161.6,T,161.7,M,001.8,N,003.3,K,A*2B
$GPGSV,2,1,07,21,24,186,33,02,22,046,39,12,27,109,31,25,61,104,39*7E
$GPGSV,2,2,07,29,84,326,40,30,69,307,41,31,51,285,41,,,,*4B
$GPGSA,M,3,02,25,29,30,31,,,,,,,,6.2,3.9,4.9*32
Trace #98 at position 24.250000
$GPZDA,101857.03,08,10,2011,00,00*64
$GPRMC,101857.00,A,4611.963885,N,01258.215134,E,001.9,138.2,081011,0.2,E,A*31
$GPGGA,101858.00,4611.963522,N,01258.215536,E,1,05,3.9,134.47,M,46.25,M,,*65
$GPGLL,4611.963522,N,01258.215536,E,101858.00,A,A*6F
$GPVTG,161.6,T,161.7,M,001.8,N,003.3,K,A*2B
$GPGSV,2,1,07,21,24,186,33,02,22,046,39,12,27,109,31,25,61,104,39*7E
$GPGSV,2,2,07,29,84,326,40,30,69,307,41,31,51,285,41,,,,*4B
$GPGSA,M,3,02,25,29,30,31,,,,,,,,6.2,3.9,4.9*32
Trace #99 at position 24.500000
$GPZDA,101857.03,08,10,2011,00,00*64
$GPRMC,101857.00,A,4611.963885,N,01258.215134,E,001.9,138.2,081011,0.2,E,A*31
$GPGGA,101858.00,4611.963522,N,01258.215536,E,1,05,3.9,134.47,M,46.25,M,,*65
$GPGLL,4611.963522,N,01258.215536,E,101858.00,A,A*6F
$GPVTG,161.6,T,161.7,M,001.8,N,003.3,K,A*2B
$GPGSV,2,1,07,21,24,186,33,02,22,046,39,12,27,109,31,25,61,104,39*7E
$GPGSV,2,2,07,29,84,326,40,30,69,307,41,31,51,285,41,,,,*4B
$GPGSA,M,3,02,25,29,30,31,,,,,,,,6.2,3.9,4.9*32
Trace #100 at position 24.750000
$GPZDA,101901.03,08,10,2011,00,00*66
$GPRMC,101901.00,A,4611.961609,N,01258.216034,E,000.6,353.7,081011,0.2,E,A*3D
$GPGGA,101902.00,4611.960654,N,01258.216296,E,1,04,10.7,131.91,M,46.25,M,,*57
$GPGLL,4611.960654,N,01258.216296,E,101902.00,A,A*6E
$GPVTG,176.6,T,176.8,M,000.6,N,001.1,K,A*2B
$GPGSV,2,1,07,21,24,186,31,02,22,046,39,12,27,109,27,25,61,104,37*75
$GPGSV,2,2,07,29,84,326,43,30,69,307,37,31,51,285,41,,,,*49
$GPGSA,M,3,02,29,30,31,,,,,,,,,13.2,10.7,7.7*30
Trace #101 at position 25.000000
$GPZDA,101901.03,08,10,2011,00,00*66
$GPRMC,101901.00,A,4611.961609,N,01258.216034,E,000.6,353.7,081011,0.2,E,A*3D
$GPGGA,101902.00,4611.960654,N,01258.216296,E,1,04,10.7,131.91,M,46.25,M,,*57
$GPGLL,4611.960654,N,01258.216296,E,101902.00,A,A*6E
$GPVTG,176.6,T,176.8,M,000.6,N,001.1,K,A*2B
$GPGSV,2,1,07,21,24,186,31,02,22,046,39,12,27,109,27,25,61,104,37*75
$GPGSV,2,2,07,29,84,326,43,30,69,307,37,31,51,285,41,,,,*49
$GPGSA,M,3,02,29,30,31,,,,,,,,,13.2,10.7,7.7*30
Trace #102 at position 25.250000
$GPZDA,101902.03,08,10,2011,00,00*65
$GPRMC,101902.00,A,4611.960654,N,01258.216296,E,000.6,176.6,081011,0.2,E,A*39
$GPGGA,,,,,,0,03,,,M,,M,,*65
$GPGLL,,,,,,V,N*64
$GPVTG,,T,,,,N,,K,N*61
$GPGSV,2,1,07,21,24,186,32,02,22,046,34,12,27,109,26,25,61,104,34*79
$GPGSV,2,2,07,29,84,326,39,30,69,307,39,31,51,285,39,,,,*45
$GPGSA,M,1,,,,,,,,,,,,,13.2,10.7,7.7*3A
Trace #103 at position 25.500000
$GPZDA,101902.03,08,10,2011,00,00*65
$GPRMC,101902.00,A,4611.960654,N,01258.216296,E,000.6,176.6,081011,0.2,E,A*39
$GPGGA,,,,,,0,03,,,M,,M,,*65
$GPGLL,,,,,,V,N*64
$GPVTG,,T,,,,N,,K,N*61
$GPGSV,2,1,07,21,24,186,32,02,22,046,34,12,27,109,26,25,61,104,34*79
$GPGSV,2,2,07,29,84,326,39,30,69,307,39,31,51,285,39,,,,*45
$GPGSA,M,1,,,,,,,,,,,,,13.2,10.7,7.7*3A
Trace #104 at position 25.750000
$GPZDA,101902.03,08,10,2011,00,00*65
$GPRMC,101902.00,A,4611.960654,N,01258.216296,E,000.6,176.6,081011,0.2,E,A*39
$GPGGA,,,,,,0,03,,,M,,M,,*65
$GPGLL,,,,,,V,N*64
$GPVTG,,T,,,,N,,K,N*61
$GPGSV,2,1,07,21,24,186,32,02,22,046,34,12,27,109,26,25,61,104,34*79
$GPGSV,2,2,07,29,84,326,39,30,69,307,39,31,51,285,39,,,,*45
$GPGSA,M,1,,,,,,,,,,,,,13.2,10.7,7.7*3A
Trace #105 at position 26.000000
$GPZDA,101903.02,08,10,2011,00,00*65
$GPRMC,101902.00,V,,,,,,,,,,N*76
$GPGGA,101904.00,4611.960464,N,01258.216418,E,1,05,3.9,132.11,M,46.25,M,,*66
$GPGLL,4611.960464,N,01258.216418,E,101904.00,A,A*69
$GPVTG,165.3,T,165.5,M,001.3,N,002.5,K,A*20
$GPGSV,2,1,07,21,24,186,32,02,22,046,42,12,27,109,32,25,61,104,42*7C
$GPGSV,2,2,07,29,84,326,41,30,69,307,40,31,51,285,40,,,,*4A
$GPGSA,M,3,02,25,29,30,31,,,,,,,,6.2,3.9,4.8*33
Trace #106 at position 26.250000
$GPZDA,101903.02,08,10,2011,00,00*65
$GPRMC,101902.00,V,,,,,,,,,,N*76
$GPGGA,101904.00,4611.960464,N,01258.216418,E,1,05,3.9,132.11,M,46.25,M,,*66
$GPGLL,4611.960464,N,01258.216418,E,101904.00,A,A*69
$GPVTG,165.3,T,165.5,M,001.3,N,002.5,K,A*20
$GPGSV,2,1,07,21,24,186,32,02,22,046,42,12,27,109,32,25,61,104,42*7C
$GPGSV,2,2,07,29,84,326,41,30,69,307,40,31,51,285,40,,,,*4A
$GPGSA,M,3,02,25,29,30,31,,,,,,,,6.2,3.9,4.8*33
Trace #107 at position 26.500000
$GPZDA,101903.02,08,10,2011,00,00*65
$GPRMC,101902.00,V,,,,,,,,,,N*76
$GPGGA,101904.00,4611.960464,N,01258.216418,E,1,05,3.9,132.11,M,46.25,M,,*66
$GPGLL,4611.960464,N,01258.216418,E,101904.00,A,A*69
$GPVTG,165.3,T,165.5,M,001.3,N,002.5,K,A*20
$GPGSV,2,1,07,21,24,186,32,02,22,046,42,12,27,109,32,25,61,104,42*7C
$GPGSV,2,2,07,29,84,326,41,30,69,307,40,31,51,285,40,,,,*4A
$GPGSA,M,3,02,25,29,30,31,,,,,,,,6.2,3.9,4.8*33
Trace #108 at position 26.750000
$GPZDA,101903.02,08,10,2011,00,00*65
$GPRMC,101902.00,V,,,,,,,,,,N*76
$GPGGA,101904.00,4611.960464,N,01258.216418,E,1,05,3.9,132.11,M,46.25,M,,*66
$GPGLL,4611.960464,N,01258.216418,E,101904.00,A,A*69
$GPVTG,165.3,T,165.5,M,001.3,N,002.5,K,A*20
$GPGSV,2,1,07,21,24,186,32,02,22,046,42,12,27,109,32,25,61,104,42*7C
$GPGSV,2,2,07,29,84,326,41,30,69,307,40,31,51,285,40,,,,*4A
$GPGSA,M,3,02,25,29,30,31,,,,,,,,6.2,3.9,4.8*33
Trace #109 at position 27.000000
$GPZDA,101903.02,08,10,2011,00,00*65
$GPRMC,101902.00,V,,,,,,,,,,N*76
$GPGGA,101904.00,4611.960464,N,01258.216418,E,1,05,3.9,132.11,M,46.25,M,,*66
$GPGLL,4611.960464,N,01258.216418,E,101904.00,A,A*69
$GPVTG,165.3,T,165.5,M,001.3,N,002.5,K,A*20
$GPGSV,2,1,07,21,24,186,32,02,22,046,42,12,27,109,32,25,61,104,42*7C
$GPGSV,2,2,07,29,84,326,41,30,69,307,40,31,51,285,40,,,,*4A
$GPGSA,M,3,02,25,29,30,31,,,,,,,,6.2,3.9,4.8*33
Trace #110 at position 27.250000
$GPZDA,101904.03,08,10,2011,00,00*63
$GPRMC,101904.00,A,4611.960464,N,01258.216418,E,001.3,165.3,081011,0.2,E,A*3D
$GPGGA,101905.00,4611.960316,N,01258.216590,E,1,05,3.9,132.46,M,46.25,M,,*66
$GPGLL,4611.960316,N,01258.216590,E,101905.00,A,A*6B
$GPVTG,161.3,T,161.4,M,002.0,N,003.8,K,A*2D
$GPGSV,2,1,07,21,24,186,36,02,22,046,41,12,27,109,,25,61,104,41*79
$GPGSV,2,2,07,29,84,326,42,30,69,307,41,31,51,285,40,,,,*48
$GPGSA,M,3,02,25,29,30,31,,,,,,,,6.2,3.9,4.8*33
Trace #111 at position 27.500000
$GPZDA,101904.03,08,10,2011,00,00*63
$GPRMC,101904.00,A,4611.960464,N,01258.216418,E,001.3,165.3,081011,0.2,E,A*3D
$GPGGA,101905.00,4611.960316,N,01258.216590,E,1,05,3.9,132.46,M,46.25,M,,*66
$GPGLL,4611.960316,N,01258.216590,E,101905.00,A,A*6B
$GPVTG,161.3,T,161.4,M,002.0,N,003.8,K,A*2D
$GPGSV,2,1,07,21,24,186,36,02,22,046,41,12,27,109,,25,61,104,41*79
$GPGSV,2,2,07,29,84,326,42,30,69,307,41,31,51,285,40,,,,*48
$GPGSA,M,3,02,25,29,30,31,,,,,,,,6.2,3.9,4.8*33
Trace #112 at position 27.750000
$GPZDA,101904.03,08,10,2011,00,00*63
$GPRMC,101904.00,A,4611.960464,N,01258.216418,E,001.3,165.3,081011,0.2,E,A*3D
$GPGGA,101905.00,4611.960316,N,01258.216590,E,1,05,3.9,132.46,M,46.25,M,,*66
$GPGLL,4611.960316,N,01258.216590,E,101905.00,A,A*6B
$GPVTG,161.3,T,161.4,M,002.0,N,003.8,K,A*2D
$GPGSV,2,1,07,21,24,186,36,02,22,046,41,12,27,109,,25,61,104,41*79
$GPGSV,2,2,07,29,84,326,42,30,69,307,41,31,51,285,40,,,,*48
$GPGSA,M,3,02,25,29,30,31,,,,,,,,6.2,3.9,4.8*33
Trace #113 at position 28.000000
$GPZDA,101904.03,08,10,2011,00,00*63
$GPRMC,101904.00,A,4611.960464,N,01258.216418,E,001.3,165.3,081011,0.2,E,A*3D
$GPGGA,101905.00,4611.960316,N,01258.216590,E,1,05,3.9,132.46,M,46.25,M,,*66
$GPGLL,4611.960316,N,01258.216590,E,101905.00,A,A*6B
$GPVTG,161.3,T,161.4,M,002.0,N,003.8,K,A*2D
$GPGSV,2,1,07,21,24,186,36,02,22,046,41,12,27,109,,25,61,104,41*79
$GPGSV,2,2,07,29,84,326,42,30,69,307,41,31,51,285,40,,,,*48
$GPGSA,M,3,02,25,29,30,31,,,,,,,,6.2,3.9,4.8*33
Trace #114 at position 28.250000
$GPZDA,101905.03,08,10,2011,00,00*62
$GPRMC,101905.00,A,4611.960316,N,01258.216590,E,002.0,161.3,081011,0.2,E,A*3B
$GPGGA,101906.00,4611.960006,N,01258.216784,E,1,05,3.9,132.72,M,46.25,M,,*67
$GPGLL,4611.960006,N,01258.216784,E,101906.00,A,A*6D
$GPVTG,169.8,T,169.9,M,002.3,N,004.2,K,A*25
$GPGSV,2,1,07,21,24,186,32,02,22,046,41,12,27,109,31,25,61,104,40*7E
$GPGSV,2,2,07,29,84,327,41,30,69,307,39,31,51,285,40,,,,*45
$GPGSA,M,3,02,25,29,30,31,,,,,,,,6.2,3.9,4.8*33
Trace #115 at position 28.500000
$GPZDA,101905.03,08,10,2011,00,00*62
$GPRMC,101905.00,A,4611.960316,N,01258.216590,E,002.0,161.3,081011,0.2,E,A*3B
$GPGGA,101906.00,4611.960006,N,01258.216784,E,1,05,3.9,132.72,M,46.25,M,,*67
$GPGLL,4611.960006,N,01258.216784,E,101906.00,A,A*6D
$GPVTG,169.8,T,169.9,M,002.3,N,004.2,K,A*25
$GPGSV,2,1,07,21,24,186,32,02,22,046,41,12,27,109,31,25,61,104,40*7E
$GPGSV,2,2,07,29,84,327,41,30,69,307,39,31,51,285,40,,,,*45
$GPGSA,M,3,02,25,29,30,31,,,,,,,,6.2,3.9,4.8*33
Trace #116 at position 28.750000
$GPZDA,101905.03,08,10,2011,00,00*62
$GPRMC,101905.00,A,4611.960316,N,01258.216590,E,002.0,161.3,081011,0.2,E,A*3B
$GPGGA,101906.00,4611.960006,N,01258.216784,E,1,05,3.9,132.72,M,46.25,M,,*67
$GPGLL,4611.960006,N,01258.216784,E,101906.00,A,A*6D
$GPVTG,169.8,T,169.9,M,002.3,N,004.2,K,A*25
$GPGSV,2,1,07,21,24,186,32,02,22,046,41,12,27,109,31,25,61,104,40*7E
$GPGSV,2,2,07,29,84,327,41,30,69,307,39,31,51,285,40,,,,*45
$GPGSA,M,3,02,25,29,30,31,,,,,,,,6.2,3.9,4.8*33
Trace #117 at position 29.000000
$GPZDA,101905.03,08,10,2011,00,00*62
$GPRMC,101905.00,A,4611.960316,N,01258.216590,E,002.0,161.3,081011,0.2,E,A*3B
$GPGGA,101906.00,4611.960006,N,01258.216784,E,1,05,3.9,132.72,M,46.25,M,,*67
$GPGLL,4611.960006,N,01258.216784,E,101906.00,A,A*6D
$GPVTG,169.8,T,169.9,M,002.3,N,004.2,K,A*25
$GPGSV,2,1,07,21,24,186,32,02,22,046,41,12,27,109,31,25,61,104,40*7E
$GPGSV,2,2,07,29,84,327,41,30,69,307,39,31,51,285,40,,,,*45
$GPGSA,M,3,02,25,29,30,31,,,,,,,,6.2,3.9,4.8*33
Trace #118 at position 29.250000
$GPZDA,101906.03,08,10,2011,00,00*61
$GPRMC,101906.00,A,4611.960006,N,01258.216784,E,002.3,169.8,081011,0.2,E,A*3D
$GPGGA,101907.00,4611.959658,N,01258.216845,E,1,05,3.9,132.91,M,46.25,M,,*6E
$GPGLL,4611.959658,N,01258.216845,E,101907.00,A,A*69
$GPVTG,183.0,T,183.2,M,002.1,N,003.8,K,A*29
$GPGSV,2,1,07,21,24,186,33,02,22,046,41,12,27,109,33,25,61,104,39*73
