Trace #1 at position 0.000000
$GPZDA,091929.03,08,10,2011,00,00*64
$GPRMC,091929.00,A,4611.951890,N,01258.218623,E,000.1,240.3,081011,0.2,E,A*3C
$GPGGA,091930.00,4611.951834,N,01258.218559,E,1,04,4.6,139.30,M,46.25,M,,*69
$GPGLL,4611.951834,N,01258.218559,E,091930.00,A,A*67
$GPVTG,203.2,T,203.3,M,000.3,N,000.5,K,A*24
$GPGSV,2,1,07,02,37,067,47,12,49,087,50,14,22,245,,25,79,023,46*71
$GPGSV,2,2,07,29,62,229,38,30,42,296,36,31,33,310,34,,,,*49
$GPGSA,M,3,02,12,25,29,,,,,,,,,7.6,4.6,6.0*36
Trace #2 at position 0.250000
$GPZDA,091936.03,08,10,2011,00,00*6A
$GPRMC,091936.00,A,4611.951700,N,01258.218376,E,000.2,152.1,081011,0.2,E,A*30
$GPGGA,091937.00,4611.951731,N,01258.218383,E,1,04,4.6,138.97,M,46.25,M,,*69
$GPGLL,4611.951731,N,01258.218383,E,091937.00,A,A*6B
$GPVTG,358.9,T,359.0,M,000.4,N,000.7,K,A*28
$GPGSV,2,1,07,02,37,067,46,12,49,087,49,14,22,245,36,25,79,023,45*7E
$GPGSV,2,2,07,29,62,230,40,30,42,296,31,31,33,310,31,,,,*4C
$GPGSA,M,3,02,12,25,29,,,,,,,,,7.6,4.6,6.0*36
Trace #3 at position 0.500000
$GPZDA,091937.03,08,10,2011,00,00*6B
$GPRMC,091937.00,A,4611.951731,N,01258.218383,E,000.4,358.9,081011,0.2,E,A*3F
$GPGGA,091938.00,4611.951844,N,01258.218346,E,1,04,4.6,138.95,M,46.25,M,,*60
$GPGLL,4611.951844,N,01258.218346,E,091938.00,A,A*60
$GPVTG,342.0,T,342.2,M,000.5,N,000.9,K,A*2D
$GPGSV,2,1,07,02,37,067,48,12,49,087,49,14,22,245,36,25,79,023,47*72
$GPGSV,2,2,07,29,62,230,37,30,42,296,28,31,33,310,32,,,,*47
$GPGSA,M,3,02,12,25,29,,,,,,,,,7.6,4.6,6.0*36
Trace #4 at position 0.750000
$GPZDA,091938.03,08,10,2011,00,00*64
$GPRMC,091938.00,A,4611.951844,N,01258.218346,E,000.5,342.0,081011,0.2,E,A*37
$GPGGA,091939.00,4611.951963,N,01258.218225,E,1,04,4.6,138.93,M,46.25,M,,*67
$GPGLL,4611.951963,N,01258.218225,E,091939.00,A,A*61
$GPVTG,317.4,T,317.6,M,000.7,N,001.3,K,A*24
$GPGSV,2,1,07,02,37,067,46,12,49,087,50,14,22,245,38,25,79,023,46*7B
$GPGSV,2,2,07,29,62,230,39,30,42,296,26,31,33,310,32,,,,*47
$GPGSA,M,3,02,12,25,29,,,,,,,,,7.6,4.6,6.0*36
Trace #5 at position 1.000000
$GPZDA,091939.03,08,10,2011,00,00*65
$GPRMC,091939.00,A,4611.951963,N,01258.218225,E,000.7,317.4,081011,0.2,E,A*30
$GPGGA,091940.00,4611.952101,N,01258.218103,E,1,04,4.6,138.97,M,46.25,M,,*65
$GPGLL,4611.952101,N,01258.218103,E,091940.00,A,A*67
$GPVTG,340.9,T,341.1,M,000.6,N,001.2,K,A*2F
$GPGSV,2,1,07,02,37,067,47,12,49,087,50,14,22,245,36,25,79,023,46*74
$GPGSV,2,2,07,29,62,230,39,30,42,296,29,31,33,310,26,,,,*4D
$GPGSA,M,3,02,12,25,29,,,,,,,,,7.6,4.6,6.0*36
Trace #6 at position 1.250000
$GPZDA,091940.03,08,10,2011,00,00*6B
$GPRMC,091940.00,A,4611.952101,N,01258.218103,E,000.6,340.9,081011,0.2,E,A*38
$GPGGA,091941.00,4611.952232,N,01258.218062,E,1,04,4.6,139.01,M,46.25,M,,*6F
$GPGLL,4611.952232,N,01258.218062,E,091941.00,A,A*63
$GPVTG,355.9,T,356.0,M,000.5,N,000.9,K,A*25
$GPGSV,2,1,07,02,37,067,47,12,49,087,49,14,22,245,36,25,79,023,46*7C
$GPGSV,2,2,07,29,62,230,38,30,42,296,28,31,33,310,28,,,,*43
$GPGSA,M,3,02,12,25,29,,,,,,,,,7.6,4.6,6.0*36
Trace #7 at position 1.500000
$GPZDA,091942.03,08,10,2011,00,00*69
$GPRMC,091942.00,A,4611.952392,N,01258.217956,E,001.0,326.9,081011,0.2,E,A*32
$GPGGA,091943.00,4611.952508,N,01258.217827,E,1,04,4.6,138.99,M,46.25,M,,*65
$GPGLL,4611.952508,N,01258.217827,E,091943.00,A,A*69
$GPVTG,316.0,T,316.1,M,000.3,N,000.5,K,A*24
$GPGSV,2,1,07,02,37,067,47,12,49,087,49,14,22,245,35,25,79,023,48*71
$GPGSV,2,2,07,29,62,230,42,30,42,296,28,31,33,310,34,,,,*43
$GPGSA,M,3,02,12,25,29,,,,,,,,,7.6,4.6,6.0*36
Trace #8 at position 1.750000
$GPZDA,091943.03,08,10,2011,00,00*68
$GPRMC,091943.00,A,4611.952508,N,01258.217827,E,000.3,316.0,081011,0.2,E,A*39
$GPGGA,091944.00,4611.952547,N,01258.217717,E,1,04,4.6,139.03,M,46.25,M,,*67
$GPGLL,4611.952547,N,01258.217717,E,091944.00,A,A*69
$GPVTG,292.0,T,292.1,M,000.4,N,000.8,K,A*2E
$GPGSV,2,1,07,02,37,067,47,12,49,087,49,14,22,245,38,25,79,023,47*73
$GPGSV,2,2,07,29,62,230,40,30,42,296,29,31,33,310,35,,,,*41
$GPGSA,M,3,02,12,25,29,,,,,,,,,7.6,4.6,6.0*36
Trace #9 at position 2.000000
$GPZDA,091944.03,08,10,2011,00,00*6F
$GPRMC,091944.00,A,4611.952547,N,01258.217717,E,000.4,292.0,081011,0.2,E,A*33
$GPGGA,091945.00,4611.952698,N,01258.217635,E,1,04,4.6,138.92,M,46.25,M,,*6F
$GPGLL,4611.952698,N,01258.217635,E,091945.00,A,A*68
$GPVTG,354.6,T,354.7,M,001.0,N,001.9,K,A*2B
$GPGSV,2,1,07,02,37,067,48,12,49,087,50,14,22,245,36,25,79,023,47*7A
$GPGSV,2,2,07,29,62,230,42,30,42,296,31,31,33,310,37,,,,*48
$GPGSA,M,3,02,12,25,29,,,,,,,,,7.6,4.6,6.0*36
Trace #10 at position 2.250000
$GPZDA,091945.03,08,10,2011,00,00*6E
$GPRMC,091945.00,A,4611.952698,N,01258.217635,E,001.0,354.6,081011,0.2,E,A*3A
$GPGGA,091946.00,4611.952847,N,01258.217633,E,1,04,4.6,138.81,M,46.25,M,,*64
$GPGLL,4611.952847,N,01258.217633,E,091946.00,A,A*61
$GPVTG,4.4,T,4.5,M,000.2,N,000.4,K,A*24
$GPGSV,2,1,07,02,37,067,48,12,49,087,49,14,22,245,34,25,79,023,47*70
$GPGSV,2,2,07,29,62,230,43,30,42,296,30,31,33,310,35,,,,*4A
$GPGSA,M,3,02,12,25,29,,,,,,,,,7.6,4.6,6.0*36
Trace #11 at position 2.500000
$GPZDA,091946.03,08,10,2011,00,00*6D
$GPRMC,091946.00,A,4611.952847,N,01258.217633,E,000.2,4.4,081011,0.2,E,A*34
$GPGGA,091947.00,4611.952909,N,01258.217540,E,1,04,4.6,138.81,M,46.25,M,,*69
$GPGLL,4611.952909,N,01258.217540,E,091947.00,A,A*6C
$GPVTG,295.1,T,295.3,M,000.7,N,001.2,K,A*25
$GPGSV,2,1,07,02,37,067,48,12,49,087,50,14,22,245,32,25,79,023,48*71
$GPGSV,2,2,07,29,62,230,42,30,42,296,,31,33,310,35,,,,*48
$GPGSA,M,3,02,12,25,29,,,,,,,,,7.6,4.6,6.0*36
Trace #12 at position 2.750000
$GPZDA,091946.03,08,10,2011,00,00*6D
$GPRMC,091946.00,A,4611.952847,N,01258.217633,E,000.2,4.4,081011,0.2,E,A*34
$GPGGA,091947.00,4611.952909,N,01258.217540,E,1,04,4.6,138.81,M,46.25,M,,*69
$GPGLL,4611.952909,N,01258.217540,E,091947.00,A,A*6C
$GPVTG,295.1,T,295.3,M,000.7,N,001.2,K,A*25
$GPGSV,2,1,07,02,37,067,48,12,49,087,50,14,22,245,32,25,79,023,48*71
$GPGSV,2,2,07,29,62,230,42,30,42,296,,31,33,310,35,,,,*48
$GPGSA,M,3,02,12,25,29,,,,,,,,,7.6,4.6,6.0*36
Trace #13 at position 3.000000
$GPZDA,091947.03,08,10,2011,00,00*6C
$GPRMC,091947.00,A,4611.952909,N,01258.217540,E,000.7,295.1,081011,0.2,E,A*33
$GPGGA,091948.00,4611.952994,N,01258.217506,E,1,04,4.6,138.90,M,46.25,M,,*60
$GPGLL,4611.952994,N,01258.217506,E,091948.00,A,A*65
$GPVTG,46.8,T,47.0,M,000.4,N,000.8,K,A*26
$GPGSV,2,1,07,02,37,067,48,12,49,087,50,14,22,245,32,25,79,023,47*7E
$GPGSV,2,2,07,29,62,230,41,30,42,296,24,31,33,310,30,,,,*48
$GPGSA,M,3,02,12,25,29,,,,,,,,,7.6,4.6,6.0*36
Trace #14 at position 3.250000
$GPZDA,091948.03,08,10,2011,00,00*63
$GPRMC,091948.00,A,4611.952994,N,01258.217506,E,000.4,46.8,081011,0.2,E,A*0C
$GPGGA,091949.00,4611.953117,N,01258.217501,E,1,04,4.6,138.93,M,46.25,M,,*67
$GPGLL,4611.953117,N,01258.217501,E,091949.00,A,A*61
$GPVTG,324.6,T,324.7,M,000.7,N,001.2,K,A*26
$GPGSV,2,1,07,02,37,067,47,12,49,087,49,14,22,245,34,25,79,023,48*70
$GPGSV,2,2,07,29,62,230,44,30,42,296,,31,33,310,32,,,,*49
$GPGSA,M,3,02,12,25,29,,,,,,,,,7.6,4.6,6.0*36
Trace #15 at position 3.500000
$GPZDA,091949.03,08,10,2011,00,00*62
$GPRMC,091949.00,A,4611.953117,N,01258.217501,E,000.7,324.6,081011,0.2,E,A*32
$GPGGA,091950.00,4611.953249,N,01258.217380,E,1,04,4.6,138.87,M,46.25,M,,*6D
$GPGLL,4611.953249,N,01258.217380,E,091950.00,A,A*6E
$GPVTG,314.3,T,314.5,M,000.5,N,000.9,K,A*29
$GPGSV,2,1,07,02,37,067,47,12,49,087,49,14,22,245,32,25,79,024,47*7E
$GPGSV,2,2,07,29,62,230,43,30,42,296,,31,33,310,33,,,,*4F
$GPGSA,M,3,02,12,25,29,,,,,,,,,7.6,4.6,6.0*36
Trace #16 at position 3.750000
$GPZDA,091950.03,08,10,2011,00,00*6A
$GPRMC,091950.00,A,4611.953249,N,01258.217380,E,000.5,314.3,081011,0.2,E,A*39
$GPGGA,091951.00,4611.953355,N,01258.217267,E,1,04,4.6,138.79,M,46.25,M,,*69
$GPGLL,4611.953355,N,01258.217267,E,091951.00,A,A*6B
$GPVTG,311.4,T,311.6,M,000.5,N,000.9,K,A*2D
$GPGSV,2,1,07,02,37,067,47,12,49,087,48,14,22,245,35,25,79,024,48*77
$GPGSV,2,2,07,29,62,230,44,30,42,296,,31,33,310,29,,,,*43
$GPGSA,M,3,02,12,25,29,,,,,,,,,7.6,4.6,6.0*36
Trace #17 at position 4.000000
$GPZDA,091951.03,08,10,2011,00,00*6B
$GPRMC,091951.00,A,4611.953355,N,01258.217267,E,000.5,311.4,081011,0.2,E,A*3E
$GPGGA,091952.00,4611.953501,N,01258.217214,E,1,04,4.6,138.92,M,46.25,M,,*6C
$GPGLL,4611.953501,N,01258.217214,E,091952.00,A,A*6B
$GPVTG,355.3,T,355.4,M,000.6,N,001.1,K,A*22
$GPGSV,2,1,07,02,37,067,47,12,49,087,48,14,22,245,34,25,79,024,48*76
$GPGSV,2,2,07,29,62,230,45,30,42,296,,31,33,310,37,,,,*4D
$GPGSA,M,3,02,12,25,29,,,,,,,,,7.6,4.6,6.0*36
Trace #18 at position 4.250000
$GPZDA,091951.03,08,10,2011,00,00*6B
$GPRMC,091951.00,A,4611.953355,N,01258.217267,E,000.5,311.4,081011,0.2,E,A*3E
$GPGGA,091952.00,4611.953501,N,01258.217214,E,1,04,4.6,138.92,M,46.25,M,,*6C
$GPGLL,4611.953501,N,01258.217214,E,091952.00,A,A*6B
$GPVTG,355.3,T,355.4,M,000.6,N,001.1,K,A*22
$GPGSV,2,1,07,02,37,067,47,12,49,087,48,14,22,245,34,25,79,024,48*76
$GPGSV,2,2,07,29,62,230,45,30,42,296,,31,33,310,37,,,,*4D
$GPGSA,M,3,02,12,25,29,,,,,,,,,7.6,4.6,6.0*36
Trace #19 at position 4.500000
$GPZDA,091952.03,08,10,2011,00,00*68
$GPRMC,091952.00,A,4611.953501,N,01258.217214,E,000.6,355.3,081011,0.2,E,A*3A
$GPGGA,091953.00,4611.953653,N,01258.217256,E,1,04,4.6,139.10,M,46.25,M,,*64
$GPGLL,4611.953653,N,01258.217256,E,091953.00,A,A*68
$GPVTG,25.1,T,25.2,M,000.4,N,000.7,K,A*23
$GPGSV,2,1,07,02,37,067,47,12,49,087,49,14,22,245,35,25,79,024,48*76
$GPGSV,2,2,07,29,62,230,44,30,42,296,30,31,33,310,37,,,,*4F
$GPGSA,M,3,02,12,25,29,,,,,,,,,7.6,4.6,6.0*36
Trace #20 at position 4.750000
$GPZDA,091953.03,08,10,2011,00,00*69
$GPRMC,091953.00,A,4611.953653,N,01258.217256,E,000.4,25.1,081011,0.2,E,A*0D
$GPGGA,091954.00,4611.953803,N,01258.217282,E,1,04,4.6,139.11,M,46.25,M,,*60
$GPGLL,4611.953803,N,01258.217282,E,091954.00,A,A*6D
$GPVTG,351.5,T,351.7,M,000.6,N,001.1,K,A*27
$GPGSV,2,1,07,02,37,067,47,12,49,087,49,14,22,245,31,25,79,024,48*72
$GPGSV,2,2,07,29,62,230,43,30,42,296,31,31,33,310,35,,,,*4B
$GPGSA,M,3,02,12,25,29,,,,,,,,,7.5,4.6,6.0*35
Trace #21 at position 5.000000
$GPZDA,091954.03,08,10,2011,00,00*6E
$GPRMC,091954.00,A,4611.953803,N,01258.217282,E,000.6,351.5,081011,0.2,E,A*3E
$GPGGA,091955.00,4611.954037,N,01258.217238,E,1,04,4.6,138.91,M,46.25,M,,*61
$GPGLL,4611.954037,N,01258.217238,E,091955.00,A,A*65
$GPVTG,352.4,T,352.6,M,001.0,N,001.9,K,A*28
$GPGSV,2,1,07,02,37,067,47,12,49,087,49,14,22,245,37,25,79,024,49*75
$GPGSV,2,2,07,29,62,230,44,30,42,296,31,31,33,310,35,,,,*4C
$GPGSA,M,3,02,12,25,29,,,,,,,,,7.5,4.6,6.0*35
Trace #22 at position 5.250000
$GPZDA,091955.03,08,10,2011,00,00*6F
$GPRMC,091955.00,A,4611.954037,N,01258.217238,E,001.0,352.4,081011,0.2,E,A*33
$GPGGA,091956.00,4611.954278,N,01258.217180,E,1,04,4.6,138.84,M,46.25,M,,*6F
$GPGLL,4611.954278,N,01258.217180,E,091956.00,A,A*6F
$GPVTG,345.7,T,345.9,M,000.7,N,001.4,K,A*2F
$GPGSV,2,1,07,02,37,067,47,12,49,087,49,14,22,245,32,25,79,024,49*70
$GPGSV,2,2,07,29,62,230,44,30,42,296,33,31,33,310,35,,,,*4E
$GPGSA,M,3,02,12,25,29,,,,,,,,,7.5,4.6,6.0*35
Trace #23 at position 5.500000
$GPZDA,091955.03,08,10,2011,00,00*6F
$GPRMC,091955.00,A,4611.954037,N,01258.217238,E,001.0,352.4,081011,0.2,E,A*33
$GPGGA,091956.00,4611.954278,N,01258.217180,E,1,04,4.6,138.84,M,46.25,M,,*6F
$GPGLL,4611.954278,N,01258.217180,E,091956.00,A,A*6F
$GPVTG,345.7,T,345.9,M,000.7,N,001.4,K,A*2F
$GPGSV,2,1,07,02,37,067,47,12,49,087,49,14,22,245,32,25,79,024,49*70
$GPGSV,2,2,07,29,62,230,44,30,42,296,33,31,33,310,35,,,,*4E
$GPGSA,M,3,02,12,25,29,,,,,,,,,7.5,4.6,6.0*35
Trace #24 at position 5.750000
$GPZDA,091956.03,08,10,2011,00,00*6C
$GPRMC,091956.00,A,4611.954278,N,01258.217180,E,000.7,345.7,081011,0.2,E,A*3A
$GPGGA,091957.00,4611.954470,N,01258.217122,E,1,04,4.6,138.92,M,46.25,M,,*6F
$GPGLL,4611.954470,N,01258.217122,E,091957.00,A,A*68
$GPVTG,352.1,T,352.3,M,000.7,N,001.3,K,A*24
$GPGSV,2,1,07,02,37,067,47,12,49,087,49,14,22,245,33,25,79,024,48*70
$GPGSV,2,2,07,29,62,230,43,30,42,296,35,31,33,310,34,,,,*4E
$GPGSA,M,3,02,12,25,29,,,,,,,,,7.5,4.6,6.0*35
Trace #25 at position 6.000000
$GPZDA,091957.03,08,10,2011,00,00*6D
$GPRMC,091957.00,A,4611.954470,N,01258.217122,E,000.7,352.1,081011,0.2,E,A*3D
$GPGGA,091958.00,4611.954622,N,01258.217051,E,1,04,4.6,138.88,M,46.25,M,,*6B
$GPGLL,4611.954622,N,01258.217051,E,091958.00,A,A*67
$GPVTG,332.4,T,332.6,M,000.5,N,000.9,K,A*2D
$GPGSV,2,1,07,02,37,067,48,12,49,087,50,14,22,245,37,25,79,024,48*73
$GPGSV,2,2,07,29,62,230,44,30,42,296,37,31,33,310,38,,,,*47
$GPGSA,M,3,02,12,25,29,,,,,,,,,7.5,4.6,6.0*35
Trace #26 at position 6.250000
$GPZDA,091957.03,08,10,2011,00,00*6D
$GPRMC,091957.00,A,4611.954470,N,01258.217122,E,000.7,352.1,081011,0.2,E,A*3D
$GPGGA,091958.00,4611.954622,N,01258.217051,E,1,04,4.6,138.88,M,46.25,M,,*6B
$GPGLL,4611.954622,N,01258.217051,E,091958.00,A,A*67
$GPVTG,332.4,T,332.6,M,000.5,N,000.9,K,A*2D
$GPGSV,2,1,07,02,37,067,48,12,49,087,50,14,22,245,37,25,79,024,48*73
$GPGSV,2,2,07,29,62,230,44,30,42,296,37,31,33,310,38,,,,*47
$GPGSA,M,3,02,12,25,29,,,,,,,,,7.5,4.6,6.0*35
Trace #27 at position 6.500000
$GPZDA,091958.03,08,10,2011,00,00*62
$GPRMC,091958.00,A,4611.954622,N,01258.217051,E,000.5,332.4,081011,0.2,E,A*33
$GPGGA,091959.00,4611.954754,N,01258.216998,E,1,04,4.6,138.92,M,46.25,M,,*6C
$GPGLL,4611.954754,N,01258.216998,E,091959.00,A,A*6B
$GPVTG,357.6,T,357.8,M,000.5,N,000.9,K,A*21
$GPGSV,2,1,07,02,37,067,47,12,49,087,49,14,22,245,35,25,79,024,49*77
$GPGSV,2,2,07,29,62,230,44,30,42,296,31,31,33,310,35,,,,*4C
$GPGSA,M,3,02,12,25,29,,,,,,,,,7.5,4.6,6.0*35
Trace #28 at position 6.750000
$GPZDA,091959.03,08,10,2011,00,00*63
$GPRMC,091959.00,A,4611.954754,N,01258.216998,E,000.5,357.6,081011,0.2,E,A*3E
$GPGGA,092000.00,4611.954900,N,01258.216971,E,1,04,4.6,139.03,M,46.25,M,,*6B
$GPGLL,4611.954900,N,01258.216971,E,092000.00,A,A*65
$GPVTG,357.9,T,358.1,M,000.5,N,000.8,K,A*29
$GPGSV,2,1,07,02,37,067,47,12,49,087,49,14,22,245,35,25,79,024,49*77
$GPGSV,2,2,07,29,62,230,45,30,42,296,31,31,33,310,35,,,,*4D
$GPGSA,M,3,02,12,25,29,,,,,,,,,7.5,4.6,6.0*35
Trace #29 at position 7.000000
$GPZDA,092000.03,08,10,2011,00,00*65
$GPRMC,092000.00,A,4611.954900,N,01258.216971,E,000.5,357.9,081011,0.2,E,A*3F
$GPGGA,092001.00,4611.955110,N,01258.216933,E,1,04,4.6,138.97,M,46.25,M,,*68
$GPGLL,4611.955110,N,01258.216933,E,092001.00,A,A*6A
$GPVTG,356.4,T,356.5,M,001.0,N,001.8,K,A*2A
$GPGSV,2,1,07,02,37,067,46,12,49,087,49,14,22,245,36,25,79,024,49*75
$GPGSV,2,2,07,29,62,230,44,30,42,296,31,31,33,310,35,,,,*4C
$GPGSA,M,3,02,12,25,29,,,,,,,,,7.5,4.6,6.0*35
Trace #30 at position 7.250000
$GPZDA,092000.03,08,10,2011,00,00*65
$GPRMC,092000.00,A,4611.954900,N,01258.216971,E,000.5,357.9,081011,0.2,E,A*3F
$GPGGA,092001.00,4611.955110,N,01258.216933,E,1,04,4.6,138.97,M,46.25,M,,*68
$GPGLL,4611.955110,N,01258.216933,E,092001.00,A,A*6A
$GPVTG,356.4,T,356.5,M,001.0,N,001.8,K,A*2A
$GPGSV,2,1,07,02,37,067,46,12,49,087,49,14,22,245,36,25,79,024,49*75
$GPGSV,2,2,07,29,62,230,44,30,42,296,31,31,33,310,35,,,,*4C
$GPGSA,M,3,02,12,25,29,,,,,,,,,7.5,4.6,6.0*35
Trace #31 at position 7.500000
$GPZDA,092001.03,08,10,2011,00,00*64
$GPRMC,092001.00,A,4611.955110,N,01258.216933,E,001.0,356.4,081011,0.2,E,A*38
$GPGGA,092002.00,4611.955356,N,01258.216878,E,1,04,4.6,138.83,M,46.25,M,,*60
$GPGLL,4611.955356,N,01258.216878,E,092002.00,A,A*67
$GPVTG,353.3,T,353.5,M,000.8,N,001.5,K,A*29
$GPGSV,2,1,07,02,37,067,46,12,49,087,48,14,22,245,37,25,79,024,50*7D
$GPGSV,2,2,07,29,62,230,44,30,42,296,32,31,33,310,37,,,,*4D
$GPGSA,M,3,02,12,25,29,,,,,,,,,7.5,4.6,6.0*35
Trace #32 at position 7.750000
$GPZDA,092002.03,08,10,2011,00,00*67
$GPRMC,092002.00,A,4611.955356,N,01258.216878,E,000.8,353.3,081011,0.2,E,A*3E
$GPGGA,092003.00,4611.955600,N,01258.216801,E,1,04,4.6,138.71,M,46.25,M,,*64
$GPGLL,4611.955600,N,01258.216801,E,092003.00,A,A*6E
$GPVTG,350.3,T,350.5,M,001.0,N,001.9,K,A*2C
$GPGSV,2,1,07,02,37,067,46,12,49,087,49,14,22,245,35,25,79,024,49*76
$GPGSV,2,2,07,29,62,230,43,30,42,296,,31,33,310,35,,,,*49
$GPGSA,M,3,02,12,25,29,,,,,,,,,7.5,4.6,6.0*35
Trace #33 at position 8.000000
$GPZDA,092002.03,08,10,2011,00,00*67
$GPRMC,092002.00,A,4611.955356,N,01258.216878,E,000.8,353.3,081011,0.2,E,A*3E
$GPGGA,092003.00,4611.955600,N,01258.216801,E,1,04,4.6,138.71,M,46.25,M,,*64
$GPGLL,4611.955600,N,01258.216801,E,092003.00,A,A*6E
$GPVTG,350.3,T,350.5,M,001.0,N,001.9,K,A*2C
$GPGSV,2,1,07,02,37,067,46,12,49,087,49,14,22,245,35,25,79,024,49*76
$GPGSV,2,2,07,29,62,230,43,30,42,296,,31,33,310,35,,,,*49
$GPGSA,M,3,02,12,25,29,,,,,,,,,7.5,4.6,6.0*35
Trace #34 at position 8.250000
$GPZDA,092003.03,08,10,2011,00,00*66
$GPRMC,092003.00,A,4611.955600,N,01258.216801,E,001.0,350.3,081011,0.2,E,A*3D
$GPGGA,092004.00,4611.955818,N,01258.216731,E,1,04,4.6,138.83,M,46.25,M,,*65
$GPGLL,4611.955818,N,01258.216731,E,092004.00,A,A*62
$GPVTG,355.2,T,355.4,M,000.6,N,001.1,K,A*23
$GPGSV,2,1,07,02,37,067,46,12,49,087,49,14,22,245,36,25,79,024,49*75
$GPGSV,2,2,07,29,62,230,45,30,42,296,,31,33,310,31,,,,*4B
$GPGSA,M,3,02,12,25,29,,,,,,,,,7.5,4.6,6.0*35
Trace #35 at position 8.500000
$GPZDA,092004.03,08,10,2011,00,00*61
$GPRMC,092004.00,A,4611.955818,N,01258.216731,E,000.6,355.2,081011,0.2,E,A*32
$GPGGA,092005.00,4611.956004,N,01258.216697,E,1,04,4.6,138.94,M,46.25,M,,*69
$GPGLL,4611.956004,N,01258.216697,E,092005.00,A,A*68
$GPVTG,2.2,T,2.3,M,000.8,N,001.4,K,A*2F
$GPGSV,2,1,07,02,37,067,46,12,49,087,48,14,22,245,35,25,79,024,48*76
$GPGSV,2,2,07,29,62,230,45,30,42,296,,31,33,310,32,,,,*48
$GPGSA,M,3,02,12,25,29,,,,,,,,,7.5,4.6,6.0*35
Trace #36 at position 8.750000
$GPZDA,092004.03,08,10,2011,00,00*61
$GPRMC,092004.00,A,4611.955818,N,01258.216731,E,000.6,355.2,081011,0.2,E,A*32
$GPGGA,092005.00,4611.956004,N,01258.216697,E,1,04,4.6,138.94,M,46.25,M,,*69
$GPGLL,4611.956004,N,01258.216697,E,092005.00,A,A*68
$GPVTG,2.2,T,2.3,M,000.8,N,001.4,K,A*2F
$GPGSV,2,1,07,02,37,067,46,12,49,087,48,14,22,245,35,25,79,024,48*76
$GPGSV,2,2,07,29,62,230,45,30,42,296,,31,33,310,32,,,,*48
$GPGSA,M,3,02,12,25,29,,,,,,,,,7.5,4.6,6.0*35
Trace #37 at position 9.000000
$GPZDA,092005.03,08,10,2011,00,00*60
$GPRMC,092005.00,A,4611.956004,N,01258.216697,E,000.8,2.2,081011,0.2,E,A*37
$GPGGA,092006.00,4611.956219,N,01258.216650,E,1,04,4.6,138.74,M,46.25,M,,*61
$GPGLL,4611.956219,N,01258.216650,E,092006.00,A,A*6E
$GPVTG,353.3,T,353.5,M,000.8,N,001.6,K,A*2A
$GPGSV,2,1,07,02,37,067,47,12,49,087,48,14,22,245,35,25,79,024,49*76
$GPGSV,2,2,07,29,62,230,44,30,42,296,,31,33,310,34,,,,*4F
$GPGSA,M,3,02,12,25,29,,,,,,,,,7.5,4.6,6.0*35
Trace #38 at position 9.250000
$GPZDA,092006.03,08,10,2011,00,00*63
$GPRMC,092006.00,A,4611.956219,N,01258.216650,E,000.8,353.3,081011,0.2,E,A*37
$GPGGA,092007.00,4611.956396,N,01258.216494,E,1,04,4.6,138.62,M,46.25,M,,*6B
$GPGLL,4611.956396,N,01258.216494,E,092007.00,A,A*63
$GPVTG,311.2,T,311.4,M,000.8,N,001.5,K,A*29
$GPGSV,2,1,07,02,37,067,46,12,49,087,48,14,22,245,33,25,79,024,48*70
$GPGSV,2,2,07,29,62,230,44,30,42,296,,31,33,310,30,,,,*4B
$GPGSA,M,3,02,12,25,29,,,,,,,,,7.5,4.6,6.0*35
Trace #39 at position 9.500000
$GPZDA,092007.03,08,10,2011,00,00*62
$GPRMC,092007.00,A,4611.956396,N,01258.216494,E,000.8,311.2,081011,0.2,E,A*3D
$GPGGA,092008.00,4611.956514,N,01258.216388,E,1,04,4.6,138.71,M,46.25,M,,*60
$GPGLL,4611.956514,N,01258.216388,E,092008.00,A,A*6A
$GPVTG,16.7,T,16.8,M,000.4,N,000.7,K,A*2F
$GPGSV,2,1,07,02,37,067,47,12,49,087,48,14,22,245,33,25,79,024,48*71
$GPGSV,2,2,07,29,62,230,43,30,42,296,,31,33,310,30,,,,*4C
$GPGSA,M,3,02,12,25,29,,,,,,,,,7.5,4.6,6.0*35
Trace #40 at position 9.750000
$GPZDA,092008.03,08,10,2011,00,00*6D
$GPRMC,092008.00,A,4611.956514,N,01258.216388,E,000.4,16.7,081011,0.2,E,A*09
$GPGGA,092009.00,4611.956689,N,01258.216360,E,1,04,4.6,138.79,M,46.25,M,,*68
$GPGLL,4611.956689,N,01258.216360,E,092009.00,A,A*6A
$GPVTG,351.0,T,351.2,M,001.0,N,001.8,K,A*29
$GPGSV,2,1,07,02,37,067,47,12,49,087,49,14,22,245,33,25,79,024,47*7F
$GPGSV,2,2,07,29,62,230,44,30,42,296,,31,33,310,,,,,*48
$GPGSA,M,3,02,12,25,29,,,,,,,,,7.5,4.6,6.0*35
Trace #41 at position 10.000000
$GPZDA,092009.03,08,10,2011,00,00*6C
$GPRMC,092009.00,A,4611.956689,N,01258.216360,E,001.0,351.0,081011,0.2,E,A*3B
$GPGGA,092010.00,4611.956903,N,01258.216271,E,1,04,4.6,138.79,M,46.25,M,,*6C
$GPGLL,4611.956903,N,01258.216271,E,092010.00,A,A*6E
$GPVTG,342.1,T,342.3,M,000.7,N,001.3,K,A*24
$GPGSV,2,1,07,02,37,067,47,12,49,087,48,14,22,245,34,25,79,025,47*78
$GPGSV,2,2,07,29,62,230,43,30,42,296,,31,33,310,35,,,,*49
$GPGSA,M,3,02,12,25,29,,,,,,,,,7.5,4.6,6.0*35
Trace #42 at position 10.250000
$GPZDA,092009.03,08,10,2011,00,00*6C
$GPRMC,092009.00,A,4611.956689,N,01258.216360,E,001.0,351.0,081011,0.2,E,A*3B
$GPGGA,092010.00,4611.956903,N,01258.216271,E,1,04,4.6,138.79,M,46.25,M,,*6C
$GPGLL,4611.956903,N,01258.216271,E,092010.00,A,A*6E
$GPVTG,342.1,T,342.3,M,000.7,N,001.3,K,A*24
$GPGSV,2,1,07,02,37,067,47,12,49,087,48,14,22,245,34,25,79,025,47*78
$GPGSV,2,2,07,29,62,230,43,30,42,296,,31,33,310,35,,,,*49
$GPGSA,M,3,02,12,25,29,,,,,,,,,7.5,4.6,6.0*35
Trace #43 at position 10.500000
$GPZDA,092010.03,08,10,2011,00,00*64
$GPRMC,092010.00,A,4611.956903,N,01258.216271,E,000.7,342.1,081011,0.2,E,A*3A
$GPGGA,092011.00,4611.957030,N,01258.216262,E,1,04,4.6,138.86,M,46.25,M,,*67
$GPGLL,4611.957030,N,01258.216262,E,092011.00,A,A*65
$GPVTG,39.2,T,39.3,M,000.4,N,000.8,K,A*2E
$GPGSV,2,1,07,02,37,067,47,12,49,087,48,14,22,245,36,25,79,025,48*75
$GPGSV,2,2,07,29,62,230,43,30,42,296,31,31,33,310,33,,,,*4D
$GPGSA,M,3,02,12,25,29,,,,,,,,,7.5,4.6,6.0*35
Trace #44 at position 10.750000
$GPZDA,092011.03,08,10,2011,00,00*65
$GPRMC,092011.00,A,4611.957030,N,01258.216262,E,000.4,39.2,081011,0.2,E,A*0E
$GPGGA,092012.00,4611.957164,N,01258.216304,E,1,04,4.6,138.93,M,46.25,M,,*61
$GPGLL,4611.957164,N,01258.216304,E,092012.00,A,A*67
$GPVTG,9.7,T,9.9,M,000.7,N,001.3,K,A*28
$GPGSV,2,1,07,02,37,067,47,12,49,087,48,14,22,245,35,25,79,025,48*76
$GPGSV,2,2,07,29,62,230,43,30,43,296,27,31,33,310,34,,,,*4C
$GPGSA,M,3,02,12,25,29,,,,,,,,,7.5,4.6,6.0*35
Trace #45 at position 11.000000
$GPZDA,092012.03,08,10,2011,00,00*66
$GPRMC,092012.00,A,4611.957164,N,01258.216304,E,000.7,9.7,081011,0.2,E,A*39
$GPGGA,092013.00,4611.957360,N,01258.216307,E,1,04,4.6,138.89,M,46.25,M,,*6E
$GPGLL,4611.957360,N,01258.216307,E,092013.00,A,A*63
$GPVTG,11.4,T,11.6,M,000.8,N,001.5,K,A*2D
$GPGSV,2,1,07,02,37,067,46,12,49,087,48,14,22,245,35,25,79,025,48*77
$GPGSV,2,2,07,29,62,230,44,30,43,296,29,31,33,310,34,,,,*45
$GPGSA,M,3,02,12,25,29,,,,,,,,,7.5,4.6,6.0*35
Trace #46 at position 11.250000
$GPZDA,092012.03,08,10,2011,00,00*66
$GPRMC,092012.00,A,4611.957164,N,01258.216304,E,000.7,9.7,081011,0.2,E,A*39
$GPGGA,092013.00,4611.957360,N,01258.216307,E,1,04,4.6,138.89,M,46.25,M,,*6E
$GPGLL,4611.957360,N,01258.216307,E,092013.00,A,A*63
$GPVTG,11.4,T,11.6,M,000.8,N,001.5,K,A*2D
$GPGSV,2,1,07,02,37,067,46,12,49,087,48,14,22,245,35,25,79,025,48*77
$GPGSV,2,2,07,29,62,230,44,30,43,296,29,31,33,310,34,,,,*45
$GPGSA,M,3,02,12,25,29,,,,,,,,,7.5,4.6,6.0*35
Trace #47 at position 11.500000
$GPZDA,092013.03,08,10,2011,00,00*67
$GPRMC,092013.00,A,4611.957360,N,01258.216307,E,000.8,11.4,081011,0.2,E,A*08
$GPGGA,092014.00,4611.957473,N,01258.216272,E,1,04,4.6,138.92,M,46.25,M,,*65
$GPGLL,4611.957473,N,01258.216272,E,092014.00,A,A*62
$GPVTG,317.3,T,317.5,M,000.1,N,000.1,K,A*25
$GPGSV,2,1,07,02,37,067,48,12,49,087,49,14,22,245,34,25,79,025,48*79
$GPGSV,2,2,07,29,62,230,43,30,43,296,35,31,33,310,32,,,,*49
$GPGSA,M,3,02,12,25,29,,,,,,,,,7.5,4.6,6.0*35
Trace #48 at position 11.750000
$GPZDA,092014.03,08,10,2011,00,00*60
$GPRMC,092014.00,A,4611.957473,N,01258.216272,E,000.1,317.3,081011,0.2,E,A*32
$GPGGA,092015.00,4611.957542,N,01258.216080,E,1,04,4.6,139.02,M,46.25,M,,*60
$GPGLL,4611.957542,N,01258.216080,E,092015.00,A,A*6F
$GPVTG,297.2,T,297.3,M,000.8,N,001.5,K,A*2E
$GPGSV,2,1,07,02,37,067,47,12,49,087,49,14,22,245,33,25,79,025,48*71
$GPGSV,2,2,07,29,62,230,42,30,43,296,32,31,33,310,35,,,,*48
$GPGSA,M,3,02,12,25,29,,,,,,,,,7.5,4.6,6.0*35
Trace #49 at position 12.000000
$GPZDA,092015.03,08,10,2011,00,00*61
$GPRMC,092015.00,A,4611.957542,N,01258.216080,E,000.8,297.2,081011,0.2,E,A*3E
$GPGGA,092016.00,4611.957667,N,01258.215897,E,1,04,4.6,139.11,M,46.25,M,,*68
$GPGLL,4611.957667,N,01258.215897,E,092016.00,A,A*65
$GPVTG,349.1,T,349.2,M,000.5,N,000.8,K,A*2D
$GPGSV,2,1,07,02,37,067,46,12,49,087,49,14,22,245,34,25,79,025,49*76
$GPGSV,2,2,07,29,62,230,43,30,43,296,24,31,33,310,34,,,,*4F
$GPGSA,M,3,02,12,25,29,,,,,,,,,7.5,4.6,6.0*35
Trace #50 at position 12.250000
$GPZDA,092016.03,08,10,2011,00,00*62
$GPRMC,092016.00,A,4611.957667,N,01258.215897,E,000.5,349.1,081011,0.2,E,A*38
$GPGGA,092017.00,4611.957824,N,01258.215845,E,1,04,4.6,139.20,M,46.25,M,,*6D
$GPGLL,4611.957824,N,01258.215845,E,092017.00,A,A*62
$GPVTG,354.1,T,354.2,M,000.7,N,001.2,K,A*24
$GPGSV,2,1,07,02,37,067,46,12,49,087,48,14,22,245,36,25,79,025,48*74
$GPGSV,2,2,07,29,62,230,43,30,43,296,,31,33,310,35,,,,*48
$GPGSA,M,3,02,12,25,29,,,,,,,,,7.5,4.6,6.0*35
Trace #51 at position 12.500000
$GPZDA,092017.03,08,10,2011,00,00*63
$GPRMC,092017.00,A,4611.957824,N,01258.215845,E,000.7,354.1,081011,0.2,E,A*31
$GPGGA,092018.00,4611.957923,N,01258.215814,E,1,04,4.6,139.21,M,46.25,M,,*61
$GPGLL,4611.957923,N,01258.215814,E,092018.00,A,A*6F
$GPVTG,145.7,T,145.8,M,000.1,N,000.1,K,A*2C
$GPGSV,2,1,07,02,37,067,48,12,49,087,49,14,21,245,,25,79,025,48*7D
$GPGSV,2,2,07,29,62,230,44,30,43,296,,31,33,310,32,,,,*48
$GPGSA,M,3,02,12,25,29,,,,,,,,,7.5,4.6,6.0*35
Trace #52 at position 12.750000
$GPZDA,092019.03,08,10,2011,00,00*6D
$GPRMC,092019.00,A,4611.958044,N,01258.215691,E,000.9,324.3,081011,0.2,E,A*32
$GPGGA,092020.00,4611.958165,N,01258.215553,E,1,04,4.6,139.01,M,46.25,M,,*63
$GPGLL,4611.958165,N,01258.215553,E,092020.00,A,A*6F
$GPVTG,277.5,T,277.7,M,000.1,N,000.3,K,A*23
$GPGSV,2,1,07,02,37,067,46,12,49,087,48,14,21,245,33,25,79,025,47*7D
$GPGSV,2,2,07,29,62,230,44,30,43,296,,31,33,310,32,,,,*48
$GPGSA,M,3,02,12,25,29,,,,,,,,,7.5,4.6,6.0*35
Trace #53 at position 13.000000
$GPZDA,092020.03,08,10,2011,00,00*67
$GPRMC,092020.00,A,4611.958165,N,01258.215553,E,000.1,277.5,081011,0.2,E,A*3E
$GPGGA,092021.00,4611.958250,N,01258.215502,E,1,04,4.6,138.97,M,46.25,M,,*6D
$GPGLL,4611.958250,N,01258.215502,E,092021.00,A,A*6F
$GPVTG,346.1,T,346.3,M,000.5,N,001.0,K,A*25
$GPGSV,2,1,07,02,37,067,48,12,49,087,48,14,21,245,35,25,79,025,46*74
$GPGSV,2,2,07,29,62,230,41,30,43,296,,31,33,310,33,,,,*4C
$GPGSA,M,3,02,12,25,29,,,,,,,,,7.5,4.6,6.0*35
Trace #54 at position 13.250000
$GPZDA,092021.03,08,10,2011,00,00*66
$GPRMC,092021.00,A,4611.958250,N,01258.215502,E,000.5,346.1,081011,0.2,E,A*3D
$GPGGA,092022.00,4611.958397,N,01258.215431,E,1,04,4.6,138.95,M,46.25,M,,*67
$GPGLL,4611.958397,N,01258.215431,E,092022.00,A,A*67
$GPVTG,333.4,T,333.5,M,000.6,N,001.0,K,A*25
$GPGSV,2,1,07,02,37,067,47,12,49,087,49,14,21,245,37,25,79,025,47*79
$GPGSV,2,2,07,29,62,230,42,30,43,296,,31,33,310,33,,,,*4F
$GPGSA,M,3,02,12,25,29,,,,,,,,,7.5,4.6,6.0*35
Trace #55 at position 13.500000
$GPZDA,092022.03,08,10,2011,00,00*65
$GPRMC,092022.00,A,4611.958397,N,01258.215431,E,000.6,333.4,081011,0.2,E,A*31
$GPGGA,092023.00,4611.958575,N,01258.215421,E,1,04,4.6,138.89,M,46.25,M,,*60
$GPGLL,4611.958575,N,01258.215421,E,092023.00,A,A*6D
$GPVTG,13.5,T,13.7,M,000.8,N,001.5,K,A*2D
$GPGSV,2,1,07,02,37,067,47,12,49,087,48,14,21,245,37,25,79,025,48*77
$GPGSV,2,2,07,29,62,230,42,30,43,296,,31,33,310,33,,,,*4F
$GPGSA,M,3,02,12,25,29,,,,,,,,,7.5,4.6,6.0*35
Trace #56 at position 13.750000
$GPZDA,092022.03,08,10,2011,00,00*65
$GPRMC,092022.00,A,4611.958397,N,01258.215431,E,000.6,333.4,081011,0.2,E,A*31
$GPGGA,092023.00,4611.958575,N,01258.215421,E,1,04,4.6,138.89,M,46.25,M,,*60
$GPGLL,4611.958575,N,01258.215421,E,092023.00,A,A*6D
$GPVTG,13.5,T,13.7,M,000.8,N,001.5,K,A*2D
$GPGSV,2,1,07,02,37,067,47,12,49,087,48,14,21,245,37,25,79,025,48*77
$GPGSV,2,2,07,29,62,230,42,30,43,296,,31,33,310,33,,,,*4F
$GPGSA,M,3,02,12,25,29,,,,,,,,,7.5,4.6,6.0*35
Trace #57 at position 14.000000
$GPZDA,092023.03,08,10,2011,00,00*64
$GPRMC,092023.00,A,4611.958575,N,01258.215421,E,000.8,13.5,081011,0.2,E,A*05
$GPGGA,092024.00,4611.958746,N,01258.215442,E,1,04,4.6,138.82,M,46.25,M,,*6B
$GPGLL,4611.958746,N,01258.215442,E,092024.00,A,A*6D
$GPVTG,355.0,T,355.2,M,000.5,N,000.9,K,A*2D
$GPGSV,2,1,07,02,37,067,47,12,49,087,47,14,21,245,36,25,79,025,48*79
$GPGSV,2,2,07,29,62,230,42,30,43,296,,31,33,310,34,,,,*48
$GPGSA,M,3,02,12,25,29,,,,,,,,,7.5,4.6,5.9*3F
Trace #58 at position 14.250000
$GPZDA,092024.03,08,10,2011,00,00*63
$GPRMC,092024.00,A,4611.958746,N,01258.215442,E,000.5,355.0,081011,0.2,E,A*3C
$GPGGA,092025.00,4611.958898,N,01258.215458,E,1,04,4.6,138.91,M,46.25,M,,*6F
$GPGLL,4611.958898,N,01258.215458,E,092025.00,A,A*6B
$GPVTG,17.5,T,17.7,M,000.7,N,001.3,K,A*24
$GPGSV,2,1,07,02,37,067,46,12,49,087,47,14,21,245,36,25,79,025,48*78
$GPGSV,2,2,07,29,62,230,42,30,43,296,,31,33,310,36,,,,*4A
$GPGSA,M,3,02,12,25,29,,,,,,,,,7.5,4.6,5.9*3F
Trace #59 at position 14.500000
$GPZDA,092025.03,08,10,2011,00,00*62
$GPRMC,092025.00,A,4611.958898,N,01258.215458,E,000.7,17.5,081011,0.2,E,A*08
$GPGGA,092026.00,4611.959030,N,01258.215429,E,1,04,4.6,139.01,M,46.25,M,,*69
$GPGLL,4611.959030,N,01258.215429,E,092026.00,A,A*65
$GPVTG,319.9,T,320.1,M,000.4,N,000.7,K,A*22
$GPGSV,2,1,07,02,37,067,48,12,49,087,48,14,21,245,34,25,79,025,48*7B
$GPGSV,2,2,07,29,62,230,43,30,43,296,,31,33,310,38,,,,*45
$GPGSA,M,3,02,12,25,29,,,,,,,,,7.5,4.6,5.9*3F
Trace #60 at position 14.750000
$GPZDA,092026.03,08,10,2011,00,00*61
$GPRMC,092026.00,A,4611.959030,N,01258.215429,E,000.4,319.9,081011,0.2,E,A*34
$GPGGA,092027.00,4611.959117,N,01258.215340,E,1,04,4.6,139.05,M,46.25,M,,*60
$GPGLL,4611.959117,N,01258.215340,E,092027.00,A,A*68
$GPVTG,340.0,T,340.2,M,000.3,N,000.5,K,A*27
$GPGSV,2,1,07,02,37,067,47,12,49,087,47,14,21,245,36,25,79,025,48*79
$GPGSV,2,2,07,29,62,230,42,30,43,296,,31,33,310,35,,,,*49
$GPGSA,M,3,02,12,25,29,,,,,,,,,7.5,4.6,5.9*3F
Trace #61 at position 15.000000
$GPZDA,092027.03,08,10,2011,00,00*60
$GPRMC,092027.00,A,4611.959117,N,01258.215340,E,000.3,340.0,081011,0.2,E,A*3B
$GPGGA,092028.00,4611.959206,N,01258.215287,E,1,04,4.6,139.12,M,46.25,M,,*60
$GPGLL,4611.959206,N,01258.215287,E,092028.00,A,A*6E
$GPVTG,342.1,T,342.3,M,000.2,N,000.5,K,A*26
$GPGSV,2,1,07,02,37,067,46,12,49,087,48,14,21,245,34,25,79,025,48*75
$GPGSV,2,2,07,29,62,230,44,30,43,296,,31,33,310,34,,,,*4E
$GPGSA,M,3,02,12,25,29,,,,,,,,,7.5,4.6,5.9*3F
Trace #62 at position 15.250000
$GPZDA,092028.03,08,10,2011,00,00*6F
$GPRMC,092028.00,A,4611.959206,N,01258.215287,E,000.2,342.1,081011,0.2,E,A*3F
$GPGGA,092029.00,4611.959336,N,01258.215168,E,1,04,4.6,139.15,M,46.25,M,,*66
$GPGLL,4611.959336,N,01258.215168,E,092029.00,A,A*6F
$GPVTG,319.2,T,319.4,M,000.7,N,001.3,K,A*20
$GPGSV,2,1,07,02,37,067,47,12,49,087,48,14,21,245,32,25,79,025,47*7D
$GPGSV,2,2,07,29,62,230,43,30,43,296,,31,33,310,31,,,,*4C
$GPGSA,M,3,02,12,25,29,,,,,,,,,7.5,4.6,5.9*3F
Trace #63 at position 15.500000
$GPZDA,092029.03,08,10,2011,00,00*6E
$GPRMC,092029.00,A,4611.959336,N,01258.215168,E,000.7,319.2,081011,0.2,E,A*36
$GPGGA,092030.00,4611.959442,N,01258.215107,E,1,04,4.6,139.22,M,46.25,M,,*67
$GPGLL,4611.959442,N,01258.215107,E,092030.00,A,A*6A
$GPVTG,75.9,T,76.0,M,000.2,N,000.4,K,A*2F
$GPGSV,2,1,07,02,37,067,48,12,49,087,48,14,21,244,34,25,79,025,47*75
$GPGSV,2,2,07,29,62,230,43,30,43,296,,31,34,310,35,,,,*4F
$GPGSA,M,3,02,12,25,29,,,,,,,,,7.5,4.6,5.9*3F
Trace #64 at position 15.750000
$GPZDA,092030.03,08,10,2011,00,00*66
$GPRMC,092030.00,A,4611.959442,N,01258.215107,E,000.2,75.9,081011,0.2,E,A*04
$GPGGA,092031.00,4611.959551,N,01258.215039,E,1,04,4.6,139.27,M,46.25,M,,*6C
$GPGLL,4611.959551,N,01258.215039,E,092031.00,A,A*64
$GPVTG,317.1,T,317.2,M,000.7,N,001.3,K,A*25
$GPGSV,2,1,07,02,37,067,48,12,49,087,48,14,21,244,33,25,79,025,46*73
$GPGSV,2,2,07,29,62,230,42,30,43,296,,31,34,310,35,,,,*4E
$GPGSA,M,3,02,12,25,29,,,,,,,,,7.5,4.6,5.9*3F
Trace #65 at position 16.000000
$GPZDA,092031.03,08,10,2011,00,00*67
$GPRMC,092031.00,A,4611.959551,N,01258.215039,E,000.7,317.1,081011,0.2,E,A*30
$GPGGA,092032.00,4611.959684,N,01258.214959,E,1,04,4.6,139.31,M,46.25,M,,*6D
$GPGLL,4611.959684,N,01258.214959,E,092032.00,A,A*62
$GPVTG,23.7,T,23.8,M,000.3,N,000.5,K,A*2A
$GPGSV,2,1,07,02,37,067,48,12,49,087,47,14,21,244,34,25,79,025,47*7A
$GPGSV,2,2,07,29,62,230,43,30,43,296,,31,34,310,34,,,,*4E
$GPGSA,M,3,02,12,25,29,,,,,,,,,7.5,4.6,5.9*3F
Trace #66 at position 16.250000
$GPZDA,092032.03,08,10,2011,00,00*64
$GPRMC,092032.00,A,4611.959684,N,01258.214959,E,000.3,23.7,081011,0.2,E,A*00
$GPGGA,092033.00,4611.959766,N,01258.214891,E,1,04,4.6,139.42,M,46.25,M,,*60
$GPGLL,4611.959766,N,01258.214891,E,092033.00,A,A*6B
$GPVTG,288.0,T,288.1,M,000.4,N,000.8,K,A*2E
$GPGSV,2,1,07,02,37,067,48,12,49,087,48,14,21,244,35,25,79,025,47*74
$GPGSV,2,2,07,29,62,230,42,30,43,296,,31,34,310,36,,,,*4D
$GPGSA,M,3,02,12,25,29,,,,,,,,,7.5,4.6,5.9*3F
Trace #67 at position 16.500000
$GPZDA,092033.03,08,10,2011,00,00*65
$GPRMC,092033.00,A,4611.959766,N,01258.214891,E,000.4,288.0,081011,0.2,E,A*3A
$GPGGA,092034.00,4611.959908,N,01258.214851,E,1,04,4.6,139.48,M,46.25,M,,*67
$GPGLL,4611.959908,N,01258.214851,E,092034.00,A,A*66
$GPVTG,22.7,T,22.9,M,000.7,N,001.3,K,A*28
$GPGSV,2,1,07,02,37,067,48,12,49,087,48,14,21,244,35,25,79,026,47*77
$GPGSV,2,2,07,29,62,230,44,30,43,296,,31,34,310,36,,,,*4B
$GPGSA,M,3,02,12,25,29,,,,,,,,,7.5,4.6,5.9*3F
Trace #68 at position 16.750000
$GPZDA,092034.03,08,10,2011,00,00*62
$GPRMC,092034.00,A,4611.959908,N,01258.214851,E,000.7,22.7,081011,0.2,E,A*01
$GPGGA,092035.00,4611.960068,N,01258.214889,E,1,04,4.6,139.59,M,46.25,M,,*66
$GPGLL,4611.960068,N,01258.214889,E,092035.00,A,A*67
$GPVTG,4.0,T,4.1,M,000.3,N,000.5,K,A*24
$GPGSV,2,1,07,02,37,067,48,12,49,087,49,14,21,244,33,25,79,026,47*70
$GPGSV,2,2,07,29,62,230,42,30,43,296,,31,34,310,35,,,,*4E
$GPGSA,M,3,02,12,25,29,,,,,,,,,7.5,4.6,5.9*3F
Trace #69 at position 17.000000
$GPZDA,092035.03,08,10,2011,00,00*63
$GPRMC,092035.00,A,4611.960068,N,01258.214889,E,000.3,4.0,081011,0.2,E,A*37
$GPGGA,092036.00,4611.960212,N,01258.214864,E,1,04,4.6,139.59,M,46.25,M,,*69
$GPGLL,4611.960212,N,01258.214864,E,092036.00,A,A*68
$GPVTG,0.0,T,0.2,M,000.6,N,001.1,K,A*27
$GPGSV,2,1,07,02,37,067,47,12,49,087,49,14,21,244,38,25,79,026,48*7B
$GPGSV,2,2,07,29,62,230,43,30,43,296,,31,34,310,35,,,,*4F
$GPGSA,M,3,02,12,25,29,,,,,,,,,7.5,4.6,5.9*3F
Trace #70 at position 17.250000
$GPZDA,092036.03,08,10,2011,00,00*60
$GPRMC,092036.00,A,4611.960212,N,01258.214864,E,000.6,0.0,081011,0.2,E,A*39
$GPGGA,092037.00,4611.960443,N,01258.214834,E,1,04,4.6,139.34,M,46.25,M,,*64
$GPGLL,4611.960443,N,01258.214834,E,092037.00,A,A*6E
$GPVTG,0.5,T,0.6,M,001.0,N,001.8,K,A*28
$GPGSV,2,1,07,02,37,067,46,12,49,087,49,14,21,244,35,25,79,026,49*76
$GPGSV,2,2,07,29,62,230,43,30,43,296,,31,34,310,34,,,,*4E
$GPGSA,M,3,02,12,25,29,,,,,,,,,7.5,4.6,5.9*3F
Trace #71 at position 17.500000
$GPZDA,092036.03,08,10,2011,00,00*60
$GPRMC,092036.00,A,4611.960212,N,01258.214864,E,000.6,0.0,081011,0.2,E,A*39
$GPGGA,092037.00,4611.960443,N,01258.214834,E,1,04,4.6,139.34,M,46.25,M,,*64
$GPGLL,4611.960443,N,01258.214834,E,092037.00,A,A*6E
$GPVTG,0.5,T,0.6,M,001.0,N,001.8,K,A*28
$GPGSV,2,1,07,02,37,067,46,12,49,087,49,14,21,244,35,25,79,026,49*76
$GPGSV,2,2,07,29,62,230,43,30,43,296,,31,34,310,34,,,,*4E
$GPGSA,M,3,02,12,25,29,,,,,,,,,7.5,4.6,5.9*3F
Trace #72 at position 17.750000
$GPZDA,092037.03,08,10,2011,00,00*61
$GPRMC,092037.00,A,4611.960443,N,01258.214834,E,001.0,0.5,081011,0.2,E,A*3D
$GPGGA,092038.00,4611.960677,N,01258.214749,E,1,04,4.5,139.10,M,46.25,M,,*6E
$GPGLL,4611.960677,N,01258.214749,E,092038.00,A,A*61
$GPVTG,337.4,T,337.6,M,000.8,N,001.4,K,A*2C
$GPGSV,2,1,07,02,37,067,48,12,49,087,48,14,21,244,34,25,79,026,48*79
$GPGSV,2,2,07,29,62,230,42,30,43,296,,31,34,310,35,,,,*4E
$GPGSA,M,3,02,12,25,29,,,,,,,,,7.5,4.5,5.9*3C
Trace #73 at position 18.000000
$GPZDA,092038.03,08,10,2011,00,00*6E
$GPRMC,092038.00,A,4611.960677,N,01258.214749,E,000.8,337.4,081011,0.2,E,A*3D
$GPGGA,092039.00,4611.960857,N,01258.214683,E,1,04,4.5,139.02,M,46.25,M,,*67
$GPGLL,4611.960857,N,01258.214683,E,092039.00,A,A*6B
$GPVTG,10.8,T,11.0,M,000.6,N,001.2,K,A*2F
$GPGSV,2,1,07,02,37,067,48,12,49,087,49,14,21,244,34,25,79,026,49*79
$GPGSV,2,2,07,29,62,230,44,30,43,296,,31,34,310,33,,,,*4E
$GPGSA,M,3,02,12,25,29,,,,,,,,,7.5,4.5,5.9*3C
Trace #74 at position 18.250000
$GPZDA,092039.03,08,10,2011,00,00*6F
$GPRMC,092039.00,A,4611.960857,N,01258.214683,E,000.6,10.8,081011,0.2,E,A*03
$GPGGA,092040.00,4611.961020,N,01258.214594,E,1,04,4.5,138.93,M,46.25,M,,*6C
$GPGLL,4611.961020,N,01258.214594,E,092040.00,A,A*69
$GPVTG,323.6,T,323.7,M,000.7,N,001.4,K,A*20
$GPGSV,2,1,07,02,37,067,47,12,49,087,48,14,21,244,33,25,79,026,48*71
$GPGSV,2,2,07,29,62,230,43,30,43,296,,31,34,310,35,,,,*4F
$GPGSA,M,3,02,12,25,29,,,,,,,,,7.5,4.5,5.9*3C
Trace #75 at position 18.500000
$GPZDA,092040.03,08,10,2011,00,00*61
$GPRMC,092040.00,A,4611.961020,N,01258.214594,E,000.7,323.6,081011,0.2,E,A*3D
$GPGGA,092041.00,4611.961166,N,01258.214491,E,1,04,4.5,138.81,M,46.25,M,,*69
$GPGLL,4611.961166,N,01258.214491,E,092041.00,A,A*6F
$GPVTG,0.5,T,0.7,M,000.6,N,001.0,K,A*26
$GPGSV,2,1,07,02,37,067,47,12,49,087,48,14,21,244,36,25,79,026,49*75
$GPGSV,2,2,07,29,62,230,43,30,43,296,,31,34,310,32,,,,*48
$GPGSA,M,3,02,12,25,29,,,,,,,,,7.5,4.5,5.9*3C
Trace #76 at position 18.750000
$GPZDA,092042.03,08,10,2011,00,00*63
$GPRMC,092042.00,A,4611.961266,N,01258.214508,E,000.3,34.3,081011,0.2,E,A*0E
$GPGGA,092043.00,4611.961228,N,01258.214400,E,1,04,4.5,139.09,M,46.25,M,,*6B
$GPGLL,4611.961228,N,01258.214400,E,092043.00,A,A*6C
$GPVTG,225.7,T,225.9,M,000.9,N,001.7,K,A*22
$GPGSV,2,1,07,02,37,067,46,12,49,087,48,14,21,244,34,25,79,026,48*77
$GPGSV,2,2,07,29,62,230,43,30,43,296,29,31,34,310,31,,,,*40
$GPGSA,M,3,02,12,25,29,,,,,,,,,7.5,4.5,5.9*3C
Trace #77 at position 19.000000
$GPZDA,092044.03,08,10,2011,00,00*65
$GPRMC,092044.00,A,4611.961166,N,01258.214265,E,000.0,273.2,081011,0.2,E,A*34
$GPGGA,092045.00,4611.961211,N,01258.214244,E,1,04,4.5,139.40,M,46.25,M,,*6C
$GPGLL,4611.961211,N,01258.214244,E,092045.00,A,A*66
$GPVTG,335.0,T,335.2,M,000.2,N,000.3,K,A*20
$GPGSV,2,1,07,02,37,067,47,12,49,087,49,14,21,244,32,25,79,026,49*70
$GPGSV,2,2,07,29,62,230,42,30,43,296,,31,34,310,32,,,,*49
$GPGSA,M,3,02,12,25,29,,,,,,,,,7.5,4.5,5.9*3C
Trace #78 at position 19.250000
$GPZDA,092045.03,08,10,2011,00,00*64
$GPRMC,092045.00,A,4611.961211,N,01258.214244,E,000.2,335.0,081011,0.2,E,A*36
$GPGGA,092046.00,4611.961280,N,01258.214259,E,1,04,4.5,139.44,M,46.25,M,,*6F
$GPGLL,4611.961280,N,01258.214259,E,092046.00,A,A*61
$GPVTG,55.2,T,55.4,M,000.2,N,000.4,K,A*23
$GPGSV,2,1,07,02,37,067,47,12,49,087,48,14,21,244,34,25,79,026,49*77
$GPGSV,2,2,07,29,62,230,43,30,43,296,,31,34,310,32,,,,*48
$GPGSA,M,3,02,12,25,29,,,,,,,,,7.5,4.5,5.9*3C
Trace #79 at position 19.500000
$GPZDA,092046.03,08,10,2011,00,00*67
$GPRMC,092046.00,A,4611.961280,N,01258.214259,E,000.2,55.2,081011,0.2,E,A*06
$GPGGA,092047.00,4611.961395,N,01258.214238,E,1,04,4.5,139.35,M,46.25,M,,*6A
$GPGLL,4611.961395,N,01258.214238,E,092047.00,A,A*62
$GPVTG,337.3,T,337.5,M,000.5,N,001.0,K,A*21
$GPGSV,2,1,07,02,37,067,46,12,49,087,49,14,21,244,36,25,79,026,49*75
$GPGSV,2,2,07,29,62,230,44,30,43,296,,31,34,310,35,,,,*48
$GPGSA,M,3,02,12,25,29,,,,,,,,,7.5,4.5,5.9*3C
Trace #80 at position 19.750000
$GPZDA,092047.03,08,10,2011,00,00*66
$GPRMC,092047.00,A,4611.961395,N,01258.214238,E,000.5,337.3,081011,0.2,E,A*34
$GPGGA,092048.00,4611.961593,N,01258.214176,E,1,04,4.5,139.19,M,46.25,M,,*62
$GPGLL,4611.961593,N,01258.214176,E,092048.00,A,A*64
$GPVTG,357.0,T,357.2,M,000.8,N,001.4,K,A*2C
$GPGSV,2,1,07,02,37,067,46,12,49,087,49,14,21,244,35,25,79,026,48*77
$GPGSV,2,2,07,29,62,230,44,30,43,296,,31,34,310,31,,,,*4C
$GPGSA,M,3,02,12,25,29,,,,,,,,,7.5,4.5,5.9*3C
Trace #81 at position 20.000000
$GPZDA,092049.03,08,10,2011,00,00*68
$GPRMC,092049.00,A,4611.961786,N,01258.214124,E,000.6,341.9,081011,0.2,E,A*3A
$GPGGA,092050.00,4611.961959,N,01258.214040,E,1,04,4.5,139.07,M,46.25,M,,*6A
$GPGLL,4611.961959,N,01258.214040,E,092050.00,A,A*63
$GPVTG,343.6,T,343.8,M,000.7,N,001.4,K,A*2F
$GPGSV,2,1,07,02,37,067,47,12,49,088,48,14,21,244,36,25,79,026,49*7A
$GPGSV,2,2,07,29,62,230,45,30,43,296,,31,34,310,27,,,,*4A
$GPGSA,M,3,02,12,25,29,,,,,,,,,7.5,4.5,5.9*3C
Trace #82 at position 20.250000
$GPZDA,092050.03,08,10,2011,00,00*60
$GPRMC,092050.00,A,4611.961959,N,01258.214040,E,000.7,343.6,081011,0.2,E,A*31
$GPGGA,092051.00,4611.962136,N,01258.213939,E,1,04,4.5,138.94,M,46.25,M,,*62
$GPGLL,4611.962136,N,01258.213939,E,092051.00,A,A*60
$GPVTG,333.4,T,333.6,M,000.7,N,001.3,K,A*24
$GPGSV,2,1,07,02,37,067,47,12,49,088,48,14,21,244,34,25,79,026,48*79
$GPGSV,2,2,07,29,62,230,45,30,43,296,,31,34,310,31,,,,*4D
$GPGSA,M,3,02,12,25,29,,,,,,,,,7.5,4.5,5.9*3C
Trace #83 at position 20.500000
$GPZDA,092051.03,08,10,2011,00,00*61
$GPRMC,092051.00,A,4611.962136,N,01258.213939,E,000.7,333.4,081011,0.2,E,A*37
$GPGGA,092052.00,4611.962274,N,01258.213845,E,1,04,4.5,138.82,M,46.25,M,,*69
$GPGLL,4611.962274,N,01258.213845,E,092052.00,A,A*6C
$GPVTG,335.0,T,335.2,M,000.5,N,000.9,K,A*2D
$GPGSV,2,1,07,02,37,067,47,12,49,088,48,14,21,244,35,25,79,026,48*78
$GPGSV,2,2,07,29,62,230,44,30,43,296,,31,34,310,34,,,,*49
$GPGSA,M,3,02,12,25,29,,,,,,,,,7.5,4.5,5.9*3C
Trace #84 at position 20.750000
$GPZDA,092052.03,08,10,2011,00,00*62
$GPRMC,092052.00,A,4611.962274,N,01258.213845,E,000.5,335.0,081011,0.2,E,A*3B
$GPGGA,092053.00,4611.962396,N,01258.213758,E,1,04,4.5,138.84,M,46.25,M,,*60
$GPGLL,4611.962396,N,01258.213758,E,092053.00,A,A*63
$GPVTG,328.3,T,328.4,M,000.6,N,001.1,K,A*22
$GPGSV,2,1,07,02,37,067,47,12,49,088,48,14,21,244,34,25,79,026,49*78
$GPGSV,2,2,07,29,62,230,43,30,43,296,,31,34,310,32,,,,*48
$GPGSA,M,3,02,12,25,29,,,,,,,,,7.4,4.5,5.9*3D
Trace #85 at position 21.000000
$GPZDA,092053.03,08,10,2011,00,00*63
$GPRMC,092053.00,A,4611.962396,N,01258.213758,E,000.6,328.3,081011,0.2,E,A*38
$GPGGA,092054.00,4611.962515,N,01258.213797,E,1,04,4.5,138.83,M,46.25,M,,*6E
$GPGLL,4611.962515,N,01258.213797,E,092054.00,A,A*6A
$GPVTG,49.6,T,49.8,M,000.6,N,001.2,K,A*28
$GPGSV,2,1,07,02,37,067,46,12,49,088,48,14,21,244,35,25,79,026,49*78
$GPGSV,2,2,07,29,62,230,45,30,43,296,,31,34,310,34,,,,*48
$GPGSA,M,3,02,12,25,29,,,,,,,,,7.4,4.5,5.9*3D
Trace #86 at position 21.250000
$GPZDA,092054.03,08,10,2011,00,00*64
$GPRMC,092054.00,A,4611.962515,N,01258.213797,E,000.6,49.6,081011,0.2,E,A*00
$GPGGA,092055.00,4611.962658,N,01258.213915,E,1,04,4.5,138.82,M,46.25,M,,*60
$GPGLL,4611.962658,N,01258.213915,E,092055.00,A,A*65
$GPVTG,17.6,T,17.8,M,000.7,N,001.3,K,A*28
$GPGSV,2,1,07,02,37,067,46,12,49,088,48,14,21,244,35,25,79,026,48*79
$GPGSV,2,2,07,29,62,230,45,30,43,296,,31,34,310,36,,,,*4A
$GPGSA,M,3,02,12,25,29,,,,,,,,,7.4,4.5,5.9*3D
Trace #87 at position 21.500000
$GPZDA,092054.03,08,10,2011,00,00*64
$GPRMC,092054.00,A,4611.962515,N,01258.213797,E,000.6,49.6,081011,0.2,E,A*00
$GPGGA,092055.00,4611.962658,N,01258.213915,E,1,04,4.5,138.82,M,46.25,M,,*60
$GPGLL,4611.962658,N,01258.213915,E,092055.00,A,A*65
$GPVTG,17.6,T,17.8,M,000.7,N,001.3,K,A*28
$GPGSV,2,1,07,02,37,067,46,12,49,088,48,14,21,244,35,25,79,026,48*79
$GPGSV,2,2,07,29,62,230,45,30,43,296,,31,34,310,36,,,,*4A
$GPGSA,M,3,02,12,25,29,,,,,,,,,7.4,4.5,5.9*3D
Trace #88 at position 21.750000
$GPZDA,092056.03,08,10,2011,00,00*66
$GPRMC,092056.00,A,4611.962788,N,01258.214063,E,000.8,67.6,081011,0.2,E,A*0D
$GPGGA,092057.00,4611.962964,N,01258.214046,E,1,04,4.5,138.77,M,46.25,M,,*60
$GPGLL,4611.962964,N,01258.214046,E,092057.00,A,A*6F
$GPVTG,331.6,T,331.7,M,001.2,N,002.1,K,A*22
$GPGSV,2,1,07,02,37,067,46,12,49,088,49,14,21,244,35,25,79,027,48*79
$GPGSV,2,2,07,29,62,230,44,30,43,296,,31,34,310,31,,,,*4C
$GPGSA,M,3,02,12,25,29,,,,,,,,,7.4,4.5,5.9*3D
Trace #89 at position 22.000000
$GPZDA,092057.03,08,10,2011,00,00*67
$GPRMC,092057.00,A,4611.962964,N,01258.214046,E,001.2,331.6,081011,0.2,E,A*3C
$GPGGA,092058.00,4611.963102,N,01258.213902,E,1,04,4.5,138.85,M,46.25,M,,*65
$GPGLL,4611.963102,N,01258.213902,E,092058.00,A,A*67
$GPVTG,19.6,T,19.7,M,000.1,N,000.2,K,A*21
$GPGSV,2,1,07,02,37,067,47,12,49,088,48,14,21,244,35,25,79,027,48*79
$GPGSV,2,2,07,29,62,230,44,30,43,296,,31,34,310,28,,,,*44
$GPGSA,M,3,02,12,25,29,,,,,,,,,7.4,4.5,5.9*3D
Trace #90 at position 22.250000
$GPZDA,092058.03,08,10,2011,00,00*68
$GPRMC,092058.00,A,4611.963102,N,01258.213902,E,000.1,19.6,081011,0.2,E,A*0F
$GPGGA,092059.00,4611.963162,N,01258.213901,E,1,04,4.5,138.97,M,46.25,M,,*62
$GPGLL,4611.963162,N,01258.213901,E,092059.00,A,A*63
$GPVTG,24.2,T,24.4,M,000.5,N,000.8,K,A*28
$GPGSV,2,1,07,02,37,067,47,12,49,088,49,14,21,244,35,25,79,027,48*78
$GPGSV,2,2,07,29,62,230,44,30,43,296,,31,34,310,34,,,,*49
$GPGSA,M,3,02,12,25,29,,,,,,,,,7.4,4.5,5.9*3D
Trace #91 at position 22.500000
$GPZDA,092059.03,08,10,2011,00,00*69
$GPRMC,092059.00,A,4611.963162,N,01258.213901,E,000.5,24.2,081011,0.2,E,A*05
$GPGGA,092100.00,4611.963304,N,01258.213849,E,1,04,4.5,138.94,M,46.25,M,,*63
$GPGLL,4611.963304,N,01258.213849,E,092100.00,A,A*61
$GPVTG,342.6,T,342.8,M,000.7,N,001.3,K,A*28
$GPGSV,2,1,07,02,37,067,48,12,49,088,48,14,21,244,35,25,79,027,47*79
$GPGSV,2,2,07,29,62,230,44,30,43,296,,31,34,310,34,,,,*49
$GPGSA,M,3,02,12,25,29,,,,,,,,,7.4,4.5,5.9*3D
Trace #92 at position 22.750000
$GPZDA,092100.03,08,10,2011,00,00*64
$GPRMC,092100.00,A,4611.963304,N,01258.213849,E,000.7,342.6,081011,0.2,E,A*32
$GPGGA,092101.00,4611.963483,N,01258.213641,E,1,04,4.5,138.85,M,46.25,M,,*6C
$GPGLL,4611.963483,N,01258.213641,E,092101.00,A,A*6E
$GPVTG,315.9,T,316.0,M,001.0,N,001.8,K,A*21
$GPGSV,2,1,07,02,37,067,47,12,49,088,48,14,21,244,35,25,79,027,48*79
$GPGSV,2,2,07,29,62,230,43,30,43,296,,31,34,310,34,,,,*4E
$GPGSA,M,3,02,12,25,29,,,,,,,,,7.4,4.5,5.9*3D
Trace #93 at position 23.000000
$GPZDA,092101.03,08,10,2011,00,00*65
$GPRMC,092101.00,A,4611.963483,N,01258.213641,E,001.0,315.9,081011,0.2,E,A*36
$GPGGA,092102.00,4611.963675,N,01258.213457,E,1,04,4.5,138.87,M,46.25,M,,*63
$GPGLL,4611.963675,N,01258.213457,E,092102.00,A,A*63
$GPVTG,346.0,T,346.2,M,000.9,N,001.6,K,A*2F
$GPGSV,2,1,07,02,37,067,47,12,49,088,48,14,21,244,33,25,79,027,46*71
$GPGSV,2,2,07,29,62,230,42,30,43,296,,31,34,310,34,,,,*4F
$GPGSA,M,3,02,12,25,29,,,,,,,,,7.4,4.5,5.9*3D
Trace #94 at position 23.250000
$GPZDA,092102.03,08,10,2011,00,00*66
$GPRMC,092102.00,A,4611.963675,N,01258.213457,E,000.9,346.0,081011,0.2,E,A*3C
$GPGGA,092103.00,4611.963863,N,01258.213333,E,1,04,4.5,138.96,M,46.25,M,,*6E
$GPGLL,4611.963863,N,01258.213333,E,092103.00,A,A*6E
$GPVTG,332.1,T,332.3,M,000.8,N,001.5,K,A*2D
$GPGSV,2,1,07,02,37,067,47,12,49,088,48,14,21,244,35,25,79,027,47*76
$GPGSV,2,2,07,29,62,230,44,30,43,296,,31,34,310,37,,,,*4A
$GPGSA,M,3,02,12,25,29,,,,,,,,,7.4,4.5,5.9*3D
Trace #95 at position 23.500000
$GPZDA,092102.03,08,10,2011,00,00*66
$GPRMC,092102.00,A,4611.963675,N,01258.213457,E,000.9,346.0,081011,0.2,E,A*3C
$GPGGA,092103.00,4611.963863,N,01258.213333,E,1,04,4.5,138.96,M,46.25,M,,*6E
$GPGLL,4611.963863,N,01258.213333,E,092103.00,A,A*6E
$GPVTG,332.1,T,332.3,M,000.8,N,001.5,K,A*2D
$GPGSV,2,1,07,02,37,067,47,12,49,088,48,14,21,244,35,25,79,027,47*76
$GPGSV,2,2,07,29,62,230,44,30,43,296,,31,34,310,37,,,,*4A
$GPGSA,M,3,02,12,25,29,,,,,,,,,7.4,4.5,5.9*3D
Trace #96 at position 23.750000
$GPZDA,092103.03,08,10,2011,00,00*67
$GPRMC,092103.00,A,4611.963863,N,01258.213333,E,000.8,332.1,081011,0.2,E,A*32
$GPGGA,092104.00,4611.964054,N,01258.213223,E,1,04,4.5,138.91,M,46.25,M,,*65
$GPGLL,4611.964054,N,01258.213223,E,092104.00,A,A*62
$GPVTG,348.8,T,349.0,M,000.9,N,001.7,K,A*25
$GPGSV,2,1,07,02,37,067,47,12,49,088,49,14,21,244,36,25,79,027,47*74
$GPGSV,2,2,07,29,62,230,43,30,43,296,,31,34,310,33,,,,*49
$GPGSA,M,3,02,12,25,29,,,,,,,,,7.4,4.5,5.9*3D
Trace #97 at position 24.000000
$GPZDA,092104.03,08,10,2011,00,00*60
$GPRMC,092104.00,A,4611.964054,N,01258.213223,E,000.9,348.8,081011,0.2,E,A*3B
$GPGGA,092105.00,4611.964197,N,01258.213184,E,1,04,4.5,138.87,M,46.25,M,,*63
$GPGLL,4611.964197,N,01258.213184,E,092105.00,A,A*63
$GPVTG,0.4,T,0.6,M,000.4,N,000.7,K,A*22
$GPGSV,2,1,07,02,37,067,47,12,49,088,48,14,21,244,35,25,79,027,46*77
$GPGSV,2,2,07,29,62,230,44,30,43,296,36,31,34,310,37,,,,*4F
$GPGSA,M,3,02,12,25,29,,,,,,,,,7.4,4.5,5.9*3D
Trace #98 at position 24.250000
$GPZDA,092105.03,08,10,2011,00,00*61
$GPRMC,092105.00,A,4611.964197,N,01258.213184,E,000.4,0.4,081011,0.2,E,A*34
$GPGGA,092106.00,4611.964286,N,01258.213109,E,1,04,4.5,138.94,M,46.25,M,,*64
$GPGLL,4611.964286,N,01258.213109,E,092106.00,A,A*66
$GPVTG,322.0,T,322.1,M,000.6,N,001.0,K,A*25
$GPGSV,2,1,07,02,37,067,48,12,49,088,48,14,21,244,32,25,79,027,47*7E
$GPGSV,2,2,07,29,62,230,43,30,43,296,35,31,34,310,34,,,,*48
$GPGSA,M,3,02,12,25,29,,,,,,,,,7.4,4.5,5.9*3D
Trace #99 at position 24.500000
$GPZDA,092106.03,08,10,2011,00,00*62
$GPRMC,092106.00,A,4611.964286,N,01258.213109,E,000.6,322.0,081011,0.2,E,A*34
$GPGGA,092107.00,4611.964411,N,01258.212938,E,1,04,4.5,139.02,M,46.25,M,,*68
$GPGLL,4611.964411,N,01258.212938,E,092107.00,A,A*64
$GPVTG,318.1,T,318.2,M,000.8,N,001.5,K,A*2C
$GPGSV,2,1,07,02,37,067,47,12,49,088,48,14,21,244,34,25,79,027,47*77
$GPGSV,2,2,07,29,62,230,43,30,43,296,35,31,34,310,36,,,,*4A
$GPGSA,M,3,02,12,25,29,,,,,,,,,7.4,4.5,5.9*3D
Trace #100 at position 24.750000
$GPZDA,092108.03,08,10,2011,00,00*6C
$GPRMC,092108.00,A,4611.964531,N,01258.212851,E,000.3,15.3,081011,0.2,E,A*05
$GPGGA,092109.00,4611.964588,N,01258.212849,E,1,04,4.5,139.29,M,46.25,M,,*69
$GPGLL,4611.964588,N,01258.212849,E,092109.00,A,A*6C
$GPVTG,310.4,T,310.6,M,000.2,N,000.3,K,A*20
$GPGSV,2,1,07,02,37,067,47,12,49,088,48,14,21,244,33,25,79,027,47*70
$GPGSV,2,2,07,29,62,230,42,30,43,296,24,31,34,310,33,,,,*4E
$GPGSA,M,3,02,12,25,29,,,,,,,,,7.4,4.5,5.9*3D
Trace #101 at position 25.000000
$GPZDA,092112.03,08,10,2011,00,00*67
$GPRMC,092112.00,A,4611.964629,N,01258.212624,E,000.2,135.2,081011,0.2,E,A*3B
$GPGGA,092113.00,4611.964619,N,01258.212670,E,1,04,4.5,139.56,M,46.25,M,,*65
$GPGLL,4611.964619,N,01258.212670,E,092113.00,A,A*68
$GPVTG,171.3,T,171.5,M,000.0,N,000.1,K,A*24
$GPGSV,2,1,07,02,37,066,47,12,49,088,47,14,21,244,32,25,79,027,47*7F
$GPGSV,2,2,07,29,62,230,42,30,43,296,31,31,34,310,33,,,,*4A
$GPGSA,M,3,02,12,25,29,,,,,,,,,7.4,4.5,5.9*3D
Trace #102 at position 25.250000
$GPZDA,092113.03,08,10,2011,00,00*66
$GPRMC,092113.00,A,4611.964619,N,01258.212670,E,000.0,171.3,081011,0.2,E,A*3B
$GPGGA,092114.00,4611.964625,N,01258.212667,E,1,04,4.5,139.45,M,46.25,M,,*69
$GPGLL,4611.964625,N,01258.212667,E,092114.00,A,A*66
$GPVTG,269.7,T,269.8,M,000.1,N,000.2,K,A*2F
$GPGSV,2,1,07,02,37,066,47,12,49,088,48,14,21,244,32,25,79,027,48*7F
$GPGSV,2,2,07,29,62,230,43,30,43,296,,31,34,310,34,,,,*4E
$GPGSA,M,3,02,12,25,29,,,,,,,,,7.4,4.5,5.9*3D
Trace #103 at position 25.500000
$GPZDA,092114.03,08,10,2011,00,00*61
$GPRMC,092114.00,A,4611.964625,N,01258.212667,E,000.1,269.7,081011,0.2,E,A*3A
$GPGGA,092115.00,4611.964676,N,01258.212614,E,1,04,4.5,139.37,M,46.25,M,,*6F
$GPGLL,4611.964676,N,01258.212614,E,092115.00,A,A*65
$GPVTG,318.7,T,318.9,M,000.4,N,000.7,K,A*2E
$GPGSV,2,1,07,02,37,066,47,12,49,088,48,14,21,244,36,25,79,027,47*74
$GPGSV,2,2,07,29,62,230,43,30,43,296,27,31,34,310,33,,,,*4C
$GPGSA,M,3,02,12,25,29,,,,,,,,,7.4,4.5,5.9*3D
Trace #104 at position 25.750000
$GPZDA,092115.03,08,10,2011,00,00*60
$GPRMC,092115.00,A,4611.964676,N,01258.212614,E,000.4,318.7,081011,0.2,E,A*3B
$GPGGA,092116.00,4611.964788,N,01258.212571,E,1,04,4.5,139.38,M,46.25,M,,*63
$GPGLL,4611.964788,N,01258.212571,E,092116.00,A,A*66
$GPVTG,350.5,T,350.7,M,000.4,N,000.8,K,A*2D
$GPGSV,2,1,07,02,37,066,47,12,49,088,48,14,21,244,36,25,79,027,47*74
$GPGSV,2,2,07,29,62,230,43,30,43,296,31,31,34,310,36,,,,*4E
$GPGSA,M,3,02,12,25,29,,,,,,,,,7.4,4.5,5.9*3D
Trace #105 at position 26.000000
$GPZDA,092116.03,08,10,2011,00,00*63
$GPRMC,092116.00,A,4611.964788,N,01258.212571,E,000.4,350.5,081011,0.2,E,A*36
$GPGGA,092117.00,4611.964940,N,01258.212561,E,1,04,4.5,139.42,M,46.25,M,,*64
$GPGLL,4611.964940,N,01258.212561,E,092117.00,A,A*6C
$GPVTG,351.7,T,351.9,M,000.6,N,001.1,K,A*2B
$GPGSV,2,1,07,02,37,066,47,12,49,088,48,14,21,244,34,25,79,027,47*76
$GPGSV,2,2,07,29,62,230,43,30,43,296,32,31,34,310,37,,,,*4C
$GPGSA,M,3,02,12,25,29,,,,,,,,,7.4,4.5,5.9*3D
Trace #106 at position 26.250000
$GPZDA,092118.03,08,10,2011,00,00*6D
$GPRMC,092118.00,A,4611.965077,N,01258.212565,E,000.3,6.8,081011,0.2,E,A*31
$GPGGA,092119.00,4611.965136,N,01258.212580,E,1,04,4.5,139.56,M,46.25,M,,*68
$GPGLL,4611.965136,N,01258.212580,E,092119.00,A,A*65
$GPVTG,146.0,T,146.2,M,000.0,N,000.1,K,A*20
$GPGSV,2,1,07,02,37,066,48,12,49,088,48,14,21,244,36,25,79,027,47*7B
$GPGSV,2,2,07,29,62,230,44,30,43,296,28,31,34,310,35,,,,*42
$GPGSA,M,3,02,12,25,29,,,,,,,,,7.4,4.5,5.9*3D
Trace #107 at position 26.500000
$GPZDA,092119.03,08,10,2011,00,00*6C
$GPRMC,092119.00,A,4611.965136,N,01258.212580,E,000.0,146.0,081011,0.2,E,A*31
$GPGGA,092120.00,4611.965201,N,01258.212567,E,1,04,4.5,139.60,M,46.25,M,,*69
$GPGLL,4611.965201,N,01258.212567,E,092120.00,A,A*61
$GPVTG,346.0,T,346.2,M,000.4,N,000.7,K,A*22
$GPGSV,2,1,07,02,37,066,47,12,49,088,48,14,21,244,35,25,79,027,47*77
$GPGSV,2,2,07,29,62,230,44,30,43,296,33,31,34,310,38,,,,*45
$GPGSA,M,3,02,12,25,29,,,,,,,,,7.4,4.5,5.9*3D
Trace #108 at position 26.750000
$GPZDA,092119.03,08,10,2011,00,00*6C
$GPRMC,092119.00,A,4611.965136,N,01258.212580,E,000.0,146.0,081011,0.2,E,A*31
$GPGGA,092120.00,4611.965201,N,01258.212567,E,1,04,4.5,139.60,M,46.25,M,,*69
$GPGLL,4611.965201,N,01258.212567,E,092120.00,A,A*61
$GPVTG,346.0,T,346.2,M,000.4,N,000.7,K,A*22
$GPGSV,2,1,07,02,37,066,47,12,49,088,48,14,21,244,35,25,79,027,47*77
$GPGSV,2,2,07,29,62,230,44,30,43,296,33,31,34,310,38,,,,*45
$GPGSA,M,3,02,12,25,29,,,,,,,,,7.4,4.5,5.9*3D
Trace #109 at position 27.000000
$GPZDA,092120.03,08,10,2011,00,00*66
$GPRMC,092120.00,A,4611.965201,N,01258.212567,E,000.4,346.0,081011,0.2,E,A*33
$GPGGA,092121.00,4611.965317,N,01258.212492,E,1,04,4.5,139.63,M,46.25,M,,*66
$GPGLL,4611.965317,N,01258.212492,E,092121.00,A,A*6D
$GPVTG,317.7,T,317.9,M,000.5,N,000.8,K,A*20
$GPGSV,2,1,07,02,37,066,48,12,49,088,49,14,21,244,35,25,79,027,47*79
$GPGSV,2,2,07,29,62,230,43,30,43,296,32,31,34,310,37,,,,*4C
$GPGSA,M,3,02,12,25,29,,,,,,,,,7.4,4.5,5.9*3D
Trace #110 at position 27.250000
$GPZDA,092122.03,08,10,2011,00,00*64
$GPRMC,092122.00,A,4611.965496,N,01258.212375,E,000.9,337.9,081011,0.2,E,A*3E
$GPGGA,092123.00,4611.965681,N,01258.212263,E,1,04,4.5,139.50,M,46.25,M,,*66
$GPGLL,4611.965681,N,01258.212263,E,092123.00,A,A*6D
$GPVTG,324.9,T,325.0,M,000.5,N,001.0,K,A*2F
$GPGSV,2,1,07,02,37,066,47,12,49,088,49,14,21,244,35,25,79,028,48*76
$GPGSV,2,2,07,29,62,230,44,30,43,296,,31,34,310,35,,,,*48
$GPGSA,M,3,02,12,25,29,,,,,,,,,7.4,4.5,5.9*3D
Trace #111 at position 27.500000
$GPZDA,092123.03,08,10,2011,00,00*65
$GPRMC,092123.00,A,4611.965681,N,01258.212263,E,000.5,324.9,081011,0.2,E,A*33
$GPGGA,092124.00,4611.965740,N,01258.212264,E,1,04,4.5,139.55,M,46.25,M,,*6F
$GPGLL,4611.965740,N,01258.212264,E,092124.00,A,A*61
$GPVTG,106.4,T,106.5,M,000.3,N,000.5,K,A*24
$GPGSV,2,1,07,02,37,066,48,12,49,088,49,14,21,244,36,25,79,028,48*7A
$GPGSV,2,2,07,29,62,230,43,30,43,296,,31,34,310,36,,,,*4C
$GPGSA,M,3,02,12,25,29,,,,,,,,,7.4,4.5,5.9*3D
Trace #112 at position 27.750000
$GPZDA,092124.03,08,10,2011,00,00*62
$GPRMC,092124.00,A,4611.965740,N,01258.212264,E,000.3,106.4,081011,0.2,E,A*36
$GPGGA,092125.00,4611.965763,N,01258.212367,E,1,04,4.5,139.59,M,46.25,M,,*61
$GPGLL,4611.965763,N,01258.212367,E,092125.00,A,A*63
$GPVTG,64.7,T,64.8,M,000.3,N,000.6,K,A*29
$GPGSV,2,1,07,02,37,066,48,12,49,088,48,14,21,244,38,25,79,028,48*75
$GPGSV,2,2,07,29,62,230,41,30,43,296,,31,34,310,30,,,,*48
$GPGSA,M,3,02,12,25,29,,,,,,,,,7.4,4.5,5.9*3D
Trace #113 at position 28.000000
$GPZDA,092125.03,08,10,2011,00,00*63
$GPRMC,092125.00,A,4611.965763,N,01258.212367,E,000.3,64.7,081011,0.2,E,A*02
$GPGGA,092126.00,4611.965855,N,01258.212322,E,1,04,4.5,139.51,M,46.25,M,,*61
$GPGLL,4611.965855,N,01258.212322,E,092126.00,A,A*6B
$GPVTG,309.5,T,309.7,M,000.6,N,001.2,K,A*24
$GPGSV,2,1,07,02,37,066,48,12,49,088,49,14,21,244,34,25,79,028,47*77
$GPGSV,2,2,07,29,62,230,43,30,43,296,35,31,34,310,38,,,,*44
$GPGSA,M,3,02,12,25,29,,,,,,,,,7.4,4.5,5.9*3D
Trace #114 at position 28.250000
$GPZDA,092126.03,08,10,2011,00,00*60
$GPRMC,092126.00,A,4611.965855,N,01258.212322,E,000.6,309.5,081011,0.2,E,A*35
$GPGGA,092127.00,4611.965965,N,01258.212250,E,1,04,4.5,139.49,M,46.25,M,,*6F
$GPGLL,4611.965965,N,01258.212250,E,092127.00,A,A*6C
$GPVTG,31.0,T,31.2,M,000.3,N,000.5,K,A*27
$GPGSV,2,1,07,02,37,066,48,12,49,088,49,14,21,244,31,25,79,028,47*72
$GPGSV,2,2,07,29,62,230,42,30,43,296,32,31,34,310,37,,,,*4D
$GPGSA,M,3,02,12,25,29,,,,,,,,,7.4,4.5,5.9*3D
Trace #115 at position 28.500000
$GPZDA,092127.03,08,10,2011,00,00*61
$GPRMC,092127.00,A,4611.965965,N,01258.212250,E,000.3,31.0,081011,0.2,E,A*0A
$GPGGA,092128.00,4611.966125,N,01258.212194,E,1,04,4.5,139.46,M,46.25,M,,*6B
$GPGLL,4611.966125,N,01258.212194,E,092128.00,A,A*67
$GPVTG,330.9,T,331.1,M,000.8,N,001.6,K,A*25
$GPGSV,2,1,07,02,37,066,48,12,49,088,49,14,21,244,32,25,79,028,47*71
$GPGSV,2,2,07,29,62,230,42,30,43,296,32,31,34,310,36,,,,*4C
$GPGSA,M,3,02,12,25,29,,,,,,,,,7.4,4.5,5.9*3D
Trace #116 at position 28.750000
$GPZDA,092128.03,08,10,2011,00,00*6E
$GPRMC,092128.00,A,4611.966125,N,01258.212194,E,000.8,330.9,081011,0.2,E,A*31
$GPGGA,092129.00,4611.966350,N,01258.212012,E,1,04,4.5,139.50,M,46.25,M,,*62
$GPGLL,4611.966350,N,01258.212012,E,092129.00,A,A*69
$GPVTG,325.1,T,325.2,M,000.9,N,001.7,K,A*2F
$GPGSV,2,1,07,02,37,066,47,12,49,088,48,14,21,244,33,25,79,028,48*71
$GPGSV,2,2,07,29,62,230,42,30,43,296,27,31,34,310,36,,,,*48
$GPGSA,M,3,02,12,25,29,,,,,,,,,7.4,4.5,5.9*3D
Trace #117 at position 29.000000
$GPZDA,092129.03,08,10,2011,00,00*6F
$GPRMC,092129.00,A,4611.966350,N,01258.212012,E,000.9,325.1,081011,0.2,E,A*32
$GPGGA,092130.00,4611.966552,N,01258.211983,E,1,04,4.5,139.61,M,46.25,M,,*6E
$GPGLL,4611.966552,N,01258.211983,E,092130.00,A,A*67
$GPVTG,28.9,T,29.0,M,000.7,N,001.4,K,A*29
$GPGSV,2,1,07,02,37,066,48,12,49,088,49,14,21,244,34,25,79,028,47*77
$GPGSV,2,2,07,29,62,230,42,30,43,296,31,31,34,310,37,,,,*4E
$GPGSA,M,3,02,12,25,29,,,,,,,,,7.4,4.5,5.9*3D
Trace #118 at position 29.250000
$GPZDA,092130.03,08,10,2011,00,00*67
$GPRMC,092130.00,A,4611.966552,N,01258.211983,E,000.7,28.9,081011,0.2,E,A*04
$GPGGA,092131.00,4611.966685,N,01258.212036,E,1,04,4.5,139.67,M,46.25,M,,*64
