Trace #1 at position 0.000000
$GPZDA,114335.02,08,10,2011,00,00*6E
$GPRMC,114324.00,V,,,,,,,,,,N*7C
$GPGGA,114336.00,4611.960816,N,01258.217182,E,1,04,7.7,145.72,M,46.25,M,,*69
$GPGLL,4611.960816,N,01258.217182,E,114336.00,A,A*68
$GPVTG,274.8,T,275.0,M,000.0,N,000.1,K,A*2B
$GPGSV,2,1,08,16,21,307,,21,63,180,35,05,17,048,39,06,18,270,*74
$GPGSV,2,2,08,25,25,133,33,29,52,065,45,30,67,155,43,31,38,230,41*77
$GPGSA,M,3,05,29,30,31,,,,,,,,,9.6,7.7,5.6*3D
Trace #2 at position 0.250000
$GPZDA,114343.04,08,10,2011,00,00*69
$GPRMC,114343.00,A,4611.957999,N,01258.221296,E,000.2,120.1,081011,0.2,E,A*3C
$GPGGA,114344.00,4611.957451,N,01258.221734,E,1,06,1.6,142.18,M,46.25,M,,*67
$GPGLL,4611.957451,N,01258.221734,E,114344.00,A,A*68
$GPVTG,161.6,T,161.7,M,000.1,N,000.1,K,A*22
$GPGSV,2,1,08,16,21,308,,21,63,180,43,05,17,048,38,06,18,270,33*7B
$GPGSV,2,2,08,25,25,133,42,29,52,065,42,30,67,155,45,31,38,230,45*74
$GPGSA,M,3,21,05,25,29,30,31,,,,,,,2.5,1.6,2.0*37
Trace #3 at position 0.500000
$GPZDA,114345.04,08,10,2011,00,00*6F
$GPRMC,114345.00,A,4611.957001,N,01258.222072,E,000.2,332.1,081011,0.2,E,A*38
$GPGGA,114346.00,4611.956702,N,01258.222315,E,1,06,1.6,140.68,M,46.25,M,,*60
$GPGLL,4611.956702,N,01258.222315,E,114346.00,A,A*6A
$GPVTG,338.6,T,338.7,M,000.7,N,001.3,K,A*27
$GPGSV,2,1,08,16,21,308,,21,63,180,44,05,17,048,39,06,18,270,31*7F
$GPGSV,2,2,08,25,25,133,40,29,52,065,42,30,67,155,45,31,38,230,44*77
$GPGSA,M,3,21,05,25,29,30,31,,,,,,,2.5,1.6,2.0*37
Trace #4 at position 0.750000
$GPZDA,114345.04,08,10,2011,00,00*6F
$GPRMC,114345.00,A,4611.957001,N,01258.222072,E,000.2,332.1,081011,0.2,E,A*38
$GPGGA,114346.00,4611.956702,N,01258.222315,E,1,06,1.6,140.68,M,46.25,M,,*60
$GPGLL,4611.956702,N,01258.222315,E,114346.00,A,A*6A
$GPVTG,338.6,T,338.7,M,000.7,N,001.3,K,A*27
$GPGSV,2,1,08,16,21,308,,21,63,180,44,05,17,048,39,06,18,270,31*7F
$GPGSV,2,2,08,25,25,133,40,29,52,065,42,30,67,155,45,31,38,230,44*77
$GPGSA,M,3,21,05,25,29,30,31,,,,,,,2.5,1.6,2.0*37
Trace #5 at position 1.000000
$GPZDA,114346.03,08,10,2011,00,00*6B
$GPRMC,114346.00,A,4611.956702,N,01258.222315,E,000.7,338.6,081011,0.2,E,A*34
$GPGGA,114347.00,4611.956459,N,01258.222547,E,1,06,1.6,140.14,M,46.25,M,,*66
$GPGLL,4611.956459,N,01258.222547,E,114347.00,A,A*67
$GPVTG,7.9,T,8.1,M,000.3,N,000.5,K,A*22
$GPGSV,2,1,08,16,21,308,,21,63,180,44,05,17,048,40,06,18,270,29*78
$GPGSV,2,2,08,25,25,133,39,29,52,065,41,30,67,155,45,31,38,230,44*7A
$GPGSA,M,3,21,05,25,29,30,31,,,,,,,2.5,1.6,2.0*37
Trace #6 at position 1.250000
$GPZDA,114347.04,08,10,2011,00,00*6D
$GPRMC,114347.00,A,4611.956459,N,01258.222547,E,000.3,7.9,081011,0.2,E,A*3D
$GPGGA,114348.00,4611.956290,N,01258.222870,E,1,06,1.6,139.65,M,46.25,M,,*6B
$GPGLL,4611.956290,N,01258.222870,E,114348.00,A,A*62
$GPVTG,28.4,T,28.6,M,001.0,N,001.8,K,A*29
$GPGSV,2,1,08,16,21,308,,21,63,180,44,05,17,048,39,06,18,270,29*76
$GPGSV,2,2,08,25,25,133,39,29,52,065,42,30,67,155,45,31,38,230,44*79
$GPGSA,M,3,21,05,25,29,30,31,,,,,,,2.5,1.6,2.0*37
Trace #7 at position 1.500000
$GPZDA,114347.04,08,10,2011,00,00*6D
$GPRMC,114347.00,A,4611.956459,N,01258.222547,E,000.3,7.9,081011,0.2,E,A*3D
$GPGGA,114348.00,4611.956290,N,01258.222870,E,1,06,1.6,139.65,M,46.25,M,,*6B
$GPGLL,4611.956290,N,01258.222870,E,114348.00,A,A*62
$GPVTG,28.4,T,28.6,M,001.0,N,001.8,K,A*29
$GPGSV,2,1,08,16,21,308,,21,63,180,44,05,17,048,39,06,18,270,29*76
$GPGSV,2,2,08,25,25,133,39,29,52,065,42,30,67,155,45,31,38,230,44*79
$GPGSA,M,3,21,05,25,29,30,31,,,,,,,2.5,1.6,2.0*37
Trace #8 at position 1.750000
$GPZDA,114348.04,08,10,2011,00,00*62
$GPRMC,114348.00,A,4611.956290,N,01258.222870,E,001.0,28.4,081011,0.2,E,A*0A
$GPGGA,114349.00,4611.956179,N,01258.223118,E,1,06,1.6,139.22,M,46.25,M,,*6B
$GPGLL,4611.956179,N,01258.223118,E,114349.00,A,A*61
$GPVTG,347.8,T,348.0,M,000.4,N,000.8,K,A*28
$GPGSV,2,1,08,16,21,308,,21,63,180,45,05,17,048,39,06,18,270,29*77
$GPGSV,2,2,08,25,25,133,40,29,52,065,42,30,67,155,46,31,38,230,44*74
$GPGSA,M,3,21,05,25,29,30,31,,,,,,,2.5,1.6,2.0*37
Trace #9 at position 2.000000
$GPZDA,114349.03,08,10,2011,00,00*64
$GPRMC,114349.00,A,4611.956179,N,01258.223118,E,000.4,347.8,081011,0.2,E,A*3A
$GPGGA,114350.00,4611.956105,N,01258.223191,E,1,06,1.6,138.88,M,46.25,M,,*68
$GPGLL,4611.956105,N,01258.223191,E,114350.00,A,A*63
$GPVTG,340.5,T,340.6,M,000.9,N,001.6,K,A*2E
$GPGSV,2,1,08,16,21,308,,21,63,180,44,05,17,048,39,06,18,270,29*76
$GPGSV,2,2,08,25,25,133,39,29,52,065,41,30,67,155,45,31,38,230,44*7A
$GPGSA,M,3,21,05,25,29,30,31,,,,,,,2.5,1.6,2.0*37
Trace #10 at position 2.250000
$GPZDA,114349.03,08,10,2011,00,00*64
$GPRMC,114349.00,A,4611.956179,N,01258.223118,E,000.4,347.8,081011,0.2,E,A*3A
$GPGGA,114350.00,4611.956105,N,01258.223191,E,1,06,1.6,138.88,M,46.25,M,,*68
$GPGLL,4611.956105,N,01258.223191,E,114350.00,A,A*63
$GPVTG,340.5,T,340.6,M,000.9,N,001.6,K,A*2E
$GPGSV,2,1,08,16,21,308,,21,63,180,44,05,17,048,39,06,18,270,29*76
$GPGSV,2,2,08,25,25,133,39,29,52,065,41,30,67,155,45,31,38,230,44*7A
$GPGSA,M,3,21,05,25,29,30,31,,,,,,,2.5,1.6,2.0*37
Trace #11 at position 2.500000
$GPZDA,114350.04,08,10,2011,00,00*6B
$GPRMC,114350.00,A,4611.956105,N,01258.223191,E,000.9,340.5,081011,0.2,E,A*3F
$GPGGA,114351.00,4611.956063,N,01258.223274,E,1,06,1.6,138.59,M,46.25,M,,*6C
$GPGLL,4611.956063,N,01258.223274,E,114351.00,A,A*6B
$GPVTG,5.2,T,5.4,M,000.5,N,000.8,K,A*28
$GPGSV,2,1,08,16,21,308,,21,63,180,44,05,17,048,38,06,18,270,30*7F
$GPGSV,2,2,08,25,25,133,38,29,52,065,41,30,67,155,45,31,38,230,44*7B
$GPGSA,M,3,21,05,25,29,30,31,,,,,,,2.5,1.6,2.0*37
Trace #12 at position 2.750000
$GPZDA,114351.03,08,10,2011,00,00*6D
$GPRMC,114351.00,A,4611.956063,N,01258.223274,E,000.5,5.2,081011,0.2,E,A*3E
$GPGGA,114352.00,4611.956045,N,01258.223425,E,1,06,1.6,138.25,M,46.25,M,,*62
$GPGLL,4611.956045,N,01258.223425,E,114352.00,A,A*6E
$GPVTG,14.3,T,14.5,M,000.8,N,001.5,K,A*29
$GPGSV,2,1,08,16,21,308,,21,63,180,44,05,17,048,37,06,18,270,31*71
$GPGSV,2,2,08,25,25,133,39,29,52,065,41,30,67,155,43,31,38,230,45*7D
$GPGSA,M,3,21,05,25,29,30,31,,,,,,,2.5,1.6,2.0*37
Trace #13 at position 3.000000
$GPZDA,114352.03,08,10,2011,00,00*6E
$GPRMC,114352.00,A,4611.956045,N,01258.223425,E,000.8,14.3,081011,0.2,E,A*07
$GPGGA,114353.00,4611.955994,N,01258.223545,E,1,06,1.6,137.99,M,46.25,M,,*6A
$GPGLL,4611.955994,N,01258.223545,E,114353.00,A,A*6E
$GPVTG,358.9,T,359.1,M,000.0,N,000.0,K,A*2A
$GPGSV,2,1,08,16,21,308,,21,63,180,44,05,17,048,39,06,18,270,*7D
$GPGSV,2,2,08,25,25,133,39,29,52,065,42,30,67,155,43,31,38,230,46*7D
$GPGSA,M,3,21,05,25,29,30,31,,,,,,,2.5,1.6,2.0*37
Trace #14 at position 3.250000
$GPZDA,114352.03,08,10,2011,00,00*6E
$GPRMC,114352.00,A,4611.956045,N,01258.223425,E,000.8,14.3,081011,0.2,E,A*07
$GPGGA,114353.00,4611.955994,N,01258.223545,E,1,06,1.6,137.99,M,46.25,M,,*6A
$GPGLL,4611.955994,N,01258.223545,E,114353.00,A,A*6E
$GPVTG,358.9,T,359.1,M,000.0,N,000.0,K,A*2A
$GPGSV,2,1,08,16,21,308,,21,63,180,44,05,17,048,39,06,18,270,*7D
$GPGSV,2,2,08,25,25,133,39,29,52,065,42,30,67,155,43,31,38,230,46*7D
$GPGSA,M,3,21,05,25,29,30,31,,,,,,,2.5,1.6,2.0*37
Trace #15 at position 3.500000
$GPZDA,114353.04,08,10,2011,00,00*68
$GPRMC,114353.00,A,4611.955994,N,01258.223545,E,000.0,358.9,081011,0.2,E,A*3E
$GPGGA,114354.00,4611.955914,N,01258.223614,E,1,06,1.6,137.88,M,46.25,M,,*62
$GPGLL,4611.955914,N,01258.223614,E,114354.00,A,A*66
$GPVTG,4.2,T,4.4,M,000.4,N,000.6,K,A*27
$GPGSV,2,1,08,16,21,308,,21,63,180,45,05,17,048,39,06,18,270,30*7F
$GPGSV,2,2,08,25,25,133,39,29,52,065,40,30,67,155,43,31,38,230,46*7F
$GPGSA,M,3,21,05,25,29,30,31,,,,,,,2.5,1.6,2.0*37
Trace #16 at position 3.750000
$GPZDA,114354.03,08,10,2011,00,00*68
$GPRMC,114354.00,A,4611.955914,N,01258.223614,E,000.4,4.2,081011,0.2,E,A*33
$GPGGA,114355.00,4611.955945,N,01258.223633,E,1,06,1.6,137.73,M,46.25,M,,*66
$GPGLL,4611.955945,N,01258.223633,E,114355.00,A,A*66
$GPVTG,344.9,T,345.0,M,000.7,N,001.2,K,A*2F
$GPGSV,2,1,08,16,21,308,,21,63,180,46,05,17,048,37,06,18,270,*71
$GPGSV,2,2,08,25,25,133,40,29,52,065,40,30,67,155,45,31,38,230,45*74
$GPGSA,M,3,21,05,25,29,30,31,,,,,,,2.5,1.6,2.0*37
Trace #17 at position 4.000000
$GPZDA,114354.03,08,10,2011,00,00*68
$GPRMC,114354.00,A,4611.955914,N,01258.223614,E,000.4,4.2,081011,0.2,E,A*33
$GPGGA,114355.00,4611.955945,N,01258.223633,E,1,06,1.6,137.73,M,46.25,M,,*66
$GPGLL,4611.955945,N,01258.223633,E,114355.00,A,A*66
$GPVTG,344.9,T,345.0,M,000.7,N,001.2,K,A*2F
$GPGSV,2,1,08,16,21,308,,21,63,180,46,05,17,048,37,06,18,270,*71
$GPGSV,2,2,08,25,25,133,40,29,52,065,40,30,67,155,45,31,38,230,45*74
$GPGSA,M,3,21,05,25,29,30,31,,,,,,,2.5,1.6,2.0*37
Trace #18 at position 4.250000
$GPZDA,114355.03,08,10,2011,00,00*69
$GPRMC,114355.00,A,4611.955945,N,01258.223633,E,000.7,344.9,081011,0.2,E,A*3C
$GPGGA,114356.00,4611.956039,N,01258.223524,E,1,06,1.6,137.51,M,46.25,M,,*61
$GPGLL,4611.956039,N,01258.223524,E,114356.00,A,A*61
$GPVTG,317.2,T,317.4,M,001.0,N,001.8,K,A*2D
$GPGSV,2,1,08,16,21,308,,21,63,180,46,05,17,048,37,06,18,270,*71
$GPGSV,2,2,08,25,25,133,41,29,52,065,41,30,67,155,45,31,38,230,45*74
$GPGSA,M,3,21,05,25,29,30,31,,,,,,,2.5,1.6,2.0*37
Trace #19 at position 4.500000
$GPZDA,114356.03,08,10,2011,00,00*6A
$GPRMC,114356.00,A,4611.956039,N,01258.223524,E,001.0,317.2,081011,0.2,E,A*30
$GPGGA,114357.00,4611.956137,N,01258.223401,E,1,06,1.6,137.32,M,46.25,M,,*6C
$GPGLL,4611.956137,N,01258.223401,E,114357.00,A,A*69
$GPVTG,335.4,T,335.5,M,000.6,N,001.2,K,A*27
$GPGSV,2,1,08,16,21,308,,21,63,180,45,05,17,048,38,06,18,270,32*7C
$GPGSV,2,2,08,25,25,133,40,29,52,065,41,30,67,155,45,31,38,230,45*75
$GPGSA,M,3,21,05,25,29,30,31,,,,,,,2.5,1.6,2.0*37
Trace #20 at position 4.750000
$GPZDA,114356.03,08,10,2011,00,00*6A
$GPRMC,114356.00,A,4611.956039,N,01258.223524,E,001.0,317.2,081011,0.2,E,A*30
$GPGGA,114357.00,4611.956137,N,01258.223401,E,1,06,1.6,137.32,M,46.25,M,,*6C
$GPGLL,4611.956137,N,01258.223401,E,114357.00,A,A*69
$GPVTG,335.4,T,335.5,M,000.6,N,001.2,K,A*27
$GPGSV,2,1,08,16,21,308,,21,63,180,45,05,17,048,38,06,18,270,32*7C
$GPGSV,2,2,08,25,25,133,40,29,52,065,41,30,67,155,45,31,38,230,45*75
$GPGSA,M,3,21,05,25,29,30,31,,,,,,,2.5,1.6,2.0*37
Trace #21 at position 5.000000
$GPZDA,114357.04,08,10,2011,00,00*6C
$GPRMC,114357.00,A,4611.956137,N,01258.223401,E,000.6,335.4,081011,0.2,E,A*39
$GPGGA,114358.00,4611.956234,N,01258.223284,E,1,06,1.6,137.18,M,46.25,M,,*60
$GPGLL,4611.956234,N,01258.223284,E,114358.00,A,A*6D
$GPVTG,312.3,T,312.5,M,000.9,N,001.6,K,A*2B
$GPGSV,2,1,08,16,21,308,,21,63,180,45,05,17,048,37,06,18,270,33*72
$GPGSV,2,2,08,25,25,133,40,29,52,065,41,30,67,155,45,31,38,230,45*75
$GPGSA,M,3,21,05,25,29,30,31,,,,,,,2.5,1.6,2.0*37
Trace #22 at position 5.250000
$GPZDA,114357.04,08,10,2011,00,00*6C
$GPRMC,114357.00,A,4611.956137,N,01258.223401,E,000.6,335.4,081011,0.2,E,A*39
$GPGGA,114358.00,4611.956234,N,01258.223284,E,1,06,1.6,137.18,M,46.25,M,,*60
$GPGLL,4611.956234,N,01258.223284,E,114358.00,A,A*6D
$GPVTG,312.3,T,312.5,M,000.9,N,001.6,K,A*2B
$GPGSV,2,1,08,16,21,308,,21,63,180,45,05,17,048,37,06,18,270,33*72
$GPGSV,2,2,08,25,25,133,40,29,52,065,41,30,67,155,45,31,38,230,45*75
$GPGSA,M,3,21,05,25,29,30,31,,,,,,,2.5,1.6,2.0*37
Trace #23 at position 5.500000
$GPZDA,114358.04,08,10,2011,00,00*63
$GPRMC,114358.00,A,4611.956234,N,01258.223284,E,000.9,312.3,081011,0.2,E,A*30
$GPGGA,114359.00,4611.956346,N,01258.223182,E,1,06,1.6,137.07,M,46.25,M,,*6E
$GPGLL,4611.956346,N,01258.223182,E,114359.00,A,A*6D
$GPVTG,338.5,T,338.7,M,000.7,N,001.2,K,A*25
$GPGSV,2,1,08,16,21,308,,21,63,180,44,05,17,048,39,06,18,270,31*7F
$GPGSV,2,2,08,25,25,133,41,29,52,065,41,30,67,155,44,31,38,230,45*75
$GPGSA,M,3,21,05,25,29,30,31,,,,,,,2.5,1.6,2.0*37
Trace #24 at position 5.750000
$GPZDA,114358.04,08,10,2011,00,00*63
$GPRMC,114358.00,A,4611.956234,N,01258.223284,E,000.9,312.3,081011,0.2,E,A*30
$GPGGA,114359.00,4611.956346,N,01258.223182,E,1,06,1.6,137.07,M,46.25,M,,*6E
$GPGLL,4611.956346,N,01258.223182,E,114359.00,A,A*6D
$GPVTG,338.5,T,338.7,M,000.7,N,001.2,K,A*25
$GPGSV,2,1,08,16,21,308,,21,63,180,44,05,17,048,39,06,18,270,31*7F
$GPGSV,2,2,08,25,25,133,41,29,52,065,41,30,67,155,44,31,38,230,45*75
$GPGSA,M,3,21,05,25,29,30,31,,,,,,,2.5,1.6,2.0*37
Trace #25 at position 6.000000
$GPZDA,114359.04,08,10,2011,00,00*62
$GPRMC,114359.00,A,4611.956346,N,01258.223182,E,000.7,338.5,081011,0.2,E,A*30
$GPGGA,114400.00,4611.956451,N,01258.223231,E,1,06,1.6,136.95,M,46.25,M,,*65
$GPGLL,4611.956451,N,01258.223231,E,114400.00,A,A*6C
$GPVTG,26.6,T,26.8,M,000.5,N,000.9,K,A*21
$GPGSV,2,1,08,16,21,308,,21,63,180,44,05,17,048,39,06,18,270,30*7E
$GPGSV,2,2,08,25,25,133,41,29,52,065,39,30,67,155,44,31,38,230,45*7A
$GPGSA,M,3,21,05,25,29,30,31,,,,,,,2.5,1.6,2.0*37
Trace #26 at position 6.250000
$GPZDA,114359.04,08,10,2011,00,00*62
$GPRMC,114359.00,A,4611.956346,N,01258.223182,E,000.7,338.5,081011,0.2,E,A*30
$GPGGA,114400.00,4611.956451,N,01258.223231,E,1,06,1.6,136.95,M,46.25,M,,*65
$GPGLL,4611.956451,N,01258.223231,E,114400.00,A,A*6C
$GPVTG,26.6,T,26.8,M,000.5,N,000.9,K,A*21
$GPGSV,2,1,08,16,21,308,,21,63,180,44,05,17,048,39,06,18,270,30*7E
$GPGSV,2,2,08,25,25,133,41,29,52,065,39,30,67,155,44,31,38,230,45*7A
$GPGSA,M,3,21,05,25,29,30,31,,,,,,,2.5,1.6,2.0*37
Trace #27 at position 6.500000
$GPZDA,114400.03,08,10,2011,00,00*6E
$GPRMC,114400.00,A,4611.956451,N,01258.223231,E,000.5,26.6,081011,0.2,E,A*0C
$GPGGA,114401.00,4611.956596,N,01258.223278,E,1,06,1.6,136.76,M,46.25,M,,*6E
$GPGLL,4611.956596,N,01258.223278,E,114401.00,A,A*6A
$GPVTG,351.5,T,351.7,M,000.8,N,001.5,K,A*2D
$GPGSV,2,1,08,16,21,308,,21,63,180,44,05,17,048,38,06,18,270,33*7C
$GPGSV,2,2,08,25,25,133,42,29,52,065,39,30,67,155,45,31,38,230,45*78
$GPGSA,M,3,21,05,25,29,30,31,,,,,,,2.5,1.6,2.0*37
Trace #28 at position 6.750000
$GPZDA,114400.03,08,10,2011,00,00*6E
$GPRMC,114400.00,A,4611.956451,N,01258.223231,E,000.5,26.6,081011,0.2,E,A*0C
$GPGGA,114401.00,4611.956596,N,01258.223278,E,1,06,1.6,136.76,M,46.25,M,,*6E
$GPGLL,4611.956596,N,01258.223278,E,114401.00,A,A*6A
$GPVTG,351.5,T,351.7,M,000.8,N,001.5,K,A*2D
$GPGSV,2,1,08,16,21,308,,21,63,180,44,05,17,048,38,06,18,270,33*7C
$GPGSV,2,2,08,25,25,133,42,29,52,065,39,30,67,155,45,31,38,230,45*78
$GPGSA,M,3,21,05,25,29,30,31,,,,,,,2.5,1.6,2.0*37
Trace #29 at position 7.000000
$GPZDA,114401.03,08,10,2011,00,00*6F
$GPRMC,114401.00,A,4611.956596,N,01258.223278,E,000.8,351.5,081011,0.2,E,A*37
$GPGGA,114402.00,4611.956787,N,01258.223141,E,1,06,1.6,136.69,M,46.25,M,,*68
$GPGLL,4611.956787,N,01258.223141,E,114402.00,A,A*62
$GPVTG,315.3,T,315.5,M,001.0,N,001.8,K,A*2D
$GPGSV,2,1,08,16,21,308,,21,63,180,44,05,17,048,39,06,18,270,30*7E
$GPGSV,2,2,08,25,25,133,43,29,52,065,41,30,67,155,45,31,38,230,45*76
$GPGSA,M,3,21,05,25,29,30,31,,,,,,,2.5,1.6,2.0*37
Trace #30 at position 7.250000
$GPZDA,114401.03,08,10,2011,00,00*6F
$GPRMC,114401.00,A,4611.956596,N,01258.223278,E,000.8,351.5,081011,0.2,E,A*37
$GPGGA,114402.00,4611.956787,N,01258.223141,E,1,06,1.6,136.69,M,46.25,M,,*68
$GPGLL,4611.956787,N,01258.223141,E,114402.00,A,A*62
$GPVTG,315.3,T,315.5,M,001.0,N,001.8,K,A*2D
$GPGSV,2,1,08,16,21,308,,21,63,180,44,05,17,048,39,06,18,270,30*7E
$GPGSV,2,2,08,25,25,133,43,29,52,065,41,30,67,155,45,31,38,230,45*76
$GPGSA,M,3,21,05,25,29,30,31,,,,,,,2.5,1.6,2.0*37
Trace #31 at position 7.500000
$GPZDA,114402.04,08,10,2011,00,00*6B
$GPRMC,114402.00,A,4611.956787,N,01258.223141,E,001.0,315.3,081011,0.2,E,A*30
$GPGGA,114403.00,4611.957049,N,01258.222830,E,1,05,2.2,136.34,M,46.25,M,,*6F
$GPGLL,4611.957049,N,01258.222830,E,114403.00,A,A*69
$GPVTG,297.2,T,297.3,M,001.1,N,002.0,K,A*20
$GPGSV,2,1,08,16,21,308,,21,63,180,44,05,17,048,35,06,18,270,*71
$GPGSV,2,2,08,25,25,133,42,29,52,065,42,30,67,155,45,31,38,230,45*74
$GPGSA,M,3,21,25,29,30,31,,,,,,,,3.6,2.2,2.9*3E
Trace #32 at position 7.750000
$GPZDA,114402.04,08,10,2011,00,00*6B
$GPRMC,114402.00,A,4611.956787,N,01258.223141,E,001.0,315.3,081011,0.2,E,A*30
$GPGGA,114403.00,4611.957049,N,01258.222830,E,1,05,2.2,136.34,M,46.25,M,,*6F
$GPGLL,4611.957049,N,01258.222830,E,114403.00,A,A*69
$GPVTG,297.2,T,297.3,M,001.1,N,002.0,K,A*20
$GPGSV,2,1,08,16,21,308,,21,63,180,44,05,17,048,35,06,18,270,*71
$GPGSV,2,2,08,25,25,133,42,29,52,065,42,30,67,155,45,31,38,230,45*74
$GPGSA,M,3,21,25,29,30,31,,,,,,,,3.6,2.2,2.9*3E
Trace #33 at position 8.000000
$GPZDA,114403.04,08,10,2011,00,00*6A
$GPRMC,114403.00,A,4611.957049,N,01258.222830,E,001.1,297.2,081011,0.2,E,A*30
$GPGGA,114404.00,4611.957296,N,01258.222465,E,1,05,2.2,136.05,M,46.25,M,,*66
$GPGLL,4611.957296,N,01258.222465,E,114404.00,A,A*62
$GPVTG,298.3,T,298.4,M,001.3,N,002.4,K,A*20
$GPGSV,2,1,08,16,21,308,,21,63,180,44,05,17,048,35,06,18,270,32*70
$GPGSV,2,2,08,25,25,133,40,29,52,065,41,30,67,155,46,31,38,230,45*76
$GPGSA,M,3,21,25,29,30,31,,,,,,,,3.6,2.2,2.9*3E
Trace #34 at position 8.250000
$GPZDA,114403.04,08,10,2011,00,00*6A
$GPRMC,114403.00,A,4611.957049,N,01258.222830,E,001.1,297.2,081011,0.2,E,A*30
$GPGGA,114404.00,4611.957296,N,01258.222465,E,1,05,2.2,136.05,M,46.25,M,,*66
$GPGLL,4611.957296,N,01258.222465,E,114404.00,A,A*62
$GPVTG,298.3,T,298.4,M,001.3,N,002.4,K,A*20
$GPGSV,2,1,08,16,21,308,,21,63,180,44,05,17,048,35,06,18,270,32*70
$GPGSV,2,2,08,25,25,133,40,29,52,065,41,30,67,155,46,31,38,230,45*76
$GPGSA,M,3,21,25,29,30,31,,,,,,,,3.6,2.2,2.9*3E
Trace #35 at position 8.500000
$GPZDA,114404.03,08,10,2011,00,00*6A
$GPRMC,114404.00,A,4611.957296,N,01258.222465,E,001.3,298.3,081011,0.2,E,A*37
$GPGGA,114405.00,4611.957618,N,01258.222140,E,1,05,2.2,135.72,M,46.25,M,,*64
$GPGLL,4611.957618,N,01258.222140,E,114405.00,A,A*63
$GPVTG,320.5,T,320.7,M,001.4,N,002.6,K,A*20
$GPGSV,2,1,08,16,21,308,,21,63,180,44,05,17,048,35,06,18,270,*71
$GPGSV,2,2,08,25,25,133,41,29,52,065,42,30,67,155,46,31,38,230,44*75
$GPGSA,M,3,21,25,29,30,31,,,,,,,,3.6,2.2,2.9*3E
Trace #36 at position 8.750000
$GPZDA,114404.03,08,10,2011,00,00*6A
$GPRMC,114404.00,A,4611.957296,N,01258.222465,E,001.3,298.3,081011,0.2,E,A*37
$GPGGA,114405.00,4611.957618,N,01258.222140,E,1,05,2.2,135.72,M,46.25,M,,*64
$GPGLL,4611.957618,N,01258.222140,E,114405.00,A,A*63
$GPVTG,320.5,T,320.7,M,001.4,N,002.6,K,A*20
$GPGSV,2,1,08,16,21,308,,21,63,180,44,05,17,048,35,06,18,270,*71
$GPGSV,2,2,08,25,25,133,41,29,52,065,42,30,67,155,46,31,38,230,44*75
$GPGSA,M,3,21,25,29,30,31,,,,,,,,3.6,2.2,2.9*3E
Trace #37 at position 9.000000
$GPZDA,114405.03,08,10,2011,00,00*6B
$GPRMC,114405.00,A,4611.957618,N,01258.222140,E,001.4,320.5,081011,0.2,E,A*35
$GPGGA,114406.00,4611.957996,N,01258.222005,E,1,05,2.2,135.31,M,46.25,M,,*69
$GPGLL,4611.957996,N,01258.222005,E,114406.00,A,A*69
$GPVTG,348.9,T,349.1,M,001.1,N,002.1,K,A*29
$GPGSV,2,1,08,16,21,308,,21,63,180,44,05,17,048,36,06,18,270,34*75
$GPGSV,2,2,08,25,25,133,41,29,52,065,41,30,67,155,44,31,38,230,44*74
$GPGSA,M,3,21,25,29,30,31,,,,,,,,3.6,2.2,2.9*3E
Trace #38 at position 9.250000
$GPZDA,114405.03,08,10,2011,00,00*6B
$GPRMC,114405.00,A,4611.957618,N,01258.222140,E,001.4,320.5,081011,0.2,E,A*35
$GPGGA,114406.00,4611.957996,N,01258.222005,E,1,05,2.2,135.31,M,46.25,M,,*69
$GPGLL,4611.957996,N,01258.222005,E,114406.00,A,A*69
$GPVTG,348.9,T,349.1,M,001.1,N,002.1,K,A*29
$GPGSV,2,1,08,16,21,308,,21,63,180,44,05,17,048,36,06,18,270,34*75
$GPGSV,2,2,08,25,25,133,41,29,52,065,41,30,67,155,44,31,38,230,44*74
$GPGSA,M,3,21,25,29,30,31,,,,,,,,3.6,2.2,2.9*3E
Trace #39 at position 9.500000
$GPZDA,114406.03,08,10,2011,00,00*68
$GPRMC,114406.00,A,4611.957996,N,01258.222005,E,001.1,348.9,081011,0.2,E,A*38
$GPGGA,114407.00,4611.958331,N,01258.221890,E,1,05,2.2,134.95,M,46.25,M,,*68
$GPGLL,4611.958331,N,01258.221890,E,114407.00,A,A*67
$GPVTG,318.9,T,319.1,M,001.2,N,002.2,K,A*29
$GPGSV,2,1,08,16,21,308,,21,63,180,44,05,17,048,36,06,18,270,*72
$GPGSV,2,2,08,25,25,133,41,29,52,065,42,30,67,155,45,31,38,230,45*77
$GPGSA,M,3,21,25,29,30,31,,,,,,,,3.6,2.2,2.9*3E
Trace #40 at position 9.750000
$GPZDA,114407.03,08,10,2011,00,00*69
$GPRMC,114407.00,A,4611.958331,N,01258.221890,E,001.2,318.9,081011,0.2,E,A*30
$GPGGA,114408.00,4611.958652,N,01258.221869,E,1,05,2.2,134.55,M,46.25,M,,*6D
$GPGLL,4611.958652,N,01258.221869,E,114408.00,A,A*6E
$GPVTG,13.5,T,13.7,M,001.1,N,002.0,K,A*23
$GPGSV,2,1,08,16,21,308,,21,63,180,44,05,17,048,38,06,18,270,32*7D
$GPGSV,2,2,08,25,25,133,40,29,52,065,40,30,67,155,44,31,38,230,44*74
$GPGSA,M,3,21,25,29,30,31,,,,,,,,3.6,2.2,2.9*3E
Trace #41 at position 10.000000
$GPZDA,114407.03,08,10,2011,00,00*69
$GPRMC,114407.00,A,4611.958331,N,01258.221890,E,001.2,318.9,081011,0.2,E,A*30
$GPGGA,114408.00,4611.958652,N,01258.221869,E,1,05,2.2,134.55,M,46.25,M,,*6D
$GPGLL,4611.958652,N,01258.221869,E,114408.00,A,A*6E
$GPVTG,13.5,T,13.7,M,001.1,N,002.0,K,A*23
$GPGSV,2,1,08,16,21,308,,21,63,180,44,05,17,048,38,06,18,270,32*7D
$GPGSV,2,2,08,25,25,133,40,29,52,065,40,30,67,155,44,31,38,230,44*74
$GPGSA,M,3,21,25,29,30,31,,,,,,,,3.6,2.2,2.9*3E
Trace #42 at position 10.250000
$GPZDA,114407.03,08,10,2011,00,00*69
$GPRMC,114407.00,A,4611.958331,N,01258.221890,E,001.2,318.9,081011,0.2,E,A*30
$GPGGA,114408.00,4611.958652,N,01258.221869,E,1,05,2.2,134.55,M,46.25,M,,*6D
$GPGLL,4611.958652,N,01258.221869,E,114408.00,A,A*6E
$GPVTG,13.5,T,13.7,M,001.1,N,002.0,K,A*23
$GPGSV,2,1,08,16,21,308,,21,63,180,44,05,17,048,38,06,18,270,32*7D
$GPGSV,2,2,08,25,25,133,40,29,52,065,40,30,67,155,44,31,38,230,44*74
$GPGSA,M,3,21,25,29,30,31,,,,,,,,3.6,2.2,2.9*3E
Trace #43 at position 10.500000
$GPZDA,114408.04,08,10,2011,00,00*61
$GPRMC,114408.00,A,4611.958652,N,01258.221869,E,001.1,13.5,081011,0.2,E,A*0E
$GPGGA,114409.00,4611.958823,N,01258.221955,E,1,06,1.6,134.64,M,46.25,M,,*6C
$GPGLL,4611.958823,N,01258.221955,E,114409.00,A,A*69
$GPVTG,335.6,T,335.8,M,000.7,N,001.4,K,A*2F
$GPGSV,2,1,08,16,21,308,,21,63,180,44,05,17,048,39,06,18,270,*7D
$GPGSV,2,2,08,25,25,133,41,29,52,065,41,30,67,155,44,31,38,230,45*75
$GPGSA,M,3,21,05,25,29,30,31,,,,,,,2.5,1.6,2.0*37
Trace #44 at position 10.750000
$GPZDA,114408.04,08,10,2011,00,00*61
$GPRMC,114408.00,A,4611.958652,N,01258.221869,E,001.1,13.5,081011,0.2,E,A*0E
$GPGGA,114409.00,4611.958823,N,01258.221955,E,1,06,1.6,134.64,M,46.25,M,,*6C
$GPGLL,4611.958823,N,01258.221955,E,114409.00,A,A*69
$GPVTG,335.6,T,335.8,M,000.7,N,001.4,K,A*2F
$GPGSV,2,1,08,16,21,308,,21,63,180,44,05,17,048,39,06,18,270,*7D
$GPGSV,2,2,08,25,25,133,41,29,52,065,41,30,67,155,44,31,38,230,45*75
$GPGSA,M,3,21,05,25,29,30,31,,,,,,,2.5,1.6,2.0*37
Trace #45 at position 11.000000
$GPZDA,114409.04,08,10,2011,00,00*60
$GPRMC,114409.00,A,4611.958823,N,01258.221955,E,000.7,335.6,081011,0.2,E,A*3A
$GPGGA,114410.00,4611.959020,N,01258.221866,E,1,06,1.6,134.76,M,46.25,M,,*6C
$GPGLL,4611.959020,N,01258.221866,E,114410.00,A,A*6A
$GPVTG,334.0,T,334.2,M,001.4,N,002.5,K,A*23
$GPGSV,2,1,08,16,21,308,,21,63,180,45,05,17,048,38,06,18,270,*7D
$GPGSV,2,2,08,25,25,133,42,29,52,065,40,30,67,155,45,31,38,230,46*75
$GPGSA,M,3,21,05,25,29,30,31,,,,,,,2.5,1.6,2.0*37
Trace #46 at position 11.250000
$GPZDA,114410.03,08,10,2011,00,00*6F
$GPRMC,114410.00,A,4611.959020,N,01258.221866,E,001.4,334.0,081011,0.2,E,A*3C
$GPGGA,114411.00,4611.959263,N,01258.221731,E,1,06,1.6,134.83,M,46.25,M,,*6F
$GPGLL,4611.959263,N,01258.221731,E,114411.00,A,A*63
$GPVTG,329.1,T,329.3,M,001.1,N,002.1,K,A*22
$GPGSV,2,1,08,16,21,308,,21,63,180,44,05,17,048,39,06,18,270,33*7D
$GPGSV,2,2,08,25,25,133,42,29,52,065,41,30,67,155,45,31,38,230,45*77
$GPGSA,M,3,21,05,25,29,30,31,,,,,,,2.5,1.6,2.0*37
Trace #47 at position 11.500000
$GPZDA,114410.03,08,10,2011,00,00*6F
$GPRMC,114410.00,A,4611.959020,N,01258.221866,E,001.4,334.0,081011,0.2,E,A*3C
$GPGGA,114411.00,4611.959263,N,01258.221731,E,1,06,1.6,134.83,M,46.25,M,,*6F
$GPGLL,4611.959263,N,01258.221731,E,114411.00,A,A*63
$GPVTG,329.1,T,329.3,M,001.1,N,002.1,K,A*22
$GPGSV,2,1,08,16,21,308,,21,63,180,44,05,17,048,39,06,18,270,33*7D
$GPGSV,2,2,08,25,25,133,42,29,52,065,41,30,67,155,45,31,38,230,45*77
$GPGSA,M,3,21,05,25,29,30,31,,,,,,,2.5,1.6,2.0*37
Trace #48 at position 11.750000
$GPZDA,114411.03,08,10,2011,00,00*6E
$GPRMC,114411.00,A,4611.959263,N,01258.221731,E,001.1,329.1,081011,0.2,E,A*3D
$GPGGA,114412.00,4611.959464,N,01258.221685,E,1,06,1.6,134.89,M,46.25,M,,*69
$GPGLL,4611.959464,N,01258.221685,E,114412.00,A,A*6F
$GPVTG,352.4,T,352.6,M,000.9,N,001.6,K,A*2F
$GPGSV,2,1,08,16,21,308,,21,63,180,45,05,17,048,39,06,18,270,31*7E
$GPGSV,2,2,08,25,25,133,40,29,52,065,42,30,67,155,43,31,38,230,44*71
$GPGSA,M,3,21,05,25,29,30,31,,,,,,,2.5,1.6,2.0*37
Trace #49 at position 12.000000
$GPZDA,114411.03,08,10,2011,00,00*6E
$GPRMC,114411.00,A,4611.959263,N,01258.221731,E,001.1,329.1,081011,0.2,E,A*3D
$GPGGA,114412.00,4611.959464,N,01258.221685,E,1,06,1.6,134.89,M,46.25,M,,*69
$GPGLL,4611.959464,N,01258.221685,E,114412.00,A,A*6F
$GPVTG,352.4,T,352.6,M,000.9,N,001.6,K,A*2F
$GPGSV,2,1,08,16,21,308,,21,63,180,45,05,17,048,39,06,18,270,31*7E
$GPGSV,2,2,08,25,25,133,40,29,52,065,42,30,67,155,43,31,38,230,44*71
$GPGSA,M,3,21,05,25,29,30,31,,,,,,,2.5,1.6,2.0*37
Trace #50 at position 12.250000
$GPZDA,114411.03,08,10,2011,00,00*6E
$GPRMC,114411.00,A,4611.959263,N,01258.221731,E,001.1,329.1,081011,0.2,E,A*3D
$GPGGA,114412.00,4611.959464,N,01258.221685,E,1,06,1.6,134.89,M,46.25,M,,*69
$GPGLL,4611.959464,N,01258.221685,E,114412.00,A,A*6F
$GPVTG,352.4,T,352.6,M,000.9,N,001.6,K,A*2F
$GPGSV,2,1,08,16,21,308,,21,63,180,45,05,17,048,39,06,18,270,31*7E
$GPGSV,2,2,08,25,25,133,40,29,52,065,42,30,67,155,43,31,38,230,44*71
$GPGSA,M,3,21,05,25,29,30,31,,,,,,,2.5,1.6,2.0*37
Trace #51 at position 12.500000
$GPZDA,114412.04,08,10,2011,00,00*6A
$GPRMC,114412.00,A,4611.959464,N,01258.221685,E,000.9,352.4,081011,0.2,E,A*31
$GPGGA,114413.00,4611.959649,N,01258.221633,E,1,06,1.6,134.93,M,46.25,M,,*63
$GPGLL,4611.959649,N,01258.221633,E,114413.00,A,A*6E
$GPVTG,325.0,T,325.1,M,001.0,N,001.9,K,A*2B
$GPGSV,2,1,08,16,21,308,,21,63,180,44,05,17,048,38,06,18,270,30*7F
$GPGSV,2,2,08,25,25,133,41,29,52,065,41,30,67,155,44,31,38,230,44*74
$GPGSA,M,3,21,05,25,29,30,31,,,,,,,2.5,1.6,2.0*37
Trace #52 at position 12.750000
$GPZDA,114412.04,08,10,2011,00,00*6A
$GPRMC,114412.00,A,4611.959464,N,01258.221685,E,000.9,352.4,081011,0.2,E,A*31
$GPGGA,114413.00,4611.959649,N,01258.221633,E,1,06,1.6,134.93,M,46.25,M,,*63
$GPGLL,4611.959649,N,01258.221633,E,114413.00,A,A*6E
$GPVTG,325.0,T,325.1,M,001.0,N,001.9,K,A*2B
$GPGSV,2,1,08,16,21,308,,21,63,180,44,05,17,048,38,06,18,270,30*7F
$GPGSV,2,2,08,25,25,133,41,29,52,065,41,30,67,155,44,31,38,230,44*74
$GPGSA,M,3,21,05,25,29,30,31,,,,,,,2.5,1.6,2.0*37
Trace #53 at position 13.000000
$GPZDA,114413.04,08,10,2011,00,00*6B
$GPRMC,114413.00,A,4611.959649,N,01258.221633,E,001.0,325.0,081011,0.2,E,A*3C
$GPGGA,114414.00,4611.959814,N,01258.221502,E,1,06,1.6,135.05,M,46.25,M,,*6D
$GPGLL,4611.959814,N,01258.221502,E,114414.00,A,A*6E
$GPVTG,322.7,T,322.9,M,000.8,N,001.6,K,A*22
$GPGSV,2,1,08,16,21,308,,21,63,180,44,05,17,048,41,06,18,270,28*78
$GPGSV,2,2,08,25,25,133,40,29,52,065,42,30,67,155,44,31,38,230,44*76
$GPGSA,M,3,21,05,25,29,30,31,,,,,,,2.5,1.6,2.0*37
Trace #54 at position 13.250000
$GPZDA,114414.03,08,10,2011,00,00*6B
$GPRMC,114414.00,A,4611.959814,N,01258.221502,E,000.8,322.7,081011,0.2,E,A*35
$GPGGA,114415.00,4611.960027,N,01258.221355,E,1,06,1.6,135.19,M,46.25,M,,*67
$GPGLL,4611.960027,N,01258.221355,E,114415.00,A,A*69
$GPVTG,328.7,T,328.9,M,001.3,N,002.4,K,A*29
$GPGSV,2,1,08,16,21,308,,21,63,180,44,05,17,048,40,06,18,270,31*71
$GPGSV,2,2,08,25,25,133,41,29,52,065,43,30,67,155,45,31,38,230,44*77
$GPGSA,M,3,21,05,25,29,30,31,,,,,,,2.5,1.6,2.0*37
Trace #55 at position 13.500000
$GPZDA,114415.03,08,10,2011,00,00*6A
$GPRMC,114415.00,A,4611.960027,N,01258.221355,E,001.3,328.7,081011,0.2,E,A*32
$GPGGA,114416.00,4611.960245,N,01258.221261,E,1,06,1.6,135.31,M,46.25,M,,*6E
$GPGLL,4611.960245,N,01258.221261,E,114416.00,A,A*6A
$GPVTG,342.9,T,343.1,M,000.7,N,001.4,K,A*28
$GPGSV,2,1,08,16,21,308,,21,63,180,43,05,17,048,40,06,18,270,28*7E
$GPGSV,2,2,08,25,25,133,42,29,52,065,41,30,67,155,44,31,38,230,45*76
$GPGSA,M,3,21,05,25,29,30,31,,,,,,,2.5,1.6,2.0*37
Trace #56 at position 13.750000
$GPZDA,114416.03,08,10,2011,00,00*69
$GPRMC,114416.00,A,4611.960245,N,01258.221261,E,000.7,342.9,081011,0.2,E,A*36
$GPGGA,114417.00,4611.960424,N,01258.221397,E,1,06,1.6,135.32,M,46.25,M,,*65
$GPGLL,4611.960424,N,01258.221397,E,114417.00,A,A*62
$GPVTG,38.0,T,38.2,M,001.0,N,001.8,K,A*29
$GPGSV,2,1,08,16,21,308,,21,63,180,44,05,17,048,39,06,18,270,31*7F
$GPGSV,2,2,08,25,25,133,44,29,52,065,43,30,67,155,45,31,38,230,44*72
$GPGSA,M,3,21,05,25,29,30,31,,,,,,,2.5,1.6,2.0*37
Trace #57 at position 14.000000
$GPZDA,114417.03,08,10,2011,00,00*68
$GPRMC,114417.00,A,4611.960424,N,01258.221397,E,001.0,38.0,081011,0.2,E,A*0F
$GPGGA,114418.00,4611.960591,N,01258.221517,E,1,06,1.6,135.41,M,46.25,M,,*6F
$GPGLL,4611.960591,N,01258.221517,E,114418.00,A,A*6C
$GPVTG,346.4,T,346.5,M,000.8,N,001.4,K,A*2F
$GPGSV,2,1,08,16,21,308,,21,63,180,44,05,17,048,40,06,18,270,*73
$GPGSV,2,2,08,25,25,133,44,29,52,065,43,30,67,155,45,31,38,230,44*72
$GPGSA,M,3,21,05,25,29,30,31,,,,,,,2.5,1.6,2.0*37
Trace #58 at position 14.250000
$GPZDA,114418.04,08,10,2011,00,00*60
$GPRMC,114418.00,A,4611.960591,N,01258.221517,E,000.8,346.4,081011,0.2,E,A*36
$GPGGA,114419.00,4611.960662,N,01258.221560,E,1,06,1.6,135.60,M,46.25,M,,*62
$GPGLL,4611.960662,N,01258.221560,E,114419.00,A,A*62
$GPVTG,95.4,T,95.5,M,000.3,N,000.5,K,A*24
$GPGSV,2,1,08,16,21,308,,21,63,180,43,05,17,048,38,06,18,270,30*78
$GPGSV,2,2,08,25,25,133,43,29,52,065,43,30,67,155,43,31,38,230,45*72
$GPGSA,M,3,21,05,25,29,30,31,,,,,,,2.5,1.6,2.0*37
Trace #59 at position 14.500000
$GPZDA,114418.04,08,10,2011,00,00*60
$GPRMC,114418.00,A,4611.960591,N,01258.221517,E,000.8,346.4,081011,0.2,E,A*36
$GPGGA,114419.00,4611.960662,N,01258.221560,E,1,06,1.6,135.60,M,46.25,M,,*62
$GPGLL,4611.960662,N,01258.221560,E,114419.00,A,A*62
$GPVTG,95.4,T,95.5,M,000.3,N,000.5,K,A*24
$GPGSV,2,1,08,16,21,308,,21,63,180,43,05,17,048,38,06,18,270,30*78
$GPGSV,2,2,08,25,25,133,43,29,52,065,43,30,67,155,43,31,38,230,45*72
$GPGSA,M,3,21,05,25,29,30,31,,,,,,,2.5,1.6,2.0*37
Trace #60 at position 14.750000
$GPZDA,114419.03,08,10,2011,00,00*66
$GPRMC,114419.00,A,4611.960662,N,01258.221560,E,000.3,95.4,081011,0.2,E,A*0E
$GPGGA,114420.00,4611.960761,N,01258.221616,E,1,06,1.6,135.69,M,46.25,M,,*61
$GPGLL,4611.960761,N,01258.221616,E,114420.00,A,A*68
$GPVTG,0.0,T,0.2,M,000.9,N,001.7,K,A*2E
$GPGSV,2,1,08,16,21,308,,21,63,180,45,05,17,048,37,06,18,270,31*70
$GPGSV,2,2,08,25,25,133,42,29,52,065,43,30,67,155,45,31,38,230,45*75
$GPGSA,M,3,21,05,25,29,30,31,,,,,,,2.5,1.6,2.0*37
Trace #61 at position 15.000000
$GPZDA,114420.04,08,10,2011,00,00*6B
$GPRMC,114420.00,A,4611.960761,N,01258.221616,E,000.9,0.0,081011,0.2,E,A*36
$GPGGA,114421.00,4611.961016,N,01258.221508,E,1,05,2.2,135.39,M,46.25,M,,*6B
$GPGLL,4611.961016,N,01258.221508,E,114421.00,A,A*63
$GPVTG,313.3,T,313.5,M,000.6,N,001.0,K,A*22
$GPGSV,2,1,08,16,21,308,,21,63,180,45,05,17,048,35,06,18,270,32*71
$GPGSV,2,2,08,25,25,133,41,29,52,065,41,30,67,155,45,31,38,230,45*74
$GPGSA,M,3,21,25,29,30,31,,,,,,,,3.6,2.2,2.9*3E
Trace #62 at position 15.250000
$GPZDA,114421.03,08,10,2011,00,00*6D
$GPRMC,114421.00,A,4611.961016,N,01258.221508,E,000.6,313.3,081011,0.2,E,A*30
$GPGGA,114422.00,4611.961175,N,01258.221351,E,1,05,2.2,135.17,M,46.25,M,,*6A
$GPGLL,4611.961175,N,01258.221351,E,114422.00,A,A*6E
$GPVTG,303.1,T,303.2,M,000.4,N,000.8,K,A*2C
$GPGSV,2,1,08,16,21,308,,21,63,180,45,05,17,048,36,06,18,270,32*72
$GPGSV,2,2,08,25,25,133,40,29,52,065,42,30,67,155,45,31,38,230,45*76
$GPGSA,M,3,21,25,29,30,31,,,,,,,,3.6,2.2,2.9*3E
Trace #63 at position 15.500000
$GPZDA,114421.03,08,10,2011,00,00*6D
$GPRMC,114421.00,A,4611.961016,N,01258.221508,E,000.6,313.3,081011,0.2,E,A*30
$GPGGA,114422.00,4611.961175,N,01258.221351,E,1,05,2.2,135.17,M,46.25,M,,*6A
$GPGLL,4611.961175,N,01258.221351,E,114422.00,A,A*6E
$GPVTG,303.1,T,303.2,M,000.4,N,000.8,K,A*2C
$GPGSV,2,1,08,16,21,308,,21,63,180,45,05,17,048,36,06,18,270,32*72
$GPGSV,2,2,08,25,25,133,40,29,52,065,42,30,67,155,45,31,38,230,45*76
$GPGSA,M,3,21,25,29,30,31,,,,,,,,3.6,2.2,2.9*3E
Trace #64 at position 15.750000
$GPZDA,114422.03,08,10,2011,00,00*6E
$GPRMC,114422.00,A,4611.961175,N,01258.221351,E,000.4,303.1,081011,0.2,E,A*3C
$GPGGA,114423.00,4611.961363,N,01258.221255,E,1,05,2.2,134.99,M,46.25,M,,*6C
$GPGLL,4611.961363,N,01258.221255,E,114423.00,A,A*6F
$GPVTG,349.6,T,349.7,M,000.6,N,001.2,K,A*27
$GPGSV,2,1,08,16,21,308,,21,63,180,45,05,17,048,38,06,18,270,*7D
$GPGSV,2,2,08,25,25,133,42,29,52,065,41,30,67,155,45,31,38,230,45*77
$GPGSA,M,3,21,25,29,30,31,,,,,,,,3.6,2.2,2.9*3E
Trace #65 at position 16.000000
$GPZDA,114423.04,08,10,2011,00,00*68
$GPRMC,114423.00,A,4611.961363,N,01258.221255,E,000.6,349.6,081011,0.2,E,A*36
$GPGGA,114424.00,4611.961633,N,01258.221187,E,1,05,2.2,134.76,M,46.25,M,,*66
$GPGLL,4611.961633,N,01258.221187,E,114424.00,A,A*64
$GPVTG,346.9,T,347.0,M,000.9,N,001.7,K,A*24
$GPGSV,2,1,08,16,21,308,,21,63,180,44,05,17,048,37,06,18,270,32*72
$GPGSV,2,2,08,25,25,133,43,29,52,065,41,30,67,155,45,31,38,229,45*7E
$GPGSA,M,3,21,25,29,30,31,,,,,,,,3.6,2.2,2.9*3E
Trace #66 at position 16.250000
$GPZDA,114423.04,08,10,2011,00,00*68
$GPRMC,114423.00,A,4611.961363,N,01258.221255,E,000.6,349.6,081011,0.2,E,A*36
$GPGGA,114424.00,4611.961633,N,01258.221187,E,1,05,2.2,134.76,M,46.25,M,,*66
$GPGLL,4611.961633,N,01258.221187,E,114424.00,A,A*64
$GPVTG,346.9,T,347.0,M,000.9,N,001.7,K,A*24
$GPGSV,2,1,08,16,21,308,,21,63,180,44,05,17,048,37,06,18,270,32*72
$GPGSV,2,2,08,25,25,133,43,29,52,065,41,30,67,155,45,31,38,229,45*7E
$GPGSA,M,3,21,25,29,30,31,,,,,,,,3.6,2.2,2.9*3E
Trace #67 at position 16.500000
$GPZDA,114424.03,08,10,2011,00,00*68
$GPRMC,114424.00,A,4611.961633,N,01258.221187,E,000.9,346.9,081011,0.2,E,A*32
$GPGGA,114425.00,4611.961896,N,01258.221060,E,1,05,2.2,134.55,M,46.25,M,,*6F
$GPGLL,4611.961896,N,01258.221060,E,114425.00,A,A*6C
$GPVTG,325.3,T,325.4,M,000.8,N,001.5,K,A*28
$GPGSV,2,1,08,16,21,308,,21,63,180,44,05,17,048,38,06,18,270,*7C
$GPGSV,2,2,08,25,25,133,42,29,52,065,41,30,67,155,46,31,38,229,45*7C
$GPGSA,M,3,21,25,29,30,31,,,,,,,,3.6,2.2,2.9*3E
Trace #68 at position 16.750000
$GPZDA,114424.03,08,10,2011,00,00*68
$GPRMC,114424.00,A,4611.961633,N,01258.221187,E,000.9,346.9,081011,0.2,E,A*32
$GPGGA,114425.00,4611.961896,N,01258.221060,E,1,05,2.2,134.55,M,46.25,M,,*6F
$GPGLL,4611.961896,N,01258.221060,E,114425.00,A,A*6C
$GPVTG,325.3,T,325.4,M,000.8,N,001.5,K,A*28
$GPGSV,2,1,08,16,21,308,,21,63,180,44,05,17,048,38,06,18,270,*7C
$GPGSV,2,2,08,25,25,133,42,29,52,065,41,30,67,155,46,31,38,229,45*7C
$GPGSA,M,3,21,25,29,30,31,,,,,,,,3.6,2.2,2.9*3E
Trace #69 at position 17.000000
$GPZDA,114425.03,08,10,2011,00,00*69
$GPRMC,114425.00,A,4611.961896,N,01258.221060,E,000.8,325.3,081011,0.2,E,A*34
$GPGGA,114426.00,4611.962104,N,01258.221046,E,1,05,2.2,134.47,M,46.25,M,,*6A
$GPGLL,4611.962104,N,01258.221046,E,114426.00,A,A*6A
$GPVTG,37.3,T,37.5,M,000.7,N,001.3,K,A*20
$GPGSV,2,1,08,16,21,308,,21,63,180,44,05,17,048,37,06,18,270,30*70
$GPGSV,2,2,08,25,25,133,42,29,52,065,42,30,67,155,44,31,38,229,45*7D
$GPGSA,M,3,21,25,29,30,31,,,,,,,,3.6,2.2,2.9*3E
Trace #70 at position 17.250000
$GPZDA,114425.03,08,10,2011,00,00*69
$GPRMC,114425.00,A,4611.961896,N,01258.221060,E,000.8,325.3,081011,0.2,E,A*34
$GPGGA,114426.00,4611.962104,N,01258.221046,E,1,05,2.2,134.47,M,46.25,M,,*6A
$GPGLL,4611.962104,N,01258.221046,E,114426.00,A,A*6A
$GPVTG,37.3,T,37.5,M,000.7,N,001.3,K,A*20
$GPGSV,2,1,08,16,21,308,,21,63,180,44,05,17,048,37,06,18,270,30*70
$GPGSV,2,2,08,25,25,133,42,29,52,065,42,30,67,155,44,31,38,229,45*7D
$GPGSA,M,3,21,25,29,30,31,,,,,,,,3.6,2.2,2.9*3E
Trace #71 at position 17.500000
$GPZDA,114426.03,08,10,2011,00,00*6A
$GPRMC,114426.00,A,4611.962104,N,01258.221046,E,000.7,37.3,081011,0.2,E,A*0D
$GPGGA,114427.00,4611.962355,N,01258.221083,E,1,05,2.2,134.36,M,46.25,M,,*62
$GPGLL,4611.962355,N,01258.221083,E,114427.00,A,A*64
$GPVTG,352.9,T,353.1,M,001.0,N,001.9,K,A*23
$GPGSV,2,1,08,16,21,308,,21,63,180,44,05,17,048,39,06,18,270,*7D
$GPGSV,2,2,08,25,25,133,41,29,52,065,42,30,67,155,44,31,38,229,44*7F
$GPGSA,M,3,21,25,29,30,31,,,,,,,,3.6,2.2,2.9*3E
Trace #72 at position 17.750000
$GPZDA,114426.03,08,10,2011,00,00*6A
$GPRMC,114426.00,A,4611.962104,N,01258.221046,E,000.7,37.3,081011,0.2,E,A*0D
$GPGGA,114427.00,4611.962355,N,01258.221083,E,1,05,2.2,134.36,M,46.25,M,,*62
$GPGLL,4611.962355,N,01258.221083,E,114427.00,A,A*64
$GPVTG,352.9,T,353.1,M,001.0,N,001.9,K,A*23
$GPGSV,2,1,08,16,21,308,,21,63,180,44,05,17,048,39,06,18,270,*7D
$GPGSV,2,2,08,25,25,133,41,29,52,065,42,30,67,155,44,31,38,229,44*7F
$GPGSA,M,3,21,25,29,30,31,,,,,,,,3.6,2.2,2.9*3E
Trace #73 at position 18.000000
$GPZDA,114427.03,08,10,2011,00,00*6B
$GPRMC,114427.00,A,4611.962355,N,01258.221083,E,001.0,352.9,081011,0.2,E,A*3F
$GPGGA,114428.00,4611.962667,N,01258.220987,E,1,05,2.2,134.16,M,46.25,M,,*67
$GPGLL,4611.962667,N,01258.220987,E,114428.00,A,A*63
$GPVTG,346.2,T,346.3,M,001.0,N,001.9,K,A*2B
$GPGSV,2,1,08,16,21,308,,21,63,180,44,05,17,048,38,06,18,270,30*7F
$GPGSV,2,2,08,25,25,133,43,29,52,065,42,30,67,155,44,31,38,229,44*7D
$GPGSA,M,3,21,25,29,30,31,,,,,,,,3.6,2.2,2.9*3E
Trace #74 at position 18.250000
$GPZDA,114427.03,08,10,2011,00,00*6B
$GPRMC,114427.00,A,4611.962355,N,01258.221083,E,001.0,352.9,081011,0.2,E,A*3F
$GPGGA,114428.00,4611.962667,N,01258.220987,E,1,05,2.2,134.16,M,46.25,M,,*67
$GPGLL,4611.962667,N,01258.220987,E,114428.00,A,A*63
$GPVTG,346.2,T,346.3,M,001.0,N,001.9,K,A*2B
$GPGSV,2,1,08,16,21,308,,21,63,180,44,05,17,048,38,06,18,270,30*7F
$GPGSV,2,2,08,25,25,133,43,29,52,065,42,30,67,155,44,31,38,229,44*7D
$GPGSA,M,3,21,25,29,30,31,,,,,,,,3.6,2.2,2.9*3E
Trace #75 at position 18.500000
$GPZDA,114428.04,08,10,2011,00,00*63
$GPRMC,114428.00,A,4611.962667,N,01258.220987,E,001.0,346.2,081011,0.2,E,A*36
$GPGGA,114429.00,4611.962946,N,01258.220779,E,1,05,2.2,134.07,M,46.25,M,,*65
$GPGLL,4611.962946,N,01258.220779,E,114429.00,A,A*61
$GPVTG,317.0,T,317.2,M,001.1,N,002.0,K,A*23
$GPGSV,2,1,08,16,21,308,,21,63,180,44,05,17,048,38,06,18,270,29*77
$GPGSV,2,2,08,25,25,133,44,29,52,065,41,30,67,155,45,31,38,229,44*78
$GPGSA,M,3,21,25,29,30,31,,,,,,,,3.6,2.2,2.9*3E
Trace #76 at position 18.750000
$GPZDA,114429.03,08,10,2011,00,00*65
$GPRMC,114429.00,A,4611.962946,N,01258.220779,E,001.1,317.0,081011,0.2,E,A*33
$GPGGA,114430.00,4611.963182,N,01258.220588,E,1,05,2.2,134.11,M,46.25,M,,*67
$GPGLL,4611.963182,N,01258.220588,E,114430.00,A,A*64
$GPVTG,343.2,T,343.4,M,000.7,N,001.3,K,A*20
$GPGSV,2,1,08,16,21,308,,21,64,180,44,05,17,048,38,06,18,270,*7B
$GPGSV,2,2,08,25,25,133,43,29,52,065,42,30,67,155,46,31,38,229,45*7E
$GPGSA,M,3,21,25,29,30,31,,,,,,,,3.6,2.2,2.9*3E
Trace #77 at position 19.000000
$GPZDA,114429.03,08,10,2011,00,00*65
$GPRMC,114429.00,A,4611.962946,N,01258.220779,E,001.1,317.0,081011,0.2,E,A*33
$GPGGA,114430.00,4611.963182,N,01258.220588,E,1,05,2.2,134.11,M,46.25,M,,*67
$GPGLL,4611.963182,N,01258.220588,E,114430.00,A,A*64
$GPVTG,343.2,T,343.4,M,000.7,N,001.3,K,A*20
$GPGSV,2,1,08,16,21,308,,21,64,180,44,05,17,048,38,06,18,270,*7B
$GPGSV,2,2,08,25,25,133,43,29,52,065,42,30,67,155,46,31,38,229,45*7E
$GPGSA,M,3,21,25,29,30,31,,,,,,,,3.6,2.2,2.9*3E
Trace #78 at position 19.250000
$GPZDA,114430.03,08,10,2011,00,00*6D
$GPRMC,114430.00,A,4611.963182,N,01258.220588,E,000.7,343.2,081011,0.2,E,A*32
$GPGGA,114431.00,4611.963419,N,01258.220473,E,1,05,2.2,134.12,M,46.25,M,,*67
$GPGLL,4611.963419,N,01258.220473,E,114431.00,A,A*67
$GPVTG,334.9,T,335.1,M,000.9,N,001.6,K,A*24
$GPGSV,2,1,08,16,21,308,,21,64,180,44,05,17,048,38,06,18,270,30*78
$GPGSV,2,2,08,25,25,133,41,29,52,065,41,30,67,155,45,31,38,229,45*7C
$GPGSA,M,3,21,25,29,30,31,,,,,,,,3.6,2.2,2.9*3E
Trace #79 at position 19.500000
$GPZDA,114430.03,08,10,2011,00,00*6D
$GPRMC,114430.00,A,4611.963182,N,01258.220588,E,000.7,343.2,081011,0.2,E,A*32
$GPGGA,114431.00,4611.963419,N,01258.220473,E,1,05,2.2,134.12,M,46.25,M,,*67
$GPGLL,4611.963419,N,01258.220473,E,114431.00,A,A*67
$GPVTG,334.9,T,335.1,M,000.9,N,001.6,K,A*24
$GPGSV,2,1,08,16,21,308,,21,64,180,44,05,17,048,38,06,18,270,30*78
$GPGSV,2,2,08,25,25,133,41,29,52,065,41,30,67,155,45,31,38,229,45*7C
$GPGSA,M,3,21,25,29,30,31,,,,,,,,3.6,2.2,2.9*3E
Trace #80 at position 19.750000
$GPZDA,114431.03,08,10,2011,00,00*6C
$GPRMC,114431.00,A,4611.963419,N,01258.220473,E,000.9,334.9,081011,0.2,E,A*34
$GPGGA,114432.00,4611.963623,N,01258.220327,E,1,05,2.2,134.11,M,46.25,M,,*6A
$GPGLL,4611.963623,N,01258.220327,E,114432.00,A,A*69
$GPVTG,319.0,T,319.1,M,000.6,N,001.2,K,A*27
$GPGSV,2,1,08,16,21,308,,21,64,180,44,05,17,048,39,06,18,270,30*79
$GPGSV,2,2,08,25,25,133,42,29,52,065,41,30,67,155,44,31,38,229,45*7E
$GPGSA,M,3,21,25,29,30,31,,,,,,,,3.6,2.2,2.9*3E
Trace #81 at position 20.000000
$GPZDA,114431.03,08,10,2011,00,00*6C
$GPRMC,114431.00,A,4611.963419,N,01258.220473,E,000.9,334.9,081011,0.2,E,A*34
$GPGGA,114432.00,4611.963623,N,01258.220327,E,1,05,2.2,134.11,M,46.25,M,,*6A
$GPGLL,4611.963623,N,01258.220327,E,114432.00,A,A*69
$GPVTG,319.0,T,319.1,M,000.6,N,001.2,K,A*27
$GPGSV,2,1,08,16,21,308,,21,64,180,44,05,17,048,39,06,18,270,30*79
$GPGSV,2,2,08,25,25,133,42,29,52,065,41,30,67,155,44,31,38,229,45*7E
$GPGSA,M,3,21,25,29,30,31,,,,,,,,3.6,2.2,2.9*3E
Trace #82 at position 20.250000
$GPZDA,114432.03,08,10,2011,00,00*6F
$GPRMC,114432.00,A,4611.963623,N,01258.220327,E,000.6,319.0,081011,0.2,E,A*33
$GPGGA,114433.00,4611.963832,N,01258.220244,E,1,05,2.2,133.97,M,46.25,M,,*68
$GPGLL,4611.963832,N,01258.220244,E,114433.00,A,A*62
$GPVTG,355.5,T,355.7,M,000.8,N,001.6,K,A*2E
$GPGSV,2,1,08,16,21,308,,21,64,180,44,05,17,048,38,06,18,270,*7B
$GPGSV,2,2,08,25,25,133,42,29,52,065,42,30,67,155,45,31,38,229,45*7C
$GPGSA,M,3,21,25,29,30,31,,,,,,,,3.6,2.2,2.9*3E
Trace #83 at position 20.500000
$GPZDA,114433.04,08,10,2011,00,00*69
$GPRMC,114433.00,A,4611.963832,N,01258.220244,E,000.8,355.5,081011,0.2,E,A*3B
$GPGGA,114434.00,4611.964048,N,01258.220065,E,1,05,2.2,133.86,M,46.25,M,,*6C
$GPGLL,4611.964048,N,01258.220065,E,114434.00,A,A*66
$GPVTG,300.0,T,300.1,M,001.1,N,002.0,K,A*20
$GPGSV,2,1,08,16,21,308,,21,64,180,44,05,17,048,38,06,18,270,30*78
$GPGSV,2,2,08,25,25,133,42,29,52,065,42,30,67,155,45,31,38,229,45*7C
$GPGSA,M,3,21,25,29,30,31,,,,,,,,3.6,2.2,2.9*3E
Trace #84 at position 20.750000
$GPZDA,114434.03,08,10,2011,00,00*69
$GPRMC,114434.00,A,4611.964048,N,01258.220065,E,001.1,300.0,081011,0.2,E,A*32
$GPGGA,114435.00,4611.964262,N,01258.219916,E,1,05,2.2,133.86,M,46.25,M,,*60
$GPGLL,4611.964262,N,01258.219916,E,114435.00,A,A*6A
$GPVTG,1.3,T,1.5,M,000.8,N,001.5,K,A*29
$GPGSV,2,1,08,16,21,308,,21,64,180,44,05,17,048,38,06,18,270,31*79
$GPGSV,2,2,08,25,25,133,42,29,52,065,42,30,67,155,45,31,38,229,45*7C
$GPGSA,M,3,21,25,29,30,31,,,,,,,,3.6,2.2,2.9*3E
Trace #85 at position 21.000000
$GPZDA,114434.03,08,10,2011,00,00*69
$GPRMC,114434.00,A,4611.964048,N,01258.220065,E,001.1,300.0,081011,0.2,E,A*32
$GPGGA,114435.00,4611.964262,N,01258.219916,E,1,05,2.2,133.86,M,46.25,M,,*60
$GPGLL,4611.964262,N,01258.219916,E,114435.00,A,A*6A
$GPVTG,1.3,T,1.5,M,000.8,N,001.5,K,A*29
$GPGSV,2,1,08,16,21,308,,21,64,180,44,05,17,048,38,06,18,270,31*79
$GPGSV,2,2,08,25,25,133,42,29,52,065,42,30,67,155,45,31,38,229,45*7C
$GPGSA,M,3,21,25,29,30,31,,,,,,,,3.6,2.2,2.9*3E
Trace #86 at position 21.250000
$GPZDA,114435.03,08,10,2011,00,00*68
$GPRMC,114435.00,A,4611.964262,N,01258.219916,E,000.8,1.3,081011,0.2,E,A*37
$GPGGA,114436.00,4611.964532,N,01258.219945,E,1,05,2.2,133.77,M,46.25,M,,*69
$GPGLL,4611.964532,N,01258.219945,E,114436.00,A,A*6D
$GPVTG,3.4,T,3.5,M,001.0,N,001.8,K,A*2A
$GPGSV,2,1,08,16,21,308,,21,64,180,44,05,17,048,37,06,18,270,31*76
$GPGSV,2,2,08,25,25,133,42,29,52,065,42,30,67,155,45,31,38,229,45*7C
$GPGSA,M,3,21,25,29,30,31,,,,,,,,3.6,2.2,2.9*3E
Trace #87 at position 21.500000
$GPZDA,114436.03,08,10,2011,00,00*6B
$GPRMC,114436.00,A,4611.964532,N,01258.219945,E,001.0,3.4,081011,0.2,E,A*3C
$GPGGA,114437.00,4611.964770,N,01258.219970,E,1,05,2.2,133.74,M,46.25,M,,*69
$GPGLL,4611.964770,N,01258.219970,E,114437.00,A,A*6E
$GPVTG,6.8,T,6.9,M,000.7,N,001.3,K,A*27
$GPGSV,2,1,08,16,21,308,,21,64,180,44,05,17,048,38,06,18,270,31*79
$GPGSV,2,2,08,25,25,133,41,29,52,065,41,30,67,155,44,31,38,229,46*7E
$GPGSA,M,3,21,25,29,30,31,,,,,,,,3.6,2.2,2.9*3E
Trace #88 at position 21.750000
$GPZDA,114437.03,08,10,2011,00,00*6A
$GPRMC,114437.00,A,4611.964770,N,01258.219970,E,000.7,6.8,081011,0.2,E,A*30
$GPGGA,114438.00,4611.964919,N,01258.219999,E,1,05,2.2,133.72,M,46.25,M,,*66
$GPGLL,4611.964919,N,01258.219999,E,114438.00,A,A*67
$GPVTG,22.7,T,22.9,M,000.3,N,000.6,K,A*28
$GPGSV,2,1,08,16,21,308,,21,64,180,44,05,17,048,37,06,18,270,*74
$GPGSV,2,2,08,25,25,133,41,29,52,065,42,30,67,155,44,31,38,229,45*7E
$GPGSA,M,3,21,25,29,30,31,,,,,,,,3.6,2.2,2.9*3E
Trace #89 at position 22.000000
$GPZDA,114438.04,08,10,2011,00,00*62
$GPRMC,114438.00,A,4611.964919,N,01258.219999,E,000.3,22.7,081011,0.2,E,A*04
$GPGGA,114439.00,4611.965061,N,01258.219918,E,1,05,2.2,133.66,M,46.25,M,,*6C
$GPGLL,4611.965061,N,01258.219918,E,114439.00,A,A*68
$GPVTG,323.0,T,323.2,M,000.8,N,001.4,K,A*2C
$GPGSV,2,1,08,16,21,308,,21,64,180,44,05,17,048,38,06,18,270,30*78
$GPGSV,2,2,08,25,25,133,44,29,52,065,42,30,67,155,45,31,38,229,45*7A
$GPGSA,M,3,21,25,29,30,31,,,,,,,,3.6,2.2,2.9*3E
Trace #90 at position 22.250000
$GPZDA,114438.04,08,10,2011,00,00*62
$GPRMC,114438.00,A,4611.964919,N,01258.219999,E,000.3,22.7,081011,0.2,E,A*04
$GPGGA,114439.00,4611.965061,N,01258.219918,E,1,05,2.2,133.66,M,46.25,M,,*6C
$GPGLL,4611.965061,N,01258.219918,E,114439.00,A,A*68
$GPVTG,323.0,T,323.2,M,000.8,N,001.4,K,A*2C
$GPGSV,2,1,08,16,21,308,,21,64,180,44,05,17,048,38,06,18,270,30*78
$GPGSV,2,2,08,25,25,133,44,29,52,065,42,30,67,155,45,31,38,229,45*7A
$GPGSA,M,3,21,25,29,30,31,,,,,,,,3.6,2.2,2.9*3E
Trace #91 at position 22.500000
$GPZDA,114439.03,08,10,2011,00,00*64
$GPRMC,114439.00,A,4611.965061,N,01258.219918,E,000.8,323.0,081011,0.2,E,A*35
$GPGGA,114440.00,4611.965247,N,01258.219866,E,1,05,2.2,133.59,M,46.25,M,,*60
$GPGLL,4611.965247,N,01258.219866,E,114440.00,A,A*68
$GPVTG,22.8,T,22.9,M,000.7,N,001.3,K,A*27
$GPGSV,2,1,08,16,21,308,,21,64,180,44,05,17,048,37,06,18,270,*74
$GPGSV,2,2,08,25,25,133,42,29,52,066,40,30,67,155,45,31,38,229,45*7D
$GPGSA,M,3,21,25,29,30,31,,,,,,,,3.6,2.2,2.9*3E
Trace #92 at position 22.750000
$GPZDA,114439.03,08,10,2011,00,00*64
$GPRMC,114439.00,A,4611.965061,N,01258.219918,E,000.8,323.0,081011,0.2,E,A*35
$GPGGA,114440.00,4611.965247,N,01258.219866,E,1,05,2.2,133.59,M,46.25,M,,*60
$GPGLL,4611.965247,N,01258.219866,E,114440.00,A,A*68
$GPVTG,22.8,T,22.9,M,000.7,N,001.3,K,A*27
$GPGSV,2,1,08,16,21,308,,21,64,180,44,05,17,048,37,06,18,270,*74
$GPGSV,2,2,08,25,25,133,42,29,52,066,40,30,67,155,45,31,38,229,45*7D
$GPGSA,M,3,21,25,29,30,31,,,,,,,,3.6,2.2,2.9*3E
Trace #93 at position 23.000000
$GPZDA,114440.03,08,10,2011,00,00*6A
$GPRMC,114440.00,A,4611.965247,N,01258.219866,E,000.7,22.8,081011,0.2,E,A*00
$GPGGA,114441.00,4611.965484,N,01258.219864,E,1,05,2.2,133.48,M,46.25,M,,*6A
$GPGLL,4611.965484,N,01258.219864,E,114441.00,A,A*62
$GPVTG,351.4,T,351.5,M,001.1,N,002.0,K,A*20
$GPGSV,2,1,08,16,21,308,,21,64,180,44,05,17,048,38,06,18,270,32*7A
$GPGSV,2,2,08,25,25,133,43,29,52,066,42,30,67,155,45,31,38,229,46*7D
$GPGSA,M,3,21,25,29,30,31,,,,,,,,3.6,2.2,2.9*3E
Trace #94 at position 23.250000
$GPZDA,114441.03,08,10,2011,00,00*6B
$GPRMC,114441.00,A,4611.965484,N,01258.219864,E,001.1,351.4,081011,0.2,E,A*36
$GPGGA,114442.00,4611.965714,N,01258.219795,E,1,05,2.2,133.39,M,46.25,M,,*64
$GPGLL,4611.965714,N,01258.219795,E,114442.00,A,A*6A
$GPVTG,354.3,T,354.4,M,000.6,N,001.2,K,A*21
$GPGSV,2,1,08,16,21,308,,21,64,180,44,05,17,048,38,06,18,270,29*70
$GPGSV,2,2,08,25,25,133,42,29,52,066,42,30,67,155,45,31,38,229,46*7C
$GPGSA,M,3,21,25,29,30,31,,,,,,,,3.6,2.2,2.9*3E
Trace #95 at position 23.500000
$GPZDA,114441.03,08,10,2011,00,00*6B
$GPRMC,114441.00,A,4611.965484,N,01258.219864,E,001.1,351.4,081011,0.2,E,A*36
$GPGGA,114442.00,4611.965714,N,01258.219795,E,1,05,2.2,133.39,M,46.25,M,,*64
$GPGLL,4611.965714,N,01258.219795,E,114442.00,A,A*6A
$GPVTG,354.3,T,354.4,M,000.6,N,001.2,K,A*21
$GPGSV,2,1,08,16,21,308,,21,64,180,44,05,17,048,38,06,18,270,29*70
$GPGSV,2,2,08,25,25,133,42,29,52,066,42,30,67,155,45,31,38,229,46*7C
$GPGSA,M,3,21,25,29,30,31,,,,,,,,3.6,2.2,2.9*3E
Trace #96 at position 23.750000
$GPZDA,114442.03,08,10,2011,00,00*68
$GPRMC,114442.00,A,4611.965714,N,01258.219795,E,000.6,354.3,081011,0.2,E,A*3A
$GPGGA,114443.00,4611.965910,N,01258.219810,E,1,05,2.2,133.35,M,46.25,M,,*61
$GPGLL,4611.965910,N,01258.219810,E,114443.00,A,A*63
$GPVTG,20.3,T,20.5,M,000.9,N,001.7,K,A*2A
$GPGSV,2,1,08,16,21,308,,21,64,180,44,05,17,048,38,06,18,270,*7B
$GPGSV,2,2,08,25,25,133,42,29,52,066,42,30,67,155,45,31,38,229,45*7F
$GPGSA,M,3,21,25,29,30,31,,,,,,,,3.6,2.2,2.9*3E
Trace #97 at position 24.000000
$GPZDA,114443.03,08,10,2011,00,00*69
$GPRMC,114443.00,A,4611.965910,N,01258.219810,E,000.9,20.3,081011,0.2,E,A*0C
$GPGGA,114444.00,4611.966148,N,01258.219762,E,1,05,2.2,133.31,M,46.25,M,,*6E
$GPGLL,4611.966148,N,01258.219762,E,114444.00,A,A*68
$GPVTG,341.0,T,341.2,M,001.0,N,001.8,K,A*29
$GPGSV,2,1,08,16,21,308,,21,64,180,44,05,17,048,37,06,18,270,*74
$GPGSV,2,2,08,25,25,133,42,29,52,066,41,30,67,155,45,31,38,229,45*7C
$GPGSA,M,3,21,25,29,30,31,,,,,,,,3.6,2.2,2.9*3E
Trace #98 at position 24.250000
$GPZDA,114443.03,08,10,2011,00,00*69
$GPRMC,114443.00,A,4611.965910,N,01258.219810,E,000.9,20.3,081011,0.2,E,A*0C
$GPGGA,114444.00,4611.966148,N,01258.219762,E,1,05,2.2,133.31,M,46.25,M,,*6E
$GPGLL,4611.966148,N,01258.219762,E,114444.00,A,A*68
$GPVTG,341.0,T,341.2,M,001.0,N,001.8,K,A*29
$GPGSV,2,1,08,16,21,308,,21,64,180,44,05,17,048,37,06,18,270,*74
$GPGSV,2,2,08,25,25,133,42,29,52,066,41,30,67,155,45,31,38,229,45*7C
$GPGSA,M,3,21,25,29,30,31,,,,,,,,3.6,2.2,2.9*3E
Trace #99 at position 24.500000
$GPZDA,114444.03,08,10,2011,00,00*6E
$GPRMC,114444.00,A,4611.966148,N,01258.219762,E,001.0,341.0,081011,0.2,E,A*38
$GPGGA,114445.00,4611.966381,N,01258.219567,E,1,05,2.2,133.26,M,46.25,M,,*69
$GPGLL,4611.966381,N,01258.219567,E,114445.00,A,A*69
$GPVTG,329.9,T,330.1,M,001.0,N,001.8,K,A*2B
$GPGSV,2,1,08,16,21,308,,21,64,180,45,05,17,048,38,06,18,270,*7A
$GPGSV,2,2,08,25,25,133,41,29,52,066,42,30,67,155,44,31,38,229,44*7C
$GPGSA,M,3,21,25,29,30,31,,,,,,,,3.6,2.2,2.9*3E
Trace #100 at position 24.750000
$GPZDA,114445.03,08,10,2011,00,00*6F
$GPRMC,114445.00,A,4611.966381,N,01258.219567,E,001.0,329.9,081011,0.2,E,A*3E
$GPGGA,114446.00,4611.966591,N,01258.219383,E,1,05,2.2,133.24,M,46.25,M,,*63
$GPGLL,4611.966591,N,01258.219383,E,114446.00,A,A*61
$GPVTG,336.6,T,336.7,M,000.8,N,001.5,K,A*2E
$GPGSV,2,1,08,16,21,308,,21,64,180,44,05,17,048,37,06,18,270,*74
$GPGSV,2,2,08,25,25,133,43,29,52,066,42,30,67,155,44,31,38,229,45*7F
$GPGSA,M,3,21,25,29,30,31,,,,,,,,3.6,2.2,2.9*3E
Trace #101 at position 25.000000
$GPZDA,114451.03,08,10,2011,00,00*6A
$GPRMC,114451.00,A,4611.966996,N,01258.219068,E,000.0,239.8,081011,0.2,E,A*3D
$GPGGA,114452.00,4611.967014,N,01258.219069,E,1,05,2.2,133.44,M,46.25,M,,*6E
$GPGLL,4611.967014,N,01258.219069,E,114452.00,A,A*6A
$GPVTG,96.8,T,97.0,M,000.1,N,000.1,K,A*2A
$GPGSV,2,1,08,16,21,308,,21,64,180,43,05,17,048,37,06,18,270,*73
$GPGSV,2,2,08,25,25,133,42,29,52,066,42,30,66,155,45,31,38,229,45*7E
$GPGSA,M,3,21,25,29,30,31,,,,,,,,3.6,2.2,2.9*3E
Trace #102 at position 25.250000
$GPZDA,114452.03,08,10,2011,00,00*69
$GPRMC,114452.00,A,4611.967014,N,01258.219069,E,000.1,96.8,081011,0.2,E,A*0B
$GPGGA,114453.00,4611.967038,N,01258.219064,E,1,05,2.2,133.41,M,46.25,M,,*69
$GPGLL,4611.967038,N,01258.219064,E,114453.00,A,A*68
$GPVTG,329.2,T,329.4,M,000.1,N,000.1,K,A*25
$GPGSV,2,1,08,16,21,308,,21,64,180,45,05,17,048,38,06,18,270,*7A
$GPGSV,2,2,08,25,25,133,43,29,52,066,43,30,66,155,45,31,38,229,45*7E
$GPGSA,M,3,21,25,29,30,31,,,,,,,,3.6,2.2,2.9*3E
Trace #103 at position 25.500000
$GPZDA,114453.04,08,10,2011,00,00*6F
$GPRMC,114453.00,A,4611.967038,N,01258.219064,E,000.1,329.2,081011,0.2,E,A*34
$GPGGA,114454.00,4611.967061,N,01258.219057,E,1,05,2.2,133.35,M,46.25,M,,*61
$GPGLL,4611.967061,N,01258.219057,E,114454.00,A,A*63
$GPVTG,59.7,T,59.8,M,000.0,N,000.1,K,A*2D
$GPGSV,2,1,08,16,21,308,,21,64,180,44,05,17,048,38,06,18,270,*7B
$GPGSV,2,2,08,25,25,133,42,29,52,066,42,30,66,155,45,31,38,229,44*7F
$GPGSA,M,3,21,25,29,30,31,,,,,,,,3.6,2.2,2.9*3E
Trace #104 at position 25.750000
$GPZDA,114453.04,08,10,2011,00,00*6F
$GPRMC,114453.00,A,4611.967038,N,01258.219064,E,000.1,329.2,081011,0.2,E,A*34
$GPGGA,114454.00,4611.967061,N,01258.219057,E,1,05,2.2,133.35,M,46.25,M,,*61
$GPGLL,4611.967061,N,01258.219057,E,114454.00,A,A*63
$GPVTG,59.7,T,59.8,M,000.0,N,000.1,K,A*2D
$GPGSV,2,1,08,16,21,308,,21,64,180,44,05,17,048,38,06,18,270,*7B
$GPGSV,2,2,08,25,25,133,42,29,52,066,42,30,66,155,45,31,38,229,44*7F
$GPGSA,M,3,21,25,29,30,31,,,,,,,,3.6,2.2,2.9*3E
Trace #105 at position 26.000000
$GPZDA,114454.03,08,10,2011,00,00*6F
$GPRMC,114454.00,A,4611.967061,N,01258.219057,E,000.0,59.7,081011,0.2,E,A*0F
$GPGGA,114455.00,4611.967076,N,01258.219054,E,1,05,2.2,133.36,M,46.25,M,,*66
$GPGLL,4611.967076,N,01258.219054,E,114455.00,A,A*67
$GPVTG,294.5,T,294.6,M,000.0,N,000.0,K,A*20
$GPGSV,2,1,08,16,21,308,,21,64,180,44,05,17,048,39,06,18,270,*7A
$GPGSV,2,2,08,25,25,133,43,29,52,066,42,30,66,155,45,31,38,229,43*79
$GPGSA,M,3,21,25,29,30,31,,,,,,,,3.6,2.2,2.9*3E
Trace #106 at position 26.250000
$GPZDA,114455.03,08,10,2011,00,00*6E
$GPRMC,114455.00,A,4611.967076,N,01258.219054,E,000.0,294.5,081011,0.2,E,A*3A
$GPGGA,114456.00,4611.967135,N,01258.218960,E,1,05,2.2,133.45,M,46.25,M,,*68
$GPGLL,4611.967135,N,01258.218960,E,114456.00,A,A*6D
$GPVTG,303.7,T,303.9,M,000.5,N,001.0,K,A*29
$GPGSV,2,1,08,16,21,308,,21,64,180,44,05,17,048,37,06,18,270,*74
$GPGSV,2,2,08,25,25,133,42,29,52,066,41,30,66,155,45,31,38,229,45*7D
$GPGSA,M,3,21,25,29,30,31,,,,,,,,3.6,2.2,2.9*3E
Trace #107 at position 26.500000
$GPZDA,114456.03,08,10,2011,00,00*6D
$GPRMC,114456.00,A,4611.967135,N,01258.218960,E,000.5,303.7,081011,0.2,E,A*38
$GPGGA,114457.00,4611.967360,N,01258.218729,E,1,05,2.2,133.42,M,46.25,M,,*6F
$GPGLL,4611.967360,N,01258.218729,E,114457.00,A,A*6D
$GPVTG,326.8,T,327.0,M,001.5,N,002.7,K,A*2B
$GPGSV,2,1,08,16,21,308,,21,64,180,44,05,17,048,38,06,18,270,*7B
$GPGSV,2,2,08,25,25,133,43,29,52,066,43,30,66,155,45,31,38,229,44*7F
$GPGSA,M,3,21,25,29,30,31,,,,,,,,3.6,2.2,2.9*3E
Trace #108 at position 26.750000
$GPZDA,114456.03,08,10,2011,00,00*6D
$GPRMC,114456.00,A,4611.967135,N,01258.218960,E,000.5,303.7,081011,0.2,E,A*38
$GPGGA,114457.00,4611.967360,N,01258.218729,E,1,05,2.2,133.42,M,46.25,M,,*6F
$GPGLL,4611.967360,N,01258.218729,E,114457.00,A,A*6D
$GPVTG,326.8,T,327.0,M,001.5,N,002.7,K,A*2B
$GPGSV,2,1,08,16,21,308,,21,64,180,44,05,17,048,38,06,18,270,*7B
$GPGSV,2,2,08,25,25,133,43,29,52,066,43,30,66,155,45,31,38,229,44*7F
$GPGSA,M,3,21,25,29,30,31,,,,,,,,3.6,2.2,2.9*3E
Trace #109 at position 27.000000
$GPZDA,114457.03,08,10,2011,00,00*6C
$GPRMC,114457.00,A,4611.967360,N,01258.218729,E,001.5,326.8,081011,0.2,E,A*31
$GPGGA,114458.00,4611.967657,N,01258.218505,E,1,05,2.2,133.27,M,46.25,M,,*6E
$GPGLL,4611.967657,N,01258.218505,E,114458.00,A,A*6F
$GPVTG,332.8,T,333.0,M,001.0,N,001.9,K,A*23
$GPGSV,2,1,08,16,21,308,,21,64,180,44,05,17,048,37,06,18,270,*74
$GPGSV,2,2,08,25,25,133,42,29,52,066,42,30,66,155,46,31,38,229,45*7D
$GPGSA,M,3,21,25,29,30,31,,,,,,,,3.6,2.2,2.9*3E
Trace #110 at position 27.250000
$GPZDA,114458.04,08,10,2011,00,00*64
$GPRMC,114458.00,A,4611.967657,N,01258.218505,E,001.0,332.8,081011,0.2,E,A*33
$GPGGA,114459.00,4611.967906,N,01258.218327,E,1,05,2.2,133.23,M,46.25,M,,*66
$GPGLL,4611.967906,N,01258.218327,E,114459.00,A,A*63
$GPVTG,324.2,T,324.4,M,001.1,N,002.0,K,A*27
$GPGSV,2,1,08,16,21,308,,21,64,180,45,05,17,048,38,06,18,270,*7A
$GPGSV,2,2,08,25,25,133,41,29,52,066,42,30,66,155,45,31,38,229,45*7D
$GPGSA,M,3,21,25,29,30,31,,,,,,,,3.6,2.2,2.9*3E
Trace #111 at position 27.500000
$GPZDA,114459.03,08,10,2011,00,00*62
$GPRMC,114459.00,A,4611.967906,N,01258.218327,E,001.1,324.2,081011,0.2,E,A*33
$GPGGA,114500.00,4611.968071,N,01258.218198,E,1,05,2.2,133.28,M,46.25,M,,*60
$GPGLL,4611.968071,N,01258.218198,E,114500.00,A,A*6E
$GPVTG,320.7,T,320.9,M,000.5,N,000.9,K,A*21
$GPGSV,2,1,08,16,21,308,,21,64,180,44,05,17,048,38,06,18,270,*7B
$GPGSV,2,2,08,25,25,133,42,29,52,066,42,30,66,155,45,31,38,229,45*7E
$GPGSA,M,3,21,25,29,30,31,,,,,,,,3.6,2.2,2.9*3E
Trace #112 at position 27.750000
$GPZDA,114459.03,08,10,2011,00,00*62
$GPRMC,114459.00,A,4611.967906,N,01258.218327,E,001.1,324.2,081011,0.2,E,A*33
$GPGGA,114500.00,4611.968071,N,01258.218198,E,1,05,2.2,133.28,M,46.25,M,,*60
$GPGLL,4611.968071,N,01258.218198,E,114500.00,A,A*6E
$GPVTG,320.7,T,320.9,M,000.5,N,000.9,K,A*21
$GPGSV,2,1,08,16,21,308,,21,64,180,44,05,17,048,38,06,18,270,*7B
$GPGSV,2,2,08,25,25,133,42,29,52,066,42,30,66,155,45,31,38,229,45*7E
$GPGSA,M,3,21,25,29,30,31,,,,,,,,3.6,2.2,2.9*3E
Trace #113 at position 28.000000
$GPZDA,114500.03,08,10,2011,00,00*6F
$GPRMC,114500.00,A,4611.968071,N,01258.218198,E,000.5,320.7,081011,0.2,E,A*3A
$GPGGA,114501.00,4611.968230,N,01258.218096,E,1,05,2.2,133.26,M,46.25,M,,*67
$GPGLL,4611.968230,N,01258.218096,E,114501.00,A,A*67
$GPVTG,329.5,T,329.7,M,001.0,N,001.8,K,A*29
$GPGSV,2,1,08,16,21,308,,21,64,180,45,05,17,048,38,06,18,270,*7A
$GPGSV,2,2,08,25,25,133,41,29,52,066,43,30,66,155,45,31,38,229,45*7C
$GPGSA,M,3,21,25,29,30,31,,,,,,,,3.6,2.2,2.9*3E
Trace #114 at position 28.250000
$GPZDA,114501.03,08,10,2011,00,00*6E
$GPRMC,114501.00,A,4611.968230,N,01258.218096,E,001.0,329.5,081011,0.2,E,A*3C
$GPGGA,114502.00,4611.968439,N,01258.218071,E,1,05,2.2,133.20,M,46.25,M,,*64
$GPGLL,4611.968439,N,01258.218071,E,114502.00,A,A*62
$GPVTG,7.8,T,7.9,M,000.8,N,001.5,K,A*2E
$GPGSV,2,1,08,16,21,308,,21,64,180,45,05,17,048,38,06,18,270,*7A
$GPGSV,2,2,08,25,25,133,41,29,52,066,43,30,66,155,45,31,38,229,44*7D
$GPGSA,M,3,21,25,29,30,31,,,,,,,,3.6,2.2,2.9*3E
Trace #115 at position 28.500000
$GPZDA,114501.03,08,10,2011,00,00*6E
$GPRMC,114501.00,A,4611.968230,N,01258.218096,E,001.0,329.5,081011,0.2,E,A*3C
$GPGGA,114502.00,4611.968439,N,01258.218071,E,1,05,2.2,133.20,M,46.25,M,,*64
$GPGLL,4611.968439,N,01258.218071,E,114502.00,A,A*62
$GPVTG,7.8,T,7.9,M,000.8,N,001.5,K,A*2E
$GPGSV,2,1,08,16,21,308,,21,64,180,45,05,17,048,38,06,18,270,*7A
$GPGSV,2,2,08,25,25,133,41,29,52,066,43,30,66,155,45,31,38,229,44*7D
$GPGSA,M,3,21,25,29,30,31,,,,,,,,3.6,2.2,2.9*3E
Trace #116 at position 28.750000
$GPZDA,114502.03,08,10,2011,00,00*6D
$GPRMC,114502.00,A,4611.968439,N,01258.218071,E,000.8,7.8,081011,0.2,E,A*32
