Trace #1 at position 0.000000
$GPZDA,114813.04,08,10,2011,00,00*67
$GPRMC,114813.00,A,4611.976321,N,01258.217188,E,000.0,110.7,081011,0.2,E,A*36
$GPGGA,114814.00,4611.976324,N,01258.217185,E,1,06,3.1,128.39,M,46.25,M,,*6C
$GPGLL,4611.976324,N,01258.217185,E,114814.00,A,A*69
$GPVTG,285.1,T,285.3,M,000.1,N,000.1,K,A*21
$GPGSV,2,1,08,16,23,308,43,21,65,179,43,05,17,046,,06,20,271,47*72
$GPGSV,2,2,08,25,23,134,,29,51,067,41,30,65,155,42,31,36,228,45*73
$GPGSA,M,3,16,21,06,29,30,31,,,,,,,7.2,3.1,6.5*32
Trace #2 at position 0.250000
$GPZDA,114818.04,08,10,2011,00,00*6C
$GPRMC,114818.00,A,4611.976351,N,01258.217157,E,000.1,295.7,081011,0.2,E,A*37
$GPGGA,114819.00,4611.976355,N,01258.217149,E,1,06,3.0,128.58,M,46.25,M,,*61
$GPGLL,4611.976355,N,01258.217149,E,114819.00,A,A*62
$GPVTG,110.3,T,110.4,M,000.1,N,000.1,K,A*24
$GPGSV,2,1,08,16,23,308,42,21,65,179,43,05,17,046,33,06,20,271,47*73
$GPGSV,2,2,08,25,23,134,,29,51,067,40,30,65,155,42,31,36,228,44*73
$GPGSA,M,3,16,21,06,29,30,31,,,,,,,7.2,3.0,6.5*33
Trace #3 at position 0.500000
$GPZDA,114819.03,08,10,2011,00,00*6A
$GPRMC,114819.00,A,4611.976355,N,01258.217149,E,000.1,110.3,081011,0.2,E,A*37
$GPGGA,114820.00,4611.976368,N,01258.217136,E,1,06,3.0,128.61,M,46.25,M,,*67
$GPGLL,4611.976368,N,01258.217136,E,114820.00,A,A*6E
$GPVTG,320.6,T,320.8,M,000.1,N,000.3,K,A*2F
$GPGSV,2,1,08,16,23,308,40,21,65,179,44,05,17,046,33,06,20,271,47*76
$GPGSV,2,2,08,25,23,134,,29,51,067,43,30,65,155,41,31,36,228,43*74
$GPGSA,M,3,16,21,06,29,30,31,,,,,,,7.2,3.0,6.5*33
Trace #4 at position 0.750000
$GPZDA,114820.03,08,10,2011,00,00*60
$GPRMC,114820.00,A,4611.976368,N,01258.217136,E,000.1,320.6,081011,0.2,E,A*3F
$GPGGA,114821.00,4611.976349,N,01258.217141,E,1,06,3.0,128.59,M,46.25,M,,*6E
$GPGLL,4611.976349,N,01258.217141,E,114821.00,A,A*6C
$GPVTG,152.7,T,152.9,M,000.3,N,000.5,K,A*2B
$GPGSV,2,1,08,16,23,308,40,21,65,179,43,05,17,046,35,06,20,271,46*76
$GPGSV,2,2,08,25,23,134,,29,51,067,42,30,65,155,43,31,36,228,44*70
$GPGSA,M,3,16,21,06,29,30,31,,,,,,,7.2,3.0,6.5*33
Trace #5 at position 1.000000
$GPZDA,114820.03,08,10,2011,00,00*60
$GPRMC,114820.00,A,4611.976368,N,01258.217136,E,000.1,320.6,081011,0.2,E,A*3F
$GPGGA,114821.00,4611.976349,N,01258.217141,E,1,06,3.0,128.59,M,46.25,M,,*6E
$GPGLL,4611.976349,N,01258.217141,E,114821.00,A,A*6C
$GPVTG,152.7,T,152.9,M,000.3,N,000.5,K,A*2B
$GPGSV,2,1,08,16,23,308,40,21,65,179,43,05,17,046,35,06,20,271,46*76
$GPGSV,2,2,08,25,23,134,,29,51,067,42,30,65,155,43,31,36,228,44*70
$GPGSA,M,3,16,21,06,29,30,31,,,,,,,7.2,3.0,6.5*33
Trace #6 at position 1.250000
$GPZDA,114821.04,08,10,2011,00,00*66
$GPRMC,114821.00,A,4611.976349,N,01258.217141,E,000.3,152.7,081011,0.2,E,A*39
$GPGGA,114822.00,4611.976192,N,01258.217004,E,1,06,3.0,128.51,M,46.25,M,,*61
$GPGLL,4611.976192,N,01258.217004,E,114822.00,A,A*6B
$GPVTG,225.4,T,225.5,M,001.3,N,002.4,K,A*26
$GPGSV,2,1,08,16,23,308,40,21,65,179,43,05,17,046,32,06,20,271,45*72
$GPGSV,2,2,08,25,23,134,,29,51,067,43,30,65,155,42,31,36,228,43*77
$GPGSA,M,3,16,21,06,29,30,31,,,,,,,7.2,3.0,6.5*33
Trace #7 at position 1.500000
$GPZDA,114824.03,08,10,2011,00,00*64
$GPRMC,114824.00,A,4611.975917,N,01258.217010,E,000.3,70.1,081011,0.2,E,A*0C
$GPGGA,114825.00,4611.975808,N,01258.217136,E,1,06,3.0,128.82,M,46.25,M,,*61
$GPGLL,4611.975808,N,01258.217136,E,114825.00,A,A*65
$GPVTG,167.5,T,167.6,M,000.8,N,001.4,K,A*2D
$GPGSV,2,1,08,16,23,308,42,21,65,179,45,05,17,046,32,06,20,271,44*77
$GPGSV,2,2,08,25,23,134,,29,51,067,42,30,65,155,42,31,36,228,43*76
$GPGSA,M,3,16,21,06,29,30,31,,,,,,,7.2,3.0,6.5*33
Trace #8 at position 1.750000
$GPZDA,114825.03,08,10,2011,00,00*65
$GPRMC,114825.00,A,4611.975808,N,01258.217136,E,000.8,167.5,081011,0.2,E,A*3F
$GPGGA,114826.00,4611.975741,N,01258.217219,E,1,06,3.0,128.78,M,46.25,M,,*6B
$GPGLL,4611.975741,N,01258.217219,E,114826.00,A,A*6A
$GPVTG,15.0,T,15.2,M,000.4,N,000.7,K,A*22
$GPGSV,2,1,08,16,23,308,42,21,65,179,44,05,17,046,31,06,20,271,44*75
$GPGSV,2,2,08,25,23,134,,29,51,067,42,30,65,155,43,31,36,228,43*77
$GPGSA,M,3,16,21,06,29,30,31,,,,,,,7.1,3.0,6.5*30
Trace #9 at position 2.000000
$GPZDA,114825.03,08,10,2011,00,00*65
$GPRMC,114825.00,A,4611.975808,N,01258.217136,E,000.8,167.5,081011,0.2,E,A*3F
$GPGGA,114826.00,4611.975741,N,01258.217219,E,1,06,3.0,128.78,M,46.25,M,,*6B
$GPGLL,4611.975741,N,01258.217219,E,114826.00,A,A*6A
$GPVTG,15.0,T,15.2,M,000.4,N,000.7,K,A*22
$GPGSV,2,1,08,16,23,308,42,21,65,179,44,05,17,046,31,06,20,271,44*75
$GPGSV,2,2,08,25,23,134,,29,51,067,42,30,65,155,43,31,36,228,43*77
$GPGSA,M,3,16,21,06,29,30,31,,,,,,,7.1,3.0,6.5*30
Trace #10 at position 2.250000
$GPZDA,114826.04,08,10,2011,00,00*61
$GPRMC,114826.00,A,4611.975741,N,01258.217219,E,000.4,15.0,081011,0.2,E,A*0D
$GPGGA,114827.00,4611.975783,N,01258.217267,E,1,06,3.0,128.82,M,46.25,M,,*68
$GPGLL,4611.975783,N,01258.217267,E,114827.00,A,A*6C
$GPVTG,357.4,T,357.5,M,000.1,N,000.2,K,A*21
$GPGSV,2,1,08,16,23,308,42,21,65,179,44,05,17,046,32,06,20,271,44*76
$GPGSV,2,2,08,25,23,134,,29,51,067,42,30,65,155,45,31,36,228,42*70
$GPGSA,M,3,16,21,06,29,30,31,,,,,,,7.1,3.0,6.5*30
Trace #11 at position 2.500000
$GPZDA,114826.04,08,10,2011,00,00*61
$GPRMC,114826.00,A,4611.975741,N,01258.217219,E,000.4,15.0,081011,0.2,E,A*0D
$GPGGA,114827.00,4611.975783,N,01258.217267,E,1,06,3.0,128.82,M,46.25,M,,*68
$GPGLL,4611.975783,N,01258.217267,E,114827.00,A,A*6C
$GPVTG,357.4,T,357.5,M,000.1,N,000.2,K,A*21
$GPGSV,2,1,08,16,23,308,42,21,65,179,44,05,17,046,32,06,20,271,44*76
$GPGSV,2,2,08,25,23,134,,29,51,067,42,30,65,155,45,31,36,228,42*70
$GPGSA,M,3,16,21,06,29,30,31,,,,,,,7.1,3.0,6.5*30
Trace #12 at position 2.750000
$GPZDA,114827.04,08,10,2011,00,00*60
$GPRMC,114827.00,A,4611.975783,N,01258.217267,E,000.1,357.4,081011,0.2,E,A*3F
$GPGGA,114828.00,4611.975704,N,01258.217305,E,1,06,3.0,129.00,M,46.25,M,,*66
$GPGLL,4611.975704,N,01258.217305,E,114828.00,A,A*69
$GPVTG,171.1,T,171.3,M,000.5,N,001.0,K,A*25
$GPGSV,2,1,08,16,23,308,41,21,65,179,44,05,17,046,32,06,20,271,44*75
$GPGSV,2,2,08,25,23,134,,29,50,067,42,30,65,155,45,31,36,228,42*71
$GPGSA,M,3,16,21,06,29,30,31,,,,,,,7.1,3.0,6.5*30
Trace #13 at position 3.000000
$GPZDA,114827.04,08,10,2011,00,00*60
$GPRMC,114827.00,A,4611.975783,N,01258.217267,E,000.1,357.4,081011,0.2,E,A*3F
$GPGGA,114828.00,4611.975704,N,01258.217305,E,1,06,3.0,129.00,M,46.25,M,,*66
$GPGLL,4611.975704,N,01258.217305,E,114828.00,A,A*69
$GPVTG,171.1,T,171.3,M,000.5,N,001.0,K,A*25
$GPGSV,2,1,08,16,23,308,41,21,65,179,44,05,17,046,32,06,20,271,44*75
$GPGSV,2,2,08,25,23,134,,29,50,067,42,30,65,155,45,31,36,228,42*71
$GPGSA,M,3,16,21,06,29,30,31,,,,,,,7.1,3.0,6.5*30
Trace #14 at position 3.250000
$GPZDA,114828.04,08,10,2011,00,00*6F
$GPRMC,114828.00,A,4611.975704,N,01258.217305,E,000.5,171.1,081011,0.2,E,A*3D
$GPGGA,114829.00,4611.975538,N,01258.217422,E,1,06,3.0,129.28,M,46.25,M,,*62
$GPGLL,4611.975538,N,01258.217422,E,114829.00,A,A*67
$GPVTG,138.5,T,138.6,M,000.6,N,001.1,K,A*26
$GPGSV,2,1,08,16,23,308,41,21,65,179,44,05,17,046,32,06,20,271,45*74
$GPGSV,2,2,08,25,23,134,,29,50,067,42,30,65,155,44,31,36,228,43*71
$GPGSA,M,3,16,21,06,29,30,31,,,,,,,7.1,3.0,6.5*30
Trace #15 at position 3.500000
$GPZDA,114829.03,08,10,2011,00,00*69
$GPRMC,114829.00,A,4611.975538,N,01258.217422,E,000.6,138.5,081011,0.2,E,A*39
$GPGGA,114830.00,4611.975286,N,01258.217540,E,1,06,3.0,129.40,M,46.25,M,,*63
$GPGLL,4611.975286,N,01258.217540,E,114830.00,A,A*68
$GPVTG,173.7,T,173.9,M,001.1,N,002.1,K,A*2E
$GPGSV,2,1,08,16,23,308,42,21,65,179,45,05,17,046,31,06,20,271,44*74
$GPGSV,2,2,08,25,23,134,,29,50,067,41,30,65,155,43,31,36,228,42*74
$GPGSA,M,3,16,21,06,29,30,31,,,,,,,7.1,3.0,6.4*31
Trace #16 at position 3.750000
$GPZDA,114829.03,08,10,2011,00,00*69
$GPRMC,114829.00,A,4611.975538,N,01258.217422,E,000.6,138.5,081011,0.2,E,A*39
$GPGGA,114830.00,4611.975286,N,01258.217540,E,1,06,3.0,129.40,M,46.25,M,,*63
$GPGLL,4611.975286,N,01258.217540,E,114830.00,A,A*68
$GPVTG,173.7,T,173.9,M,001.1,N,002.1,K,A*2E
$GPGSV,2,1,08,16,23,308,42,21,65,179,45,05,17,046,31,06,20,271,44*74
$GPGSV,2,2,08,25,23,134,,29,50,067,41,30,65,155,43,31,36,228,42*74
$GPGSA,M,3,16,21,06,29,30,31,,,,,,,7.1,3.0,6.4*31
Trace #17 at position 4.000000
$GPZDA,114829.03,08,10,2011,00,00*69
$GPRMC,114829.00,A,4611.975538,N,01258.217422,E,000.6,138.5,081011,0.2,E,A*39
$GPGGA,114830.00,4611.975286,N,01258.217540,E,1,06,3.0,129.40,M,46.25,M,,*63
$GPGLL,4611.975286,N,01258.217540,E,114830.00,A,A*68
$GPVTG,173.7,T,173.9,M,001.1,N,002.1,K,A*2E
$GPGSV,2,1,08,16,23,308,42,21,65,179,45,05,17,046,31,06,20,271,44*74
$GPGSV,2,2,08,25,23,134,,29,50,067,41,30,65,155,43,31,36,228,42*74
$GPGSA,M,3,16,21,06,29,30,31,,,,,,,7.1,3.0,6.4*31
Trace #18 at position 4.250000
$GPZDA,114830.04,08,10,2011,00,00*66
$GPRMC,114830.00,A,4611.975286,N,01258.217540,E,001.1,173.7,081011,0.2,E,A*3D
$GPGGA,114831.00,4611.975004,N,01258.217777,E,1,06,3.0,129.50,M,46.25,M,,*6D
$GPGLL,4611.975004,N,01258.217777,E,114831.00,A,A*67
$GPVTG,124.2,T,124.4,M,001.3,N,002.4,K,A*21
$GPGSV,2,1,08,16,23,308,43,21,65,179,44,05,17,046,30,06,20,271,45*74
$GPGSV,2,2,08,25,23,134,,29,50,067,40,30,65,155,44,31,36,228,44*74
$GPGSA,M,3,16,21,06,29,30,31,,,,,,,7.1,3.0,6.4*31
Trace #19 at position 4.500000
$GPZDA,114830.04,08,10,2011,00,00*66
$GPRMC,114830.00,A,4611.975286,N,01258.217540,E,001.1,173.7,081011,0.2,E,A*3D
$GPGGA,114831.00,4611.975004,N,01258.217777,E,1,06,3.0,129.50,M,46.25,M,,*6D
$GPGLL,4611.975004,N,01258.217777,E,114831.00,A,A*67
$GPVTG,124.2,T,124.4,M,001.3,N,002.4,K,A*21
$GPGSV,2,1,08,16,23,308,43,21,65,179,44,05,17,046,30,06,20,271,45*74
$GPGSV,2,2,08,25,23,134,,29,50,067,40,30,65,155,44,31,36,228,44*74
$GPGSA,M,3,16,21,06,29,30,31,,,,,,,7.1,3.0,6.4*31
Trace #20 at position 4.750000
$GPZDA,114830.04,08,10,2011,00,00*66
$GPRMC,114830.00,A,4611.975286,N,01258.217540,E,001.1,173.7,081011,0.2,E,A*3D
$GPGGA,114831.00,4611.975004,N,01258.217777,E,1,06,3.0,129.50,M,46.25,M,,*6D
$GPGLL,4611.975004,N,01258.217777,E,114831.00,A,A*67
$GPVTG,124.2,T,124.4,M,001.3,N,002.4,K,A*21
$GPGSV,2,1,08,16,23,308,43,21,65,179,44,05,17,046,30,06,20,271,45*74
$GPGSV,2,2,08,25,23,134,,29,50,067,40,30,65,155,44,31,36,228,44*74
$GPGSA,M,3,16,21,06,29,30,31,,,,,,,7.1,3.0,6.4*31
Trace #21 at position 5.000000
$GPZDA,114831.03,08,10,2011,00,00*60
$GPRMC,114831.00,A,4611.975004,N,01258.217777,E,001.3,124.2,081011,0.2,E,A*37
$GPGGA,114832.00,4611.974840,N,01258.217997,E,1,06,3.0,129.60,M,46.25,M,,*64
$GPGLL,4611.974840,N,01258.217997,E,114832.00,A,A*6D
$GPVTG,148.9,T,149.1,M,000.3,N,000.6,K,A*2F
$GPGSV,2,1,08,16,23,308,43,21,65,179,44,05,17,046,31,06,20,271,46*76
$GPGSV,2,2,08,25,23,134,34,29,50,067,40,30,65,155,43,31,36,228,44*74
$GPGSA,M,3,16,21,06,29,30,31,,,,,,,7.1,3.0,6.4*31
Trace #22 at position 5.250000
$GPZDA,114831.03,08,10,2011,00,00*60
$GPRMC,114831.00,A,4611.975004,N,01258.217777,E,001.3,124.2,081011,0.2,E,A*37
$GPGGA,114832.00,4611.974840,N,01258.217997,E,1,06,3.0,129.60,M,46.25,M,,*64
$GPGLL,4611.974840,N,01258.217997,E,114832.00,A,A*6D
$GPVTG,148.9,T,149.1,M,000.3,N,000.6,K,A*2F
$GPGSV,2,1,08,16,23,308,43,21,65,179,44,05,17,046,31,06,20,271,46*76
$GPGSV,2,2,08,25,23,134,34,29,50,067,40,30,65,155,43,31,36,228,44*74
$GPGSA,M,3,16,21,06,29,30,31,,,,,,,7.1,3.0,6.4*31
Trace #23 at position 5.500000
$GPZDA,114831.03,08,10,2011,00,00*60
$GPRMC,114831.00,A,4611.975004,N,01258.217777,E,001.3,124.2,081011,0.2,E,A*37
$GPGGA,114832.00,4611.974840,N,01258.217997,E,1,06,3.0,129.60,M,46.25,M,,*64
$GPGLL,4611.974840,N,01258.217997,E,114832.00,A,A*6D
$GPVTG,148.9,T,149.1,M,000.3,N,000.6,K,A*2F
$GPGSV,2,1,08,16,23,308,43,21,65,179,44,05,17,046,31,06,20,271,46*76
$GPGSV,2,2,08,25,23,134,34,29,50,067,40,30,65,155,43,31,36,228,44*74
$GPGSA,M,3,16,21,06,29,30,31,,,,,,,7.1,3.0,6.4*31
Trace #24 at position 5.750000
$GPZDA,114832.04,08,10,2011,00,00*64
$GPRMC,114832.00,A,4611.974840,N,01258.217997,E,000.3,148.9,081011,0.2,E,A*3D
$GPGGA,114833.00,4611.974575,N,01258.218166,E,1,06,3.0,129.50,M,46.25,M,,*64
$GPGLL,4611.974575,N,01258.218166,E,114833.00,A,A*6E
$GPVTG,150.4,T,150.5,M,001.6,N,003.0,K,A*26
$GPGSV,2,1,08,16,23,308,43,21,65,179,44,05,17,046,33,06,20,271,45*77
$GPGSV,2,2,08,25,23,134,35,29,50,067,40,30,65,155,45,31,36,228,45*72
$GPGSA,M,3,16,21,06,29,30,31,,,,,,,7.1,3.0,6.4*31
Trace #25 at position 6.000000
$GPZDA,114832.04,08,10,2011,00,00*64
$GPRMC,114832.00,A,4611.974840,N,01258.217997,E,000.3,148.9,081011,0.2,E,A*3D
$GPGGA,114833.00,4611.974575,N,01258.218166,E,1,06,3.0,129.50,M,46.25,M,,*64
$GPGLL,4611.974575,N,01258.218166,E,114833.00,A,A*6E
$GPVTG,150.4,T,150.5,M,001.6,N,003.0,K,A*26
$GPGSV,2,1,08,16,23,308,43,21,65,179,44,05,17,046,33,06,20,271,45*77
$GPGSV,2,2,08,25,23,134,35,29,50,067,40,30,65,155,45,31,36,228,45*72
$GPGSA,M,3,16,21,06,29,30,31,,,,,,,7.1,3.0,6.4*31
Trace #26 at position 6.250000
$GPZDA,114832.04,08,10,2011,00,00*64
$GPRMC,114832.00,A,4611.974840,N,01258.217997,E,000.3,148.9,081011,0.2,E,A*3D
$GPGGA,114833.00,4611.974575,N,01258.218166,E,1,06,3.0,129.50,M,46.25,M,,*64
$GPGLL,4611.974575,N,01258.218166,E,114833.00,A,A*6E
$GPVTG,150.4,T,150.5,M,001.6,N,003.0,K,A*26
$GPGSV,2,1,08,16,23,308,43,21,65,179,44,05,17,046,33,06,20,271,45*77
$GPGSV,2,2,08,25,23,134,35,29,50,067,40,30,65,155,45,31,36,228,45*72
$GPGSA,M,3,16,21,06,29,30,31,,,,,,,7.1,3.0,6.4*31
Trace #27 at position 6.500000
$GPZDA,114833.04,08,10,2011,00,00*65
$GPRMC,114833.00,A,4611.974575,N,01258.218166,E,001.6,150.4,081011,0.2,E,A*3E
$GPGGA,114834.00,4611.974154,N,01258.218314,E,1,06,3.0,129.35,M,46.25,M,,*60
$GPGLL,4611.974154,N,01258.218314,E,114834.00,A,A*69
$GPVTG,177.4,T,177.6,M,001.4,N,002.6,K,A*20
$GPGSV,2,1,08,16,23,308,42,21,65,179,45,05,17,046,33,06,20,271,44*76
$GPGSV,2,2,08,25,23,134,34,29,50,067,40,30,65,155,43,31,36,228,45*75
$GPGSA,M,3,16,21,06,29,30,31,,,,,,,7.1,3.0,6.4*31
Trace #28 at position 6.750000
$GPZDA,114833.04,08,10,2011,00,00*65
$GPRMC,114833.00,A,4611.974575,N,01258.218166,E,001.6,150.4,081011,0.2,E,A*3E
$GPGGA,114834.00,4611.974154,N,01258.218314,E,1,06,3.0,129.35,M,46.25,M,,*60
$GPGLL,4611.974154,N,01258.218314,E,114834.00,A,A*69
$GPVTG,177.4,T,177.6,M,001.4,N,002.6,K,A*20
$GPGSV,2,1,08,16,23,308,42,21,65,179,45,05,17,046,33,06,20,271,44*76
$GPGSV,2,2,08,25,23,134,34,29,50,067,40,30,65,155,43,31,36,228,45*75
$GPGSA,M,3,16,21,06,29,30,31,,,,,,,7.1,3.0,6.4*31
Trace #29 at position 7.000000
$GPZDA,114833.04,08,10,2011,00,00*65
$GPRMC,114833.00,A,4611.974575,N,01258.218166,E,001.6,150.4,081011,0.2,E,A*3E
$GPGGA,114834.00,4611.974154,N,01258.218314,E,1,06,3.0,129.35,M,46.25,M,,*60
$GPGLL,4611.974154,N,01258.218314,E,114834.00,A,A*69
$GPVTG,177.4,T,177.6,M,001.4,N,002.6,K,A*20
$GPGSV,2,1,08,16,23,308,42,21,65,179,45,05,17,046,33,06,20,271,44*76
$GPGSV,2,2,08,25,23,134,34,29,50,067,40,30,65,155,43,31,36,228,45*75
$GPGSA,M,3,16,21,06,29,30,31,,,,,,,7.1,3.0,6.4*31
Trace #30 at position 7.250000
$GPZDA,114834.03,08,10,2011,00,00*65
$GPRMC,114834.00,A,4611.974154,N,01258.218314,E,001.4,177.4,081011,0.2,E,A*3E
$GPGGA,114835.00,4611.973840,N,01258.218405,E,1,06,3.0,129.42,M,46.25,M,,*6D
$GPGLL,4611.973840,N,01258.218405,E,114835.00,A,A*64
$GPVTG,141.3,T,141.5,M,000.7,N,001.3,K,A*20
$GPGSV,2,1,08,16,23,308,41,21,65,179,45,05,17,046,,06,20,271,44*75
$GPGSV,2,2,08,25,23,134,35,29,50,067,42,30,65,155,42,31,36,228,44*76
$GPGSA,M,3,16,21,06,29,30,31,,,,,,,7.1,3.0,6.4*31
Trace #31 at position 7.500000
$GPZDA,114834.03,08,10,2011,00,00*65
$GPRMC,114834.00,A,4611.974154,N,01258.218314,E,001.4,177.4,081011,0.2,E,A*3E
$GPGGA,114835.00,4611.973840,N,01258.218405,E,1,06,3.0,129.42,M,46.25,M,,*6D
$GPGLL,4611.973840,N,01258.218405,E,114835.00,A,A*64
$GPVTG,141.3,T,141.5,M,000.7,N,001.3,K,A*20
$GPGSV,2,1,08,16,23,308,41,21,65,179,45,05,17,046,,06,20,271,44*75
$GPGSV,2,2,08,25,23,134,35,29,50,067,42,30,65,155,42,31,36,228,44*76
$GPGSA,M,3,16,21,06,29,30,31,,,,,,,7.1,3.0,6.4*31
Trace #32 at position 7.750000
$GPZDA,114835.04,08,10,2011,00,00*63
$GPRMC,114835.00,A,4611.973840,N,01258.218405,E,000.7,141.3,081011,0.2,E,A*33
$GPGGA,114836.00,4611.973622,N,01258.218491,E,1,06,3.0,129.94,M,46.25,M,,*62
$GPGLL,4611.973622,N,01258.218491,E,114836.00,A,A*60
$GPVTG,183.4,T,183.6,M,000.5,N,001.0,K,A*25
$GPGSV,2,1,08,16,23,308,41,21,65,179,45,05,17,046,33,06,20,271,44*75
$GPGSV,2,2,08,25,23,134,33,29,50,067,42,30,65,155,43,31,36,228,46*73
$GPGSA,M,3,16,21,06,29,30,31,,,,,,,7.1,3.0,6.4*31
Trace #33 at position 8.000000
$GPZDA,114835.04,08,10,2011,00,00*63
$GPRMC,114835.00,A,4611.973840,N,01258.218405,E,000.7,141.3,081011,0.2,E,A*33
$GPGGA,114836.00,4611.973622,N,01258.218491,E,1,06,3.0,129.94,M,46.25,M,,*62
$GPGLL,4611.973622,N,01258.218491,E,114836.00,A,A*60
$GPVTG,183.4,T,183.6,M,000.5,N,001.0,K,A*25
$GPGSV,2,1,08,16,23,308,41,21,65,179,45,05,17,046,33,06,20,271,44*75
$GPGSV,2,2,08,25,23,134,33,29,50,067,42,30,65,155,43,31,36,228,46*73
$GPGSA,M,3,16,21,06,29,30,31,,,,,,,7.1,3.0,6.4*31
Trace #34 at position 8.250000
$GPZDA,114835.04,08,10,2011,00,00*63
$GPRMC,114835.00,A,4611.973840,N,01258.218405,E,000.7,141.3,081011,0.2,E,A*33
$GPGGA,114836.00,4611.973622,N,01258.218491,E,1,06,3.0,129.94,M,46.25,M,,*62
$GPGLL,4611.973622,N,01258.218491,E,114836.00,A,A*60
$GPVTG,183.4,T,183.6,M,000.5,N,001.0,K,A*25
$GPGSV,2,1,08,16,23,308,41,21,65,179,45,05,17,046,33,06,20,271,44*75
$GPGSV,2,2,08,25,23,134,33,29,50,067,42,30,65,155,43,31,36,228,46*73
$GPGSA,M,3,16,21,06,29,30,31,,,,,,,7.1,3.0,6.4*31
Trace #35 at position 8.500000
$GPZDA,114836.03,08,10,2011,00,00*67
$GPRMC,114836.00,A,4611.973622,N,01258.218491,E,000.5,183.4,081011,0.2,E,A*3C
$GPGGA,114837.00,4611.973272,N,01258.218476,E,1,06,3.0,130.21,M,46.25,M,,*6D
$GPGLL,4611.973272,N,01258.218476,E,114837.00,A,A*69
$GPVTG,187.0,T,187.2,M,001.5,N,002.8,K,A*2F
$GPGSV,2,1,08,16,23,308,41,21,65,179,45,05,17,046,31,06,20,271,44*77
$GPGSV,2,2,08,25,23,134,31,29,50,067,40,30,65,155,42,31,36,228,46*72
$GPGSA,M,3,16,21,06,29,30,31,,,,,,,7.1,3.0,6.4*31
Trace #36 at position 8.750000
$GPZDA,114836.03,08,10,2011,00,00*67
$GPRMC,114836.00,A,4611.973622,N,01258.218491,E,000.5,183.4,081011,0.2,E,A*3C
$GPGGA,114837.00,4611.973272,N,01258.218476,E,1,06,3.0,130.21,M,46.25,M,,*6D
$GPGLL,4611.973272,N,01258.218476,E,114837.00,A,A*69
$GPVTG,187.0,T,187.2,M,001.5,N,002.8,K,A*2F
$GPGSV,2,1,08,16,23,308,41,21,65,179,45,05,17,046,31,06,20,271,44*77
$GPGSV,2,2,08,25,23,134,31,29,50,067,40,30,65,155,42,31,36,228,46*72
$GPGSA,M,3,16,21,06,29,30,31,,,,,,,7.1,3.0,6.4*31
Trace #37 at position 9.000000
$GPZDA,114837.03,08,10,2011,00,00*66
$GPRMC,114837.00,A,4611.973272,N,01258.218476,E,001.5,187.0,081011,0.2,E,A*34
$GPGGA,114838.00,4611.972868,N,01258.218589,E,1,06,3.0,130.04,M,46.25,M,,*64
$GPGLL,4611.972868,N,01258.218589,E,114838.00,A,A*67
$GPVTG,151.1,T,151.3,M,001.2,N,002.3,K,A*23
$GPGSV,2,1,08,16,23,308,41,21,65,179,44,05,17,046,32,06,20,271,46*77
$GPGSV,2,2,08,25,23,134,32,29,50,067,42,30,65,155,42,31,36,228,45*70
$GPGSA,M,3,16,21,06,29,30,31,,,,,,,7.1,3.0,6.4*31
Trace #38 at position 9.250000
$GPZDA,114837.03,08,10,2011,00,00*66
$GPRMC,114837.00,A,4611.973272,N,01258.218476,E,001.5,187.0,081011,0.2,E,A*34
$GPGGA,114838.00,4611.972868,N,01258.218589,E,1,06,3.0,130.04,M,46.25,M,,*64
$GPGLL,4611.972868,N,01258.218589,E,114838.00,A,A*67
$GPVTG,151.1,T,151.3,M,001.2,N,002.3,K,A*23
$GPGSV,2,1,08,16,23,308,41,21,65,179,44,05,17,046,32,06,20,271,46*77
$GPGSV,2,2,08,25,23,134,32,29,50,067,42,30,65,155,42,31,36,228,45*70
$GPGSA,M,3,16,21,06,29,30,31,,,,,,,7.1,3.0,6.4*31
Trace #39 at position 9.500000
$GPZDA,114838.04,08,10,2011,00,00*6E
$GPRMC,114838.00,A,4611.972868,N,01258.218589,E,001.2,151.1,081011,0.2,E,A*37
$GPGGA,114839.00,4611.972593,N,01258.218800,E,1,06,3.0,130.03,M,46.25,M,,*67
$GPGLL,4611.972593,N,01258.218800,E,114839.00,A,A*63
$GPVTG,147.0,T,147.2,M,000.7,N,001.3,K,A*24
$GPGSV,2,1,08,16,23,308,41,21,65,179,44,05,17,046,34,06,20,271,46*71
$GPGSV,2,2,08,25,23,134,33,29,50,067,41,30,65,155,42,31,36,228,46*71
$GPGSA,M,3,16,21,06,29,30,31,,,,,,,7.1,3.0,6.4*31
Trace #40 at position 9.750000
$GPZDA,114838.04,08,10,2011,00,00*6E
$GPRMC,114838.00,A,4611.972868,N,01258.218589,E,001.2,151.1,081011,0.2,E,A*37
$GPGGA,114839.00,4611.972593,N,01258.218800,E,1,06,3.0,130.03,M,46.25,M,,*67
$GPGLL,4611.972593,N,01258.218800,E,114839.00,A,A*63
$GPVTG,147.0,T,147.2,M,000.7,N,001.3,K,A*24
$GPGSV,2,1,08,16,23,308,41,21,65,179,44,05,17,046,34,06,20,271,46*71
$GPGSV,2,2,08,25,23,134,33,29,50,067,41,30,65,155,42,31,36,228,46*71
$GPGSA,M,3,16,21,06,29,30,31,,,,,,,7.1,3.0,6.4*31
Trace #41 at position 10.000000
$GPZDA,114839.03,08,10,2011,00,00*68
$GPRMC,114839.00,A,4611.972593,N,01258.218800,E,000.7,147.0,081011,0.2,E,A*31
$GPGGA,114840.00,4611.972326,N,01258.218918,E,1,06,3.0,129.82,M,46.25,M,,*68
$GPGLL,4611.972326,N,01258.218918,E,114840.00,A,A*6D
$GPVTG,170.1,T,170.3,M,001.0,N,001.9,K,A*28
$GPGSV,2,1,08,16,23,308,42,21,65,179,44,05,17,046,31,06,20,271,44*75
$GPGSV,2,2,08,25,23,134,,29,50,067,41,30,65,155,42,31,36,228,45*72
$GPGSA,M,3,16,21,06,29,30,31,,,,,,,7.1,3.0,6.4*31
Trace #42 at position 10.250000
$GPZDA,114839.03,08,10,2011,00,00*68
$GPRMC,114839.00,A,4611.972593,N,01258.218800,E,000.7,147.0,081011,0.2,E,A*31
$GPGGA,114840.00,4611.972326,N,01258.218918,E,1,06,3.0,129.82,M,46.25,M,,*68
$GPGLL,4611.972326,N,01258.218918,E,114840.00,A,A*6D
$GPVTG,170.1,T,170.3,M,001.0,N,001.9,K,A*28
$GPGSV,2,1,08,16,23,308,42,21,65,179,44,05,17,046,31,06,20,271,44*75
$GPGSV,2,2,08,25,23,134,,29,50,067,41,30,65,155,42,31,36,228,45*72
$GPGSA,M,3,16,21,06,29,30,31,,,,,,,7.1,3.0,6.4*31
Trace #43 at position 10.500000
$GPZDA,114840.03,08,10,2011,00,00*66
$GPRMC,114840.00,A,4611.972326,N,01258.218918,E,001.0,170.1,081011,0.2,E,A*3C
$GPGGA,114841.00,4611.972046,N,01258.219036,E,1,06,3.0,129.64,M,46.25,M,,*60
$GPGLL,4611.972046,N,01258.219036,E,114841.00,A,A*6D
$GPVTG,153.4,T,153.5,M,000.7,N,001.4,K,A*20
$GPGSV,2,1,08,16,23,308,42,21,65,179,45,05,17,046,,06,20,271,45*77
$GPGSV,2,2,08,25,23,134,,29,50,067,40,30,65,155,44,31,36,228,45*75
$GPGSA,M,3,16,21,06,29,30,31,,,,,,,7.1,3.0,6.4*31
Trace #44 at position 10.750000
$GPZDA,114840.03,08,10,2011,00,00*66
$GPRMC,114840.00,A,4611.972326,N,01258.218918,E,001.0,170.1,081011,0.2,E,A*3C
$GPGGA,114841.00,4611.972046,N,01258.219036,E,1,06,3.0,129.64,M,46.25,M,,*60
$GPGLL,4611.972046,N,01258.219036,E,114841.00,A,A*6D
$GPVTG,153.4,T,153.5,M,000.7,N,001.4,K,A*20
$GPGSV,2,1,08,16,23,308,42,21,65,179,45,05,17,046,,06,20,271,45*77
$GPGSV,2,2,08,25,23,134,,29,50,067,40,30,65,155,44,31,36,228,45*75
$GPGSA,M,3,16,21,06,29,30,31,,,,,,,7.1,3.0,6.4*31
Trace #45 at position 11.000000
$GPZDA,114841.03,08,10,2011,00,00*67
$GPRMC,114841.00,A,4611.972046,N,01258.219036,E,000.7,153.4,081011,0.2,E,A*3E
$GPGGA,114842.00,4611.971743,N,01258.219209,E,1,06,3.0,129.58,M,46.25,M,,*63
$GPGLL,4611.971743,N,01258.219209,E,114842.00,A,A*61
$GPVTG,156.9,T,157.0,M,001.3,N,002.3,K,A*28
$GPGSV,2,1,08,16,23,308,42,21,65,179,45,05,17,046,,06,20,271,46*74
$GPGSV,2,2,08,25,23,134,,29,50,067,40,30,65,155,44,31,36,228,45*75
$GPGSA,M,3,16,21,06,29,30,31,,,,,,,7.1,3.0,6.4*31
Trace #46 at position 11.250000
$GPZDA,114841.03,08,10,2011,00,00*67
$GPRMC,114841.00,A,4611.972046,N,01258.219036,E,000.7,153.4,081011,0.2,E,A*3E
$GPGGA,114842.00,4611.971743,N,01258.219209,E,1,06,3.0,129.58,M,46.25,M,,*63
$GPGLL,4611.971743,N,01258.219209,E,114842.00,A,A*61
$GPVTG,156.9,T,157.0,M,001.3,N,002.3,K,A*28
$GPGSV,2,1,08,16,23,308,42,21,65,179,45,05,17,046,,06,20,271,46*74
$GPGSV,2,2,08,25,23,134,,29,50,067,40,30,65,155,44,31,36,228,45*75
$GPGSA,M,3,16,21,06,29,30,31,,,,,,,7.1,3.0,6.4*31
Trace #47 at position 11.500000
$GPZDA,114842.04,08,10,2011,00,00*63
$GPRMC,114842.00,A,4611.971743,N,01258.219209,E,001.3,156.9,081011,0.2,E,A*3F
$GPGGA,114843.00,4611.971419,N,01258.219298,E,1,06,3.0,129.37,M,46.25,M,,*6F
$GPGLL,4611.971419,N,01258.219298,E,114843.00,A,A*64
$GPVTG,185.7,T,185.8,M,000.9,N,001.6,K,A*22
$GPGSV,2,1,08,16,23,308,42,21,65,179,44,05,17,046,32,06,20,271,44*76
$GPGSV,2,2,08,25,23,134,33,29,50,067,38,30,65,155,42,31,36,228,46*7F
$GPGSA,M,3,16,21,06,29,30,31,,,,,,,7.1,3.0,6.4*31
Trace #48 at position 11.750000
$GPZDA,114842.04,08,10,2011,00,00*63
$GPRMC,114842.00,A,4611.971743,N,01258.219209,E,001.3,156.9,081011,0.2,E,A*3F
$GPGGA,114843.00,4611.971419,N,01258.219298,E,1,06,3.0,129.37,M,46.25,M,,*6F
$GPGLL,4611.971419,N,01258.219298,E,114843.00,A,A*64
$GPVTG,185.7,T,185.8,M,000.9,N,001.6,K,A*22
$GPGSV,2,1,08,16,23,308,42,21,65,179,44,05,17,046,32,06,20,271,44*76
$GPGSV,2,2,08,25,23,134,33,29,50,067,38,30,65,155,42,31,36,228,46*7F
$GPGSA,M,3,16,21,06,29,30,31,,,,,,,7.1,3.0,6.4*31
Trace #49 at position 12.000000
$GPZDA,114843.04,08,10,2011,00,00*62
$GPRMC,114843.00,A,4611.971419,N,01258.219298,E,000.9,185.7,081011,0.2,E,A*31
$GPGGA,114844.00,4611.971141,N,01258.219367,E,1,06,3.0,129.31,M,46.25,M,,*67
$GPGLL,4611.971141,N,01258.219367,E,114844.00,A,A*6A
$GPVTG,157.4,T,157.6,M,000.9,N,001.7,K,A*2E
$GPGSV,2,1,08,16,23,308,42,21,65,179,44,05,17,046,34,06,20,271,45*71
$GPGSV,2,2,08,25,23,134,31,29,50,067,39,30,65,155,43,31,36,228,45*7E
$GPGSA,M,3,16,21,06,29,30,31,,,,,,,7.0,3.0,6.4*30
Trace #50 at position 12.250000
$GPZDA,114843.04,08,10,2011,00,00*62
$GPRMC,114843.00,A,4611.971419,N,01258.219298,E,000.9,185.7,081011,0.2,E,A*31
$GPGGA,114844.00,4611.971141,N,01258.219367,E,1,06,3.0,129.31,M,46.25,M,,*67
$GPGLL,4611.971141,N,01258.219367,E,114844.00,A,A*6A
$GPVTG,157.4,T,157.6,M,000.9,N,001.7,K,A*2E
$GPGSV,2,1,08,16,23,308,42,21,65,179,44,05,17,046,34,06,20,271,45*71
$GPGSV,2,2,08,25,23,134,31,29,50,067,39,30,65,155,43,31,36,228,45*7E
$GPGSA,M,3,16,21,06,29,30,31,,,,,,,7.0,3.0,6.4*30
Trace #51 at position 12.500000
$GPZDA,114844.04,08,10,2011,00,00*65
$GPRMC,114844.00,A,4611.971141,N,01258.219367,E,000.9,157.4,081011,0.2,E,A*33
$GPGGA,114845.00,4611.970806,N,01258.219539,E,1,06,3.0,129.27,M,46.25,M,,*67
$GPGLL,4611.970806,N,01258.219539,E,114845.00,A,A*6D
$GPVTG,160.0,T,160.2,M,001.4,N,002.7,K,A*21
$GPGSV,2,1,08,16,23,308,41,21,65,179,44,05,17,046,34,06,20,271,46*71
$GPGSV,2,2,08,25,23,134,28,29,50,067,41,30,65,155,44,31,36,228,45*7E
$GPGSA,M,3,16,21,06,29,30,31,,,,,,,7.0,3.0,6.4*30
Trace #52 at position 12.750000
$GPZDA,114844.04,08,10,2011,00,00*65
$GPRMC,114844.00,A,4611.971141,N,01258.219367,E,000.9,157.4,081011,0.2,E,A*33
$GPGGA,114845.00,4611.970806,N,01258.219539,E,1,06,3.0,129.27,M,46.25,M,,*67
$GPGLL,4611.970806,N,01258.219539,E,114845.00,A,A*6D
$GPVTG,160.0,T,160.2,M,001.4,N,002.7,K,A*21
$GPGSV,2,1,08,16,23,308,41,21,65,179,44,05,17,046,34,06,20,271,46*71
$GPGSV,2,2,08,25,23,134,28,29,50,067,41,30,65,155,44,31,36,228,45*7E
$GPGSA,M,3,16,21,06,29,30,31,,,,,,,7.0,3.0,6.4*30
Trace #53 at position 13.000000
$GPZDA,114844.04,08,10,2011,00,00*65
$GPRMC,114844.00,A,4611.971141,N,01258.219367,E,000.9,157.4,081011,0.2,E,A*33
$GPGGA,114845.00,4611.970806,N,01258.219539,E,1,06,3.0,129.27,M,46.25,M,,*67
$GPGLL,4611.970806,N,01258.219539,E,114845.00,A,A*6D
$GPVTG,160.0,T,160.2,M,001.4,N,002.7,K,A*21
$GPGSV,2,1,08,16,23,308,41,21,65,179,44,05,17,046,34,06,20,271,46*71
$GPGSV,2,2,08,25,23,134,28,29,50,067,41,30,65,155,44,31,36,228,45*7E
$GPGSA,M,3,16,21,06,29,30,31,,,,,,,7.0,3.0,6.4*30
Trace #54 at position 13.250000
$GPZDA,114845.03,08,10,2011,00,00*63
$GPRMC,114845.00,A,4611.970806,N,01258.219539,E,001.4,160.0,081011,0.2,E,A*38
$GPGGA,114846.00,4611.970442,N,01258.219770,E,1,06,3.0,129.20,M,46.25,M,,*60
$GPGLL,4611.970442,N,01258.219770,E,114846.00,A,A*6D
$GPVTG,148.4,T,148.6,M,001.4,N,002.5,K,A*23
$GPGSV,2,1,08,16,23,308,43,21,65,179,44,05,17,046,33,06,20,271,46*74
$GPGSV,2,2,08,25,23,134,30,29,50,067,40,30,64,155,42,31,36,228,44*70
$GPGSA,M,3,16,21,06,29,30,31,,,,,,,7.0,3.0,6.4*30
Trace #55 at position 13.500000
$GPZDA,114845.03,08,10,2011,00,00*63
$GPRMC,114845.00,A,4611.970806,N,01258.219539,E,001.4,160.0,081011,0.2,E,A*38
$GPGGA,114846.00,4611.970442,N,01258.219770,E,1,06,3.0,129.20,M,46.25,M,,*60
$GPGLL,4611.970442,N,01258.219770,E,114846.00,A,A*6D
$GPVTG,148.4,T,148.6,M,001.4,N,002.5,K,A*23
$GPGSV,2,1,08,16,23,308,43,21,65,179,44,05,17,046,33,06,20,271,46*74
$GPGSV,2,2,08,25,23,134,30,29,50,067,40,30,64,155,42,31,36,228,44*70
$GPGSA,M,3,16,21,06,29,30,31,,,,,,,7.0,3.0,6.4*30
Trace #56 at position 13.750000
$GPZDA,114846.03,08,10,2011,00,00*60
$GPRMC,114846.00,A,4611.970442,N,01258.219770,E,001.4,148.4,081011,0.2,E,A*36
$GPGGA,114847.00,4611.970086,N,01258.219946,E,1,06,3.0,129.05,M,46.25,M,,*61
$GPGLL,4611.970086,N,01258.219946,E,114847.00,A,A*6B
$GPVTG,168.5,T,168.7,M,001.4,N,002.6,K,A*20
$GPGSV,2,1,08,16,23,308,43,21,65,179,44,05,17,02,2,08,25,23,134,31,29,50,067,40,30,64,155,42,31,36,228,45*70
$GPGSA,M,3,16,21,06,29,30,31,,,,,,,7.0,3.0,6.4*30
Trace #57 at position 14.000000
$GPZDA,114846.03,08,10,2011,00,00*60
$GPRMC,114846.00,A,4611.970442,N,01258.219770,E,001.4,148.4,081011,0.2,E,A*36
$GPGGA,114847.00,4611.970086,N,01258.219946,E,1,06,3.0,129.05,M,46.25,M,,*61
$GPGLL,4611.970086,N,01258.219946,E,114847.00,A,A*6B
$GPVTG,168.5,T,168.7,M,001.4,N,002.6,K,A*20
$GPGSV,2,1,08,16,23,308,43,21,65,179,44,05,17,02,2,08,25,23,134,31,29,50,067,40,30,64,155,42,31,36,228,45*70
$GPGSA,M,3,16,21,06,29,30,31,,,,,,,7.0,3.0,6.4*30
Trace #58 at position 14.250000
$GPZDA,114847.03,08,10,2011,00,00*61
$GPRMC,114847.00,A,4611.970086,N,01258.219946,E,001.4,168.5,081011,0.2,E,A*33
$GPGGA,114848.00,4611.969693,N,01258.220191,E,1,06,3.0,128.90,M,46.25,M,,*61
$GPGLL,4611.969693,N,01258.220191,E,114848.00,A,A*66
$GPVTG,142.6,T,142.8,M,001.9,N,003.5,K,A*23
$GPGSV,2,1,08,16,23,308,44,21,65,179,45,05,17,046,29,06,20,271,45*7A
$GPGSV,2,2,08,25,23,134,32,29,50,067,38,30,64,155,43,31,36,228,45*7D
$GPGSA,M,3,16,21,06,29,30,31,,,,,,,7.0,3.0,6.4*30
Trace #59 at position 14.500000
$GPZDA,114847.03,08,10,2011,00,00*61
$GPRMC,114847.00,A,4611.970086,N,01258.219946,E,001.4,168.5,081011,0.2,E,A*33
$GPGGA,114848.00,4611.969693,N,01258.220191,E,1,06,3.0,128.90,M,46.25,M,,*61
$GPGLL,4611.969693,N,01258.220191,E,114848.00,A,A*66
$GPVTG,142.6,T,142.8,M,001.9,N,003.5,K,A*23
$GPGSV,2,1,08,16,23,308,44,21,65,179,45,05,17,046,29,06,20,271,45*7A
$GPGSV,2,2,08,25,23,134,32,29,50,067,38,30,64,155,43,31,36,228,45*7D
$GPGSA,M,3,16,21,06,29,30,31,,,,,,,7.0,3.0,6.4*30
Trace #60 at position 14.750000
$GPZDA,114848.04,08,10,2011,00,00*69
$GPRMC,114848.00,A,4611.969693,N,01258.220191,E,001.9,142.6,081011,0.2,E,A*38
$GPGGA,114849.00,4611.969347,N,01258.220376,E,1,06,3.0,128.97,M,46.25,M,,*60
$GPGLL,4611.969347,N,01258.220376,E,114849.00,A,A*60
$GPVTG,181.9,T,182.0,M,001.1,N,002.0,K,A*2B
$GPGSV,2,1,08,16,23,308,42,21,65,179,45,05,17,046,,06,20,271,45*77
$GPGSV,2,2,08,25,23,134,28,29,50,067,40,30,64,155,44,31,36,228,45*7E
$GPGSA,M,3,16,21,06,29,30,31,,,,,,,7.0,3.0,6.4*30
Trace #61 at position 15.000000
$GPZDA,114848.04,08,10,2011,00,00*69
$GPRMC,114848.00,A,4611.969693,N,01258.220191,E,001.9,142.6,081011,0.2,E,A*38
$GPGGA,114849.00,4611.969347,N,01258.220376,E,1,06,3.0,128.97,M,46.25,M,,*60
$GPGLL,4611.969347,N,01258.220376,E,114849.00,A,A*60
$GPVTG,181.9,T,182.0,M,001.1,N,002.0,K,A*2B
$GPGSV,2,1,08,16,23,308,42,21,65,179,45,05,17,046,,06,20,271,45*77
$GPGSV,2,2,08,25,23,134,28,29,50,067,40,30,64,155,44,31,36,228,45*7E
$GPGSA,M,3,16,21,06,29,30,31,,,,,,,7.0,3.0,6.4*30
Trace #62 at position 15.250000
$GPZDA,114849.03,08,10,2011,00,00*6F
$GPRMC,114849.00,A,4611.969347,N,01258.220376,E,001.1,181.9,081011,0.2,E,A*36
$GPGGA,114850.00,4611.969157,N,01258.220382,E,1,06,3.0,129.02,M,46.25,M,,*6D
$GPGLL,4611.969157,N,01258.220382,E,114850.00,A,A*60
$GPVTG,155.6,T,155.7,M,000.4,N,000.8,K,A*2E
$GPGSV,2,1,08,16,23,308,42,21,65,179,43,05,17,046,33,06,20,271,46*72
$GPGSV,2,2,08,25,23,134,,29,50,067,40,30,64,155,44,31,36,228,45*74
$GPGSA,M,3,16,21,06,29,30,31,,,,,,,7.0,3.0,6.4*30
Trace #63 at position 15.500000
$GPZDA,114849.03,08,10,2011,00,00*6F
$GPRMC,114849.00,A,4611.969347,N,01258.220376,E,001.1,181.9,081011,0.2,E,A*36
$GPGGA,114850.00,4611.969157,N,01258.220382,E,1,06,3.0,129.02,M,46.25,M,,*6D
$GPGLL,4611.969157,N,01258.220382,E,114850.00,A,A*60
$GPVTG,155.6,T,155.7,M,000.4,N,000.8,K,A*2E
$GPGSV,2,1,08,16,23,308,42,21,65,179,43,05,17,046,33,06,20,271,46*72
$GPGSV,2,2,08,25,23,134,,29,50,067,40,30,64,155,44,31,36,228,45*74
$GPGSA,M,3,16,21,06,29,30,31,,,,,,,7.0,3.0,6.4*30
Trace #64 at position 15.750000
$GPZDA,114850.04,08,10,2011,00,00*60
$GPRMC,114850.00,A,4611.969157,N,01258.220382,E,000.4,155.6,081011,0.2,E,A*34
$GPGGA,114851.00,4611.968941,N,01258.220461,E,1,06,3.0,128.93,M,46.25,M,,*61
$GPGLL,4611.968941,N,01258.220461,E,114851.00,A,A*65
$GPVTG,165.0,T,165.1,M,001.3,N,002.4,K,A*26
$GPGSV,2,1,08,16,23,308,43,21,65,179,43,05,17,046,34,06,20,271,47*75
$GPGSV,2,2,08,25,23,134,,29,50,067,41,30,64,155,41,31,36,228,45*70
$GPGSA,M,3,16,21,06,29,30,31,,,,,,,7.0,3.0,6.4*30
Trace #65 at position 16.000000
$GPZDA,114850.04,08,10,2011,00,00*60
$GPRMC,114850.00,A,4611.969157,N,01258.220382,E,000.4,155.6,081011,0.2,E,A*34
$GPGGA,114851.00,4611.968941,N,01258.220461,E,1,06,3.0,128.93,M,46.25,M,,*61
$GPGLL,4611.968941,N,01258.220461,E,114851.00,A,A*65
$GPVTG,165.0,T,165.1,M,001.3,N,002.4,K,A*26
$GPGSV,2,1,08,16,23,308,43,21,65,179,43,05,17,046,34,06,20,271,47*75
$GPGSV,2,2,08,25,23,134,,29,50,067,41,30,64,155,41,31,36,228,45*70
$GPGSA,M,3,16,21,06,29,30,31,,,,,,,7.0,3.0,6.4*30
Trace #66 at position 16.250000
$GPZDA,114850.04,08,10,2011,00,00*60
$GPRMC,114850.00,A,4611.969157,N,01258.220382,E,000.4,155.6,081011,0.2,E,A*34
$GPGGA,114851.00,4611.968941,N,01258.220461,E,1,06,3.0,128.93,M,46.25,M,,*61
$GPGLL,4611.968941,N,01258.220461,E,114851.00,A,A*65
$GPVTG,165.0,T,165.1,M,001.3,N,002.4,K,A*26
$GPGSV,2,1,08,16,23,308,43,21,65,179,43,05,17,046,34,06,20,271,47*75
$GPGSV,2,2,08,25,23,134,,29,50,067,41,30,64,155,41,31,36,228,45*70
$GPGSA,M,3,16,21,06,29,30,31,,,,,,,7.0,3.0,6.4*30
Trace #67 at position 16.500000
$GPZDA,114851.03,08,10,2011,00,00*66
$GPRMC,114851.00,A,4611.968941,N,01258.220461,E,001.3,165.0,081011,0.2,E,A*32
$GPGGA,114852.00,4611.968694,N,01258.220641,E,1,06,3.0,128.97,M,46.25,M,,*61
$GPGLL,4611.968694,N,01258.220641,E,114852.00,A,A*61
$GPVTG,129.6,T,129.7,M,000.9,N,001.7,K,A*2D
$GPGSV,2,1,08,16,23,308,44,21,66,179,43,05,17,046,31,06,20,271,46*75
$GPGSV,2,2,08,25,23,134,,29,50,067,41,30,64,155,42,31,36,228,46*70
$GPGSA,M,3,16,21,06,29,30,31,,,,,,,7.0,3.0,6.3*37
Trace #68 at position 16.750000
$GPZDA,114851.03,08,10,2011,00,00*66
$GPRMC,114851.00,A,4611.968941,N,01258.220461,E,001.3,165.0,081011,0.2,E,A*32
$GPGGA,114852.00,4611.968694,N,01258.220641,E,1,06,3.0,128.97,M,46.25,M,,*61
$GPGLL,4611.968694,N,01258.220641,E,114852.00,A,A*61
$GPVTG,129.6,T,129.7,M,000.9,N,001.7,K,A*2D
$GPGSV,2,1,08,16,23,308,44,21,66,179,43,05,17,046,31,06,20,271,46*75
$GPGSV,2,2,08,25,23,134,,29,50,067,41,30,64,155,42,31,36,228,46*70
$GPGSA,M,3,16,21,06,29,30,31,,,,,,,7.0,3.0,6.3*37
Trace #69 at position 17.000000
$GPZDA,114852.03,08,10,2011,00,00*65
$GPRMC,114852.00,A,4611.968694,N,01258.220641,E,000.9,129.6,081011,0.2,E,A*33
$GPGGA,114853.00,4611.968405,N,01258.220762,E,1,06,3.0,128.96,M,46.25,M,,*6B
$GPGLL,4611.968405,N,01258.220762,E,114853.00,A,A*6A
$GPVTG,177.6,T,177.8,M,001.5,N,002.8,K,A*23
$GPGSV,2,1,08,16,23,308,45,21,66,179,43,05,17,046,29,06,20,271,46*7D
$GPGSV,2,2,08,25,23,134,,29,50,067,38,30,64,155,42,31,36,228,46*7E
$GPGSA,M,3,16,21,06,29,30,31,,,,,,,7.0,3.0,6.3*37
Trace #70 at position 17.250000
$GPZDA,114852.03,08,10,2011,00,00*65
$GPRMC,114852.00,A,4611.968694,N,01258.220641,E,000.9,129.6,081011,0.2,E,A*33
$GPGGA,114853.00,4611.968405,N,01258.220762,E,1,06,3.0,128.96,M,46.25,M,,*6B
$GPGLL,4611.968405,N,01258.220762,E,114853.00,A,A*6A
$GPVTG,177.6,T,177.8,M,001.5,N,002.8,K,A*23
$GPGSV,2,1,08,16,23,308,45,21,66,179,43,05,17,046,29,06,20,271,46*7D
$GPGSV,2,2,08,25,23,134,,29,50,067,38,30,64,155,42,31,36,228,46*7E
$GPGSA,M,3,16,21,06,29,30,31,,,,,,,7.0,3.0,6.3*37
Trace #71 at position 17.500000
$GPZDA,114853.04,08,10,2011,00,00*63
$GPRMC,114853.00,A,4611.968405,N,01258.220762,E,001.5,177.6,081011,0.2,E,A*3E
$GPGGA,114854.00,4611.968121,N,01258.220741,E,1,06,2.9,128.99,M,46.25,M,,*69
$GPGLL,4611.968121,N,01258.220741,E,114854.00,A,A*6F
$GPVTG,190.7,T,190.9,M,000.6,N,001.0,K,A*2A
$GPGSV,2,1,08,16,23,308,44,21,66,179,43,05,17,046,32,06,20,271,46*76
$GPGSV,2,2,08,25,23,134,,29,50,067,40,30,64,155,41,31,36,228,45*71
$GPGSA,M,3,16,21,06,29,30,31,,,,,,,7.0,2.9,6.3*3F
Trace #72 at position 17.750000
$GPZDA,114853.04,08,10,2011,00,00*63
$GPRMC,114853.00,A,4611.968405,N,01258.220762,E,001.5,177.6,081011,0.2,E,A*3E
$GPGGA,114854.00,4611.968121,N,01258.220741,E,1,06,2.9,128.99,M,46.25,M,,*69
$GPGLL,4611.968121,N,01258.220741,E,114854.00,A,A*6F
$GPVTG,190.7,T,190.9,M,000.6,N,001.0,K,A*2A
$GPGSV,2,1,08,16,23,308,44,21,66,179,43,05,17,046,32,06,20,271,46*76
$GPGSV,2,2,08,25,23,134,,29,50,067,40,30,64,155,41,31,36,228,45*71
$GPGSA,M,3,16,21,06,29,30,31,,,,,,,7.0,2.9,6.3*3F
Trace #73 at position 18.000000
$GPZDA,114854.03,08,10,2011,00,00*63
$GPRMC,114854.00,A,4611.968121,N,01258.220741,E,000.6,190.7,081011,0.2,E,A*31
$GPGGA,114855.00,4611.967824,N,01258.220721,E,1,06,2.9,128.92,M,46.25,M,,*66
$GPGLL,4611.967824,N,01258.220721,E,114855.00,A,A*6B
$GPVTG,179.9,T,180.1,M,001.6,N,003.0,K,A*29
$GPGSV,2,1,08,16,23,308,45,21,66,179,44,05,17,046,32,06,20,271,45*73
$GPGSV,2,2,08,25,23,134,,29,50,067,41,30,64,155,43,31,36,228,45*72
$GPGSA,M,3,16,21,06,29,30,31,,,,,,,7.0,2.9,6.3*3F
Trace #74 at position 18.250000
$GPZDA,114854.03,08,10,2011,00,00*63
$GPRMC,114854.00,A,4611.968121,N,01258.220741,E,000.6,190.7,081011,0.2,E,A*31
$GPGGA,114855.00,4611.967824,N,01258.220721,E,1,06,2.9,128.92,M,46.25,M,,*66
$GPGLL,4611.967824,N,01258.220721,E,114855.00,A,A*6B
$GPVTG,179.9,T,180.1,M,001.6,N,003.0,K,A*29
$GPGSV,2,1,08,16,23,308,45,21,66,179,44,05,17,046,32,06,20,271,45*73
$GPGSV,2,2,08,25,23,134,,29,50,067,41,30,64,155,43,31,36,228,45*72
$GPGSA,M,3,16,21,06,29,30,31,,,,,,,7.0,2.9,6.3*3F
Trace #75 at position 18.500000
$GPZDA,114855.03,08,10,2011,00,00*62
$GPRMC,114855.00,A,4611.967824,N,01258.220721,E,001.6,179.9,081011,0.2,E,A*3D
$GPGGA,114856.00,4611.967585,N,01258.220756,E,1,06,2.9,128.89,M,46.25,M,,*69
$GPGLL,4611.967585,N,01258.220756,E,114856.00,A,A*6E
$GPVTG,157.8,T,158.0,M,000.2,N,000.3,K,A*25
$GPGSV,2,1,08,16,23,308,42,21,66,179,42,05,17,046,33,06,20,271,46*70
$GPGSV,2,2,08,25,23,134,,29,50,067,41,30,64,155,42,31,36,228,45*73
$GPGSA,M,3,16,21,06,29,30,31,,,,,,,7.0,2.9,6.3*3F
Trace #76 at position 18.750000
$GPZDA,114855.03,08,10,2011,00,00*62
$GPRMC,114855.00,A,4611.967824,N,01258.220721,E,001.6,179.9,081011,0.2,E,A*3D
$GPGGA,114856.00,4611.967585,N,01258.220756,E,1,06,2.9,128.89,M,46.25,M,,*69
$GPGLL,4611.967585,N,01258.220756,E,114856.00,A,A*6E
$GPVTG,157.8,T,158.0,M,000.2,N,000.3,K,A*25
$GPGSV,2,1,08,16,23,308,42,21,66,179,42,05,17,046,33,06,20,271,46*70
$GPGSV,2,2,08,25,23,134,,29,50,067,41,30,64,155,42,31,36,228,45*73
$GPGSA,M,3,16,21,06,29,30,31,,,,,,,7.0,2.9,6.3*3F
Trace #77 at position 19.000000
$GPZDA,114855.03,08,10,2011,00,00*62
$GPRMC,114855.00,A,4611.967824,N,01258.220721,E,001.6,179.9,081011,0.2,E,A*3D
$GPGGA,114856.00,4611.967585,N,01258.220756,E,1,06,2.9,128.89,M,46.25,M,,*69
$GPGLL,4611.967585,N,01258.220756,E,114856.00,A,A*6E
$GPVTG,157.8,T,158.0,M,000.2,N,000.3,K,A*25
$GPGSV,2,1,08,16,23,308,42,21,66,179,42,05,17,046,33,06,20,271,46*70
$GPGSV,2,2,08,25,23,134,,29,50,067,41,30,64,155,42,31,36,228,45*73
$GPGSA,M,3,16,21,06,29,30,31,,,,,,,7.0,2.9,6.3*3F
Trace #78 at position 19.250000
$GPZDA,114856.03,08,10,2011,00,00*61
$GPRMC,114856.00,A,4611.967585,N,01258.220756,E,000.2,157.8,081011,0.2,E,A*30
$GPGGA,114857.00,4611.967426,N,01258.220835,E,1,06,2.9,129.26,M,46.25,M,,*6E
$GPGLL,4611.967426,N,01258.220835,E,114857.00,A,A*6D
$GPVTG,166.6,T,166.8,M,000.9,N,001.7,K,A*22
$GPGSV,2,1,08,16,23,308,43,21,66,179,44,05,17,046,,06,20,271,46*77
$GPGSV,2,2,08,25,23,134,,29,50,067,39,30,64,155,42,31,36,228,46*7F
$GPGSA,M,3,16,21,06,29,30,31,,,,,,,7.0,2.9,6.3*3F
Trace #79 at position 19.500000
$GPZDA,114856.03,08,10,2011,00,00*61
$GPRMC,114856.00,A,4611.967585,N,01258.220756,E,000.2,157.8,081011,0.2,E,A*30
$GPGGA,114857.00,4611.967426,N,01258.220835,E,1,06,2.9,129.26,M,46.25,M,,*6E
$GPGLL,4611.967426,N,01258.220835,E,114857.00,A,A*6D
$GPVTG,166.6,T,166.8,M,000.9,N,001.7,K,A*22
$GPGSV,2,1,08,16,23,308,43,21,66,179,44,05,17,046,,06,20,271,46*77
$GPGSV,2,2,08,25,23,134,,29,50,067,39,30,64,155,42,31,36,228,46*7F
$GPGSA,M,3,16,21,06,29,30,31,,,,,,,7.0,2.9,6.3*3F
Trace #80 at position 19.750000
$GPZDA,114857.04,08,10,2011,00,00*67
$GPRMC,114857.00,A,4611.967426,N,01258.220835,E,000.9,166.6,081011,0.2,E,A*34
$GPGGA,114858.00,4611.967129,N,01258.220781,E,1,06,2.9,129.26,M,46.25,M,,*6B
$GPGLL,4611.967129,N,01258.220781,E,114858.00,A,A*68
$GPVTG,209.6,T,209.8,M,001.4,N,002.6,K,A*2C
$GPGSV,2,1,08,16,23,308,44,21,66,179,44,05,17,046,32,06,20,271,45*72
$GPGSV,2,2,08,25,23,134,,29,50,067,41,30,64,155,43,31,36,228,45*72
$GPGSA,M,3,16,21,06,29,30,31,,,,,,,7.0,2.9,6.3*3F
Trace #81 at position 20.000000
$GPZDA,114857.04,08,10,2011,00,00*67
$GPRMC,114857.00,A,4611.967426,N,01258.220835,E,000.9,166.6,081011,0.2,E,A*34
$GPGGA,114858.00,4611.967129,N,01258.220781,E,1,06,2.9,129.26,M,46.25,M,,*6B
$GPGLL,4611.967129,N,01258.220781,E,114858.00,A,A*68
$GPVTG,209.6,T,209.8,M,001.4,N,002.6,K,A*2C
$GPGSV,2,1,08,16,23,308,44,21,66,179,44,05,17,046,32,06,20,271,45*72
$GPGSV,2,2,08,25,23,134,,29,50,067,41,30,64,155,43,31,36,228,45*72
$GPGSA,M,3,16,21,06,29,30,31,,,,,,,7.0,2.9,6.3*3F
Trace #82 at position 20.250000
$GPZDA,114858.04,08,10,2011,00,00*68
$GPRMC,114858.00,A,4611.967129,N,01258.220781,E,001.4,209.6,081011,0.2,E,A*37
$GPGGA,114859.00,4611.966768,N,01258.220691,E,1,06,2.9,128.95,M,46.25,M,,*61
$GPGLL,4611.966768,N,01258.220691,E,114859.00,A,A*6B
$GPVTG,184.7,T,184.8,M,001.4,N,002.6,K,A*2D
$GPGSV,2,1,08,16,23,308,44,21,66,179,44,05,17,046,29,06,20,271,44*79
$GPGSV,2,2,08,25,23,134,,29,50,067,39,30,64,155,44,31,36,228,46*79
$GPGSA,M,3,16,21,06,29,30,31,,,,,,,7.0,2.9,6.3*3F
Trace #83 at position 20.500000
$GPZDA,114858.04,08,10,2011,00,00*68
$GPRMC,114858.00,A,4611.967129,N,01258.220781,E,001.4,209.6,081011,0.2,E,A*37
$GPGGA,114859.00,4611.966768,N,01258.220691,E,1,06,2.9,128.95,M,46.25,M,,*61
$GPGLL,4611.966768,N,01258.220691,E,114859.00,A,A*6B
$GPVTG,184.7,T,184.8,M,001.4,N,002.6,K,A*2D
$GPGSV,2,1,08,16,23,308,44,21,66,179,44,05,17,046,29,06,20,271,44*79
$GPGSV,2,2,08,25,23,134,,29,50,067,39,30,64,155,44,31,36,228,46*79
$GPGSA,M,3,16,21,06,29,30,31,,,,,,,7.0,2.9,6.3*3F
Trace #84 at position 20.750000
$GPZDA,114859.03,08,10,2011,00,00*6E
$GPRMC,114859.00,A,4611.966768,N,01258.220691,E,001.4,184.7,081011,0.2,E,A*33
$GPGGA,114900.00,4611.966433,N,01258.220978,E,1,06,2.9,128.87,M,46.25,M,,*6A
$GPGLL,4611.966433,N,01258.220978,E,114900.00,A,A*63
$GPVTG,129.8,T,130.0,M,001.6,N,003.0,K,A*27
$GPGSV,2,1,08,16,23,308,44,21,66,179,43,05,17,046,,06,20,271,45*74
$GPGSV,2,2,08,25,23,134,,29,50,067,39,30,64,155,43,31,36,228,46*7E
$GPGSA,M,3,16,21,06,29,30,31,,,,,,,7.0,2.9,6.3*3F
Trace #85 at position 21.000000
$GPZDA,114900.03,08,10,2011,00,00*63
$GPRMC,114900.00,A,4611.966433,N,01258.220978,E,001.6,129.8,081011,0.2,E,A*31
$GPGGA,114901.00,4611.966189,N,01258.221439,E,1,06,2.9,129.05,M,46.25,M,,*6D
$GPGLL,4611.966189,N,01258.221439,E,114901.00,A,A*6F
$GPVTG,125.2,T,125.4,M,001.1,N,002.1,K,A*26
$GPGSV,2,1,08,16,23,308,44,21,66,179,43,05,17,046,,06,20,271,44*75
$GPGSV,2,2,08,25,23,134,,29,50,067,39,30,64,155,41,31,36,228,46*7C
$GPGSA,M,3,16,21,06,29,30,31,,,,,,,7.0,2.9,6.3*3F
Trace #86 at position 21.250000
$GPZDA,114900.03,08,10,2011,00,00*63
$GPRMC,114900.00,A,4611.966433,N,01258.220978,E,001.6,129.8,081011,0.2,E,A*31
$GPGGA,114901.00,4611.966189,N,01258.221439,E,1,06,2.9,129.05,M,46.25,M,,*6D
$GPGLL,4611.966189,N,01258.221439,E,114901.00,A,A*6F
$GPVTG,125.2,T,125.4,M,001.1,N,002.1,K,A*26
$GPGSV,2,1,08,16,23,308,44,21,66,179,43,05,17,046,,06,20,271,44*75
$GPGSV,2,2,08,25,23,134,,29,50,067,39,30,64,155,41,31,36,228,46*7C
$GPGSA,M,3,16,21,06,29,30,31,,,,,,,7.0,2.9,6.3*3F
Trace #87 at position 21.500000
$GPZDA,114901.04,08,10,2011,00,00*65
$GPRMC,114901.00,A,4611.966189,N,01258.221439,E,001.1,125.2,081011,0.2,E,A*3C
$GPGGA,114902.00,4611.966059,N,01258.221695,E,1,06,2.9,129.09,M,46.25,M,,*6A
$GPGLL,4611.966059,N,01258.221695,E,114902.00,A,A*64
$GPVTG,113.5,T,113.7,M,000.4,N,000.7,K,A*22
$GPGSV,2,1,08,16,23,308,45,21,66,179,44,05,17,046,,06,20,271,45*72
$GPGSV,2,2,08,25,23,134,,29,50,067,38,30,64,155,45,31,36,228,46*79
$GPGSA,M,3,16,21,06,29,30,31,,,,,,,6.9,2.9,6.3*37
Trace #88 at position 21.750000
$GPZDA,114901.04,08,10,2011,00,00*65
$GPRMC,114901.00,A,4611.966189,N,01258.221439,E,001.1,125.2,081011,0.2,E,A*3C
$GPGGA,114902.00,4611.966059,N,01258.221695,E,1,06,2.9,129.09,M,46.25,M,,*6A
$GPGLL,4611.966059,N,01258.221695,E,114902.00,A,A*64
$GPVTG,113.5,T,113.7,M,000.4,N,000.7,K,A*22
$GPGSV,2,1,08,16,23,308,45,21,66,179,44,05,17,046,,06,20,271,45*72
$GPGSV,2,2,08,25,23,134,,29,50,067,38,30,64,155,45,31,36,228,46*79
$GPGSA,M,3,16,21,06,29,30,31,,,,,,,6.9,2.9,6.3*37
Trace #89 at position 22.000000
$GPZDA,114902.04,08,10,2011,00,00*66
$GPRMC,114902.00,A,4611.966059,N,01258.221695,E,000.4,113.5,081011,0.2,E,A*31
$GPGGA,114903.00,4611.965900,N,01258.221771,E,1,06,2.9,129.07,M,46.25,M,,*68
$GPGLL,4611.965900,N,01258.221771,E,114903.00,A,A*68
$GPVTG,175.5,T,175.6,M,000.8,N,001.4,K,A*2D
$GPGSV,2,1,08,16,23,308,46,21,66,179,44,05,17,046,,06,20,271,44*70
$GPGSV,2,2,08,25,23,134,,29,50,067,37,30,64,155,45,31,36,228,46*76
$GPGSA,M,3,16,21,06,29,30,31,,,,,,,6.9,2.9,6.3*37
Trace #90 at position 22.250000
$GPZDA,114903.04,08,10,2011,00,00*67
$GPRMC,114903.00,A,4611.965900,N,01258.221771,E,000.8,175.5,081011,0.2,E,A*31
$GPGGA,114904.00,4611.965731,N,01258.221567,E,1,06,2.9,129.45,M,46.25,M,,*60
$GPGLL,4611.965731,N,01258.221567,E,114904.00,A,A*66
$GPVTG,259.2,T,259.4,M,001.2,N,002.2,K,A*26
$GPGSV,2,1,08,16,23,308,45,21,66,179,44,05,17,046,,06,20,271,45*72
$GPGSV,2,2,08,25,23,134,,29,50,067,39,30,64,155,44,31,36,228,44*7B
$GPGSA,M,3,16,21,06,29,30,31,,,,,,,6.9,2.9,6.3*37
Trace #91 at position 22.500000
$GPZDA,114904.03,08,10,2011,00,00*67
$GPRMC,114904.00,A,4611.965731,N,01258.221567,E,001.2,259.2,081011,0.2,E,A*3E
$GPGGA,114905.00,4611.965786,N,01258.219956,E,1,05,8.0,133.24,M,46.25,M,,*64
$GPGLL,4611.965786,N,01258.219956,E,114905.00,A,A*6E
$GPVTG,132.6,T,132.8,M,001.0,N,001.9,K,A*24
$GPGSV,2,1,08,16,23,308,45,21,66,179,43,05,17,046,,06,20,271,46*76
$GPGSV,2,2,08,25,23,134,,29,50,067,35,30,64,155,42,31,36,228,45*70
$GPGSA,M,3,16,21,06,30,31,,,,,,,,17.7,8.0,15.8*38
Trace #92 at position 22.750000
$GPZDA,114905.03,08,10,2011,00,00*66
$GPRMC,114905.00,A,4611.965786,N,01258.219956,E,001.0,132.6,081011,0.2,E,A*3E
$GPGGA,114906.00,4611.965765,N,01258.218818,E,1,05,8.0,136.22,M,46.25,M,,*63
$GPGLL,4611.965765,N,01258.218818,E,114906.00,A,A*6A
$GPVTG,148.7,T,148.9,M,000.7,N,001.3,K,A*28
$GPGSV,2,1,08,16,23,308,46,21,66,179,43,05,17,046,,06,20,271,45*76
$GPGSV,2,2,08,25,23,134,,29,50,067,35,30,64,155,43,31,36,228,45*71
$GPGSA,M,3,16,21,06,30,31,,,,,,,,17.7,8.0,15.8*38
Trace #93 at position 23.000000
$GPZDA,114906.03,08,10,2011,00,00*65
$GPRMC,114906.00,A,4611.965765,N,01258.218818,E,000.7,148.7,081011,0.2,E,A*30
$GPGGA,114907.00,4611.965728,N,01258.217687,E,1,05,8.0,139.25,M,46.25,M,,*64
$GPGLL,4611.965728,N,01258.217687,E,114907.00,A,A*65
$GPVTG,187.7,T,187.9,M,000.7,N,001.3,K,A*28
$GPGSV,2,1,08,16,23,308,46,21,66,179,45,05,17,046,,06,20,271,45*70
$GPGSV,2,2,08,25,23,134,,29,50,067,37,30,64,155,44,31,36,228,47*76
$GPGSA,M,3,16,21,06,30,31,,,,,,,,17.7,8.0,15.8*38
Trace #94 at position 23.250000
$GPZDA,114907.03,08,10,2011,00,00*64
$GPRMC,114907.00,A,4611.965728,N,01258.217687,E,000.7,187.7,081011,0.2,E,A*3C
$GPGGA,114908.00,4611.965646,N,01258.216758,E,1,05,8.0,142.13,M,46.25,M,,*69
$GPGLL,4611.965646,N,01258.216758,E,114908.00,A,A*61
$GPVTG,141.5,T,141.7,M,001.1,N,002.0,K,A*23
$GPGSV,2,1,08,16,23,308,44,21,66,178,44,05,16,046,,06,20,271,46*70
$GPGSV,2,2,08,25,23,134,,29,50,067,35,30,64,155,43,31,36,228,47*73
$GPGSA,M,3,16,21,06,30,31,,,,,,,,17.6,8.0,15.7*36
Trace #95 at position 23.500000
$GPZDA,114910.04,08,10,2011,00,00*65
$GPRMC,114910.00,A,4611.965426,N,01258.216778,E,000.6,175.4,081011,0.2,E,A*38
$GPGGA,114911.00,4611.965189,N,01258.217590,E,1,06,2.9,141.06,M,46.25,M,,*65
$GPGLL,4611.965189,N,01258.217590,E,114911.00,A,A*6A
$GPVTG,124.4,T,124.5,M,000.8,N,001.4,K,A*2F
$GPGSV,2,1,08,16,23,308,46,21,66,178,42,05,16,046,,06,20,271,46*74
$GPGSV,2,2,08,25,23,134,,29,50,067,37,30,64,155,40,31,36,228,47*72
$GPGSA,M,3,16,21,06,29,30,31,,,,,,,6.9,2.9,6.3*37
Trace #96 at position 23.750000
$GPZDA,114911.03,08,10,2011,00,00*63
$GPRMC,114911.00,A,4611.965189,N,01258.217590,E,000.8,124.4,081011,0.2,E,A*36
$GPGGA,114912.00,4611.965223,N,01258.216760,E,1,05,7.9,143.46,M,46.25,M,,*69
$GPGLL,4611.965223,N,01258.216760,E,114912.00,A,A*66
$GPVTG,123.8,T,124.0,M,000.4,N,000.8,K,A*20
$GPGSV,2,1,08,16,23,308,46,21,66,178,42,05,16,046,,06,20,271,46*74
$GPGSV,2,2,08,25,23,134,,29,50,067,36,30,64,155,41,31,36,228,47*72
$GPGSA,M,3,16,21,06,30,31,,,,,,,,17.5,7.9,15.6*32
Trace #97 at position 24.000000
$GPZDA,114911.03,08,10,2011,00,00*63
$GPRMC,114911.00,A,4611.965189,N,01258.217590,E,000.8,124.4,081011,0.2,E,A*36
$GPGGA,114912.00,4611.965223,N,01258.216760,E,1,05,7.9,143.46,M,46.25,M,,*69
$GPGLL,4611.965223,N,01258.216760,E,114912.00,A,A*66
$GPVTG,123.8,T,124.0,M,000.4,N,000.8,K,A*20
$GPGSV,2,1,08,16,23,308,46,21,66,178,42,05,16,046,,06,20,271,46*74
$GPGSV,2,2,08,25,23,134,,29,50,067,36,30,64,155,41,31,36,228,47*72
$GPGSA,M,3,16,21,06,30,31,,,,,,,,17.5,7.9,15.6*32
Trace #98 at position 24.250000
$GPZDA,114912.03,08,10,2011,00,00*60
$GPRMC,114912.00,A,4611.965223,N,01258.216760,E,000.4,123.8,081011,0.2,E,A*3D
$GPGGA,114913.00,4611.965302,N,01258.215917,E,1,05,7.9,145.53,M,46.25,M,,*65
$GPGLL,4611.965302,N,01258.215917,E,114913.00,A,A*68
$GPVTG,259.8,T,259.9,M,000.1,N,000.2,K,A*21
$GPGSV,2,1,08,16,23,308,46,21,66,178,43,05,16,046,,06,20,271,45*76
$GPGSV,2,2,08,25,23,134,,29,50,067,38,30,64,155,41,31,36,228,47*7C
$GPGSA,M,3,16,21,06,30,31,,,,,,,,17.5,7.9,15.6*32
Trace #99 at position 24.500000
$GPZDA,114912.03,08,10,2011,00,00*60
$GPRMC,114912.00,A,4611.965223,N,01258.216760,E,000.4,123.8,081011,0.2,E,A*3D
$GPGGA,114913.00,4611.965302,N,01258.215917,E,1,05,7.9,145.53,M,46.25,M,,*65
$GPGLL,4611.965302,N,01258.215917,E,114913.00,A,A*68
$GPVTG,259.8,T,259.9,M,000.1,N,000.2,K,A*21
$GPGSV,2,1,08,16,23,308,46,21,66,178,43,05,16,046,,06,20,271,45*76
$GPGSV,2,2,08,25,23,134,,29,50,067,38,30,64,155,41,31,36,228,47*7C
$GPGSA,M,3,16,21,06,30,31,,,,,,,,17.5,7.9,15.6*32
Trace #100 at position 24.750000
$GPZDA,114913.03,08,10,2011,00,00*61
$GPRMC,114913.00,A,4611.965302,N,01258.215917,E,000.1,259.8,081011,0.2,E,A*38
$GPGGA,114914.00,4611.965407,N,01258.215109,E,1,05,7.9,147.37,M,46.25,M,,*67
$GPGLL,4611.965407,N,01258.215109,E,114914.00,A,A*6A
$GPVTG,329.7,T,329.8,M,000.1,N,000.1,K,A*2C
$GPGSV,2,1,08,16,23,308,46,21,66,178,42,05,16,046,,06,20,271,45*77
$GPGSV,2,2,08,25,23,134,,29,50,067,37,30,64,155,40,31,36,228,46*73
$GPGSA,M,3,16,21,06,30,31,,,,,,,,17.5,7.9,15.6*32
Trace #101 at position 25.000000
$GPZDA,114913.03,08,10,2011,00,00*61
$GPRMC,114913.00,A,4611.965302,N,01258.215917,E,000.1,259.8,081011,0.2,E,A*38
$GPGGA,114914.00,4611.965407,N,01258.215109,E,1,05,7.9,147.37,M,46.25,M,,*67
$GPGLL,4611.965407,N,01258.215109,E,114914.00,A,A*6A
$GPVTG,329.7,T,329.8,M,000.1,N,000.1,K,A*2C
$GPGSV,2,1,08,16,23,308,46,21,66,178,42,05,16,046,,06,20,271,45*77
$GPGSV,2,2,08,25,23,134,,29,50,067,37,30,64,155,40,31,36,228,46*73
$GPGSA,M,3,16,21,06,30,31,,,,,,,,17.5,7.9,15.6*32
Trace #102 at position 25.250000
$GPZDA,114914.03,08,10,2011,00,00*66
$GPRMC,114914.00,A,4611.965407,N,01258.215109,E,000.1,329.7,081011,0.2,E,A*33
$GPGGA,114915.00,4611.965330,N,01258.214555,E,1,05,7.9,148.82,M,46.25,M,,*68
$GPGLL,4611.965330,N,01258.214555,E,114915.00,A,A*64
$GPVTG,151.2,T,151.3,M,001.5,N,002.7,K,A*23
$GPGSV,2,1,08,16,23,308,46,21,66,178,44,05,16,046,,06,20,271,45*71
$GPGSV,2,2,08,25,23,134,,29,50,067,36,30,64,155,43,31,36,228,47*70
$GPGSA,M,3,16,21,06,30,31,,,,,,,,17.5,7.9,15.6*32
Trace #103 at position 25.500000
$GPZDA,114914.03,08,10,2011,00,00*66
$GPRMC,114914.00,A,4611.965407,N,01258.215109,E,000.1,329.7,081011,0.2,E,A*33
$GPGGA,114915.00,4611.965330,N,01258.214555,E,1,05,7.9,148.82,M,46.25,M,,*68
$GPGLL,4611.965330,N,01258.214555,E,114915.00,A,A*64
$GPVTG,151.2,T,151.3,M,001.5,N,002.7,K,A*23
$GPGSV,2,1,08,16,23,308,46,21,66,178,44,05,16,046,,06,20,271,45*71
$GPGSV,2,2,08,25,23,134,,29,50,067,36,30,64,155,43,31,36,228,47*70
$GPGSA,M,3,16,21,06,30,31,,,,,,,,17.5,7.9,15.6*32
Trace #104 at position 25.750000
$GPZDA,114915.03,08,10,2011,00,00*67
$GPRMC,114915.00,A,4611.965330,N,01258.214555,E,001.5,151.2,081011,0.2,E,A*30
$GPGGA,114916.00,4611.965102,N,01258.214155,E,1,05,7.9,150.08,M,46.25,M,,*67
$GPGLL,4611.965102,N,01258.214155,E,114916.00,A,A*60
$GPVTG,157.6,T,157.8,M,001.2,N,002.1,K,A*2D
$GPGSV,2,1,08,16,23,308,45,21,66,178,43,05,16,046,,06,20,271,46*76
$GPGSV,2,2,08,25,23,134,,29,50,067,35,30,64,155,42,31,36,228,46*73
$GPGSA,M,3,16,21,06,30,31,,,,,,,,17.4,7.9,15.5*30
Trace #105 at position 26.000000
$GPZDA,114915.03,08,10,2011,00,00*67
$GPRMC,114915.00,A,4611.965330,N,01258.214555,E,001.5,151.2,081011,0.2,E,A*30
$GPGGA,114916.00,4611.965102,N,01258.214155,E,1,05,7.9,150.08,M,46.25,M,,*67
$GPGLL,4611.965102,N,01258.214155,E,114916.00,A,A*60
$GPVTG,157.6,T,157.8,M,001.2,N,002.1,K,A*2D
$GPGSV,2,1,08,16,23,308,45,21,66,178,43,05,16,046,,06,20,271,46*76
$GPGSV,2,2,08,25,23,134,,29,50,067,35,30,64,155,42,31,36,228,46*73
$GPGSA,M,3,16,21,06,30,31,,,,,,,,17.4,7.9,15.5*30
Trace #106 at position 26.250000
$GPZDA,114916.03,08,10,2011,00,00*64
$GPRMC,114916.00,A,4611.965102,N,01258.214155,E,001.2,157.6,081011,0.2,E,A*31
$GPGGA,114917.00,4611.964932,N,01258.213744,E,1,05,7.9,151.41,M,46.25,M,,*61
$GPGLL,4611.964932,N,01258.213744,E,114917.00,A,A*6A
$GPVTG,163.8,T,163.9,M,000.8,N,001.5,K,A*2E
$GPGSV,2,1,08,16,23,308,46,21,66,178,43,05,16,046,,06,20,271,47*74
$GPGSV,2,2,08,25,23,134,,29,50,067,38,30,64,155,41,31,36,228,47*7C
$GPGSA,M,3,16,21,06,30,31,,,,,,,,17.4,7.9,15.5*30
Trace #107 at position 26.500000
$GPZDA,114916.03,08,10,2011,00,00*64
$GPRMC,114916.00,A,4611.965102,N,01258.214155,E,001.2,157.6,081011,0.2,E,A*31
$GPGGA,114917.00,4611.964932,N,01258.213744,E,1,05,7.9,151.41,M,46.25,M,,*61
$GPGLL,4611.964932,N,01258.213744,E,114917.00,A,A*6A
$GPVTG,163.8,T,163.9,M,000.8,N,001.5,K,A*2E
$GPGSV,2,1,08,16,23,308,46,21,66,178,43,05,16,046,,06,20,271,47*74
$GPGSV,2,2,08,25,23,134,,29,50,067,38,30,64,155,41,31,36,228,47*7C
$GPGSA,M,3,16,21,06,30,31,,,,,,,,17.4,7.9,15.5*30
Trace #108 at position 26.750000
$GPZDA,114916.03,08,10,2011,00,00*64
$GPRMC,114916.00,A,4611.965102,N,01258.214155,E,001.2,157.6,081011,0.2,E,A*31
$GPGGA,114917.00,4611.964932,N,01258.213744,E,1,05,7.9,151.41,M,46.25,M,,*61
$GPGLL,4611.964932,N,01258.213744,E,114917.00,A,A*6A
$GPVTG,163.8,T,163.9,M,000.8,N,001.5,K,A*2E
$GPGSV,2,1,08,16,23,308,46,21,66,178,43,05,16,046,,06,20,271,47*74
$GPGSV,2,2,08,25,23,134,,29,50,067,38,30,64,155,41,31,36,228,47*7C
$GPGSA,M,3,16,21,06,30,31,,,,,,,,17.4,7.9,15.5*30
Trace #109 at position 27.000000
$GPZDA,114917.03,08,10,2011,00,00*65
$GPRMC,114917.00,A,4611.964932,N,01258.213744,E,000.8,163.8,081011,0.2,E,A*39
$GPGGA,114918.00,4611.964745,N,01258.213388,E,1,05,7.9,152.48,M,46.25,M,,*6E
$GPGLL,4611.964745,N,01258.213388,E,114918.00,A,A*6F
$GPVTG,162.2,T,162.3,M,001.2,N,002.2,K,A*21
$GPGSV,2,1,08,16,23,308,45,21,66,178,41,05,16,046,,06,20,271,45*77
$GPGSV,2,2,08,25,23,134,,29,50,067,37,30,64,155,41,31,36,228,46*72
$GPGSA,M,3,16,21,06,30,31,,,,,,,,17.4,7.9,15.5*30
Trace #110 at position 27.250000
$GPZDA,114917.03,08,10,2011,00,00*65
$GPRMC,114917.00,A,4611.964932,N,01258.213744,E,000.8,163.8,081011,0.2,E,A*39
$GPGGA,114918.00,4611.964745,N,01258.213388,E,1,05,7.9,152.48,M,46.25,M,,*6E
$GPGLL,4611.964745,N,01258.213388,E,114918.00,A,A*6F
$GPVTG,162.2,T,162.3,M,001.2,N,002.2,K,A*21
$GPGSV,2,1,08,16,23,308,45,21,66,178,41,05,16,046,,06,20,271,45*77
$GPGSV,2,2,08,25,23,134,,29,50,067,37,30,64,155,41,31,36,228,46*72
$GPGSA,M,3,16,21,06,30,31,,,,,,,,17.4,7.9,15.5*30
Trace #111 at position 27.500000
$GPZDA,114918.03,08,10,2011,00,00*6A
$GPRMC,114918.00,A,4611.964745,N,01258.213388,E,001.2,162.2,081011,0.2,E,A*3C
$GPGGA,114919.00,4611.964501,N,01258.213086,E,1,05,7.9,153.24,M,46.25,M,,*6B
$GPGLL,4611.964501,N,01258.213086,E,114919.00,A,A*61
$GPVTG,172.4,T,172.5,M,001.1,N,002.1,K,A*21
$GPGSV,2,1,08,16,23,308,46,21,66,178,41,05,16,046,,06,20,271,47*76
$GPGSV,2,2,08,25,23,134,,29,50,067,27,30,64,155,41,31,36,228,44*71
$GPGSA,M,3,16,21,06,30,31,,,,,,,,17.4,7.9,15.5*30
Trace #112 at position 27.750000
$GPZDA,114918.03,08,10,2011,00,00*6A
$GPRMC,114918.00,A,4611.964745,N,01258.213388,E,001.2,162.2,081011,0.2,E,A*3C
$GPGGA,114919.00,4611.964501,N,01258.213086,E,1,05,7.9,153.24,M,46.25,M,,*6B
$GPGLL,4611.964501,N,01258.213086,E,114919.00,A,A*61
$GPVTG,172.4,T,172.5,M,001.1,N,002.1,K,A*21
$GPGSV,2,1,08,16,23,308,46,21,66,178,41,05,16,046,,06,20,271,47*76
$GPGSV,2,2,08,25,23,134,,29,50,067,27,30,64,155,41,31,36,228,44*71
$GPGSA,M,3,16,21,06,30,31,,,,,,,,17.4,7.9,15.5*30
Trace #113 at position 28.000000
$GPZDA,114918.03,08,10,2011,00,00*6A
$GPRMC,114918.00,A,4611.964745,N,01258.213388,E,001.2,162.2,081011,0.2,E,A*3C
$GPGGA,114919.00,4611.964501,N,01258.213086,E,1,05,7.9,153.24,M,46.25,M,,*6B
$GPGLL,4611.964501,N,01258.213086,E,114919.00,A,A*61
$GPVTG,172.4,T,172.5,M,001.1,N,002.1,K,A*21
$GPGSV,2,1,08,16,23,308,46,21,66,178,41,05,16,046,,06,20,271,47*76
$GPGSV,2,2,08,25,23,134,,29,50,067,27,30,64,155,41,31,36,228,44*71
$GPGSA,M,3,16,21,06,30,31,,,,,,,,17.4,7.9,15.5*30
Trace #114 at position 28.250000
$GPZDA,114919.03,08,10,2011,00,00*6B
$GPRMC,114919.00,A,4611.964501,N,01258.213086,E,001.1,172.4,081011,0.2,E,A*36
$GPGGA,114920.00,4611.964236,N,01258.212815,E,1,05,7.9,154.02,M,46.25,M,,*62
$GPGLL,4611.964236,N,01258.212815,E,114920.00,A,A*6B
$GPVTG,168.2,T,168.3,M,001.2,N,002.3,K,A*20
$GPGSV,2,1,08,16,23,308,47,21,66,178,42,05,16,046,,06,20,271,47*74
$GPGSV,2,2,08,25,23,134,,29,50,067,29,30,64,155,43,31,36,228,47*7E
$GPGSA,M,3,16,21,06,30,31,,,,,,,,17.4,7.9,15.5*30
Trace #115 at position 28.500000
$GPZDA,114919.03,08,10,2011,00,00*6B
$GPRMC,114919.00,A,4611.964501,N,01258.213086,E,001.1,172.4,081011,0.2,E,A*36
$GPGGA,114920.00,4611.964236,N,01258.212815,E,1,05,7.9,154.02,M,46.25,M,,*62
$GPGLL,4611.964236,N,01258.212815,E,114920.00,A,A*6B
$GPVTG,168.2,T,168.3,M,001.2,N,002.3,K,A*20
