Trace #1 at position 0.000000
$GPZDA,081227.03,09,10,2011,00,00*61
$GPRMC,081227.00,A,4611.953114,N,01258.226070,E,000.2,250.5,091011,0.2,E,A*37
$GPGGA,081228.00,4611.953072,N,01258.226073,E,1,06,1.4,139.96,M,46.25,M,,*6B
$GPGLL,4611.953072,N,01258.226073,E,081228.00,A,A*6C
$GPVTG,173.2,T,173.3,M,000.3,N,000.5,K,A*24
$GPGSV,2,1,08,02,34,101,44,04,21,053,41,09,38,144,48,12,71,044,43*7E
$GPGSV,2,2,08,14,37,275,,25,62,294,41,29,32,214,46,30,17,279,*7F
$GPGSA,M,3,02,04,09,12,25,29,,,,,,,2.8,1.4,2.4*37
Trace #2 at position 0.250000
$GPZDA,081230.03,09,10,2011,00,00*67
$GPRMC,081230.00,A,4611.953059,N,01258.226032,E,000.3,110.5,091011,0.2,E,A*39
$GPGGA,081231.00,4611.953061,N,01258.226094,E,1,05,1.7,139.82,M,46.25,M,,*6D
$GPGLL,4611.953061,N,01258.226094,E,081231.00,A,A*6F
$GPVTG,123.8,T,124.0,M,000.3,N,000.5,K,A*2A
$GPGSV,2,1,08,02,34,101,44,04,21,053,37,09,38,144,46,12,71,044,44*76
$GPGSV,2,2,08,14,37,274,,25,62,294,37,29,32,214,45,30,17,279,33*7C
$GPGSA,M,3,02,04,09,12,29,,,,,,,,3.0,1.7,2.5*3B
Trace #3 at position 0.500000
$GPZDA,081235.04,09,10,2011,00,00*65
$GPRMC,081235.00,A,4611.953030,N,01258.226254,E,000.0,263.1,091011,0.2,E,A*31
$GPGGA,081236.00,4611.953109,N,01258.226186,E,1,06,1.4,139.66,M,46.25,M,,*6D
$GPGLL,4611.953109,N,01258.226186,E,081236.00,A,A*65
$GPVTG,321.6,T,321.7,M,000.7,N,001.3,K,A*27
$GPGSV,2,1,08,02,34,101,45,04,21,053,40,09,38,144,48,12,71,044,46*7B
$GPGSV,2,2,08,14,37,274,34,25,62,294,40,29,32,214,44,30,17,279,33*7A
$GPGSA,M,3,02,04,09,12,25,29,,,,,,,2.8,1.4,2.4*37
Trace #4 at position 0.750000
$GPZDA,081236.03,09,10,2011,00,00*61
$GPRMC,081236.00,A,4611.953109,N,01258.226186,E,000.7,321.6,091011,0.2,E,A*32
$GPGGA,081237.00,4611.953238,N,01258.226128,E,1,06,1.4,139.62,M,46.25,M,,*6D
$GPGLL,4611.953238,N,01258.226128,E,081237.00,A,A*61
$GPVTG,3.1,T,3.2,M,000.4,N,000.7,K,A*23
$GPGSV,2,1,08,02,34,101,47,04,21,053,39,09,38,144,46,12,71,044,45*7A
$GPGSV,2,2,08,14,37,274,35,25,62,294,41,29,32,214,44,30,17,279,35*7C
$GPGSA,M,3,02,04,09,12,25,29,,,,,,,2.8,1.4,2.4*37
Trace #5 at position 1.000000
$GPZDA,081237.03,09,10,2011,00,00*60
$GPRMC,081237.00,A,4611.953238,N,01258.226128,E,000.4,3.1,091011,0.2,E,A*31
$GPGGA,081238.00,4611.953288,N,01258.226158,E,1,06,1.4,139.61,M,46.25,M,,*6D
$GPGLL,4611.953288,N,01258.226158,E,081238.00,A,A*62
$GPVTG,99.1,T,99.2,M,000.1,N,000.1,K,A*20
$GPGSV,2,1,08,02,34,101,48,04,21,053,41,09,38,144,45,12,71,044,47*7B
$GPGSV,2,2,08,14,37,274,38,25,62,295,43,29,32,214,45,30,17,279,32*74
$GPGSA,M,3,02,04,09,12,25,29,,,,,,,2.8,1.4,2.4*37
Trace #6 at position 1.250000
$GPZDA,081238.04,09,10,2011,00,00*68
$GPRMC,081238.00,A,4611.953288,N,01258.226158,E,000.1,99.1,091011,0.2,E,A*04
$GPGGA,081239.00,4611.953287,N,01258.226183,E,1,06,1.4,139.61,M,46.25,M,,*65
$GPGLL,4611.953287,N,01258.226183,E,081239.00,A,A*6A
$GPVTG,73.5,T,73.6,M,000.0,N,000.1,K,A*21
$GPGSV,2,1,08,02,34,101,47,04,21,053,41,09,38,144,45,12,71,044,46*75
$GPGSV,2,2,08,14,37,274,34,25,62,295,42,29,32,214,43,30,17,279,34*79
$GPGSA,M,3,02,04,09,12,25,29,,,,,,,2.8,1.4,2.4*37
Trace #7 at position 1.500000
$GPZDA,081239.03,09,10,2011,00,00*6E
$GPRMC,081239.00,A,4611.953287,N,01258.226183,E,000.0,73.5,091011,0.2,E,A*0D
$GPGGA,081240.00,4611.953285,N,01258.226197,E,1,06,1.4,139.62,M,46.25,M,,*6F
$GPGLL,4611.953285,N,01258.226197,E,081240.00,A,A*63
$GPVTG,172.3,T,172.4,M,000.0,N,000.0,K,A*24
$GPGSV,2,1,08,02,34,101,46,04,21,053,41,09,38,144,45,12,71,044,46*74
$GPGSV,2,2,08,14,37,274,34,25,62,295,41,29,32,214,44,30,17,279,33*7A
$GPGSA,M,3,02,04,09,12,25,29,,,,,,,2.8,1.4,2.4*37
Trace #8 at position 1.750000
$GPZDA,081239.03,09,10,2011,00,00*6E
$GPRMC,081239.00,A,4611.953287,N,01258.226183,E,000.0,73.5,091011,0.2,E,A*0D
$GPGGA,081240.00,4611.953285,N,01258.226197,E,1,06,1.4,139.62,M,46.25,M,,*6F
$GPGLL,4611.953285,N,01258.226197,E,081240.00,A,A*63
$GPVTG,172.3,T,172.4,M,000.0,N,000.0,K,A*24
$GPGSV,2,1,08,02,34,101,46,04,21,053,41,09,38,144,45,12,71,044,46*74
$GPGSV,2,2,08,14,37,274,34,25,62,295,41,29,32,214,44,30,17,279,33*7A
$GPGSA,M,3,02,04,09,12,25,29,,,,,,,2.8,1.4,2.4*37
Trace #9 at position 2.000000
$GPZDA,081239.03,09,10,2011,00,00*6E
$GPRMC,081239.00,A,4611.953287,N,01258.226183,E,000.0,73.5,091011,0.2,E,A*0D
$GPGGA,081240.00,4611.953285,N,01258.226197,E,1,06,1.4,139.62,M,46.25,M,,*6F
$GPGLL,4611.953285,N,01258.226197,E,081240.00,A,A*63
$GPVTG,172.3,T,172.4,M,000.0,N,000.0,K,A*24
$GPGSV,2,1,08,02,34,101,46,04,21,053,41,09,38,144,45,12,71,044,46*74
$GPGSV,2,2,08,14,37,274,34,25,62,295,41,29,32,214,44,30,17,279,33*7A
$GPGSA,M,3,02,04,09,12,25,29,,,,,,,2.8,1.4,2.4*37
Trace #10 at position 2.250000
$GPZDA,081240.04,09,10,2011,00,00*67
$GPRMC,081240.00,A,4611.953285,N,01258.226197,E,000.0,172.3,091011,0.2,E,A*32
$GPGGA,081241.00,4611.953272,N,01258.226219,E,1,06,1.4,139.61,M,46.25,M,,*60
$GPGLL,4611.953272,N,01258.226219,E,081241.00,A,A*6F
$GPVTG,130.9,T,131.1,M,000.1,N,000.2,K,A*29
$GPGSV,2,1,08,02,34,101,46,04,21,053,41,09,38,144,45,12,71,044,45*77
$GPGSV,2,2,08,14,37,274,34,25,62,295,36,29,32,214,44,30,17,279,4,2.4*37
$GPZDA,081241.03,09,10,2011,00,00*61
$GPRMC,081241.00,A,4611.953272,N,01258.226219,E,000.1,130.9,091011,0.2,E,A*33
$GPGGA,081242.00,4611.953298,N,01258.226228,E,1,06,1.4,139.61,M,46.25,M,,*65
$GPGLL,4611.953298,N,01258.226228,E,081242.00,A,A*6A
$GPVTG,350.9,T,351.1,M,000.3,N,000.5,K,A*2C
$GPGSV,2,1,08,02,34,101,47,04,21,053,41,09,38,144,45,12,71,044,46*75
$GPGSV,2,2,08,14,37,274,37,25,62,295,43,29,32,214,43,30,17,279,32*7D
$GPGSA,M,3,02,04,09,12,25,29,,,,,,,2.8,1.4,2.4*37
Trace #11 at position 2.500000
$GPZDA,081240.04,09,10,2011,00,00*67
$GPRMC,081240.00,A,4611.953285,N,01258.226197,E,000.0,172.3,091011,0.2,E,A*32
$GPGGA,081241.00,4611.953272,N,01258.226219,E,1,06,1.4,139.61,M,46.25,M,,*60
$GPGLL,4611.953272,N,01258.226219,E,081241.00,A,A*6F
$GPVTG,130.9,T,131.1,M,000.1,N,000.2,K,A*29
$GPGSV,2,1,08,02,34,101,46,04,21,053,41,09,38,144,45,12,71,044,45*77
$GPGSV,2,2,08,14,37,274,34,25,62,295,36,29,32,214,44,30,17,279,4,2.4*37
$GPZDA,081241.03,09,10,2011,00,00*61
$GPRMC,081241.00,A,4611.953272,N,01258.226219,E,000.1,130.9,091011,0.2,E,A*33
$GPGGA,081242.00,4611.953298,N,01258.226228,E,1,06,1.4,139.61,M,46.25,M,,*65
$GPGLL,4611.953298,N,01258.226228,E,081242.00,A,A*6A
$GPVTG,350.9,T,351.1,M,000.3,N,000.5,K,A*2C
$GPGSV,2,1,08,02,34,101,47,04,21,053,41,09,38,144,45,12,71,044,46*75
$GPGSV,2,2,08,14,37,274,37,25,62,295,43,29,32,214,43,30,17,279,32*7D
$GPGSA,M,3,02,04,09,12,25,29,,,,,,,2.8,1.4,2.4*37
Trace #12 at position 2.750000
$GPZDA,081242.03,42.00,A,4611.953298,N,01258.226228,E,000.3,350.9,091011,0.2,E,A*30
$GPGGA,081243.00,4611.953458,N,01258.226148,E,1,06,1.4,139.65,M,46.25,M,,*6F
$GPGLL,4611.953458,N,01258.226148,E,081243.00,A,A*64
$GPVTG,337.8,T,338.0,M,000.9,N,001.7,K,A*2B
$GPGSV,2,1,08,02,34,101,45,04,21,053,40,09,38,144,46,12,71,044,46*75
$GPGSV,2,2,08,14,37,274,38,25,62,295,40,29,32,214,42,30,17,279,36*74
$GPGSA,M,3,02,04,09,12,25,29,,,,,,,2.8,1.4,2.4*37
Trace #13 at position 3.000000
$GPZDA,081242.03,42.00,A,4611.953298,N,01258.226228,E,000.3,350.9,091011,0.2,E,A*30
$GPGGA,081243.00,4611.953458,N,01258.226148,E,1,06,1.4,139.65,M,46.25,M,,*6F
$GPGLL,4611.953458,N,01258.226148,E,081243.00,A,A*64
$GPVTG,337.8,T,338.0,M,000.9,N,001.7,K,A*2B
$GPGSV,2,1,08,02,34,101,45,04,21,053,40,09,38,144,46,12,71,044,46*75
$GPGSV,2,2,08,14,37,274,38,25,62,295,40,29,32,214,42,30,17,279,36*74
$GPGSA,M,3,02,04,09,12,25,29,,,,,,,2.8,1.4,2.4*37
Trace #14 at position 3.250000
$GPZDA,081242.03,42.00,A,4611.953298,N,01258.226228,E,000.3,350.9,091011,0.2,E,A*30
$GPGGA,081243.00,4611.953458,N,01258.226148,E,1,06,1.4,139.65,M,46.25,M,,*6F
$GPGLL,4611.953458,N,01258.226148,E,081243.00,A,A*64
$GPVTG,337.8,T,338.0,M,000.9,N,001.7,K,A*2B
$GPGSV,2,1,08,02,34,101,45,04,21,053,40,09,38,144,46,12,71,044,46*75
$GPGSV,2,2,08,14,37,274,38,25,62,295,40,29,32,214,42,30,17,279,36*74
$GPGSA,M,3,02,04,09,12,25,29,,,,,,,2.8,1.4,2.4*37
Trace #15 at position 3.500000
$GPZDA,081243.04,09,10,2011,00,00*64
$GPRMC,081243.00,A,4611.953458,N,01258,E,A*34
$GPGGA,081244.00,4611.953600,N,01258.225975,E,1,07,1.1,139.64,M,46.25,M,,*67
$GPGLL,4611.953600,N,01258.225975,E,081244.00,A,A*69
$GPVTG,280.4,T,280.6,M,000.4,N,000.7,K,A*22
$GPGSV,2,1,08,02,34,101,47,04,21,053,41,09,38,144,45,12,71,044,44*77
$GPGSV,2,2,08,14,37,274,40,25,62,295,40,29,32,214,42,30,17,279,35*78
$GPGSA,M,3,02,04,09,12,14,25,29,,,,,,2.4,1.1,2.2*3D
Trace #16 at position 3.750000
$GPZDA,081243.04,09,10,2011,00,00*64
$GPRMC,081243.00,A,4611.953458,N,01258,E,A*34
$GPGGA,081244.00,4611.953600,N,01258.225975,E,1,07,1.1,139.64,M,46.25,M,,*67
$GPGLL,4611.953600,N,01258.225975,E,081244.00,A,A*69
$GPVTG,280.4,T,280.6,M,000.4,N,000.7,K,A*22
$GPGSV,2,1,08,02,34,101,47,04,21,053,41,09,38,144,45,12,71,044,44*77
$GPGSV,2,2,08,14,37,274,40,25,62,295,40,29,32,214,42,30,17,279,35*78
$GPGSA,M,3,02,04,09,12,14,25,29,,,,,,2.4,1.1,2.2*3D
Trace #17 at position 4.000000
$GPZDA,081243.04,09,10,2011,00,00*64
$GPRMC,081243.00,A,4611.953458,N,01258,E,A*34
$GPGGA,081244.00,4611.953600,N,01258.225975,E,1,07,1.1,139.64,M,46.25,M,,*67
$GPGLL,4611.953600,N,01258.225975,E,081244.00,A,A*69
$GPVTG,280.4,T,280.6,M,000.4,N,000.7,K,A*22
$GPGSV,2,1,08,02,34,101,47,04,21,053,41,09,38,144,45,12,71,044,44*77
$GPGSV,2,2,08,14,37,274,40,25,62,295,40,29,32,214,42,30,17,279,35*78
$GPGSA,M,3,02,04,09,12,14,25,29,,,,,,2.4,1.1,2.2*3D
Trace #18 at position 4.250000
$GPZDA,081244.04,09,10,2011,00,00*63
$GPRMC,081244.00,A,4611.953600,N,01258.225975,E,000.4,280.4,091011,0.2,E,A*35
$GPGGA,081245.00,4611.953616,N,01258.225909,E,1,07,1.1,139.61,M,46.25,M,,*6F
$GPGLL,4611.953616,N,01258.225909,E,081245.00,A,A*64
$GPVTG,136.5,T,136.6,M,000.2,N,000.4,K,A*26
$GPGSV,2,1,08,02,34,101,45,04,21,053,41,09,38,144,45,12,71,044,45*74
$GPGSV,2,2,08,14,37,274,37,25,62,295,38,29,32,214,41,30,17,279,34*75
$GPGSA,M,3,02,04,09,12,14,25,29,,,,,,2.4,1.1,2.2*3D
Trace #19 at position 4.500000
$GPZDA,081244.04,09,10,2011,00,00*63
$GPRMC,081244.00,A,4611.953600,N,01258.225975,E,000.4,280.4,091011,0.2,E,A*35
$GPGGA,081245.00,4611.953616,N,01258.225909,E,1,07,1.1,139.61,M,46.25,M,,*6F
$GPGLL,4611.953616,N,01258.225909,E,081245.00,A,A*64
$GPVTG,136.5,T,136.6,M,000.2,N,000.4,K,A*26
$GPGSV,2,1,08,02,34,101,45,04,21,053,41,09,38,144,45,12,71,044,45*74
$GPGSV,2,2,08,14,37,274,37,25,62,295,38,29,32,214,41,30,17,279,34*75
$GPGSA,M,3,02,04,09,12,14,25,29,,,,,,2.4,1.1,2.2*3D
Trace #20 at position 4.750000
$GPZDA,081244.04,09,10,2011,00,00*63
$GPRMC,081244.00,A,4611.953600,N,01258.225975,E,000.4,280.4,091011,0.2,E,A*35
$GPGGA,081245.00,4611.953616,N,01258.225909,E,1,07,1.1,139.61,M,46.25,M,,*6F
$GPGLL,4611.953616,N,01258.225909,E,081245.00,A,A*64
$GPVTG,136.5,T,136.6,M,000.2,N,000.4,K,A*26
$GPGSV,2,1,08,02,34,101,45,04,21,053,41,09,38,144,45,12,71,044,45*74
$GPGSV,2,2,08,14,37,274,37,25,62,295,38,29,32,214,41,30,17,279,34*75
$GPGSA,M,3,02,04,09,12,14,25,29,,,,,,2.4,1.1,2.2*3D
Trace #21 at position 5.000000
$GPZDA,081245.04,09,10,2011,00,00*62
$GPRMC,081245.00,A,4611.953616,N,01258.225909,E,000.2,136.5,091011,0.2,E,A*31
$GPGGA,081246.00,4611.953701,N,01258.225918,E,1,07,1.1,139.52,M,46.25,M,,*6B
$GPGLL,4611.953701,N,01258.225918,E,081246.00,A,A*60
$GPVTG,1.0,T,1.2,M,000.6,N,001.1,K,A*27
$GPGSV,2,1,08,02,34,101,45,04,21,053,40,09,38,144,45,12,71,044,43*73
$GPGSV,2,2,08,14,37,274,39,25,62,295,43,29,32,214,42,30,17,279,36*76
$GPGSA,M,3,02,04,09,12,14,25,29,,,,,,2.4,1.1,2.2*3D
Trace #22 at position 5.250000
$GPZDA,081245.04,09,10,2011,00,00*62
$GPRMC,081245.00,A,4611.953616,N,01258.225909,E,000.2,136.5,091011,0.2,E,A*31
$GPGGA,081246.00,4611.953701,N,01258.225918,E,1,07,1.1,139.52,M,46.25,M,,*6B
$GPGLL,4611.953701,N,01258.225918,E,081246.00,A,A*60
$GPVTG,1.0,T,1.2,M,000.6,N,001.1,K,A*27
$GPGSV,2,1,08,02,34,101,45,04,21,053,40,09,38,144,45,12,71,044,43*73
$GPGSV,2,2,08,14,37,274,39,25,62,295,43,29,32,214,42,30,17,279,36*76
$GPGSA,M,3,02,04,09,12,14,25,29,,,,,,2.4,1.1,2.2*3D
Trace #23 at position 5.500000
$GPZDA,081245.04,09,10,2011,00,00*62
$GPRMC,081245.00,A,4611.953616,N,01258.225909,E,000.2,136.5,091011,0.2,E,A*31
$GPGGA,081246.00,4611.953701,N,01258.225918,E,1,07,1.1,139.52,M,46.25,M,,*6B
$GPGLL,4611.953701,N,01258.225918,E,081246.00,A,A*60
$GPVTG,1.0,T,1.2,M,000.6,N,001.1,K,A*27
$GPGSV,2,1,08,02,34,101,45,04,21,053,40,09,38,144,45,12,71,044,43*73
$GPGSV,2,2,08,14,37,274,39,25,62,295,43,29,32,214,42,30,17,279,36*76
$GPGSA,M,3,02,04,09,12,14,25,29,,,,,,2.4,1.1,2.2*3D
Trace #24 at position 5.750000
$GPZDA,081246.04,09,10,2011,00,00*61
$GPRMC,081246.00,A,4611.953701,N,01258.225918,E,000.6,1.0,091011,0.2,E,A*31
$GPGGA,081247.00,4611.953917,N,01258.225837,E,1,07,1.1,139.43,M,46.25,M,,*6F
$GPGLL,4611.953917,N,01258.225837,E,081247.00,A,A*64
$GPVTG,340.9,T,341.0,M,000.9,N,001.6,K,A*25
$GPGSV,2,1,08,02,34,101,45,04,21,053,40,09,38,144,45,12,71,044,43*73
$GPGSV,2,2,08,14,37,274,37,25,62,295,40,29,32,214,44,30,17,279,35*7E
$GPGSA,M,3,02,04,09,12,14,25,29,,,,,,2.4,1.1,2.2*3D
Trace #25 at position 6.000000
$GPZDA,081246.04,09,10,2011,00,00*61
$GPRMC,081246.00,A,4611.953701,N,01258.225918,E,000.6,1.0,091011,0.2,E,A*31
$GPGGA,081247.00,4611.953917,N,01258.225837,E,1,07,1.1,139.43,M,46.25,M,,*6F
$GPGLL,4611.953917,N,01258.225837,E,081247.00,A,A*64
$GPVTG,340.9,T,341.0,M,000.9,N,001.6,K,A*25
$GPGSV,2,1,08,02,34,101,45,04,21,053,40,09,38,144,45,12,71,044,43*73
$GPGSV,2,2,08,14,37,274,37,25,62,295,40,29,32,214,44,30,17,279,35*7E
$GPGSA,M,3,02,04,09,12,14,25,29,,,,,,2.4,1.1,2.2*3D
Trace #26 at position 6.250000
$GPZDA,081246.04,09,10,2011,00,00*61
$GPRMC,081246.00,A,4611.953701,N,01258.225918,E,000.6,1.0,091011,0.2,E,A*31
$GPGGA,081247.00,4611.953917,N,01258.225837,E,1,07,1.1,139.43,M,46.25,M,,*6F
$GPGLL,4611.953917,N,01258.225837,E,081247.00,A,A*64
$GPVTG,340.9,T,341.0,M,000.9,N,001.6,K,A*25
$GPGSV,2,1,08,02,34,101,45,04,21,053,40,09,38,144,45,12,71,044,43*73
$GPGSV,2,2,08,14,37,274,37,25,62,295,40,29,32,214,44,30,17,279,35*7E
$GPGSA,M,3,02,04,09,12,14,25,29,,,,,,2.4,1.1,2.2*3D
Trace #27 at position 6.500000
$GPZDA,081247.04,09,10,2011,00,00*60
$GPRMC,081247.00,A,4611.953917,N,01258.225837,E,000.9,340.9,091011,0.2,E,A*35
$GPGGA,081248.00,4611.954276,N,01258.225721,E,1,07,1.1,139.27,M,46.25,M,,*61
$GPGLL,4611.954276,N,01258.225721,E,081248.00,A,A*68
$GPVTG,353.7,T,353.8,M,001.7,N,003.2,K,A*2B
$GPGSV,2,1,08,02,34,101,45,04,21,053,41,09,38,144,44,12,71,044,44*74
$GPGSV,2,2,08,14,37,274,38,25,62,295,42,29,32,214,46,30,17,279,34*70
$GPGSA,M,3,02,04,09,12,14,25,29,,,,,,2.4,1.1,2.2*3D
Trace #28 at position 6.750000
$GPZDA,081247.04,09,10,2011,00,00*60
$GPRMC,081247.00,A,4611.953917,N,01258.225837,E,000.9,340.9,091011,0.2,E,A*35
$GPGGA,081248.00,4611.954276,N,01258.225721,E,1,07,1.1,139.27,M,46.25,M,,*61
$GPGLL,4611.954276,N,01258.225721,E,081248.00,A,A*68
$GPVTG,353.7,T,353.8,M,001.7,N,003.2,K,A*2B
$GPGSV,2,1,08,02,34,101,45,04,21,053,41,09,38,144,44,12,71,044,44*74
$GPGSV,2,2,08,14,37,274,38,25,62,295,42,29,32,214,46,30,17,279,34*70
$GPGSA,M,3,02,04,09,12,14,25,29,,,,,,2.4,1.1,2.2*3D
Trace #29 at position 7.000000
$GPZDA,081247.04,09,10,2011,00,00*60
$GPRMC,081247.00,A,4611.953917,N,01258.225837,E,000.9,340.9,091011,0.2,E,A*35
$GPGGA,081248.00,4611.954276,N,01258.225721,E,1,07,1.1,139.27,M,46.25,M,,*61
$GPGLL,4611.954276,N,01258.225721,E,081248.00,A,A*68
$GPVTG,353.7,T,353.8,M,001.7,N,003.2,K,A*2B
$GPGSV,2,1,08,02,34,101,45,04,21,053,41,09,38,144,44,12,71,044,44*74
$GPGSV,2,2,08,14,37,274,38,25,62,295,42,29,32,214,46,30,17,279,34*70
$GPGSA,M,3,02,04,09,12,14,25,29,,,,,,2.4,1.1,2.2*3D
Trace #30 at position 7.250000
$GPZDA,081248.04,09,10,2011,00,00*6F
$GPRMC,081248.00,A,4611.954276,N,01258.225721,E,001.7,353.7,091011,0.2,E,A*3A
$GPGGA,081249.00,4611.954687,N,01258.225605,E,1,07,1.1,139.21,M,46.25,M,,*6B
$GPGLL,4611.954687,N,01258.225605,E,081249.00,A,A*64
$GPVTG,348.4,T,348.6,M,001.3,N,002.4,K,A*25
$GPGSV,2,1,08,02,34,101,45,04,21,053,42,09,38,144,45,12,71,044,43*71
$GPGSV,2,2,08,14,37,274,39,25,62,295,43,29,32,214,46,30,17,279,32*76
$GPGSA,M,3,02,04,09,12,14,25,29,,,,,,2.4,1.1,2.2*3D
Trace #31 at position 7.500000
$GPZDA,081248.04,09,10,2011,00,00*6F
$GPRMC,081248.00,A,4611.954276,N,01258.225721,E,001.7,353.7,091011,0.2,E,A*3A
$GPGGA,081249.00,4611.954687,N,01258.225605,E,1,07,1.1,139.21,M,46.25,M,,*6B
$GPGLL,4611.954687,N,01258.225605,E,081249.00,A,A*64
$GPVTG,348.4,T,348.6,M,001.3,N,002.4,K,A*25
$GPGSV,2,1,08,02,34,101,45,04,21,053,42,09,38,144,45,12,71,044,43*71
$GPGSV,2,2,08,14,37,274,39,25,62,295,43,29,32,214,46,30,17,279,32*76
$GPGSA,M,3,02,04,09,12,14,25,29,,,,,,2.4,1.1,2.2*3D
Trace #32 at position 7.750000
$GPZDA,081248.04,09,10,2011,00,00*6F
$GPRMC,081248.00,A,4611.954276,N,01258.225721,E,001.7,353.7,091011,0.2,E,A*3A
$GPGGA,081249.00,4611.954687,N,01258.225605,E,1,07,1.1,139.21,M,46.25,M,,*6B
$GPGLL,4611.954687,N,01258.225605,E,081249.00,A,A*64
$GPVTG,348.4,T,348.6,M,001.3,N,002.4,K,A*25
$GPGSV,2,1,08,02,34,101,45,04,21,053,42,09,38,144,45,12,71,044,43*71
$GPGSV,2,2,08,14,37,274,39,25,62,295,43,29,32,214,46,30,17,279,32*76
$GPGSA,M,3,02,04,09,12,14,25,29,,,,,,2.4,1.1,2.2*3D
Trace #33 at position 8.000000
$GPZDA,081248.04,09,10,2011,00,00*6F
$GPRMC,081248.00,A,4611.954276,N,01258.225721,E,001.7,353.7,091011,0.2,E,A*3A
$GPGGA,081249.00,4611.954687,N,01258.225605,E,1,07,1.1,139.21,M,46.25,M,,*6B
$GPGLL,4611.954687,N,01258.225605,E,081249.00,A,A*64
$GPVTG,348.4,T,348.6,M,001.3,N,002.4,K,A*25
$GPGSV,2,1,08,02,34,101,45,04,21,053,42,09,38,144,45,12,71,044,43*71
$GPGSV,2,2,08,14,37,274,39,25,62,295,43,29,32,214,46,30,17,279,32*76
$GPGSA,M,3,02,04,09,12,14,25,29,,,,,,2.4,1.1,2.2*3D
Trace #34 at position 8.250000
$GPZDA,081249.04,09,10,2011,00,00*6E
$GPRMC,081249.00,A,4611.954687,N,01258.225605,E,001.3,348.4,091011,0.2,E,A*3B
$GPGGA,081250.00,4611.955005,N,01258.225307,E,1,07,1.1,139.39,M,46.25,M,,*60
$GPGLL,4611.955005,N,01258.225307,E,081250.00,A,A*66
$GPVTG,310.8,T,311.0,M,001.5,N,002.9,K,A*25
$GPGSV,2,1,08,02,34,101,45,04,21,053,42,09,38,144,45,12,71,044,44*76
$GPGSV,2,2,08,14,37,274,39,25,62,295,42,29,32,214,46,30,17,279,33*76
$GPGSA,M,3,02,04,09,12,14,25,29,,,,,,2.4,1.1,2.2*3D
Trace #35 at position 8.500000
$GPZDA,081249.04,09,10,2011,00,00*6E
$GPRMC,081249.00,A,4611.954687,N,01258.225605,E,001.3,348.4,091011,0.2,E,A*3B
$GPGGA,081250.00,4611.955005,N,01258.225307,E,1,07,1.1,139.39,M,46.25,M,,*60
$GPGLL,4611.955005,N,01258.225307,E,081250.00,A,A*66
$GPVTG,310.8,T,311.0,M,001.5,N,002.9,K,A*25
$GPGSV,2,1,08,02,34,101,45,04,21,053,42,09,38,144,45,12,71,044,44*76
$GPGSV,2,2,08,14,37,274,39,25,62,295,42,29,32,214,46,30,17,279,33*76
$GPGSA,M,3,02,04,09,12,14,25,29,,,,,,2.4,1.1,2.2*3D
Trace #36 at position 8.750000
$GPZDA,081250.04,09,10,2011,00,00*66
$GPRMC,081250.00,A,4611.955005,N,01258.225307,E,001.5,310.8,091011,0.2,E,A*3E
$GPGGA,081251.00,4611.955364,N,01258.225002,E,1,07,1.1,139.57,M,46.25,M,,*6B
$GPGLL,4611.955364,N,01258.225002,E,081251.00,A,A*65
$GPVTG,343.9,T,344.0,M,001.6,N,002.9,K,A*21
$GPGSV,2,1,08,02,34,101,46,04,21,053,43,09,38,144,45,12,71,044,44*74
$GPGSV,2,2,08,14,37,274,39,25,62,295,41,29,32,214,46,30,17,279,32*74
$GPGSA,M,3,02,04,09,12,14,25,29,,,,,,2.4,1.1,2.2*3D
Trace #37 at position 9.000000
$GPZDA,081250.04,09,10,2011,00,00*66
$GPRMC,081250.00,A,4611.955005,N,01258.225307,E,001.5,310.8,091011,0.2,E,A*3E
$GPGGA,081251.00,4611.955364,N,01258.225002,E,1,07,1.1,139.57,M,46.25,M,,*6B
$GPGLL,4611.955364,N,01258.225002,E,081251.00,A,A*65
$GPVTG,343.9,T,344.0,M,001.6,N,002.9,K,A*21
$GPGSV,2,1,08,02,34,101,46,04,21,053,43,09,38,144,45,12,71,044,44*74
$GPGSV,2,2,08,14,37,274,39,25,62,295,41,29,32,214,46,30,17,279,32*74
$GPGSA,M,3,02,04,09,12,14,25,29,,,,,,2.4,1.1,2.2*3D
Trace #38 at position 9.250000
$GPZDA,081250.04,09,10,2011,00,00*66
$GPRMC,081250.00,A,4611.955005,N,01258.225307,E,001.5,310.8,091011,0.2,E,A*3E
$GPGGA,081251.00,4611.955364,N,01258.225002,E,1,07,1.1,139.57,M,46.25,M,,*6B
$GPGLL,4611.955364,N,01258.225002,E,081251.00,A,A*65
$GPVTG,343.9,T,344.0,M,001.6,N,002.9,K,A*21
$GPGSV,2,1,08,02,34,101,46,04,21,053,43,09,38,144,45,12,71,044,44*74
$GPGSV,2,2,08,14,37,274,39,25,62,295,41,29,32,214,46,30,17,279,32*74
$GPGSA,M,3,02,04,09,12,14,25,29,,,,,,2.4,1.1,2.2*3D
Trace #39 at position 9.500000
$GPZDA,081251.04,09,10,2011,00,00*67
$GPRMC,081251.00,A,4611.955364,N,01258.225002,E,001.6,343.9,091011,0.2,E,A*39
$GPGGA,081252.00,4611.955738,N,01258.224954,E,1,07,1.1,139.45,M,46.25,M,,*6D
$GPGLL,4611.955738,N,01258.224954,E,081252.00,A,A*60
$GPVTG,9.4,T,9.6,M,001.1,N,002.1,K,A*22
$GPGSV,2,1,08,02,34,101,46,04,21,053,43,09,38,144,45,12,71,044,43*73
$GPGSV,2,2,08,14,37,274,40,25,62,295,43,29,32,214,46,30,17,279,32*78
$GPGSA,M,3,02,04,09,12,14,25,29,,,,,,2.4,1.1,2.2*3D
Trace #40 at position 9.750000
$GPZDA,081251.04,09,10,2011,00,00*67
$GPRMC,081251.00,A,4611.955364,N,01258.225002,E,001.6,343.9,091011,0.2,E,A*39
$GPGGA,081252.00,4611.955738,N,01258.224954,E,1,07,1.1,139.45,M,46.25,M,,*6D
$GPGLL,4611.955738,N,01258.224954,E,081252.00,A,A*60
$GPVTG,9.4,T,9.6,M,001.1,N,002.1,K,A*22
$GPGSV,2,1,08,02,34,101,46,04,21,053,43,09,38,144,45,12,71,044,43*73
$GPGSV,2,2,08,14,37,274,40,25,62,295,43,29,32,214,46,30,17,279,32*78
$GPGSA,M,3,02,04,09,12,14,25,29,,,,,,2.4,1.1,2.2*3D
Trace #41 at position 10.000000
$GPZDA,081251.04,09,10,2011,00,00*67
$GPRMC,081251.00,A,4611.955364,N,01258.225002,E,001.6,343.9,091011,0.2,E,A*39
$GPGGA,081252.00,4611.955738,N,01258.224954,E,1,07,1.1,139.45,M,46.25,M,,*6D
$GPGLL,4611.955738,N,01258.224954,E,081252.00,A,A*60
$GPVTG,9.4,T,9.6,M,001.1,N,002.1,K,A*22
$GPGSV,2,1,08,02,34,101,46,04,21,053,43,09,38,144,45,12,71,044,43*73
$GPGSV,2,2,08,14,37,274,40,25,62,295,43,29,32,214,46,30,17,279,32*78
$GPGSA,M,3,02,04,09,12,14,25,29,,,,,,2.4,1.1,2.2*3D
Trace #42 at position 10.250000
$GPZDA,081251.04,09,10,2011,00,00*67
$GPRMC,081251.00,A,4611.955364,N,01258.225002,E,001.6,343.9,091011,0.2,E,A*39
$GPGGA,081252.00,4611.955738,N,01258.224954,E,1,07,1.1,139.45,M,46.25,M,,*6D
$GPGLL,4611.955738,N,01258.224954,E,081252.00,A,A*60
$GPVTG,9.4,T,9.6,M,001.1,N,002.1,K,A*22
$GPGSV,2,1,08,02,34,101,46,04,21,053,43,09,38,144,45,12,71,044,43*73
$GPGSV,2,2,08,14,37,274,40,25,62,295,43,29,32,214,46,30,17,279,32*78
$GPGSA,M,3,02,04,09,12,14,25,29,,,,,,2.4,1.1,2.2*3D
Trace #43 at position 10.500000
$GPZDA,081252.04,09,10,2011,00,00*64
$GPRMC,081252.00,A,4611.955738,N,01258.224954,E,001.1,9.4,091011,0.2,E,A*3B
$GPGGA,081253.00,4611.956031,N,01258.224841,E,1,07,1.1,139.30,M,46.25,M,,*66
$GPGLL,4611.956031,N,01258.224841,E,081253.00,A,A*69
$GPVTG,320.7,T,320.8,M,001.1,N,002.0,K,A*2E
$GPGSV,2,1,08,02,34,101,44,04,21,053,43,09,38,144,46,12,71,044,44*75
$GPGSV,2,2,08,14,37,274,37,25,62,295,39,29,32,214,46,30,17,279,32*75
$GPGSA,M,3,02,04,09,12,14,25,29,,,,,,2.4,1.1,2.2*3D
Trace #44 at position 10.750000
$GPZDA,081252.04,09,10,2011,00,00*64
$GPRMC,081252.00,A,4611.955738,N,01258.224954,E,001.1,9.4,091011,0.2,E,A*3B
$GPGGA,081253.00,4611.956031,N,01258.224841,E,1,07,1.1,139.30,M,46.25,M,,*66
$GPGLL,4611.956031,N,01258.224841,E,081253.00,A,A*69
$GPVTG,320.7,T,320.8,M,001.1,N,002.0,K,A*2E
$GPGSV,2,1,08,02,34,101,44,04,21,053,43,09,38,144,46,12,71,044,44*75
$GPGSV,2,2,08,14,37,274,37,25,62,295,39,29,32,214,46,30,17,279,32*75
$GPGSA,M,3,02,04,09,12,14,25,29,,,,,,2.4,1.1,2.2*3D
Trace #45 at position 11.000000
$GPZDA,081252.04,09,10,2011,00,00*64
$GPRMC,081252.00,A,4611.955738,N,01258.224954,E,001.1,9.4,091011,0.2,E,A*3B
$GPGGA,081253.00,4611.956031,N,01258.224841,E,1,07,1.1,139.30,M,46.25,M,,*66
$GPGLL,4611.956031,N,01258.224841,E,081253.00,A,A*69
$GPVTG,320.7,T,320.8,M,001.1,N,002.0,K,A*2E
$GPGSV,2,1,08,02,34,101,44,04,21,053,43,09,38,144,46,12,71,044,44*75
$GPGSV,2,2,08,14,37,274,37,25,62,295,39,29,32,214,46,30,17,279,32*75
$GPGSA,M,3,02,04,09,12,14,25,29,,,,,,2.4,1.1,2.2*3D
Trace #46 at position 11.250000
$GPZDA,081252.04,09,10,2011,00,00*64
$GPRMC,081252.00,A,4611.955738,N,01258.224954,E,001.1,9.4,091011,0.2,E,A*3B
$GPGGA,081253.00,4611.956031,N,01258.224841,E,1,07,1.1,139.30,M,46.25,M,,*66
$GPGLL,4611.956031,N,01258.224841,E,081253.00,A,A*69
$GPVTG,320.7,T,320.8,M,001.1,N,002.0,K,A*2E
$GPGSV,2,1,08,02,34,101,44,04,21,053,43,09,38,144,46,12,71,044,44*75
$GPGSV,2,2,08,14,37,274,37,25,62,295,39,29,32,214,46,30,17,279,32*75
$GPGSA,M,3,02,04,09,12,14,25,29,,,,,,2.4,1.1,2.2*3D
Trace #47 at position 11.500000
$GPZDA,081252.04,09,10,2011,00,00*64
$GPRMC,081252.00,A,4611.955738,N,01258.224954,E,001.1,9.4,091011,0.2,E,A*3B
$GPGGA,081253.00,4611.956031,N,01258.224841,E,1,07,1.1,139.30,M,46.25,M,,*66
$GPGLL,4611.956031,N,01258.224841,E,081253.00,A,A*69
$GPVTG,320.7,T,320.8,M,001.1,N,002.0,K,A*2E
$GPGSV,2,1,08,02,34,101,44,04,21,053,43,09,38,144,46,12,71,044,44*75
$GPGSV,2,2,08,14,37,274,37,25,62,295,39,29,32,214,46,30,17,279,32*75
$GPGSA,M,3,02,04,09,12,14,25,29,,,,,,2.4,1.1,2.2*3D
Trace #48 at position 11.750000
$GPZDA,081252.04,09,10,2011,00,00*64
$GPRMC,081252.00,A,4611.955738,N,01258.224954,E,001.1,9.4,091011,0.2,E,A*3B
$GPGGA,081253.00,4611.956031,N,01258.224841,E,1,07,1.1,139.30,M,46.25,M,,*66
$GPGLL,4611.956031,N,01258.224841,E,081253.00,A,A*69
$GPVTG,320.7,T,320.8,M,001.1,N,002.0,K,A*2E
$GPGSV,2,1,08,02,34,101,44,04,21,053,43,09,38,144,46,12,71,044,44*75
$GPGSV,2,2,08,14,37,274,37,25,62,295,39,29,32,214,46,30,17,279,32*75
$GPGSA,M,3,02,04,09,12,14,25,29,,,,,,2.4,1.1,2.2*3D
Trace #49 at position 12.000000
$GPZDA,081252.04,09,10,2011,00,00*64
$GPRMC,081252.00,A,4611.955738,N,01258.224954,E,001.1,9.4,091011,0.2,E,A*3B
$GPGGA,081253.00,4611.956031,N,01258.224841,E,1,07,1.1,139.30,M,46.25,M,,*66
$GPGLL,4611.956031,N,01258.224841,E,081253.00,A,A*69
$GPVTG,320.7,T,320.8,M,001.1,N,002.0,K,A*2E
$GPGSV,2,1,08,02,34,101,44,04,21,053,43,09,38,144,46,12,71,044,44*75
$GPGSV,2,2,08,14,37,274,37,25,62,295,39,29,32,214,46,30,17,279,32*75
$GPGSA,M,3,02,04,09,12,14,25,29,,,,,,2.4,1.1,2.2*3D
Trace #50 at position 12.250000
$GPZDA,081253.04,09,10,2011,00,00*65
$GPRMC,081253.00,A,4611.956031,N,01258.224841,E,001.1,320.7,091011,0.2,E,A*39
$GPGGA,081254.00,4611.956320,N,01258.224641,E,1,07,1.1,139.27,M,46.25,M,,*6A
$GPGLL,4611.956320,N,01258.224641,E,081254.00,A,A*63
$GPVTG,344.4,T,344.6,M,001.0,N,001.9,K,A*28
$GPGSV,2,1,08,02,34,101,44,04,21,053,42,09,38,144,45,12,71,044,44*77
$GPGSV54.04,09,10,2011,00,00*62
$GPRMC,081254.00,A,4611.956320,N,01258.224641,E,001.0,344.4,091011,0.2,E,A*33
$GPGGA,081255.00,4611.956761,N,01258.224496,E,1,07,1.1,139.16,M,46.25,M,,*60
$GPGLL,4611.956761,N,01258.224496,E,081255.00,A,A*6B
$GPVTG,348.5,T,348.7,M,002.0,N,003.8,K,A*28
$GPGSV,2,1,08,02,34,101,44,04,21,053,42,09,38,144,46,12,71,044,43*73
$GPGSV,2,2,08,14,37,274,37,25,62,295,41,29,32,214,44,30,17,279,30*7A
$GPGSA,M,3,02,04,09,12,14,25,29,,,,,,2.4,1.1,2.2*3D
Trace #51 at position 12.500000
$GPZDA,081253.04,09,10,2011,00,00*65
$GPRMC,081253.00,A,4611.956031,N,01258.224841,E,001.1,320.7,091011,0.2,E,A*39
$GPGGA,081254.00,4611.956320,N,01258.224641,E,1,07,1.1,139.27,M,46.25,M,,*6A
$GPGLL,4611.956320,N,01258.224641,E,081254.00,A,A*63
$GPVTG,344.4,T,344.6,M,001.0,N,001.9,K,A*28
$GPGSV,2,1,08,02,34,101,44,04,21,053,42,09,38,144,45,12,71,044,44*77
$GPGSV54.04,09,10,2011,00,00*62
$GPRMC,081254.00,A,4611.956320,N,01258.224641,E,001.0,344.4,091011,0.2,E,A*33
$GPGGA,081255.00,4611.956761,N,01258.224496,E,1,07,1.1,139.16,M,46.25,M,,*60
$GPGLL,4611.956761,N,01258.224496,E,081255.00,A,A*6B
$GPVTG,348.5,T,348.7,M,002.0,N,003.8,K,A*28
$GPGSV,2,1,08,02,34,101,44,04,21,053,42,09,38,144,46,12,71,044,43*73
$GPGSV,2,2,08,14,37,274,37,25,62,295,41,29,32,214,44,30,17,279,30*7A
$GPGSA,M,3,02,04,09,12,14,25,29,,,,,,2.4,1.1,2.2*3D
Trace #52 at position 12.750000
$GPZDA,081253.04,09,10,2011,00,00*65
$GPRMC,081253.00,A,4611.956031,N,01258.224841,E,001.1,320.7,091011,0.2,E,A*39
$GPGGA,081254.00,4611.956320,N,01258.224641,E,1,07,1.1,139.27,M,46.25,M,,*6A
$GPGLL,4611.956320,N,01258.224641,E,081254.00,A,A*63
$GPVTG,344.4,T,344.6,M,001.0,N,001.9,K,A*28
$GPGSV,2,1,08,02,34,101,44,04,21,053,42,09,38,144,45,12,71,044,44*77
$GPGSV54.04,09,10,2011,00,00*62
$GPRMC,081254.00,A,4611.956320,N,01258.224641,E,001.0,344.4,091011,0.2,E,A*33
$GPGGA,081255.00,4611.956761,N,01258.224496,E,1,07,1.1,139.16,M,46.25,M,,*60
$GPGLL,4611.956761,N,01258.224496,E,081255.00,A,A*6B
$GPVTG,348.5,T,348.7,M,002.0,N,003.8,K,A*28
$GPGSV,2,1,08,02,34,101,44,04,21,053,42,09,38,144,46,12,71,044,43*73
$GPGSV,2,2,08,14,37,274,37,25,62,295,41,29,32,214,44,30,17,279,30*7A
$GPGSA,M,3,02,04,09,12,14,25,29,,,,,,2.4,1.1,2.2*3D
Trace #53 at position 13.000000
$GPZDA,081255.04,09,10,2011,00,00*63E,002.0,348.5,091011,0.2,E,A*35
$GPGGA,081256.00,4611.957321,N,01258.224296,E,1,07,1.1,139.03,M,46.25,M,,*60
$GPGLL,4611.957321,N,01258.224296,E,081256.00,A,A*6F
$GPVTG,343.7,T,343.8,M,002.1,N,003.8,K,A*24
$GPGSV,2,1,08,02,34,101,45,04,21,053,42,09,38,144,44,12,71,044,44*77
$GPGSV,2,2,08,14,37,274,38,25,62,295,42,29,32,214,44,30,17,279,32*74
$GPGSA,M,3,02,04,09,12,14,25,29,,,,,,2.4,1.1,2.2*3D
Trace #54 at position 13.250000
$GPZDA,081255.04,09,10,2011,00,00*63E,002.0,348.5,091011,0.2,E,A*35
$GPGGA,081256.00,4611.957321,N,01258.224296,E,1,07,1.1,139.03,M,46.25,M,,*60
$GPGLL,4611.957321,N,01258.224296,E,081256.00,A,A*6F
$GPVTG,343.7,T,343.8,M,002.1,N,003.8,K,A*24
$GPGSV,2,1,08,02,34,101,45,04,21,053,42,09,38,144,44,12,71,044,44*77
$GPGSV,2,2,08,14,37,274,38,25,62,295,42,29,32,214,44,30,17,279,32*74
$GPGSA,M,3,02,04,09,12,14,25,29,,,,,,2.4,1.1,2.2*3D
Trace #55 at position 13.500000
$GPZDA,081256.04,09,10,2011,00,00*60
$GPRMC,081256.00,A,4611.957321,N,01258.224296,E,002.1,343.7,091011,0.2,$GPGGA,081257.00,4611.957751,N,01258.224098,E,1,07,1.1,139.03,M,46.25,M,,*6E
$GPGLL,4611.957751,N,01258.224098,E,081257.00,A,A*61
$GPVTG,339.0,T,339.2,M,001.2,N,002.2,K,A*22
$GPGSV,2,1,08,02,34,101,46,04,21,053,42,09,38,144,45,12,71,044,45*74
$GPGSV,2,2,08,14,37,274,37,25,62,295,41,29,32,214,44,30,17,279,34*7E
$GPGSA,M,3,02,04,09,12,14,25,29,,,,,,2.4,1.1,2.2*3D
Trace #56 at position 13.750000
$GPZDA,081256.04,09,10,2011,00,00*60
$GPRMC,081256.00,A,4611.957321,N,01258.224296,E,002.1,343.7,091011,0.2,$GPGGA,081257.00,4611.957751,N,01258.224098,E,1,07,1.1,139.03,M,46.25,M,,*6E
$GPGLL,4611.957751,N,01258.224098,E,081257.00,A,A*61
$GPVTG,339.0,T,339.2,M,001.2,N,002.2,K,A*22
$GPGSV,2,1,08,02,34,101,46,04,21,053,42,09,38,144,45,12,71,044,45*74
$GPGSV,2,2,08,14,37,274,37,25,62,295,41,29,32,214,44,30,17,279,34*7E
$GPGSA,M,3,02,04,09,12,14,25,29,,,,,,2.4,1.1,2.2*3D
Trace #57 at position 14.000000
$GPZDA,081256.04,09,10,2011,00,00*60
$GPRMC,081256.00,A,4611.957321,N,01258.224296,E,002.1,343.7,091011,0.2,$GPGGA,081257.00,4611.957751,N,01258.224098,E,1,07,1.1,139.03,M,46.25,M,,*6E
$GPGLL,4611.957751,N,01258.224098,E,081257.00,A,A*61
$GPVTG,339.0,T,339.2,M,001.2,N,002.2,K,A*22
$GPGSV,2,1,08,02,34,101,46,04,21,053,42,09,38,144,45,12,71,044,45*74
$GPGSV,2,2,08,14,37,274,37,25,62,295,41,29,32,214,44,30,17,279,34*7E
$GPGSA,M,3,02,04,09,12,14,25,29,,,,,,2.4,1.1,2.2*3D
Trace #58 at position 14.250000
$GPZDA,081257.04,09,10,2011,00,00*61
$GPRMC,081257.00,A,4611.957751,N,01258.224098,E,001.2,339.0,091011,0.2,E,A*3D
$GPGGA,081258.00,4611.958076,N,01258.224015,E,1,07,1.1,139.20,M,46.25,M,,*68
$GPGLL,4611.958076,N,01258.224015,E,081258.00,A,A*66
$GPVTG,2.5,T,2.6,M,001.2,N,002.2,K,A*23
$GPGSV,2,1,08,02,34,101,45,04,21,053,41,09,38,145,44,12,71,044,43*72
$GPGSV,2,2,08,14,37,274,40,25,62,295,42,29,32,214,45,30,17,279,35*7D
$GPGSA,M,3,02,04,09,12,14,25,29,,,,,,2.4,1.1,2.2*3D
Trace #59 at position 14.500000
$GPZDA,081257.04,09,10,2011,00,00*61
$GPRMC,081257.00,A,4611.957751,N,01258.224098,E,001.2,339.0,091011,0.2,E,A*3D
$GPGGA,081258.00,4611.958076,N,01258.224015,E,1,07,1.1,139.20,M,46.25,M,,*68
$GPGLL,4611.958076,N,01258.224015,E,081258.00,A,A*66
$GPVTG,2.5,T,2.6,M,001.2,N,002.2,K,A*23
$GPGSV,2,1,08,02,34,101,45,04,21,053,41,09,38,145,44,12,71,044,43*72
$GPGSV,2,2,08,14,37,274,40,25,62,295,42,29,32,214,45,30,17,279,35*7D
$GPGSA,M,3,02,04,09,12,14,25,29,,,,,,2.4,1.1,2.2*3D
Trace #60 at position 14.750000
$GPZDA,081257.04,09,10,2011,00,00*61
$GPRMC,081257.00,A,4611.957751,N,01258.224098,E,001.2,339.0,091011,0.2,E,A*3D
$GPGGA,081258.00,4611.958076,N,01258.224015,E,1,07,1.1,139.20,M,46.25,M,,*68
$GPGLL,4611.958076,N,01258.224015,E,081258.00,A,A*66
$GPVTG,2.5,T,2.6,M,001.2,N,002.2,K,A*23
$GPGSV,2,1,08,02,34,101,45,04,21,053,41,09,38,145,44,12,71,044,43*72
$GPGSV,2,2,08,14,37,274,40,25,62,295,42,29,32,214,45,30,17,279,35*7D
$GPGSA,M,3,02,04,09,12,14,25,29,,,,,,2.4,1.1,2.2*3D
Trace #61 at position 15.000000
$GPZDA,081258.04,09,10,2011,00,00*6E
$GPRMC,081258.00,A,4611.958076,N,01258.224015,E,001.2,2.5,091011,0.2,E,A*34
$GPGGA,081259.00,4611.958508,N,01258.223797,E,1,07,1.1,139.28,M,46.25,M,,*67
$GPGLL,4611.958508,N,01258.223797,E,081259.00,A,A*61
$GPVTG,329.6,T,329.8,M,002.1,N,003.9,K,A*24
$GPGSV,2,1,08,02,34,101,46,04,21,053,41,09,38,145,45,12,71,044,43*70
$GPGSV,2,2,08,14,37,274,41,25,62,295,43,29,32,214,45,30,17,279,35*7D
$GPGSA,M,3,02,04,09,12,14,25,29,,,,,,2.4,1.1,2.2*3D
Trace #62 at position 15.250000
$GPZDA,081258.04,09,10,2011,00,00*6E
$GPRMC,081258.00,A,4611.958076,N,01258.224015,E,001.2,2.5,091011,0.2,E,A*34
$GPGGA,081259.00,4611.958508,N,01258.223797,E,1,07,1.1,139.28,M,46.25,M,,*67
$GPGLL,4611.958508,N,01258.223797,E,081259.00,A,A*61
$GPVTG,329.6,T,329.8,M,002.1,N,003.9,K,A*24
$GPGSV,2,1,08,02,34,101,46,04,21,053,41,09,38,145,45,12,71,044,43*70
$GPGSV,2,2,08,14,37,274,41,25,62,295,43,29,32,214,45,30,17,279,35*7D
$GPGSA,M,3,02,04,09,12,14,25,29,,,,,,2.4,1.1,2.2*3D
Trace #63 at position 15.500000
$GPZDA,081258.04,09,10,2011,00,00*6E
$GPRMC,081258.00,A,4611.958076,N,01258.224015,E,001.2,2.5,091011,0.2,E,A*34
$GPGGA,081259.00,4611.958508,N,01258.223797,E,1,07,1.1,139.28,M,46.25,M,,*67
$GPGLL,4611.958508,N,01258.223797,E,081259.00,A,A*61
$GPVTG,329.6,T,329.8,M,002.1,N,003.9,K,A*24
$GPGSV,2,1,08,02,34,101,46,04,21,053,41,09,38,145,45,12,71,044,43*70
$GPGSV,2,2,08,14,37,274,41,25,62,295,43,29,32,214,45,30,17,279,35*7D
$GPGSA,M,3,02,04,09,12,14,25,29,,,,,,2.4,1.1,2.2*3D
Trace #64 at position 15.750000
$GPZDA,081259.04,09,10,2011,00,00*6F
$GPRMC,081259.00,A,4611.958508,N,01258.223797,E,002.1,329.6,091011,0.2,E,A*3A
$GPGGA,081300.00,4611.958977,N,01258.223426,E,1,07,1.1,139.31,M,46.25,M,,*6F
$GPGLL,4611.958977,N,01258.223426,E,081300.00,A,A*61
$GPVTG,330.7,T,330.8,M,001.7,N,003.1,K,A*28
$GPGSV,2,1,08,02,34,101,45,04,21,053,42,09,38,145,44,12,71,044,44*76
$GPGSV,2,2,08,14,37,274,38,25,62,295,41,29,33,214,46,30,17,279,*75
$GPGSA,M,3,02,04,09,12,14,25,29,,,,,,2.4,1.1,2.2*3D
Trace #65 at position 16.000000
$GPZDA,081259.04,09,10,2011,00,00*6F
$GPRMC,081259.00,A,4611.958508,N,01258.223797,E,002.1,329.6,091011,0.2,E,A*3A
$GPGGA,081300.00,4611.958977,N,01258.223426,E,1,07,1.1,139.31,M,46.25,M,,*6F
$GPGLL,4611.958977,N,01258.223426,E,081300.00,A,A*61
$GPVTG,330.7,T,330.8,M,001.7,N,003.1,K,A*28
$GPGSV,2,1,08,02,34,101,45,04,21,053,42,09,38,145,44,12,71,044,44*76
$GPGSV,2,2,08,14,37,274,38,25,62,295,41,29,33,214,46,30,17,279,*75
$GPGSA,M,3,02,04,09,12,14,25,29,,,,,,2.4,1.1,2.2*3D
Trace #66 at position 16.250000
$GPZDA,081259.04,09,10,2011,00,00*6F
$GPRMC,081259.00,A,4611.958508,N,01258.223797,E,002.1,329.6,091011,0.2,E,A*3A
$GPGGA,081300.00,4611.958977,N,01258.223426,E,1,07,1.1,139.31,M,46.25,M,,*6F
$GPGLL,4611.958977,N,01258.223426,E,081300.00,A,A*61
$GPVTG,330.7,T,330.8,M,001.7,N,003.1,K,A*28
$GPGSV,2,1,08,02,34,101,45,04,21,053,42,09,38,145,44,12,71,044,44*76
$GPGSV,2,2,08,14,37,274,38,25,62,295,41,29,33,214,46,30,17,279,*75
$GPGSA,M,3,02,04,09,12,14,25,29,,,,,,2.4,1.1,2.2*3D
Trace #67 at position 16.500000
$GPZDA,081300.04,09,10,2011,00,00*62
$GPRMC,081300.00,A,4611.958977,N,01258.223426,E,001.7,330.7,091011,0.2,E,A*36
$GPGGA,081301.00,4611.959437,N,01258.223198,E,1,07,1.1,139.42,M,46.25,M,,*62
$GPGLL,4611.959437,N,01258.223198,E,081301.00,A,A*68
$GPVTG,347.5,T,347.7,M,001.8,N,003.3,K,A*28
$GPGSV,2,1,08,02,34,101,45,04,21,053,41,09,38,145,45,12,71,044,43*73
$GPGSV,2,2,08,14,37,274,37,25,62,295,40,29,33,214,46,30,17,279,29*70
$GPGSA,M,3,02,04,09,12,14,25,29,,,,,,2.4,1.1,2.2*3D
Trace #68 at position 16.750000
$GPZDA,081300.04,09,10,2011,00,00*62
$GPRMC,081300.00,A,4611.958977,N,01258.223426,E,001.7,330.7,091011,0.2,E,A*36
$GPGGA,081301.00,4611.959437,N,01258.223198,E,1,07,1.1,139.42,M,46.25,M,,*62
$GPGLL,4611.959437,N,01258.223198,E,081301.00,A,A*68
$GPVTG,347.5,T,347.7,M,001.8,N,003.3,K,A*28
$GPGSV,2,1,08,02,34,101,45,04,21,053,41,09,38,145,45,12,71,044,43*73
$GPGSV,2,2,08,14,37,274,37,25,62,295,40,29,33,214,46,30,17,279,29*70
$GPGSA,M,3,02,04,09,12,14,25,29,,,,,,2.4,1.1,2.2*3D
Trace #69 at position 17.000000
$GPZDA,081300.04,09,10,2011,00,00*62
$GPRMC,081300.00,A,4611.958977,N,01258.223426,E,001.7,330.7,091011,0.2,E,A*36
$GPGGA,081301.00,4611.959437,N,01258.223198,E,1,07,1.1,139.42,M,46.25,M,,*62
$GPGLL,4611.959437,N,01258.223198,E,081301.00,A,A*68
$GPVTG,347.5,T,347.7,M,001.8,N,003.3,K,A*28
$GPGSV,2,1,08,02,34,101,45,04,21,053,41,09,38,145,45,12,71,044,43*73
$GPGSV,2,2,08,14,37,274,37,25,62,295,40,29,33,214,46,30,17,279,29*70
$GPGSA,M,3,02,04,09,12,14,25,29,,,,,,2.4,1.1,2.2*3D
Trace #70 at position 17.250000
$GPZDA,081301.04,09,10,2011,00,00*63
$GPRMC,081301.00,A,4611.959437,N,01258.223198,E,001.8,347.5,091011,0.2,E,A*32
$GPGGA,081302.00,4611.959837,N,01258.223036,E,1,07,1.1,139.66,M,46.25,M,,*6E
$GPGLL,4611.959837,N,01258.223036,E,081302.00,A,A*62
$GPVTG,334.6,T,334.7,M,001.1,N,002.0,K,A*20
$GPGSV,2,1,08,02,34,101,45,04,21,053,40,09,38,145,46,12,71,044,44*76
$GPGSV,2,2,08,14,37,274,38,25,62,295,40,29,33,214,46,30,17,279,29*7F
$GPGSA,M,3,02,04,09,12,14,25,29,,,,,,2.4,1.1,2.2*3D
Trace #71 at position 17.500000
$GPZDA,081301.04,09,10,2011,00,00*63
$GPRMC,081301.00,A,4611.959437,N,01258.223198,E,001.8,347.5,091011,0.2,E,A*32
$GPGGA,081302.00,4611.959837,N,01258.223036,E,1,07,1.1,139.66,M,46.25,M,,*6E
$GPGLL,4611.959837,N,01258.223036,E,081302.00,A,A*62
$GPVTG,334.6,T,334.7,M,001.1,N,002.0,K,A*20
$GPGSV,2,1,08,02,34,101,45,04,21,053,40,09,38,145,46,12,71,044,44*76
$GPGSV,2,2,08,14,37,274,38,25,62,295,40,29,33,214,46,30,17,279,29*7F
$GPGSA,M,3,02,04,09,12,14,25,29,,,,,,2.4,1.1,2.2*3D
Trace #72 at position 17.750000
$GPZDA,081302.04,09,10,2011,00,00*60
$GPRMC,081302.00,A,4611.959837,N,01258.223036,E,001.1,334.6,091011,0.2,E,A*36
$GPGGA,081303.00,4611.960083,N,01258.222883,E,1,07,1.1,139.93,M,46.25,M,,*6F
$GPGLL,4611.960083,N,01258.222883,E,081303.00,A,A*69
$GPVTG,328.4,T,328.5,M,000.6,N,001.2,K,A*27
$GPGSV,2,1,08,02,34,101,45,04,21,053,41,09,38,145,47,12,71,044,44*76
$GPGSV,2,2,08,14,37,274,38,25,62,295,40,29,33,214,45,30,17,279,34*70
$GPGSA,M,3,02,04,09,12,14,25,29,,,,,,2.4,1.1,2.2*3D
Trace #73 at position 18.000000
$GPZDA,081302.04,09,10,2011,00,00*60
$GPRMC,081302.00,A,4611.959837,N,01258.223036,E,001.1,334.6,091011,0.2,E,A*36
$GPGGA,081303.00,4611.960083,N,01258.222883,E,1,07,1.1,139.93,M,46.25,M,,*6F
$GPGLL,4611.960083,N,01258.222883,E,081303.00,A,A*69
$GPVTG,328.4,T,328.5,M,000.6,N,001.2,K,A*27
$GPGSV,2,1,08,02,34,101,45,04,21,053,41,09,38,145,47,12,71,044,44*76
$GPGSV,2,2,08,14,37,274,38,25,62,295,40,29,33,214,45,30,17,279,34*70
$GPGSA,M,3,02,04,09,12,14,25,29,,,,,,2.4,1.1,2.2*3D
Trace #74 at position 18.250000
$GPZDA,081302.04,09,10,2011,00,00*60
$GPRMC,081302.00,A,4611.959837,N,01258.223036,E,001.1,334.6,091011,0.2,E,A*36
$GPGGA,081303.00,4611.960083,N,01258.222883,E,1,07,1.1,139.93,M,46.25,M,,*6F
$GPGLL,4611.960083,N,01258.222883,E,081303.00,A,A*69
$GPVTG,328.4,T,328.5,M,000.6,N,001.2,K,A*27
$GPGSV,2,1,08,02,34,101,45,04,21,053,41,09,38,145,47,12,71,044,44*76
$GPGSV,2,2,08,14,37,274,38,25,62,295,40,29,33,214,45,30,17,279,34*70
$GPGSA,M,3,02,04,09,12,14,25,29,,,,,,2.4,1.1,2.2*3D
Trace #75 at position 18.500000
$GPZDA,081303.04,09,10,2011,00,00*61
$GPRMC,081303.00,A,4611.960083,N,01258.222883,E,000.6,328.4,091011,0.2,E,A*34
$GPGGA,081304.00,4611.960349,N,01258.222748,E,1,07,1.1,140.06,M,46.25,M,,*67
$GPGLL,4611.960349,N,01258.222748,E,081304.00,A,A*63
$GPVTG,342.2,T,342.4,M,001.2,N,002.2,K,A*26
$GPGSV,2,1,08,02,34,101,45,04,21,053,41,09,38,145,46,12,71,044,45*76
$GPGSV,2,2,08,14,37,274,40,25,62,295,43,29,33,214,45,30,17,279,34*7C
$GPGSA,M,3,02,04,09,12,14,25,29,,,,,,2.4,1.1,2.2*3D
Trace #76 at position 18.750000
$GPZDA,081303.04,09,10,2011,00,00*61
$GPRMC,081303.00,A,4611.960083,N,01258.222883,E,000.6,328.4,091011,0.2,E,A*34
$GPGGA,081304.00,4611.960349,N,01258.222748,E,1,07,1.1,140.06,M,46.25,M,,*67
$GPGLL,4611.960349,N,01258.222748,E,081304.00,A,A*63
$GPVTG,342.2,T,342.4,M,001.2,N,002.2,K,A*26
$GPGSV,2,1,08,02,34,101,45,04,21,053,41,09,38,145,46,12,71,044,45*76
$GPGSV,2,2,08,14,37,274,40,25,62,295,43,29,33,214,45,30,17,279,34*7C
$GPGSA,M,3,02,04,09,12,14,25,29,,,,,,2.4,1.1,2.2*3D
Trace #77 at position 19.000000
$GPZDA,081303.04,09,10,2011,00,00*61
$GPRMC,081303.00,A,4611.960083,N,01258.222883,E,000.6,328.4,091011,0.2,E,A*34
$GPGGA,081304.00,4611.960349,N,01258.222748,E,1,07,1.1,140.06,M,46.25,M,,*67
$GPGLL,4611.960349,N,01258.222748,E,081304.00,A,A*63
$GPVTG,342.2,T,342.4,M,001.2,N,002.2,K,A*26
$GPGSV,2,1,08,02,34,101,45,04,21,053,41,09,38,145,46,12,71,044,45*76
$GPGSV,2,2,08,14,37,274,40,25,62,295,43,29,33,214,45,30,17,279,34*7C
$GPGSA,M,3,02,04,09,12,14,25,29,,,,,,2.4,1.1,2.2*3D
Trace #78 at position 19.250000
$GPZDA,081304.04,09,10,2011,00,00*66
$GPRMC,081304.00,A,4611.960349,N,01258.222748,E,001.2,342.2,091011,0.2,E,A*31
$GPGGA,081305.00,4611.960746,N,01258.222649,E,1,07,1.1,140.11,M,46.25,M,,*6B
$GPGLL,4611.960746,N,01258.222649,E,081305.00,A,A*69
$GPVTG,355.9,T,356.0,M,001.5,N,002.7,K,A*28
$GPGSV,2,1,08,02,34,101,45,04,21,053,42,09,38,145,46,12,71,044,44*74
$GPGSV,2,2,08,14,37,274,39,25,62,295,41,29,33,214,46,30,17,279,32*75
$GPGSA,M,3,02,04,09,12,14,25,29,,,,,,2.4,1.1,2.2*3D
Trace #79 at position 19.500000
$GPZDA,081304.04,09,10,2011,00,00*66
$GPRMC,081304.00,A,4611.960349,N,01258.222748,E,001.2,342.2,091011,0.2,E,A*31
$GPGGA,081305.00,4611.960746,N,01258.222649,E,1,07,1.1,140.11,M,46.25,M,,*6B
$GPGLL,4611.960746,N,01258.222649,E,081305.00,A,A*69
$GPVTG,355.9,T,356.0,M,001.5,N,002.7,K,A*28
$GPGSV,2,1,08,02,34,101,45,04,21,053,42,09,38,145,46,12,71,044,44*74
$GPGSV,2,2,08,14,37,274,39,25,62,295,41,29,33,214,46,30,17,279,32*75
$GPGSA,M,3,02,04,09,12,14,25,29,,,,,,2.4,1.1,2.2*3D
Trace #80 at position 19.750000
$GPZDA,081304.04,09,10,2011,00,00*66
$GPRMC,081304.00,A,4611.960349,N,01258.222748,E,001.2,342.2,091011,0.2,E,A*31
$GPGGA,081305.00,4611.960746,N,01258.222649,E,1,07,1.1,140.11,M,46.25,M,,*6B
$GPGLL,4611.960746,N,01258.222649,E,081305.00,A,A*69
$GPVTG,355.9,T,356.0,M,001.5,N,002.7,K,A*28
$GPGSV,2,1,08,02,34,101,45,04,21,053,42,09,38,145,46,12,71,044,44*74
$GPGSV,2,2,08,14,37,274,39,25,62,295,41,29,33,214,46,30,17,279,32*75
$GPGSA,M,3,02,04,09,12,14,25,29,,,,,,2.4,1.1,2.2*3D
Trace #81 at position 20.000000
$GPZDA,081304.04,09,10,2011,00,00*66
$GPRMC,081304.00,A,4611.960349,N,01258.222748,E,001.2,342.2,091011,0.2,E,A*31
$GPGGA,081305.00,4611.960746,N,01258.222649,E,1,07,1.1,140.11,M,46.25,M,,*6B
$GPGLL,4611.960746,N,01258.222649,E,081305.00,A,A*69
$GPVTG,355.9,T,356.0,M,001.5,N,002.7,K,A*28
$GPGSV,2,1,08,02,34,101,45,04,21,053,42,09,38,145,46,12,71,044,44*74
$GPGSV,2,2,08,14,37,274,39,25,62,295,41,29,33,214,46,30,17,279,32*75
$GPGSA,M,3,02,04,09,12,14,25,29,,,,,,2.4,1.1,2.2*3D
Trace #82 at position 20.250000
$GPZDA,081304.04,09,10,2011,00,00*66
$GPRMC,081304.00,A,4611.960349,N,01258.222748,E,001.2,342.2,091011,0.2,E,A*31
$GPGGA,081305.00,4611.960746,N,01258.222649,E,1,07,1.1,140.11,M,46.25,M,,*6B
$GPGLL,4611.960746,N,01258.222649,E,081305.00,A,A*69
$GPVTG,355.9,T,356.0,M,001.5,N,002.7,K,A*28
$GPGSV,2,1,08,02,34,101,45,04,21,053,42,09,38,145,46,12,71,044,44*74
$GPGSV,2,2,08,14,37,274,39,25,62,295,41,29,33,214,46,30,17,279,32*75
$GPGSA,M,3,02,04,09,12,14,25,29,,,,,,2.4,1.1,2.2*3D
Trace #83 at position 20.500000
$GPZDA,081305.04,09,10,2011,00,00*67
$GPRMC,081305.00,A,4611.960746,N,01258.222649,E,001.5,355.9,091011,0.2,E,A*31
$GPGGA,081306.00,4611.961142,N,01258.222547,E,1,07,1.1,140.22,M,46.25,M,,*66
$GPGLL,4611.961142,N,01258.222547,E,081306.00,A,A*64
$GPVTG,343.1,T,343.3,M,001.2,N,002.2,K,A*22
$GPGSV,2,1,08,02,34,101,45,04,21,053,41,09,38,145,45,12,11,00,00*64
$GPRMC,081306.00,A,4611.961142,N,01258.222547,E,001.2,343.1,091011,0.2,E,A*34
$GPGGA,081307.00,4611.961466,N,01258.222350,E,1,06,1.4,140.28,M,46.25,M,,*6A
$GPGLL,4611.961466,N,01258.222350,E,081307.00,A,A*66
$GPVTG,325.6,T,325.7,M,001.2,N,002.1,K,A*22
$GPGSV,2,1,08,02,34,101,46,04,21,053,42,09,38,145,45,12,71,044,42*72
$GPGSV,2,2,08,14,37,274,32,25,62,295,38,29,33,214,45,30,17,279,29*79
$GPGSA,M,3,02,04,09,12,25,29,,,,,,,2.8,1.4,2.4*37
Trace #84 at position 20.750000
$GPZDA,081305.04,09,10,2011,00,00*67
$GPRMC,081305.00,A,4611.960746,N,01258.222649,E,001.5,355.9,091011,0.2,E,A*31
$GPGGA,081306.00,4611.961142,N,01258.222547,E,1,07,1.1,140.22,M,46.25,M,,*66
$GPGLL,4611.961142,N,01258.222547,E,081306.00,A,A*64
$GPVTG,343.1,T,343.3,M,001.2,N,002.2,K,A*22
$GPGSV,2,1,08,02,34,101,45,04,21,053,41,09,38,145,45,12,11,00,00*64
$GPRMC,081306.00,A,4611.961142,N,01258.222547,E,001.2,343.1,091011,0.2,E,A*34
$GPGGA,081307.00,4611.961466,N,01258.222350,E,1,06,1.4,140.28,M,46.25,M,,*6A
$GPGLL,4611.961466,N,01258.222350,E,081307.00,A,A*66
$GPVTG,325.6,T,325.7,M,001.2,N,002.1,K,A*22
$GPGSV,2,1,08,02,34,101,46,04,21,053,42,09,38,145,45,12,71,044,42*72
$GPGSV,2,2,08,14,37,274,32,25,62,295,38,29,33,214,45,30,17,279,29*79
$GPGSA,M,3,02,04,09,12,25,29,,,,,,,2.8,1.4,2.4*37
Trace #85 at position 21.000000
$GPZDA,081305.04,09,10,2011,00,00*67
$GPRMC,081305.00,A,4611.960746,N,01258.222649,E,001.5,355.9,091011,0.2,E,A*31
$GPGGA,081306.00,4611.961142,N,01258.222547,E,1,07,1.1,140.22,M,46.25,M,,*66
$GPGLL,4611.961142,N,01258.222547,E,081306.00,A,A*64
$GPVTG,343.1,T,343.3,M,001.2,N,002.2,K,A*22
$GPGSV,2,1,08,02,34,101,45,04,21,053,41,09,38,145,45,12,11,00,00*64
$GPRMC,081306.00,A,4611.961142,N,01258.222547,E,001.2,343.1,091011,0.2,E,A*34
$GPGGA,081307.00,4611.961466,N,01258.222350,E,1,06,1.4,140.28,M,46.25,M,,*6A
$GPGLL,4611.961466,N,01258.222350,E,081307.00,A,A*66
$GPVTG,325.6,T,325.7,M,001.2,N,002.1,K,A*22
$GPGSV,2,1,08,02,34,101,46,04,21,053,42,09,38,145,45,12,71,044,42*72
$GPGSV,2,2,08,14,37,274,32,25,62,295,38,29,33,214,45,30,17,279,29*79
$GPGSA,M,3,02,04,09,12,25,29,,,,,,,2.8,1.4,2.4*37
Trace #86 at position 21.250000
$GPZDA,081307.04,09,10,2011,00,00*65
$GPRMC,081307.$GPGGA,081308.00,4611.961723,N,01258.222265,E,1,06,1.4,140.32,M,46.25,M,,*6B
$GPGLL,4611.961723,N,01258.222265,E,081308.00,A,A*6C
$GPVTG,18.4,T,18.6,M,000.7,N,001.2,K,A*25
$GPGSV,2,1,08,02,34,101,45,04,21,053,43,09,38,145,46,12,71,044,44*75
$GPGSV,2,2,08,14,37,274,35,25,62,295,39,29,33,214,45,30,17,279,30*77
$GPGSA,M,3,02,04,09,12,25,29,,,,,,,2.8,1.4,2.4*37
Trace #87 at position 21.500000
$GPZDA,081307.04,09,10,2011,00,00*65
$GPRMC,081307.$GPGGA,081308.00,4611.961723,N,01258.222265,E,1,06,1.4,140.32,M,46.25,M,,*6B
$GPGLL,4611.961723,N,01258.222265,E,081308.00,A,A*6C
$GPVTG,18.4,T,18.6,M,000.7,N,001.2,K,A*25
$GPGSV,2,1,08,02,34,101,45,04,21,053,43,09,38,145,46,12,71,044,44*75
$GPGSV,2,2,08,14,37,274,35,25,62,295,39,29,33,214,45,30,17,279,30*77
$GPGSA,M,3,02,04,09,12,25,29,,,,,,,2.8,1.4,2.4*37
Trace #88 at position 21.750000
$GPZDA,081307.04,09,10,2011,00,00*65
$GPRMC,081307.$GPGGA,081308.00,4611.961723,N,01258.222265,E,1,06,1.4,140.32,M,46.25,M,,*6B
$GPGLL,4611.961723,N,01258.222265,E,081308.00,A,A*6C
$GPVTG,18.4,T,18.6,M,000.7,N,001.2,K,A*25
$GPGSV,2,1,08,02,34,101,45,04,21,053,43,09,38,145,46,12,71,044,44*75
$GPGSV,2,2,08,14,37,274,35,25,62,295,39,29,33,214,45,30,17,279,30*77
$GPGSA,M,3,02,04,09,12,25,29,,,,,,,2.8,1.4,2.4*37
Trace #89 at position 22.000000
$GPZDA,081307.04,09,10,2011,00,00*65
$GPRMC,081307.$GPGGA,081308.00,4611.961723,N,01258.222265,E,1,06,1.4,140.32,M,46.25,M,,*6B
$GPGLL,4611.961723,N,01258.222265,E,081308.00,A,A*6C
$GPVTG,18.4,T,18.6,M,000.7,N,001.2,K,A*25
$GPGSV,2,1,08,02,34,101,45,04,21,053,43,09,38,145,46,12,71,044,44*75
$GPGSV,2,2,08,14,37,274,35,25,62,295,39,29,33,214,45,30,17,279,30*77
$GPGSA,M,3,02,04,09,12,25,29,,,,,,,2.8,1.4,2.4*37
Trace #90 at position 22.250000
$GPZDA,081308.04,09,10,2011,00,00*6A
$GPRMC,081308.00,A,4611.961723,N,01258.222265,E,000.7,18.4,091011,0.2,E,A*00
$GPGGA,081309.00,4611.962031,N,01258.222154,E,1,05,1.7,140.38,M,46.25,M,,*66
$GPGLL,4611.962031,N,01258.222154,E,081309.00,A,A*6B
$GPVTG,336.1,T,336.3,M,001.2,N,002.2,K,A*22
$GPGSV,2,1,08,02,34,101,45,04,21,053,42,09,38,145,45,12,71,044,42*71
$GPGSV,2,2,08,14,37,274,33,25,62,295,34,29,33,214,45,30,17,279,31*7D
$GPGSA,M,3,02,04,09,12,29,,,,,,,,3.0,1.7,2.5*3B
Trace #91 at position 22.500000
$GPZDA,081308.04,09,10,2011,00,00*6A
$GPRMC,081308.00,A,4611.961723,N,01258.222265,E,000.7,18.4,091011,0.2,E,A*00
$GPGGA,081309.00,4611.962031,N,01258.222154,E,1,05,1.7,140.38,M,46.25,M,,*66
$GPGLL,4611.962031,N,01258.222154,E,081309.00,A,A*6B
$GPVTG,336.1,T,336.3,M,001.2,N,002.2,K,A*22
$GPGSV,2,1,08,02,34,101,45,04,21,053,42,09,38,145,45,12,71,044,42*71
$GPGSV,2,2,08,14,37,274,33,25,62,295,34,29,33,214,45,30,17,279,31*7D
$GPGSA,M,3,02,04,09,12,29,,,,,,,,3.0,1.7,2.5*3B
Trace #92 at position 22.750000
$GPZDA,081308.04,09,10,2011,00,00*6A
$GPRMC,081308.00,A,4611.961723,N,01258.222265,E,000.7,18.4,091011,0.2,E,A*00
$GPGGA,081309.00,4611.962031,N,01258.222154,E,1,05,1.7,140.38,M,46.25,M,,*66
$GPGLL,4611.962031,N,01258.222154,E,081309.00,A,A*6B
$GPVTG,336.1,T,336.3,M,001.2,N,002.2,K,A*22
$GPGSV,2,1,08,02,34,101,45,04,21,053,42,09,38,145,45,12,71,044,42*71
$GPGSV,2,2,08,14,37,274,33,25,62,295,34,29,33,214,45,30,17,279,31*7D
$GPGSA,M,3,02,04,09,12,29,,,,,,,,3.0,1.7,2.5*3B
Trace #93 at position 23.000000
$GPZDA,081308.04,09,10,2011,00,00*6A
$GPRMC,081308.00,A,4611.961723,N,01258.222265,E,000.7,18.4,091011,0.2,E,A*00
$GPGGA,081309.00,4611.962031,N,01258.222154,E,1,05,1.7,140.38,M,46.25,M,,*66
$GPGLL,4611.962031,N,01258.222154,E,081309.00,A,A*6B
$GPVTG,336.1,T,336.3,M,001.2,N,002.2,K,A*22
$GPGSV,2,1,08,02,34,101,45,04,21,053,42,09,38,145,45,12,71,044,42*71
$GPGSV,2,2,08,14,37,274,33,25,62,295,34,29,33,214,45,30,17,279,31*7D
$GPGSA,M,3,02,04,09,12,29,,,,,,,,3.0,1.7,2.5*3B
Trace #94 at position 23.250000
$GPZDA,081309.03,09,10,2011,00,00*6C
$GPRMC,081309.00,A,4611.962031,N,01258.222154,E,001.2,336.1,091011,0.2,E,A*39
$GPGGA,081310.00,4611.962391,N,01258.221977,E,1,06,1.4,140.34,M,46.25,M,,*61
$GPGLL,4611.962391,N,01258.221977,E,081310.00,A,A*60
$GPVTG,338.5,T,338.7,M,001.3,N,002.5,K,A*24
$GPGSV,2,1,08,02,34,101,45,04,21,053,43,09,38,145,46,12,71,044,44*75
$GPGSV,2,2,08,14,37,274,35,25,62,295,39,29,33,214,46,30,17,280,*71
$GPGSA,M,3,02,04,09,12,25,29,,,,,,,2.8,1.4,2.4*37
Trace #95 at position 23.500000
$GPZDA,081309.03,09,10,2011,00,00*6C
$GPRMC,081309.00,A,4611.962031,N,01258.222154,E,001.2,336.1,091011,0.2,E,A*39
$GPGGA,081310.00,4611.962391,N,01258.221977,E,1,06,1.4,140.34,M,46.25,M,,*61
$GPGLL,4611.962391,N,01258.221977,E,081310.00,A,A*60
$GPVTG,338.5,T,338.7,M,001.3,N,002.5,K,A*24
$GPGSV,2,1,08,02,34,101,45,04,21,053,43,09,38,145,46,12,71,044,44*75
$GPGSV,2,2,08,14,37,274,35,25,62,295,39,29,33,214,46,30,17,280,*71
$GPGSA,M,3,02,04,09,12,25,29,,,,,,,2.8,1.4,2.4*37
Trace #96 at position 23.750000
$GPZDA,081309.03,09,10,2011,00,00*6C
$GPRMC,081309.00,A,4611.962031,N,01258.222154,E,001.2,336.1,091011,0.2,E,A*39
$GPGGA,081310.00,4611.962391,N,01258.221977,E,1,06,1.4,140.34,M,46.25,M,,*61
$GPGLL,4611.962391,N,01258.221977,E,081310.00,A,A*60
$GPVTG,338.5,T,338.7,M,001.3,N,002.5,K,A*24
$GPGSV,2,1,08,02,34,101,45,04,21,053,43,09,38,145,46,12,71,044,44*75
$GPGSV,2,2,08,14,37,274,35,25,62,295,39,29,33,214,46,30,17,280,*71
$GPGSA,M,3,02,04,09,12,25,29,,,,,,,2.8,1.4,2.4*37
Trace #97 at position 24.000000
$GPZDA,081310.04,09,10,2011,00,00*63
$GPRMC,081310.00,A,4611.962391,N,01258.221977,E,001.3,338.5,091011,0.2,E,A*39
$GPGGA,081311.00,4611.962805,N,01258.221844,E,1,06,1.4,140.32,M,46.25,M,,*61
$GPGLL,4611.962805,N,01258.221844,E,081311.00,A,A*66
$GPVTG,350.8,T,350.9,M,001.6,N,003.0,K,A*26
$GPGSV,2,1,08,02,34,101,45,04,21,053,43,09,38,145,44,12,71,044,44*77
$GPGSV,2,2,08,14,37,274,37,25,62,295,40,29,33,214,46,30,17,280,31*7F
$GPGSA,M,3,02,04,09,12,25,29,,,,,,,2.8,1.4,2.4*37
Trace #98 at position 24.250000
$GPZDA,081310.04,09,10,2011,00,00*63
$GPRMC,081310.00,A,4611.962391,N,01258.221977,E,001.3,338.5,091011,0.2,E,A*39
$GPGGA,081311.00,4611.962805,N,01258.221844,E,1,06,1.4,140.32,M,46.25,M,,*61
$GPGLL,4611.962805,N,01258.221844,E,081311.00,A,A*66
$GPVTG,350.8,T,350.9,M,001.6,N,003.0,K,A*26
$GPGSV,2,1,08,02,34,101,45,04,21,053,43,09,38,145,44,12,71,044,44*77
$GPGSV,2,2,08,14,37,274,37,25,62,295,40,29,33,214,46,30,17,280,31*7F
$GPGSA,M,3,02,04,09,12,25,29,,,,,,,2.8,1.4,2.4*37
Trace #99 at position 24.500000
$GPZDA,081310.04,09,10,2011,00,00*63
$GPRMC,081310.00,A,4611.962391,N,01258.221977,E,001.3,338.5,091011,0.2,E,A*39
$GPGGA,081311.00,4611.962805,N,01258.221844,E,1,06,1.4,140.32,M,46.25,M,,*61
$GPGLL,4611.962805,N,01258.221844,E,081311.00,A,A*66
$GPVTG,350.8,T,350.9,M,001.6,N,003.0,K,A*26
$GPGSV,2,1,08,02,34,101,45,04,21,053,43,09,38,145,44,12,71,044,44*77
$GPGSV,2,2,08,14,37,274,37,25,62,295,40,29,33,214,46,30,17,280,31*7F
$GPGSA,M,3,02,04,09,12,25,29,,,,,,,2.8,1.4,2.4*37
Trace #100 at position 24.750000
$GPZDA,081311.04,09,10,2011,00,00*62
$GPRMC,081311.00,A,4611.962805,N,01258.221844,E,001.6,350.8,091011,0.2,E,A*39
$GPGGA,081312.00,4611.963179,N,01258.221691,E,1,06,1.4,140.41,M,46.25,M,,*63
$GPGLL,4611.963179,N,01258.221691,E,081312.00,A,A*60
$GPVTG,329.2,T,329.4,M,001.0,N,001.9,K,A*2C
$GPGSV,2,1,08,02,34,101,45,04,21,053,42,09,38,145,45,12,71,044,43*70
$GPGSV,2,2,08,14,37,274,37,25,62,295,40,29,33,214,46,30,17,280,30*7E
$GPGSA,M,3,02,04,09,12,25,29,,,,,,,2.8,1.4,2.4*37
Trace #101 at position 25.000000
$GPZDA,081311.04,09,10,2011,00,00*62
$GPRMC,081311.00,A,4611.962805,N,01258.221844,E,001.6,350.8,091011,0.2,E,A*39
$GPGGA,081312.00,4611.963179,N,01258.221691,E,1,06,1.4,140.41,M,46.25,M,,*63
$GPGLL,4611.963179,N,01258.221691,E,081312.00,A,A*60
$GPVTG,329.2,T,329.4,M,001.0,N,001.9,K,A*2C
$GPGSV,2,1,08,02,34,101,45,04,21,053,42,09,38,145,45,12,71,044,43*70
$GPGSV,2,2,08,14,37,274,37,25,62,295,40,29,33,214,46,30,17,280,30*7E
$GPGSA,M,3,02,04,09,12,25,29,,,,,,,2.8,1.4,2.4*37
Trace #102 at position 25.250000
$GPZDA,081311.04,09,10,2011,00,00*62
$GPRMC,081311.00,A,4611.962805,N,01258.221844,E,001.6,350.8,091011,0.2,E,A*39
$GPGGA,081312.00,4611.963179,N,01258.221691,E,1,06,1.4,140.41,M,46.25,M,,*63
$GPGLL,4611.963179,N,01258.221691,E,081312.00,A,A*60
$GPVTG,329.2,T,329.4,M,001.0,N,001.9,K,A*2C
$GPGSV,2,1,08,02,34,101,45,04,21,053,42,09,38,145,45,12,71,044,43*70
$GPGSV,2,2,08,14,37,274,37,25,62,295,40,29,33,214,46,30,17,280,30*7E
$GPGSA,M,3,02,04,09,12,25,29,,,,,,,2.8,1.4,2.4*37
Trace #103 at position 25.500000
$GPZDA,081312.04,09,10,2011,00,00*61
$GPRMC,081312.00,A,4611.963179,N,01258.221691,E,001.0,329.2,091011,0.2,E,A*3D
$GPGGA,081313.00,4611.963543,N,01258.221433,E,1,06,1.4,140.53,M,46.25,M,,*66
$GPGLL,4611.963543,N,01258.221433,E,081313.00,A,A*66
$GPVTG,330.6,T,330.8,M,001.6,N,003.0,K,A*29
$GPGSV,2,1,08,02,34,101,46,04,21,053,42,09,38,145,45,12,71,044,44*74
$GPGSV,2,2,08,14,37,274,38,25,62,295,41,29,33,214,46,30,17,280,30*70
$GPGSA,M,3,02,04,09,12,25,29,,,,,,,2.8,1.4,2.4*37
Trace #104 at position 25.750000
$GPZDA,081312.04,09,10,2011,00,00*61
$GPRMC,081312.00,A,4611.963179,N,01258.221691,E,001.0,329.2,091011,0.2,E,A*3D
$GPGGA,081313.00,4611.963543,N,01258.221433,E,1,06,1.4,140.53,M,46.25,M,,*66
$GPGLL,4611.963543,N,01258.221433,E,081313.00,A,A*66
$GPVTG,330.6,T,330.8,M,001.6,N,003.0,K,A*29
$GPGSV,2,1,08,02,34,101,46,04,21,053,42,09,38,145,45,12,71,044,44*74
$GPGSV,2,2,08,14,37,274,38,25,62,295,41,29,33,214,46,30,17,280,30*70
$GPGSA,M,3,02,04,09,12,25,29,,,,,,,2.8,1.4,2.4*37
Trace #105 at position 26.000000
$GPZDA,081313.04,09,10,2011,00,00*60
$GPRMC,081313.00,A,4611.963543,N,01258.221433,E,001.6,330.6,091011,0.2,E,A*31
$GPGGA,081314.00,4611.963942,N,01258.221188,E,1,06,1.4,140.54,M,46.25,M,,*6E
$GPGLL,4611.963942,N,01258.221188,E,081314.00,A,A*69
$GPVTG,335.1,T,335.3,M,001.3,N,002.4,K,A*25
$GPGSV,2,1,08,02,34,101,44,04,21,053,43,09,38,145,45,12,71,044,45*76
$GPGSV,2,2,08,14,37,274,38,25,62,295,41,29,33,214,45,30,18,280,31*7D
$GPGSA,M,3,02,04,09,12,25,29,,,,,,,2.8,1.4,2.4*37
Trace #106 at position 26.250000
$GPZDA,081313.04,09,10,2011,00,00*60
$GPRMC,081313.00,A,4611.963543,N,01258.221433,E,001.6,330.6,091011,0.2,E,A*31
$GPGGA,081314.00,4611.963942,N,01258.221188,E,1,06,1.4,140.54,M,46.25,M,,*6E
$GPGLL,4611.963942,N,01258.221188,E,081314.00,A,A*69
$GPVTG,335.1,T,335.3,M,001.3,N,002.4,K,A*25
$GPGSV,2,1,08,02,34,101,44,04,21,053,43,09,38,145,45,12,71,044,45*76
$GPGSV,2,2,08,14,37,274,38,25,62,295,41,29,33,214,45,30,18,280,31*7D
$GPGSA,M,3,02,04,09,12,25,29,,,,,,,2.8,1.4,2.4*37
Trace #107 at position 26.500000
$GPZDA,081314.04,09,10,2011,00,00*67
$GPRMC,081314.00,A,4611.963942,N,01258.221188,E,001.3,335.1,091011,0.2,E,A*39
$GPGGA,081315.00,4611.964375,N,01258.220958,E,1,06,1.4,140.51,M,46.25,M,,*67
$GPGLL,4611.964375,N,01258.220958,E,081315.00,A,A*65
$GPVTG,335.4,T,335.6,M,001.8,N,003.3,K,A*28
$GPGSV,2,1,08,02,3410,2011,00,00*66
$GPRMC,081315.00,A,4611.964375,N,01258.220958,E,001.8,335.4,091011,0.2,E,A*3B
$GPGGA,081316.00,4611.964891,N,01258.220756,E,1,06,1.4,140.51,M,46.25,M,,*65
$GPGLL,4611.964891,N,01258.220756,E,081316.00,A,A*67
$GPVTG,347.7,T,347.9,M,001.9,N,003.5,K,A*23
$GPGSV,2,1,08,02,34,101,46,04,21,053,42,09,38,145,45,12,71,044,43*73
$GPGSV,2,2,08,14,37,274,38,25,62,295,41,29,33,214,46,30,18,280,34*7B
$GPGSA,M,3,02,04,09,12,25,29,,,,,,,2.8,1.4,2.4*37
Trace #108 at position 26.750000
$GPZDA,081314.04,09,10,2011,00,00*67
$GPRMC,081314.00,A,4611.963942,N,01258.221188,E,001.3,335.1,091011,0.2,E,A*39
$GPGGA,081315.00,4611.964375,N,01258.220958,E,1,06,1.4,140.51,M,46.25,M,,*67
$GPGLL,4611.964375,N,01258.220958,E,081315.00,A,A*65
$GPVTG,335.4,T,335.6,M,001.8,N,003.3,K,A*28
$GPGSV,2,1,08,02,3410,2011,00,00*66
$GPRMC,081315.00,A,4611.964375,N,01258.220958,E,001.8,335.4,091011,0.2,E,A*3B
$GPGGA,081316.00,4611.964891,N,01258.220756,E,1,06,1.4,140.51,M,46.25,M,,*65
$GPGLL,4611.964891,N,01258.220756,E,081316.00,A,A*67
$GPVTG,347.7,T,347.9,M,001.9,N,003.5,K,A*23
$GPGSV,2,1,08,02,34,101,46,04,21,053,42,09,38,145,45,12,71,044,43*73
$GPGSV,2,2,08,14,37,274,38,25,62,295,41,29,33,214,46,30,18,280,34*7B
$GPGSA,M,3,02,04,09,12,25,29,,,,,,,2.8,1.4,2.4*37
Trace #109 at position 27.000000
$GPZDA,081316.04,09,10,2011,00,00*65
$GPRMC,08$GPGGA,081317.00,4611.965304,N,01258.220726,E,1,06,1.4,140.60,M,46.25,M,,*67
$GPGLL,4611.965304,N,01258.220726,E,081317.00,A,A*67
