Trace #1 at position 0.000000
$GPZDA,085409.04,09,10,2011,00,00*68
$GPRMC,085409.00,A,4611.979263,N,01258.214684,E,000.0,26.3,091011,0.2,E,A*09
$GPGGA,085410.00,4611.979284,N,01258.214460,E,1,05,6.1,145.88,M,46.25,M,,*63
$GPGLL,4611.979284,N,01258.214460,E,085410.00,A,A*61
$GPVTG,108.3,T,108.5,M,000.1,N,000.2,K,A*26
$GPGSV,2,1,08,02,38,079,36,09,19,151,,12,57,076,33,14,28,253,45*7E
$GPGSV,2,2,08,25,76,335,45,29,52,223,42,30,33,290,44,31,25,313,40*72
$GPGSA,M,3,14,25,29,30,31,,,,,,,,10.2,6.1,8.2*08
Trace #2 at position 0.250000
$GPZDA,085416.04,09,10,2011,00,00*66
$GPRMC,085416.00,A,4611.979098,N,01258.216007,E,000.0,16.5,091011,0.2,E,A*0B
$GPGGA,085417.00,4611.979065,N,01258.216256,E,1,07,1.4,143.10,M,46.25,M,,*6F
$GPGLL,4611.979065,N,01258.216256,E,085417.00,A,A*6A
$GPVTG,30.4,T,30.5,M,000.1,N,000.1,K,A*22
$GPGSV,2,1,08,02,38,079,41,09,19,151,,12,57,076,40,14,28,253,42*7D
$GPGSV,2,2,08,25,76,335,47,29,52,223,41,30,33,290,43,31,25,313,42*76
$GPGSA,M,3,02,12,14,25,29,30,31,,,,,,2.9,1.4,2.5*3E
Trace #3 at position 0.500000
$GPZDA,085417.04,09,10,2011,00,00*67
$GPRMC,085417.00,A,4611.979065,N,01258.216256,E,000.1,30.4,091011,0.2,E,A*0A
$GPGGA,085418.00,4611.979039,N,01258.216469,E,1,07,1.4,142.78,M,46.25,M,,*6C
$GPGLL,4611.979039,N,01258.216469,E,085418.00,A,A*66
$GPVTG,312.2,T,312.3,M,000.0,N,000.1,K,A*23
$GPGSV,2,1,08,02,38,079,41,09,19,151,,12,57,076,40,14,28,253,42*7D
$GPGSV,2,2,08,25,76,335,47,29,52,223,42,30,33,290,42,31,25,313,42*74
$GPGSA,M,3,02,12,14,25,29,30,31,,,,,,2.9,1.4,2.5*3E
Trace #4 at position 0.750000
$GPZDA,085417.04,09,10,2011,00,00*67
$GPRMC,085417.00,A,4611.979065,N,01258.216256,E,000.1,30.4,091011,0.2,E,A*0A
$GPGGA,085418.00,4611.979039,N,01258.216469,E,1,07,1.4,142.78,M,46.25,M,,*6C
$GPGLL,4611.979039,N,01258.216469,E,085418.00,A,A*66
$GPVTG,312.2,T,312.3,M,000.0,N,000.1,K,A*23
$GPGSV,2,1,08,02,38,079,41,09,19,151,,12,57,076,40,14,28,253,42*7D
$GPGSV,2,2,08,25,76,335,47,29,52,223,42,30,33,290,42,31,25,313,42*74
$GPGSA,M,3,02,12,14,25,29,30,31,,,,,,2.9,1.4,2.5*3E
Trace #5 at position 1.000000
$GPZDA,085418.04,09,10,2011,00,00*68
$GPRMC,085418.00,A,4611.979039,N,01258.216469,E,000.0,312.2,091011,0.2,E,A*32
$GPGGA,085419.00,4611.979013,N,01258.216648,E,1,07,1.4,142.51,M,46.25,M,,*6F
$GPGLL,4611.979013,N,01258.216648,E,085419.00,A,A*6E
$GPVTG,285.6,T,285.7,M,000.0,N,000.0,K,A*22
$GPGSV,2,1,08,02,38,079,41,09,19,151,,12,57,076,40,14,28,253,42*7D
$GPGSV,2,2,08,25,76,335,47,29,52,223,42,30,33,290,43,31,25,313,42*75
$GPGSA,M,3,02,12,14,25,29,30,31,,,,,,2.9,1.4,2.5*3E
Trace #6 at position 1.250000
$GPZDA,085419.04,09,10,2011,00,00*69
$GPRMC,085419.00,A,4611.979013,N,01258.216648,E,000.0,285.6,091011,0.2,E,A*31
$GPGGA,085420.00,4611.978993,N,01258.216799,E,1,07,1.4,142.28,M,46.25,M,,*66
$GPGLL,4611.978993,N,01258.216799,E,085420.00,A,A*69
$GPVTG,302.8,T,303.0,M,000.1,N,000.1,K,A*2A
$GPGSV,2,1,08,02,38,079,40,09,19,151,,12,57,076,39,14,28,253,43*73
$GPGSV,2,2,08,25,76,335,48,29,52,223,43,30,33,290,42,31,25,313,43*7B
$GPGSA,M,3,02,12,14,25,29,30,31,,,,,,2.9,1.4,2.5*3E
Trace #7 at position 1.500000
$GPZDA,085419.04,09,10,2011,00,00*69
$GPRMC,085419.00,A,4611.979013,N,01258.216648,E,000.0,285.6,091011,0.2,E,A*31
$GPGGA,085420.00,4611.978993,N,01258.216799,E,1,07,1.4,142.28,M,46.25,M,,*66
$GPGLL,4611.978993,N,01258.216799,E,085420.00,A,A*69
$GPVTG,302.8,T,303.0,M,000.1,N,000.1,K,A*2A
$GPGSV,2,1,08,02,38,079,40,09,19,151,,12,57,076,39,14,28,253,43*73
$GPGSV,2,2,08,25,76,335,48,29,52,223,43,30,33,290,42,31,25,313,43*7B
$GPGSA,M,3,02,12,14,25,29,30,31,,,,,,2.9,1.4,2.5*3E
Trace #8 at position 1.750000
$GPZDA,085420.04,09,10,2011,00,00*63
$GPRMC,085420.00,A,4611.978993,N,01258.216799,E,000.1,302.8,091011,0.2,E,A*37
$GPGGA,085421.00,4611.978971,N,01258.216913,E,1,06,1.5,142.05,M,46.25,M,,*68
$GPGLL,4611.978971,N,01258.216913,E,085421.00,A,A*68
$GPVTG,247.9,T,248.0,M,000.0,N,000.1,K,A*24
$GPGSV,2,1,08,02,38,079,36,09,19,151,,12,57,076,33,14,28,253,42*79
$GPGSV,2,2,08,25,76,335,47,29,52,223,43,30,33,290,42,31,25,313,44*73
$GPGSA,M,3,02,14,25,29,30,31,,,,,,,2.9,1.5,2.5*3C
Trace #9 at position 2.000000
$GPZDA,085420.04,09,10,2011,00,00*63
$GPRMC,085420.00,A,4611.978993,N,01258.216799,E,000.1,302.8,091011,0.2,E,A*37
$GPGGA,085421.00,4611.978971,N,01258.216913,E,1,06,1.5,142.05,M,46.25,M,,*68
$GPGLL,4611.978971,N,01258.216913,E,085421.00,A,A*68
$GPVTG,247.9,T,248.0,M,000.0,N,000.1,K,A*24
$GPGSV,2,1,08,02,38,079,36,09,19,151,,12,57,076,33,14,28,253,42*79
$GPGSV,2,2,08,25,76,335,47,29,52,223,43,30,33,290,42,31,25,313,44*73
$GPGSA,M,3,02,14,25,29,30,31,,,,,,,2.9,1.5,2.5*3C
Trace #10 at position 2.250000
$GPZDA,085421.04,09,10,2011,00,00*62
$GPRMC,085421.00,A,4611.978971,N,01258.216913,E,000.0,247.9,091011,0.2,E,A*36
$GPGGA,085422.00,4611.978834,N,01258.217073,E,1,06,1.9,141.76,M,46.25,M,,*6E
$GPGLL,4611.978834,N,01258.217073,E,085422.00,A,A*65
$GPVTG,180.5,T,180.6,M,000.8,N,001.5,K,A*2C
$GPGSV,2,1,08,02,38,079,36,09,19,151,,12,57,076,42,14,28,253,42*7F
$GPGSV,2,2,08,25,76,335,48,29,52,223,45,30,33,290,42,31,25,313,44*7A
$GPGSA,M,3,12,14,25,29,30,31,,,,,,,4.0,1.9,3.5*3F
Trace #11 at position 2.500000
$GPZDA,085421.04,09,10,2011,00,00*62
$GPRMC,085421.00,A,4611.978971,N,01258.216913,E,000.0,247.9,091011,0.2,E,A*36
$GPGGA,085422.00,4611.978834,N,01258.217073,E,1,06,1.9,141.76,M,46.25,M,,*6E
$GPGLL,4611.978834,N,01258.217073,E,085422.00,A,A*65
$GPVTG,180.5,T,180.6,M,000.8,N,001.5,K,A*2C
$GPGSV,2,1,08,02,38,079,36,09,19,151,,12,57,076,42,14,28,253,42*7F
$GPGSV,2,2,08,25,76,335,48,29,52,223,45,30,33,290,42,31,25,313,44*7A
$GPGSA,M,3,12,14,25,29,30,31,,,,,,,4.0,1.9,3.5*3F
Trace #12 at position 2.750000
$GPZDA,085421.04,09,10,2011,00,00*62
$GPRMC,085421.00,A,4611.978971,N,01258.216913,E,000.0,247.9,091011,0.2,E,A*36
$GPGGA,085422.00,4611.978834,N,01258.217073,E,1,06,1.9,141.76,M,46.25,M,,*6E
$GPGLL,4611.978834,N,01258.217073,E,085422.00,A,A*65
$GPVTG,180.5,T,180.6,M,000.8,N,001.5,K,A*2C
$GPGSV,2,1,08,02,38,079,36,09,19,151,,12,57,076,42,14,28,253,42*7F
$GPGSV,2,2,08,25,76,335,48,29,52,223,45,30,33,290,42,31,25,313,44*7A
$GPGSA,M,3,12,14,25,29,30,31,,,,,,,4.0,1.9,3.5*3F
Trace #13 at position 3.000000
$GPZDA,085422.04,09,10,2011,00,00*61
$GPRMC,085422.00,A,4611.978834,N,01258.217073,E,000.8,180.5,091011,0.2,E,A*37
$GPGGA,085423.00,4611.978591,N,01258.217260,E,1,07,1.4,141.54,M,46.25,M,,*61
$GPGLL,4611.978591,N,01258.217260,E,085423.00,A,A*66
$GPVTG,160.2,T,160.4,M,000.9,N,001.7,K,A*2A
$GPGSV,2,1,08,02,38,079,39,09,19,151,,12,57,076,39,14,28,253,43*7D
$GPGSV,2,2,08,25,76,335,48,29,52,223,43,30,33,290,42,31,25,313,43*7B
$GPGSA,M,3,02,12,14,25,29,30,31,,,,,,2.9,1.4,2.5*3E
Trace #14 at position 3.250000
$GPZDA,085422.04,09,10,2011,00,00*61
$GPRMC,085422.00,A,4611.978834,N,01258.217073,E,000.8,180.5,091011,0.2,E,A*37
$GPGGA,085423.00,4611.978591,N,01258.217260,E,1,07,1.4,141.54,M,46.25,M,,*61
$GPGLL,4611.978591,N,01258.217260,E,085423.00,A,A*66
$GPVTG,160.2,T,160.4,M,000.9,N,001.7,K,A*2A
$GPGSV,2,1,08,02,38,079,39,09,19,151,,12,57,076,39,14,28,253,43*7D
$GPGSV,2,2,08,25,76,335,48,29,52,223,43,30,33,290,42,31,25,313,43*7B
$GPGSA,M,3,02,12,14,25,29,30,31,,,,,,2.9,1.4,2.5*3E
Trace #15 at position 3.500000
$GPZDA,085422.04,09,10,2011,00,00*61
$GPRMC,085422.00,A,4611.978834,N,01258.217073,E,000.8,180.5,091011,0.2,E,A*37
$GPGGA,085423.00,4611.978591,N,01258.217260,E,1,07,1.4,141.54,M,46.25,M,,*61
$GPGLL,4611.978591,N,01258.217260,E,085423.00,A,A*66
$GPVTG,160.2,T,160.4,M,000.9,N,001.7,K,A*2A
$GPGSV,2,1,08,02,38,079,39,09,19,151,,12,57,076,39,14,28,253,43*7D
$GPGSV,2,2,08,25,76,335,48,29,52,223,43,30,33,290,42,31,25,313,43*7B
$GPGSA,M,3,02,12,14,25,29,30,31,,,,,,2.9,1.4,2.5*3E
Trace #16 at position 3.750000
$GPZDA,085423.04,09,10,2011,00,00*60
$GPRMC,085423.00,A,4611.978591,N,01258.217260,E,000.9,160.2,091011,0.2,E,A*3C
$GPGGA,085424.00,4611.978357,N,01258.217462,E,1,07,1.4,141.35,M,46.25,M,,*69
$GPGLL,4611.978357,N,01258.217462,E,085424.00,A,A*69
$GPVTG,170.0,T,170.1,M,000.8,N,001.4,K,A*2F
$GPGSV,2,1,08,02,38,079,37,09,19,151,,12,57,076,41,14,28,253,41*7E
$GPGSV,2,2,08,25,76,335,48,29,52,223,45,30,33,290,41,31,25,313,43*7E
$GPGSA,M,3,02,12,14,25,29,30,31,,,,,,2.9,1.4,2.5*3E
Trace #17 at position 4.000000
$GPZDA,085423.04,09,10,2011,00,00*60
$GPRMC,085423.00,A,4611.978591,N,01258.217260,E,000.9,160.2,091011,0.2,E,A*3C
$GPGGA,085424.00,4611.978357,N,01258.217462,E,1,07,1.4,141.35,M,46.25,M,,*69
$GPGLL,4611.978357,N,01258.217462,E,085424.00,A,A*69
$GPVTG,170.0,T,170.1,M,000.8,N,001.4,K,A*2F
$GPGSV,2,1,08,02,38,079,37,09,19,151,,12,57,076,41,14,28,253,41*7E
$GPGSV,2,2,08,25,76,335,48,29,52,223,45,30,33,290,41,31,25,313,43*7E
$GPGSA,M,3,02,12,14,25,29,30,31,,,,,,2.9,1.4,2.5*3E
Trace #18 at position 4.250000
$GPZDA,085423.04,09,10,2011,00,00*60
$GPRMC,085423.00,A,4611.978591,N,01258.217260,E,000.9,160.2,091011,0.2,E,A*3C
$GPGGA,085424.00,4611.978357,N,01258.217462,E,1,07,1.4,141.35,M,46.25,M,,*69
$GPGLL,4611.978357,N,01258.217462,E,085424.00,A,A*69
$GPVTG,170.0,T,170.1,M,000.8,N,001.4,K,A*2F
$GPGSV,2,1,08,02,38,079,37,09,19,151,,12,57,076,41,14,28,253,41*7E
$GPGSV,2,2,08,25,76,335,48,29,52,223,45,30,33,290,41,31,25,313,43*7E
$GPGSA,M,3,02,12,14,25,29,30,31,,,,,,2.9,1.4,2.5*3E
Trace #19 at position 4.500000
$GPZDA,085423.04,09,10,2011,00,00*60
$GPRMC,085423.00,A,4611.978591,N,01258.217260,E,000.9,160.2,091011,0.2,E,A*3C
$GPGGA,085424.00,4611.978357,N,01258.217462,E,1,07,1.4,141.35,M,46.25,M,,*69
$GPGLL,4611.978357,N,01258.217462,E,085424.00,A,A*69
$GPVTG,170.0,T,170.1,M,000.8,N,001.4,K,A*2F
$GPGSV,2,1,08,02,38,079,37,09,19,151,,12,57,076,41,14,28,253,41*7E
$GPGSV,2,2,08,25,76,335,48,29,52,223,45,30,33,290,41,31,25,313,43*7E
$GPGSA,M,3,02,12,14,25,29,30,31,,,,,,2.9,1.4,2.5*3E
Trace #20 at position 4.750000
$GPZDA,085424.04,09,10,2011,00,00*67
$GPRMC,085424.00,A,4611.978357,N,01258.217462,E,000.8,170.0,091011,0.2,E,A*31
$GPGGA,085425.00,4611.978194,N,01258.217671,E,1,07,1.4,141.23,M,46.25,M,,*62
$GPGLL,4611.978194,N,01258.217671,E,085425.00,A,A*65
$GPVTG,125.5,T,125.6,M,000.5,N,001.0,K,A*24
$GPGSV,2,1,08,02,38,079,40,09,19,151,,12,57,076,41,14,28,253,42*7D
$GPGSV,2,2,08,25,76,335,48,29,52,223,43,30,33,290,42,31,25,313,41*79
$GPGSA,M,3,02,12,14,25,29,30,31,,,,,,2.9,1.4,2.5*3E
Trace #21 at position 5.000000
$GPZDA,085424.04,09,10,2011,00,00*67
$GPRMC,085424.00,A,4611.978357,N,01258.217462,E,000.8,170.0,091011,0.2,E,A*31
$GPGGA,085425.00,4611.978194,N,01258.217671,E,1,07,1.4,141.23,M,46.25,M,,*62
$GPGLL,4611.978194,N,01258.217671,E,085425.00,A,A*65
$GPVTG,125.5,T,125.6,M,000.5,N,001.0,K,A*24
$GPGSV,2,1,08,02,38,079,40,09,19,151,,12,57,076,41,14,28,253,42*7D
$GPGSV,2,2,08,25,76,335,48,29,52,223,43,30,33,290,42,31,25,313,41*79
$GPGSA,M,3,02,12,14,25,29,30,31,,,,,,2.9,1.4,2.5*3E
Trace #22 at position 5.250000
$GPZDA,085424.04,09,10,2011,00,00*67
$GPRMC,085424.00,A,4611.978357,N,01258.217462,E,000.8,170.0,091011,0.2,E,A*31
$GPGGA,085425.00,4611.978194,N,01258.217671,E,1,07,1.4,141.23,M,46.25,M,,*62
$GPGLL,4611.978194,N,01258.217671,E,085425.00,A,A*65
$GPVTG,125.5,T,125.6,M,000.5,N,001.0,K,A*24
$GPGSV,2,1,08,02,38,079,40,09,19,151,,12,57,076,41,14,28,253,42*7D
$GPGSV,2,2,08,25,76,335,48,29,52,223,43,30,33,290,42,31,25,313,41*79
$GPGSA,M,3,02,12,14,25,29,30,31,,,,,,2.9,1.4,2.5*3E
Trace #23 at position 5.500000
$GPZDA,085424.04,09,10,2011,00,00*67
$GPRMC,085424.00,A,4611.978357,N,01258.217462,E,000.8,170.0,091011,0.2,E,A*31
$GPGGA,085425.00,4611.978194,N,01258.217671,E,1,07,1.4,141.23,M,46.25,M,,*62
$GPGLL,4611.978194,N,01258.217671,E,085425.00,A,A*65
$GPVTG,125.5,T,125.6,M,000.5,N,001.0,K,A*24
$GPGSV,2,1,08,02,38,079,40,09,19,151,,12,57,076,41,14,28,253,42*7D
$GPGSV,2,2,08,25,76,335,48,29,52,223,43,30,33,290,42,31,25,313,41*79
$GPGSA,M,3,02,12,14,25,29,30,31,,,,,,2.9,1.4,2.5*3E
Trace #24 at position 5.750000
$GPZDA,085425.04,09,10,2011,00,00*66
$GPRMC,085425.00,A,4611.978194,N,01258.217671,E,000.5,125.5,091011,0.2,E,A*35
$GPGGA,085426.00,4611.978006,N,01258.217904,E,1,07,1.4,141.18,M,46.25,M,,*6E
$GPGLL,4611.978006,N,01258.217904,E,085426.00,A,A*61
$GPVTG,158.6,T,158.7,M,000.9,N,001.7,K,A*2D
$GPGSV,2,1,08,02,38,079,40,09,19,151,,12,57,077,40,14,28,253,42*7D
$GPGSV,2,2,08,25,76,336,47,29,52,223,42,30,33,290,41,31,25,313,42*74
$GPGSA,M,3,02,12,14,25,29,30,31,,,,,,2.9,1.4,2.5*3E
Trace #25 at position 6.000000
$GPZDA,085425.04,09,10,2011,00,00*66
$GPRMC,085425.00,A,4611.978194,N,01258.217671,E,000.5,125.5,091011,0.2,E,A*35
$GPGGA,085426.00,4611.978006,N,01258.217904,E,1,07,1.4,141.18,M,46.25,M,,*6E
$GPGLL,4611.978006,N,01258.217904,E,085426.00,A,A*61
$GPVTG,158.6,T,158.7,M,000.9,N,001.7,K,A*2D
$GPGSV,2,1,08,02,38,079,40,09,19,151,,12,57,077,40,14,28,253,42*7D
$GPGSV,2,2,08,25,76,336,47,29,52,223,42,30,33,290,41,31,25,313,42*74
$GPGSA,M,3,02,12,14,25,29,30,31,,,,,,2.9,1.4,2.5*3E
Trace #26 at position 6.250000
$GPZDA,085425.04,09,10,2011,00,00*66
$GPRMC,085425.00,A,4611.978194,N,01258.217671,E,000.5,125.5,091011,0.2,E,A*35
$GPGGA,085426.00,4611.978006,N,01258.217904,E,1,07,1.4,141.18,M,46.25,M,,*6E
$GPGLL,4611.978006,N,01258.217904,E,085426.00,A,A*61
$GPVTG,158.6,T,158.7,M,000.9,N,001.7,K,A*2D
$GPGSV,2,1,08,02,38,079,40,09,19,151,,12,57,077,40,14,28,253,42*7D
$GPGSV,2,2,08,25,76,336,47,29,52,223,42,30,33,290,41,31,25,313,42*74
$GPGSA,M,3,02,12,14,25,29,30,31,,,,,,2.9,1.4,2.5*3E
Trace #27 at position 6.500000
$GPZDA,085426.04,09,10,2011,00,00*65
$GPRMC,085426.00,A,4611.978006,N,01258.217904,E,000.9,158.6,091011,0.2,E,A*34
$GPGGA,085427.00,4611.977699,N,01258.218221,E,1,07,1.4,141.12,M,46.25,M,,*69
$GPGLL,4611.977699,N,01258.218221,E,085427.00,A,A*6C
$GPVTG,141.0,T,141.1,M,001.5,N,002.9,K,A*2D
$GPGSV,2,1,08,02,38,079,39,09,19,151,,12,57,077,39,14,28,253,41*7E
$GPGSV,2,2,08,25,76,336,47,29,52,223,41,30,33,290,41,31,25,313,40*75
$GPGSA,M,3,02,12,14,25,29,30,31,,,,,,2.9,1.4,2.5*3E
Trace #28 at position 6.750000
$GPZDA,085426.04,09,10,2011,00,00*65
$GPRMC,085426.00,A,4611.978006,N,01258.217904,E,000.9,158.6,091011,0.2,E,A*34
$GPGGA,085427.00,4611.977699,N,01258.218221,E,1,07,1.4,141.12,M,46.25,M,,*69
$GPGLL,4611.977699,N,01258.218221,E,085427.00,A,A*6C
$GPVTG,141.0,T,141.1,M,001.5,N,002.9,K,A*2D
$GPGSV,2,1,08,02,38,079,39,09,19,151,,12,57,077,39,14,28,253,41*7E
$GPGSV,2,2,08,25,76,336,47,29,52,223,41,30,33,290,41,31,25,313,40*75
$GPGSA,M,3,02,12,14,25,29,30,31,,,,,,2.9,1.4,2.5*3E
Trace #29 at position 7.000000
$GPZDA,085426.04,09,10,2011,00,00*65
$GPRMC,085426.00,A,4611.978006,N,01258.217904,E,000.9,158.6,091011,0.2,E,A*34
$GPGGA,085427.00,4611.977699,N,01258.218221,E,1,07,1.4,141.12,M,46.25,M,,*69
$GPGLL,4611.977699,N,01258.218221,E,085427.00,A,A*6C
$GPVTG,141.0,T,141.1,M,001.5,N,002.9,K,A*2D
$GPGSV,2,1,08,02,38,079,39,09,19,151,,12,57,077,39,14,28,253,41*7E
$GPGSV,2,2,08,25,76,336,47,29,52,223,41,30,33,290,41,31,25,313,40*75
$GPGSA,M,3,02,12,14,25,29,30,31,,,,,,2.9,1.4,2.5*3E
Trace #30 at position 7.250000
$GPZDA,085426.04,09,10,2011,00,00*65
$GPRMC,085426.00,A,4611.978006,N,01258.217904,E,000.9,158.6,091011,0.2,E,A*34
$GPGGA,085427.00,4611.977699,N,01258.218221,E,1,07,1.4,141.12,M,46.25,M,,*69
$GPGLL,4611.977699,N,01258.218221,E,085427.00,A,A*6C
$GPVTG,141.0,T,141.1,M,001.5,N,002.9,K,A*2D
$GPGSV,2,1,08,02,38,079,39,09,19,151,,12,57,077,39,14,28,253,41*7E
$GPGSV,2,2,08,25,76,336,47,29,52,223,41,30,33,290,41,31,25,313,40*75
$GPGSA,M,3,02,12,14,25,29,30,31,,,,,,2.9,1.4,2.5*3E
Trace #31 at position 7.500000
$GPZDA,085427.04,09,10,2011,00,00*64
$GPRMC,085427.00,A,4611.977699,N,01258.218221,E,001.5,141.0,091011,0.2,E,A*3A
$GPGGA,085428.00,4611.977218,N,01258.218519,E,1,07,1.4,141.02,M,46.25,M,,*66
$GPGLL,4611.977218,N,01258.218519,E,085428.00,A,A*62
$GPVTG,171.2,T,171.4,M,002.2,N,004.0,K,A*21
$GPGSV,2,1,08,02,38,079,41,09,19,151,,12,57,077,42,14,28,253,42*7E
$GPGSV,2,2,08,25,76,336,48,29,52,223,43,30,33,290,42,31,25,313,42*79
$GPGSA,M,3,02,12,14,25,29,30,31,,,,,,2.9,1.4,2.5*3E
Trace #32 at position 7.750000
$GPZDA,085427.04,09,10,2011,00,00*64
$GPRMC,085427.00,A,4611.977699,N,01258.218221,E,001.5,141.0,091011,0.2,E,A*3A
$GPGGA,085428.00,4611.977218,N,01258.218519,E,1,07,1.4,141.02,M,46.25,M,,*66
$GPGLL,4611.977218,N,01258.218519,E,085428.00,A,A*62
$GPVTG,171.2,T,171.4,M,002.2,N,004.0,K,A*21
$GPGSV,2,1,08,02,38,079,41,09,19,151,,12,57,077,42,14,28,253,42*7E
$GPGSV,2,2,08,25,76,336,48,29,52,223,43,30,33,290,42,31,25,313,42*79
$GPGSA,M,3,02,12,14,25,29,30,31,,,,,,2.9,1.4,2.5*3E
Trace #33 at position 8.000000
$GPZDA,085427.04,09,10,2011,00,00*64
$GPRMC,085427.00,A,4611.977699,N,01258.218221,E,001.5,141.0,091011,0.2,E,A*3A
$GPGGA,085428.00,4611.977218,N,01258.218519,E,1,07,1.4,141.02,M,46.25,M,,*66
$GPGLL,4611.977218,N,01258.218519,E,085428.00,A,A*62
$GPVTG,171.2,T,171.4,M,002.2,N,004.0,K,A*21
$GPGSV,2,1,08,02,38,079,41,09,19,151,,12,57,077,42,14,28,253,42*7E
$GPGSV,2,2,08,25,76,336,48,29,52,223,43,30,33,290,42,31,25,313,42*79
$GPGSA,M,3,02,12,14,25,29,30,31,,,,,,2.9,1.4,2.5*3E
Trace #34 at position 8.250000
$GPZDA,085427.04,09,10,2011,00,00*64
$GPRMC,085427.00,A,4611.977699,N,01258.218221,E,001.5,141.0,091011,0.2,E,A*3A
$GPGGA,085428.00,4611.977218,N,01258.218519,E,1,07,1.4,141.02,M,46.25,M,,*66
$GPGLL,4611.977218,N,01258.218519,E,085428.00,A,A*62
$GPVTG,171.2,T,171.4,M,002.2,N,004.0,K,A*21
$GPGSV,2,1,08,02,38,079,41,09,19,151,,12,57,077,42,14,28,253,42*7E
$GPGSV,2,2,08,25,76,336,48,29,52,223,43,30,33,290,42,31,25,313,42*79
$GPGSA,M,3,02,12,14,25,29,30,31,,,,,,2.9,1.4,2.5*3E
Trace #35 at position 8.500000
$GPZDA,085428.04,09,10,2011,00,00*6B
$GPRMC,085428.00,A,4611.977218,N,01258.218519,E,002.2,171.2,091011,0.2,E,A*31
$GPGGA,085429.00,4611.976744,N,01258.218842,E,1,07,1.4,141.00,M,46.25,M,,*6B
$GPGLL,4611.976744,N,01258.218842,E,085429.00,A,A*6D
$GPVTG,135.0,T,135.1,M,001.6,N,003.1,K,A*27
$GPGSV,2,1,08,02,38,079,40,09,19,151,,12,57,077,40,14,28,253,42*7D
$GPGSV,2,2,08,25,76,336,48,29,52,223,42,30,33,290,42,31,25,313,40*7A
$GPGSA,M,3,02,12,14,25,29,30,31,,,,,,2.9,1.4,2.5*3E
Trace #36 at position 8.750000
$GPZDA,085428.04,09,10,2011,00,00*6B
$GPRMC,085428.00,A,4611.977218,N,01258.218519,E,002.2,171.2,091011,0.2,E,A*31
$GPGGA,085429.00,4611.976744,N,01258.218842,E,1,07,1.4,141.00,M,46.25,M,,*6B
$GPGLL,4611.976744,N,01258.218842,E,085429.00,A,A*6D
$GPVTG,135.0,T,135.1,M,001.6,N,003.1,K,A*27
$GPGSV,2,1,08,02,38,079,40,09,19,151,,12,57,077,40,14,28,253,42*7D
$GPGSV,2,2,08,25,76,336,48,29,52,223,42,30,33,290,42,31,25,313,40*7A
$GPGSA,M,3,02,12,14,25,29,30,31,,,,,,2.9,1.4,2.5*3E
Trace #37 at position 9.000000
$GPZDA,085428.04,09,10,2011,00,00*6B
$GPRMC,085428.00,A,4611.977218,N,01258.218519,E,002.2,171.2,091011,0.2,E,A*31
$GPGGA,085429.00,4611.976744,N,01258.218842,E,1,07,1.4,141.00,M,46.25,M,,*6B
$GPGLL,4611.976744,N,01258.218842,E,085429.00,A,A*6D
$GPVTG,135.0,T,135.1,M,001.6,N,003.1,K,A*27
$GPGSV,2,1,08,02,38,079,40,09,19,151,,12,57,077,40,14,28,253,42*7D
$GPGSV,2,2,08,25,76,336,48,29,52,223,42,30,33,290,42,31,25,313,40*7A
$GPGSA,M,3,02,12,14,25,29,30,31,,,,,,2.9,1.4,2.5*3E
Trace #38 at position 9.250000
$GPZDA,085428.04,09,10,2011,00,00*6B
$GPRMC,085428.00,A,4611.977218,N,01258.218519,E,002.2,171.2,091011,0.2,E,A*31
$GPGGA,085429.00,4611.976744,N,01258.218842,E,1,07,1.4,141.00,M,46.25,M,,*6B
$GPGLL,4611.976744,N,01258.218842,E,085429.00,A,A*6D
$GPVTG,135.0,T,135.1,M,001.6,N,003.1,K,A*27
$GPGSV,2,1,08,02,38,079,40,09,19,151,,12,57,077,40,14,28,253,42*7D
$GPGSV,2,2,08,25,76,336,48,29,52,223,42,30,33,290,42,31,25,313,40*7A
$GPGSA,M,3,02,12,14,25,29,30,31,,,,,,2.9,1.4,2.5*3E
Trace #39 at position 9.500000
$GPZDA,085429.04,09,10,2011,00,00*6A
$GPRMC,085429.00,A,4611.976744,N,01258.218842,E,001.6,135.0,091011,0.2,E,A*3B
$GPGGA,085430.00,4611.976356,N,01258.219179,E,1,07,1.4,141.04,M,46.25,M,,*60
$GPGLL,4611.976356,N,01258.219179,E,085430.00,A,A*62
$GPVTG,162.8,T,163.0,M,001.6,N,002.9,K,A*26
$GPGSV,2,1,08,02,38,079,39,09,19,151,,12,57,077,41,14,28,253,43*73
$GPGSV,2,2,08,25,76,336,48,29,52,223,42,30,33,290,43,31,25,313,41*7A
$GPGSA,M,3,02,12,14,25,29,30,31,,,,,,2.9,1.4,2.5*3E
Trace #40 at position 9.750000
$GPZDA,085429.04,09,10,2011,00,00*6A
$GPRMC,085429.00,A,4611.976744,N,01258.218842,E,001.6,135.0,091011,0.2,E,A*3B
$GPGGA,085430.00,4611.976356,N,01258.219179,E,1,07,1.4,141.04,M,46.25,M,,*60
$GPGLL,4611.976356,N,01258.219179,E,085430.00,A,A*62
$GPVTG,162.8,T,163.0,M,001.6,N,002.9,K,A*26
$GPGSV,2,1,08,02,38,079,39,09,19,151,,12,57,077,41,14,28,253,43*73
$GPGSV,2,2,08,25,76,336,48,29,52,223,42,30,33,290,43,31,25,313,41*7A
$GPGSA,M,3,02,12,14,25,29,30,31,,,,,,2.9,1.4,2.5*3E
Trace #41 at position 10.000000
$GPZDA,085429.04,09,10,2011,00,00*6A
$GPRMC,085429.00,A,4611.976744,N,01258.218842,E,001.6,135.0,091011,0.2,E,A*3B
$GPGGA,085430.00,4611.976356,N,01258.219179,E,1,07,1.4,141.04,M,46.25,M,,*60
$GPGLL,4611.976356,N,01258.219179,E,085430.00,A,A*62
$GPVTG,162.8,T,163.0,M,001.6,N,002.9,K,A*26
$GPGSV,2,1,08,02,38,079,39,09,19,151,,12,57,077,41,14,28,253,43*73
$GPGSV,2,2,08,25,76,336,48,29,52,223,42,30,33,290,43,31,25,313,41*7A
$GPGSA,M,3,02,12,14,25,29,30,31,,,,,,2.9,1.4,2.5*3E
Trace #42 at position 10.250000
$GPZDA,085430.04,09,10,2011,00,00*62
$GPRMC,085430.00,A,4611.976356,N,01258.219179,E,001.6,162.8,091011,0.2,E,A*3E
$GPGGA,085431.00,4611.975950,N,01258.219354,E,1,07,1.4,141.10,M,46.25,M,,*66
$GPGLL,4611.975950,N,01258.219354,E,085431.00,A,A*61
$GPVTG,163.7,T,163.9,M,001.3,N,002.4,K,A*29
$GPGSV,2,1,08,02,38,079,39,09,19,151,,12,57,077,40,14,28,253,42*73
$GPGSV,2,2,08,25,76,336,48,29,52,223,43,30,33,290,42,31,25,313,41*7A
$GPGSA,M,3,02,12,14,25,29,30,31,,,,,,2.9,1.4,2.5*3E
Trace #43 at position 10.500000
$GPZDA,085430.04,09,10,2011,00,00*62
$GPRMC,085430.00,A,4611.976356,N,01258.219179,E,001.6,162.8,091011,0.2,E,A*3E
$GPGGA,085431.00,4611.975950,N,01258.219354,E,1,07,1.4,141.10,M,46.25,M,,*66
$GPGLL,4611.975950,N,01258.219354,E,085431.00,A,A*61
$GPVTG,163.7,T,163.9,M,001.3,N,002.4,K,A*29
$GPGSV,2,1,08,02,38,079,39,09,19,151,,12,57,077,40,14,28,253,42*73
$GPGSV,2,2,08,25,76,336,48,29,52,223,43,30,33,290,42,31,25,313,41*7A
$GPGSA,M,3,02,12,14,25,29,30,31,,,,,,2.9,1.4,2.5*3E
Trace #44 at position 10.750000
$GPZDA,085430.04,09,10,2011,00,00*62
$GPRMC,085430.00,A,4611.976356,N,01258.219179,E,001.6,162.8,091011,0.2,E,A*3E
$GPGGA,085431.00,4611.975950,N,01258.219354,E,1,07,1.4,141.10,M,46.25,M,,*66
$GPGLL,4611.975950,N,01258.219354,E,085431.00,A,A*61
$GPVTG,163.7,T,163.9,M,001.3,N,002.4,K,A*29
$GPGSV,2,1,08,02,38,079,39,09,19,151,,12,57,077,40,14,28,253,42*73
$GPGSV,2,2,08,25,76,336,48,29,52,223,43,30,33,290,42,31,25,313,41*7A
$GPGSA,M,3,02,12,14,25,29,30,31,,,,,,2.9,1.4,2.5*3E
Trace #45 at position 11.000000
$GPZDA,085430.04,09,10,2011,00,00*62
$GPRMC,085430.00,A,4611.976356,N,01258.219179,E,001.6,162.8,091011,0.2,E,A*3E
$GPGGA,085431.00,4611.975950,N,01258.219354,E,1,07,1.4,141.10,M,46.25,M,,*66
$GPGLL,4611.975950,N,01258.219354,E,085431.00,A,A*61
$GPVTG,163.7,T,163.9,M,001.3,N,002.4,K,A*29
$GPGSV,2,1,08,02,38,079,39,09,19,151,,12,57,077,40,14,28,253,42*73
$GPGSV,2,2,08,25,76,336,48,29,52,223,43,30,33,290,42,31,25,313,41*7A
$GPGSA,M,3,02,12,14,25,29,30,31,,,,,,2.9,1.4,2.5*3E
Trace #46 at position 11.250000
$GPZDA,085431.04,09,10,2011,00,00*63
$GPRMC,085431.00,A,4611.975950,N,01258.219354,E,001.3,163.7,091011,0.2,E,A*36
$GPGGA,085432.00,4611.975549,N,01258.219555,E,1,07,1.4,141.16,M,46.25,M,,*60
$GPGLL,4611.975549,N,01258.219555,E,085432.00,A,A*61
$GPVTG,157.9,T,158.1,M,001.6,N,002.9,K,A*28
$GPGSV,2,1,08,02,38,079,41,09,19,151,,12,57,077,42,14,28,253,41*7D
$GPGSV,2,2,08,25,76,336,48,29,52,223,44,30,33,290,41,31,25,313,41*7E
$GPGSA,M,3,02,12,14,25,29,30,31,,,,,,2.9,1.4,2.5*3E
Trace #47 at position 11.500000
$GPZDA,085431.04,09,10,2011,00,00*63
$GPRMC,085431.00,A,4611.975950,N,01258.219354,E,001.3,163.7,091011,0.2,E,A*36
$GPGGA,085432.00,4611.975549,N,01258.219555,E,1,07,1.4,141.16,M,46.25,M,,*60
$GPGLL,4611.975549,N,01258.219555,E,085432.00,A,A*61
$GPVTG,157.9,T,158.1,M,001.6,N,002.9,K,A*28
$GPGSV,2,1,08,02,38,079,41,09,19,151,,12,57,077,42,14,28,253,41*7D
$GPGSV,2,2,08,25,76,336,48,29,52,223,44,30,33,290,41,31,25,313,41*7E
$GPGSA,M,3,02,12,14,25,29,30,31,,,,,,2.9,1.4,2.5*3E
Trace #48 at position 11.750000
$GPZDA,085431.04,09,10,2011,00,00*63
$GPRMC,085431.00,A,4611.975950,N,01258.219354,E,001.3,163.7,091011,0.2,E,A*36
$GPGGA,085432.00,4611.975549,N,01258.219555,E,1,07,1.4,141.16,M,46.25,M,,*60
$GPGLL,4611.975549,N,01258.219555,E,085432.00,A,A*61
$GPVTG,157.9,T,158.1,M,001.6,N,002.9,K,A*28
$GPGSV,2,1,08,02,38,079,41,09,19,151,,12,57,077,42,14,28,253,41*7D
$GPGSV,2,2,08,25,76,336,48,29,52,223,44,30,33,290,41,31,25,313,41*7E
$GPGSA,M,3,02,12,14,25,29,30,31,,,,,,2.9,1.4,2.5*3E
Trace #49 at position 12.000000
$GPZDA,085431.04,09,10,2011,00,00*63
$GPRMC,085431.00,A,4611.975950,N,01258.219354,E,001.3,163.7,091011,0.2,E,A*36
$GPGGA,085432.00,4611.975549,N,01258.219555,E,1,07,1.4,141.16,M,46.25,M,,*60
$GPGLL,4611.975549,N,01258.219555,E,085432.00,A,A*61
$GPVTG,157.9,T,158.1,M,001.6,N,002.9,K,A*28
$GPGSV,2,1,08,02,38,079,41,09,19,151,,12,57,077,42,14,28,253,41*7D
$GPGSV,2,2,08,25,76,336,48,29,52,223,44,30,33,290,41,31,25,313,41*7E
$GPGSA,M,3,02,12,14,25,29,30,31,,,,,,2.9,1.4,2.5*3E
Trace #50 at position 12.250000
$GPZDA,085431.04,09,10,2011,00,00*63
$GPRMC,085431.00,A,4611.975950,N,01258.219354,E,001.3,163.7,091011,0.2,E,A*36
$GPGGA,085432.00,4611.975549,N,01258.219555,E,1,07,1.4,141.16,M,46.25,M,,*60
$GPGLL,4611.975549,N,01258.219555,E,085432.00,A,A*61
$GPVTG,157.9,T,158.1,M,001.6,N,002.9,K,A*28
$GPGSV,2,1,08,02,38,079,41,09,19,151,,12,57,077,42,14,28,253,41*7D
$GPGSV,2,2,08,25,76,336,48,29,52,223,44,30,33,290,41,31,25,313,41*7E
$GPGSA,M,3,02,12,14,25,29,30,31,,,,,,2.9,1.4,2.5*3E
Trace #51 at position 12.500000
$GPZDA,085432.04,09,10,2011,00,00*60
$GPRMC,085432.00,A,4611.975549,N,01258.219555,E,001.6,157.9,091011,0.2,E,A*3A
$GPGGA,085433.00,4611.975065,N,01258.219720,E,1,07,1.4,141.09,M,46.25,M,,*64
$GPGLL,4611.975065,N,01258.219720,E,085433.00,A,A*6B
$GPVTG,174.1,T,174.3,M,001.9,N,003.5,K,A*2F
$GPGSV,2,1,08,02,38,079,42,09,19,151,,12,57,077,42,14,28,253,41*7E
$GPGSV,2,2,08,25,76,336,47,29,52,223,44,30,33,290,43,31,25,313,42*70
$GPGSA,M,3,02,12,14,25,29,30,31,,,,,,2.9,1.4,2.5*3E
Trace #52 at position 12.750000
$GPZDA,085432.04,09,10,2011,00,00*60
$GPRMC,085432.00,A,4611.975549,N,01258.219555,E,001.6,157.9,091011,0.2,E,A*3A
$GPGGA,085433.00,4611.975065,N,01258.219720,E,1,07,1.4,141.09,M,46.25,M,,*64
$GPGLL,4611.975065,N,01258.219720,E,085433.00,A,A*6B
$GPVTG,174.1,T,174.3,M,001.9,N,003.5,K,A*2F
$GPGSV,2,1,08,02,38,079,42,09,19,151,,12,57,077,42,14,28,253,41*7E
$GPGSV,2,2,08,25,76,336,47,29,52,223,44,30,33,290,43,31,25,313,42*70
$GPGSA,M,3,02,12,14,25,29,30,31,,,,,,2.9,1.4,2.5*3E
Trace #53 at position 13.000000
$GPZDA,085432.04,09,10,2011,00,00*60
$GPRMC,085432.00,A,4611.975549,N,01258.219555,E,001.6,157.9,091011,0.2,E,A*3A
$GPGGA,085433.00,4611.975065,N,01258.219720,E,1,07,1.4,141.09,M,46.25,M,,*64
$GPGLL,4611.975065,N,01258.219720,E,085433.00,A,A*6B
$GPVTG,174.1,T,174.3,M,001.9,N,003.5,K,A*2F
$GPGSV,2,1,08,02,38,079,42,09,19,151,,12,57,077,42,14,28,253,41*7E
$GPGSV,2,2,08,25,76,336,47,29,52,223,44,30,33,290,43,31,25,313,42*70
$GPGSA,M,3,02,12,14,25,29,30,31,,,,,,2.9,1.4,2.5*3E
Trace #54 at position 13.250000
$GPZDA,085432.04,09,10,2011,00,00*60
$GPRMC,085432.00,A,4611.975549,N,01258.219555,E,001.6,157.9,091011,0.2,E,A*3A
$GPGGA,085433.00,4611.975065,N,01258.219720,E,1,07,1.4,141.09,M,46.25,M,,*64
$GPGLL,4611.975065,N,01258.219720,E,085433.00,A,A*6B
$GPVTG,174.1,T,174.3,M,001.9,N,003.5,K,A*2F
$GPGSV,2,1,08,02,38,079,42,09,19,151,,12,57,077,42,14,28,253,41*7E
$GPGSV,2,2,08,25,76,336,47,29,52,223,44,30,33,290,43,31,25,313,42*70
$GPGSA,M,3,02,12,14,25,29,30,31,,,,,,2.9,1.4,2.5*3E
Trace #55 at position 13.500000
$GPZDA,085433.04,09,10,2011,00,00*61
$GPRMC,085433.00,A,4611.975065,N,01258.219720,E,001.9,174.1,091011,0.2,E,A*36
$GPGGA,085434.00,4611.974409,N,01258.219967,E,1,07,1.4,140.90,M,46.25,M,,*60
$GPGLL,4611.974409,N,01258.219967,E,085434.00,A,A*6E
$GPVTG,160.6,T,160.7,M,003.0,N,005.5,K,A*21
$GPGSV,2,1,08,02,38,079,40,09,19,151,,12,57,077,42,14,28,253,41*7C
$GPGSV,2,2,08,25,76,336,47,29,52,223,43,30,33,290,43,31,25,313,41*74
$GPGSA,M,3,02,12,14,25,29,30,31,,,,,,2.9,1.4,2.5*3E
Trace #56 at position 13.750000
$GPZDA,085433.04,09,10,2011,00,00*61
$GPRMC,085433.00,A,4611.975065,N,01258.219720,E,001.9,174.1,091011,0.2,E,A*36
$GPGGA,085434.00,4611.974409,N,01258.219967,E,1,07,1.4,140.90,M,46.25,M,,*60
$GPGLL,4611.974409,N,01258.219967,E,085434.00,A,A*6E
$GPVTG,160.6,T,160.7,M,003.0,N,005.5,K,A*21
$GPGSV,2,1,08,02,38,079,40,09,19,151,,12,57,077,42,14,28,253,41*7C
$GPGSV,2,2,08,25,76,336,47,29,52,223,43,30,33,290,43,31,25,313,41*74
$GPGSA,M,3,02,12,14,25,29,30,31,,,,,,2.9,1.4,2.5*3E
Trace #57 at position 14.000000
$GPZDA,085433.04,09,10,2011,00,00*61
$GPRMC,085433.00,A,4611.975065,N,01258.219720,E,001.9,174.1,091011,0.2,E,A*36
$GPGGA,085434.00,4611.974409,N,01258.219967,E,1,07,1.4,140.90,M,46.25,M,,*60
$GPGLL,4611.974409,N,01258.219967,E,085434.00,A,A*6E
$GPVTG,160.6,T,160.7,M,003.0,N,005.5,K,A*21
$GPGSV,2,1,08,02,38,079,40,09,19,151,,12,57,077,42,14,28,253,41*7C
$GPGSV,2,2,08,25,76,336,47,29,52,223,43,30,33,290,43,31,25,313,41*74
$GPGSA,M,3,02,12,14,25,29,30,31,,,,,,2.9,1.4,2.5*3E
Trace #58 at position 14.250000
$GPZDA,085433.04,09,10,2011,00,00*61
$GPRMC,085433.00,A,4611.975065,N,01258.219720,E,001.9,174.1,091011,0.2,E,A*36
$GPGGA,085434.00,4611.974409,N,01258.219967,E,1,07,1.4,140.90,M,46.25,M,,*60
$GPGLL,4611.974409,N,01258.219967,E,085434.00,A,A*6E
$GPVTG,160.6,T,160.7,M,003.0,N,005.5,K,A*21
$GPGSV,2,1,08,02,38,079,40,09,19,151,,12,57,077,42,14,28,253,41*7C
$GPGSV,2,2,08,25,76,336,47,29,52,223,43,30,33,290,43,31,25,313,41*74
$GPGSA,M,3,02,12,14,25,29,30,31,,,,,,2.9,1.4,2.5*3E
Trace #59 at position 14.500000
$GPZDA,085434.04,09,10,2011,00,00*66
$GPRMC,085434.00,A,4611.974409,N,01258.219967,E,003.0,160.6,091011,0.2,E,A*3A
$GPGGA,085435.00,4611.973783,N,01258.220378,E,1,07,1.4,140.77,M,46.25,M,,*60
$GPGLL,4611.973783,N,01258.220378,E,085435.00,A,A*67
$GPVTG,148.5,T,148.7,M,002.1,N,004.0,K,A*26
$GPGSV,2,1,08,02,38,079,41,09,19,151,,12,57,077,41,14,28,253,42*7D
$GPGSV,2,2,08,25,76,336,47,29,52,223,43,30,33,290,43,31,25,313,41*74
$GPGSA,M,3,02,12,14,25,29,30,31,,,,,,2.9,1.4,2.5*3E
Trace #60 at position 14.750000
$GPZDA,085434.04,09,10,2011,00,00*66
$GPRMC,085434.00,A,4611.974409,N,01258.219967,E,003.0,160.6,091011,0.2,E,A*3A
$GPGGA,085435.00,4611.973783,N,01258.220378,E,1,07,1.4,140.77,M,46.25,M,,*60
$GPGLL,4611.973783,N,01258.220378,E,085435.00,A,A*67
$GPVTG,148.5,T,148.7,M,002.1,N,004.0,K,A*26
$GPGSV,2,1,08,02,38,079,41,09,19,151,,12,57,077,41,14,28,253,42*7D
$GPGSV,2,2,08,25,76,336,47,29,52,223,43,30,33,290,43,31,25,313,41*74
$GPGSA,M,3,02,12,14,25,29,30,31,,,,,,2.9,1.4,2.5*3E
Trace #61 at position 15.000000
$GPZDA,085434.04,09,10,2011,00,00*66
$GPRMC,085434.00,A,4611.974409,N,01258.219967,E,003.0,160.6,091011,0.2,E,A*3A
$GPGGA,085435.00,4611.973783,N,01258.220378,E,1,07,1.4,140.77,M,46.25,M,,*60
$GPGLL,4611.973783,N,01258.220378,E,085435.00,A,A*67
$GPVTG,148.5,T,148.7,M,002.1,N,004.0,K,A*26
$GPGSV,2,1,08,02,38,079,41,09,19,151,,12,57,077,41,14,28,253,42*7D
$GPGSV,2,2,08,25,76,336,47,29,52,223,43,30,33,290,43,31,25,313,41*74
$GPGSA,M,3,02,12,14,25,29,30,31,,,,,,2.9,1.4,2.5*3E
Trace #62 at position 15.250000
$GPZDA,085434.04,09,10,2011,00,00*66
$GPRMC,085434.00,A,4611.974409,N,01258.219967,E,003.0,160.6,091011,0.2,E,A*3A
$GPGGA,085435.00,4611.973783,N,01258.220378,E,1,07,1.4,140.77,M,46.25,M,,*60
$GPGLL,4611.973783,N,01258.220378,E,085435.00,A,A*67
$GPVTG,148.5,T,148.7,M,002.1,N,004.0,K,A*26
$GPGSV,2,1,08,02,38,079,41,09,19,151,,12,57,077,41,14,28,253,42*7D
$GPGSV,2,2,08,25,76,336,47,29,52,223,43,30,33,290,43,31,25,313,41*74
$GPGSA,M,3,02,12,14,25,29,30,31,,,,,,2.9,1.4,2.5*3E
Trace #63 at position 15.500000
$GPZDA,085434.04,09,10,2011,00,00*66
$GPRMC,085434.00,A,4611.974409,N,01258.219967,E,003.0,160.6,091011,0.2,E,A*3A
$GPGGA,085435.00,4611.973783,N,01258.220378,E,1,07,1.4,140.77,M,46.25,M,,*60
$GPGLL,4611.973783,N,01258.220378,E,085435.00,A,A*67
$GPVTG,148.5,T,148.7,M,002.1,N,004.0,K,A*26
$GPGSV,2,1,08,02,38,079,41,09,19,151,,12,57,077,41,14,28,253,42*7D
$GPGSV,2,2,08,25,76,336,47,29,52,223,43,30,33,290,43,31,25,313,41*74
$GPGSA,M,3,02,12,14,25,29,30,31,,,,,,2.9,1.4,2.5*3E
Trace #64 at position 15.750000
$GPZDA,085435.04,09,10,2011,00,00*67
$GPRMC,085435.00,A,4611.973783,N,01258.220378,E,002.1,148.5,091011,0.2,E,A*3A
$GPGGA,085436.00,4611.973280,N,01258.220590,E,1,07,1.4,140.70,M,46.25,M,,*62
$GPGLL,4611.973280,N,01258.220590,E,085436.00,A,A*62
$GPVTG,179.6,T,179.7,M,001.9,N,003.5,K,A*2C
$GPGSV,2,1,08,02,38,079,41,09,19,151,,12,57,077,42,14,28,253,42*7E
$GPGSV,2,2,08,25,76,336,47,29,52,223,42,30,33,290,43,31,25,313,41*75
$GPGSA,M,3,02,12,14,25,29,30,31,,,,,,2.9,1.4,2.5*3E
Trace #65 at position 16.000000
$GPZDA,085435.04,09,10,2011,00,00*67
$GPRMC,085435.00,A,4611.973783,N,01258.220378,E,002.1,148.5,091011,0.2,E,A*3A
$GPGGA,085436.00,4611.973280,N,01258.220590,E,1,07,1.4,140.70,M,46.25,M,,*62
$GPGLL,4611.973280,N,01258.220590,E,085436.00,A,A*62
$GPVTG,179.6,T,179.7,M,001.9,N,003.5,K,A*2C
$GPGSV,2,1,08,02,38,079,41,09,19,151,,12,57,077,42,14,28,253,42*7E
$GPGSV,2,2,08,25,76,336,47,29,52,223,42,30,33,290,43,31,25,313,41*75
$GPGSA,M,3,02,12,14,25,29,30,31,,,,,,2.9,1.4,2.5*3E
Trace #66 at position 16.250000
$GPZDA,085435.04,09,10,2011,00,00*67
$GPRMC,085435.00,A,4611.973783,N,01258.220378,E,002.1,148.5,091011,0.2,E,A*3A
$GPGGA,085436.00,4611.973280,N,01258.220590,E,1,07,1.4,140.70,M,46.25,M,,*62
$GPGLL,4611.973280,N,01258.220590,E,085436.00,A,A*62
$GPVTG,179.6,T,179.7,M,001.9,N,003.5,K,A*2C
$GPGSV,2,1,08,02,38,079,41,09,19,151,,12,57,077,42,14,28,253,42*7E
$GPGSV,2,2,08,25,76,336,47,29,52,223,42,30,33,290,43,31,25,313,41*75
$GPGSA,M,3,02,12,14,25,29,30,31,,,,,,2.9,1.4,2.5*3E
Trace #67 at position 16.500000
$GPZDA,085435.04,09,10,2011,00,00*67
$GPRMC,085435.00,A,4611.973783,N,01258.220378,E,002.1,148.5,091011,0.2,E,A*3A
$GPGGA,085436.00,4611.973280,N,01258.220590,E,1,07,1.4,140.70,M,46.25,M,,*62
$GPGLL,4611.973280,N,01258.220590,E,085436.00,A,A*62
$GPVTG,179.6,T,179.7,M,001.9,N,003.5,K,A*2C
$GPGSV,2,1,08,02,38,079,41,09,19,151,,12,57,077,42,14,28,253,42*7E
$GPGSV,2,2,08,25,76,336,47,29,52,223,42,30,33,290,43,31,25,313,41*75
$GPGSA,M,3,02,12,14,25,29,30,31,,,,,,2.9,1.4,2.5*3E
Trace #68 at position 16.750000
$GPZDA,085436.04,09,10,2011,00,00*64
$GPRMC,085436.00,A,4611.973280,N,01258.220590,E,001.9,179.6,091011,0.2,E,A*35
$GPGGA,085437.00,4611.972733,N,01258.220734,E,1,07,1.4,140.64,M,46.25,M,,*66
$GPGLL,4611.972733,N,01258.220734,E,085437.00,A,A*63
$GPVTG,161.6,T,161.7,M,002.2,N,004.1,K,A*27
$GPGSV,2,1,08,02,38,079,42,09,19,151,,12,57,077,42,14,28,253,41*7E
$GPGSV,2,2,08,25,76,336,47,29,52,223,43,30,33,290,43,31,25,313,41*74
$GPGSA,M,3,02,12,14,25,29,30,31,,,,,,2.9,1.4,2.5*3E
Trace #69 at position 17.000000
$GPZDA,085436.04,09,10,2011,00,00*64
$GPRMC,085436.00,A,4611.973280,N,01258.220590,E,001.9,179.6,091011,0.2,E,A*35
$GPGGA,085437.00,4611.972733,N,01258.220734,E,1,07,1.4,140.64,M,46.25,M,,*66
$GPGLL,4611.972733,N,01258.220734,E,085437.00,A,A*63
$GPVTG,161.6,T,161.7,M,002.2,N,004.1,K,A*27
$GPGSV,2,1,08,02,38,079,42,09,19,151,,12,57,077,42,14,28,253,41*7E
$GPGSV,2,2,08,25,76,336,47,29,52,223,43,30,33,290,43,31,25,313,41*74
$GPGSA,M,3,02,12,14,25,29,30,31,,,,,,2.9,1.4,2.5*3E
Trace #70 at position 17.250000
$GPZDA,085436.04,09,10,2011,00,00*64
$GPRMC,085436.00,A,4611.973280,N,01258.220590,E,001.9,179.6,091011,0.2,E,A*35
$GPGGA,085437.00,4611.972733,N,01258.220734,E,1,07,1.4,140.64,M,46.25,M,,*66
$GPGLL,4611.972733,N,01258.220734,E,085437.00,A,A*63
$GPVTG,161.6,T,161.7,M,002.2,N,004.1,K,A*27
$GPGSV,2,1,08,02,38,079,42,09,19,151,,12,57,077,42,14,28,253,41*7E
$GPGSV,2,2,08,25,76,336,47,29,52,223,43,30,33,290,43,31,25,313,41*74
$GPGSA,M,3,02,12,14,25,29,30,31,,,,,,2.9,1.4,2.5*3E
Trace #71 at position 17.500000
$GPZDA,085436.04,09,10,2011,00,00*64
$GPRMC,085436.00,A,4611.973280,N,01258.220590,E,001.9,179.6,091011,0.2,E,A*35
$GPGGA,085437.00,4611.972733,N,01258.220734,E,1,07,1.4,140.64,M,46.25,M,,*66
$GPGLL,4611.972733,N,01258.220734,E,085437.00,A,A*63
$GPVTG,161.6,T,161.7,M,002.2,N,004.1,K,A*27
$GPGSV,2,1,08,02,38,079,42,09,19,151,,12,57,077,42,14,28,253,41*7E
$GPGSV,2,2,08,25,76,336,47,29,52,223,43,30,33,290,43,31,25,313,41*74
$GPGSA,M,3,02,12,14,25,29,30,31,,,,,,2.9,1.4,2.5*3E
Trace #72 at position 17.750000
$GPZDA,085437.04,09,10,2011,00,00*65
$GPRMC,085437.00,A,4611.972733,N,01258.220734,E,002.2,161.6,091011,0.2,E,A*35
$GPGGA,085438.00,4611.972161,N,01258.220995,E,1,07,1.4,140.71,M,46.25,M,,*69
$GPGLL,4611.972161,N,01258.220995,E,085438.00,A,A*68
$GPVTG,164.1,T,164.2,M,002.2,N,004.1,K,A*25
$GPGSV,2,1,08,02,38,079,42,09,19,151,,12,57,077,41,14,28,253,41*7D
$GPGSV,2,2,08,25,76,336,47,29,52,223,43,30,33,290,43,31,25,313,41*74
$GPGSA,M,3,02,12,14,25,29,30,31,,,,,,2.9,1.4,2.5*3E
Trace #73 at position 18.000000
$GPZDA,085437.04,09,10,2011,00,00*65
$GPRMC,085437.00,A,4611.972733,N,01258.220734,E,002.2,161.6,091011,0.2,E,A*35
$GPGGA,085438.00,4611.972161,N,01258.220995,E,1,07,1.4,140.71,M,46.25,M,,*69
$GPGLL,4611.972161,N,01258.220995,E,085438.00,A,A*68
$GPVTG,164.1,T,164.2,M,002.2,N,004.1,K,A*25
$GPGSV,2,1,08,02,38,079,42,09,19,151,,12,57,077,41,14,28,253,41*7D
$GPGSV,2,2,08,25,76,336,47,29,52,223,43,30,33,290,43,31,25,313,41*74
$GPGSA,M,3,02,12,14,25,29,30,31,,,,,,2.9,1.4,2.5*3E
Trace #74 at position 18.250000
$GPZDA,085437.04,09,10,2011,00,00*65
$GPRMC,085437.00,A,4611.972733,N,01258.220734,E,002.2,161.6,091011,0.2,E,A*35
$GPGGA,085438.00,4611.972161,N,01258.220995,E,1,07,1.4,140.71,M,46.25,M,,*69
$GPGLL,4611.972161,N,01258.220995,E,085438.00,A,A*68
$GPVTG,164.1,T,164.2,M,002.2,N,004.1,K,A*25
$GPGSV,2,1,08,02,38,079,42,09,19,151,,12,57,077,41,14,28,253,41*7D
$GPGSV,2,2,08,25,76,336,47,29,52,223,43,30,33,290,43,31,25,313,41*74
$GPGSA,M,3,02,12,14,25,29,30,31,,,,,,2.9,1.4,2.5*3E
Trace #75 at position 18.500000
$GPZDA,085437.04,09,10,2011,00,00*65
$GPRMC,085437.00,A,4611.972733,N,01258.220734,E,002.2,161.6,091011,0.2,E,A*35
$GPGGA,085438.00,4611.972161,N,01258.220995,E,1,07,1.4,140.71,M,46.25,M,,*69
$GPGLL,4611.972161,N,01258.220995,E,085438.00,A,A*68
$GPVTG,164.1,T,164.2,M,002.2,N,004.1,K,A*25
$GPGSV,2,1,08,02,38,079,42,09,19,151,,12,57,077,41,14,28,253,41*7D
$GPGSV,2,2,08,25,76,336,47,29,52,223,43,30,33,290,43,31,25,313,41*74
$GPGSA,M,3,02,12,14,25,29,30,31,,,,,,2.9,1.4,2.5*3E
Trace #76 at position 18.750000
$GPZDA,085437.04,09,10,2011,00,00*65
$GPRMC,085437.00,A,4611.972733,N,01258.220734,E,002.2,161.6,091011,0.2,E,A*35
$GPGGA,085438.00,4611.972161,N,01258.220995,E,1,07,1.4,140.71,M,46.25,M,,*69
$GPGLL,4611.972161,N,01258.220995,E,085438.00,A,A*68
$GPVTG,164.1,T,164.2,M,002.2,N,004.1,K,A*25
$GPGSV,2,1,08,02,38,079,42,09,19,151,,12,57,077,41,14,28,253,41*7D
$GPGSV,2,2,08,25,76,336,47,29,52,223,43,30,33,290,43,31,25,313,41*74
$GPGSA,M,3,02,12,14,25,29,30,31,,,,,,2.9,1.4,2.5*3E
Trace #77 at position 19.000000
$GPZDA,085438.04,09,10,2011,00,00*6A
$GPRMC,085438.00,A,4611.972161,N,01258.220995,E,002.2,164.1,091011,0.2,E,A*3C
$GPGGA,085439.00,4611.971547,N,01258.221298,E,1,07,1.4,140.72,M,46.25,M,,*6F
$GPGLL,4611.971547,N,01258.221298,E,085439.00,A,A*6D
$GPVTG,158.8,T,158.9,M,002.6,N,004.8,K,A*2A
$GPGSV,2,1,08,02,38,079,41,09,19,151,,12,57,077,42,14,28,253,42*7E
$GPGSV,2,2,08,25,76,336,48,29,52,223,43,30,33,290,42,31,25,313,43*78
$GPGSA,M,3,02,12,14,25,29,30,31,,,,,,2.9,1.4,2.5*3E
Trace #78 at position 19.250000
$GPZDA,085438.04,09,10,2011,00,00*6A
$GPRMC,085438.00,A,4611.972161,N,01258.220995,E,002.2,164.1,091011,0.2,E,A*3C
$GPGGA,085439.00,4611.971547,N,01258.221298,E,1,07,1.4,140.72,M,46.25,M,,*6F
$GPGLL,4611.971547,N,01258.221298,E,085439.00,A,A*6D
$GPVTG,158.8,T,158.9,M,002.6,N,004.8,K,A*2A
$GPGSV,2,1,08,02,38,079,41,09,19,151,,12,57,077,42,14,28,253,42*7E
$GPGSV,2,2,08,25,76,336,48,29,52,223,43,30,33,290,42,31,25,313,43*78
$GPGSA,M,3,02,12,14,25,29,30,31,,,,,,2.9,1.4,2.5*3E
Trace #79 at position 19.500000
$GPZDA,085438.04,09,10,2011,00,00*6A
$GPRMC,085438.00,A,4611.972161,N,01258.220995,E,002.2,164.1,091011,0.2,E,A*3C
$GPGGA,085439.00,4611.971547,N,01258.221298,E,1,07,1.4,140.72,M,46.25,M,,*6F
$GPGLL,4611.971547,N,01258.221298,E,085439.00,A,A*6D
$GPVTG,158.8,T,158.9,M,002.6,N,004.8,K,A*2A
$GPGSV,2,1,08,02,38,079,41,09,19,151,,12,57,077,42,14,28,253,42*7E
$GPGSV,2,2,08,25,76,336,48,29,52,223,43,30,33,290,42,31,25,313,43*78
$GPGSA,M,3,02,12,14,25,29,30,31,,,,,,2.9,1.4,2.5*3E
Trace #80 at position 19.750000
$GPZDA,085439.04,09,10,2011,00,00*6B
$GPRMC,085439.00,A,4611.971547,N,01258.221298,E,002.6,158.8,091011,0.2,E,A*3B
$GPGGA,085440.00,4611.970921,N,01258.221528,E,1,07,1.4,140.59,M,46.25,M,,*69
$GPGLL,4611.970921,N,01258.221528,E,085440.00,A,A*62
$GPVTG,174.5,T,174.7,M,002.3,N,004.2,K,A*26
$GPGSV,2,1,08,02,38,079,42,09,19,151,,12,57,077,42,14,28,253,42*7D
$GPGSV,2,2,08,25,76,336,48,29,52,223,43,30,33,290,42,31,25,313,41*7A
$GPGSA,M,3,02,12,14,25,29,30,31,,,,,,2.9,1.4,2.5*3E
Trace #81 at position 20.000000
$GPZDA,085439.04,09,10,2011,00,00*6B
$GPRMC,085439.00,A,4611.971547,N,01258.221298,E,002.6,158.8,091011,0.2,E,A*3B
$GPGGA,085440.00,4611.970921,N,01258.221528,E,1,07,1.4,140.59,M,46.25,M,,*69
$GPGLL,4611.970921,N,01258.221528,E,085440.00,A,A*62
$GPVTG,174.5,T,174.7,M,002.3,N,004.2,K,A*26
$GPGSV,2,1,08,02,38,079,42,09,19,151,,12,57,077,42,14,28,253,42*7D
$GPGSV,2,2,08,25,76,336,48,29,52,223,43,30,33,290,42,31,25,313,41*7A
$GPGSA,M,3,02,12,14,25,29,30,31,,,,,,2.9,1.4,2.5*3E
Trace #82 at position 20.250000
$GPZDA,085440.04,09,10,2011,00,00*65
$GPRMC,085440.00,A,4611.970921,N,01258.221528,E,002.3,174.5,091011,0.2,E,A*32
$GPGGA,085441.00,4611.970218,N,01258.221718,E,1,07,1.4,140.34,M,46.25,M,,*63
$GPGLL,4611.970218,N,01258.221718,E,085441.00,A,A*63
$GPVTG,167.2,T,167.3,M,003.1,N,005.8,K,A*2D
$GPGSV,2,1,08,02,38,079,41,09,19,151,,12,57,077,41,14,28,253,42*7D
$GPGSV,2,2,08,25,76,336,47,29,52,223,42,30,33,290,42,31,25,313,42*77
$GPGSA,M,3,02,12,14,25,29,30,31,,,,,,2.9,1.4,2.5*3E
Trace #83 at position 20.500000
$GPZDA,085440.04,09,10,2011,00,00*65
$GPRMC,085440.00,A,4611.970921,N,01258.221528,E,002.3,174.5,091011,0.2,E,A*32
$GPGGA,085441.00,4611.970218,N,01258.221718,E,1,07,1.4,140.34,M,46.25,M,,*63
$GPGLL,4611.970218,N,01258.221718,E,085441.00,A,A*63
$GPVTG,167.2,T,167.3,M,003.1,N,005.8,K,A*2D
$GPGSV,2,1,08,02,38,079,41,09,19,151,,12,57,077,41,14,28,253,42*7D
$GPGSV,2,2,08,25,76,336,47,29,52,223,42,30,33,290,42,31,25,313,42*77
$GPGSA,M,3,02,12,14,25,29,30,31,,,,,,2.9,1.4,2.5*3E
Trace #84 at position 20.750000
$GPZDA,085440.04,09,10,2011,00,00*65
$GPRMC,085440.00,A,4611.970921,N,01258.221528,E,002.3,174.5,091011,0.2,E,A*32
$GPGGA,085441.00,4611.970218,N,01258.221718,E,1,07,1.4,140.34,M,46.25,M,,*63
$GPGLL,4611.970218,N,01258.221718,E,085441.00,A,A*63
$GPVTG,167.2,T,167.3,M,003.1,N,005.8,K,A*2D
$GPGSV,2,1,08,02,38,079,41,09,19,151,,12,57,077,41,14,28,253,42*7D
$GPGSV,2,2,08,25,76,336,47,29,52,223,42,30,33,290,42,31,25,313,42*77
$GPGSA,M,3,02,12,14,25,29,30,31,,,,,,2.9,1.4,2.5*3E
Trace #85 at position 21.000000
$GPZDA,085440.04,09,10,2011,00,00*65
$GPRMC,085440.00,A,4611.970921,N,01258.221528,E,002.3,174.5,091011,0.2,E,A*32
$GPGGA,085441.00,4611.970218,N,01258.221718,E,1,07,1.4,140.34,M,46.25,M,,*63
$GPGLL,4611.970218,N,01258.221718,E,085441.00,A,A*63
$GPVTG,167.2,T,167.3,M,003.1,N,005.8,K,A*2D
$GPGSV,2,1,08,02,38,079,41,09,19,151,,12,57,077,41,14,28,253,42*7D
$GPGSV,2,2,08,25,76,336,47,29,52,223,42,30,33,290,42,31,25,313,42*77
$GPGSA,M,3,02,12,14,25,29,30,31,,,,,,2.9,1.4,2.5*3E
Trace #86 at position 21.250000
$GPZDA,085441.04,09,10,2011,00,00*64
$GPRMC,085441.00,A,4611.970218,N,01258.221718,E,003.1,167.2,091011,0.2,E,A*35
$GPGGA,085442.00,4611.969577,N,01258.222055,E,1,07,1.4,140.16,M,46.25,M,,*6B
$GPGLL,4611.969577,N,01258.222055,E,085442.00,A,A*6B
$GPVTG,151.8,T,152.0,M,002.1,N,004.0,K,A*2F
$GPGSV,2,1,08,02,38,079,40,09,19,151,,12,57,077,40,14,28,253,42*7D
$GPGSV,2,2,08,25,76,336,47,29,52,223,42,30,33,290,42,31,25,313,41*74
$GPGSA,M,3,02,12,14,25,29,30,31,,,,,,2.9,1.4,2.5*3E
Trace #87 at position 21.500000
$GPZDA,085441.04,09,10,2011,00,00*64
$GPRMC,085441.00,A,4611.970218,N,01258.221718,E,003.1,167.2,091011,0.2,E,A*35
$GPGGA,085442.00,4611.969577,N,01258.222055,E,1,07,1.4,140.16,M,46.25,M,,*6B
$GPGLL,4611.969577,N,01258.222055,E,085442.00,A,A*6B
$GPVTG,151.8,T,152.0,M,002.1,N,004.0,K,A*2F
$GPGSV,2,1,08,02,38,079,40,09,19,151,,12,57,077,40,14,28,253,42*7D
$GPGSV,2,2,08,25,76,336,47,29,52,223,42,30,33,290,42,31,25,313,41*74
$GPGSA,M,3,02,12,14,25,29,30,31,,,,,,2.9,1.4,2.5*3E
Trace #88 at position 21.750000
$GPZDA,085441.04,09,10,2011,00,00*64
$GPRMC,085441.00,A,4611.970218,N,01258.221718,E,003.1,167.2,091011,0.2,E,A*35
$GPGGA,085442.00,4611.969577,N,01258.222055,E,1,07,1.4,140.16,M,46.25,M,,*6B
$GPGLL,4611.969577,N,01258.222055,E,085442.00,A,A*6B
$GPVTG,151.8,T,152.0,M,002.1,N,004.0,K,A*2F
$GPGSV,2,1,08,02,38,079,40,09,19,151,,12,57,077,40,14,28,253,42*7D
$GPGSV,2,2,08,25,76,336,47,29,52,223,42,30,33,290,42,31,25,313,41*74
$GPGSA,M,3,02,12,14,25,29,30,31,,,,,,2.9,1.4,2.5*3E
Trace #89 at position 22.000000
$GPZDA,085442.04,09,10,2011,00,00*67
$GPRMC,085442.00,A,4611.969577,N,01258.222055,E,002.1,151.8,091011,0.2,E,A*33
$GPGGA,085443.00,4611.969084,N,01258.222419,E,1,07,1.4,140.20,M,46.25,M,,*6A
$GPGLL,4611.969084,N,01258.222419,E,085443.00,A,A*6F
$GPVTG,154.6,T,154.8,M,002.1,N,003.9,K,A*24
$GPGSV,2,1,08,02,38,079,40,09,19,151,,12,57,077,42,14,28,253,42*7F
$GPGSV,2,2,08,25,76,336,47,29,52,223,42,30,33,290,42,31,25,313,41*74
$GPGSA,M,3,02,12,14,25,29,30,31,,,,,,2.9,1.4,2.5*3E
Trace #90 at position 22.250000
$GPZDA,085442.04,09,10,2011,00,00*67
$GPRMC,085442.00,A,4611.969577,N,01258.222055,E,002.1,151.8,091011,0.2,E,A*33
$GPGGA,085443.00,4611.969084,N,01258.222419,E,1,07,1.4,140.20,M,46.25,M,,*6A
$GPGLL,4611.969084,N,01258.222419,E,085443.00,A,A*6F
$GPVTG,154.6,T,154.8,M,002.1,N,003.9,K,A*24
$GPGSV,2,1,08,02,38,079,40,09,19,151,,12,57,077,42,14,28,253,42*7F
$GPGSV,2,2,08,25,76,336,47,29,52,223,42,30,33,290,42,31,25,313,41*74
$GPGSA,M,3,02,12,14,25,29,30,31,,,,,,2.9,1.4,2.5*3E
Trace #91 at position 22.500000
$GPZDA,085442.04,09,10,2011,00,00*67
$GPRMC,085442.00,A,4611.969577,N,01258.222055,E,002.1,151.8,091011,0.2,E,A*33
$GPGGA,085443.00,4611.969084,N,01258.222419,E,1,07,1.4,140.20,M,46.25,M,,*6A
$GPGLL,4611.969084,N,01258.222419,E,085443.00,A,A*6F
$GPVTG,154.6,T,154.8,M,002.1,N,003.9,K,A*24
$GPGSV,2,1,08,02,38,079,40,09,19,151,,12,57,077,42,14,28,253,42*7F
$GPGSV,2,2,08,25,76,336,47,29,52,223,42,30,33,290,42,31,25,313,41*74
$GPGSA,M,3,02,12,14,25,29,30,31,,,,,,2.9,1.4,2.5*3E
Trace #92 at position 22.750000
$GPZDA,085443.04,09,10,2011,00,00*66
$GPRMC,085443.00,A,4611.969084,N,01258.222419,E,002.1,154.6,091011,0.2,E,A*3C
$GPGGA,085444.00,4611.968649,N,01258.222862,E,1,07,1.4,140.23,M,46.25,M,,*68
$GPGLL,4611.968649,N,01258.222862,E,085444.00,A,A*6E
$GPVTG,133.0,T,133.1,M,002.1,N,003.8,K,A*2A
$GPGSV,2,1,08,02,38,079,40,09,19,151,,12,57,077,42,14,28,253,42*7F
$GPGSV,2,2,08,25,76,336,48,29,52,223,43,30,33,290,42,31,25,313,41*7A
$GPGSA,M,3,02,12,14,25,29,30,31,,,,,,2.9,1.4,2.5*3E
Trace #93 at position 23.000000
$GPZDA,085443.04,09,10,2011,00,00*66
$GPRMC,085443.00,A,4611.969084,N,01258.222419,E,002.1,154.6,091011,0.2,E,A*3C
$GPGGA,085444.00,4611.968649,N,01258.222862,E,1,07,1.4,140.23,M,46.25,M,,*68
$GPGLL,4611.968649,N,01258.222862,E,085444.00,A,A*6E
$GPVTG,133.0,T,133.1,M,002.1,N,003.8,K,A*2A
$GPGSV,2,1,08,02,38,079,40,09,19,151,,12,57,077,42,14,28,253,42*7F
$GPGSV,2,2,08,25,76,336,48,29,52,223,43,30,33,290,42,31,25,313,41*7A
$GPGSA,M,3,02,12,14,25,29,30,31,,,,,,2.9,1.4,2.5*3E
Trace #94 at position 23.250000
$GPZDA,085445.04,09,10,2011,00,00*60
$GPRMC,085445.00,A,4611.968325,N,01258.223117,E,001.0,179.7,091011,0.2,E,A*35
$GPGGA,085446.00,4611.968141,N,01258.223187,E,1,07,1.4,140.32,M,46.25,M,,*66
$GPGLL,4611.968141,N,01258.223187,E,085446.00,A,A*60
$GPVTG,115.9,T,116.1,M,000.6,N,001.1,K,A*2E
$GPGSV,2,1,08,02,38,079,41,09,19,151,,12,57,077,41,14,28,253,42*7D
$GPGSV,2,2,08,25,76,336,48,29,52,223,43,30,33,290,42,31,25,313,40*7B
$GPGSA,M,3,02,12,14,25,29,30,31,,,,,,2.9,1.4,2.5*3E
Trace #95 at position 23.500000
$GPZDA,085445.04,09,10,2011,00,00*60
$GPRMC,085445.00,A,4611.968325,N,01258.223117,E,001.0,179.7,091011,0.2,E,A*35
$GPGGA,085446.00,4611.968141,N,01258.223187,E,1,07,1.4,140.32,M,46.25,M,,*66
$GPGLL,4611.968141,N,01258.223187,E,085446.00,A,A*60
$GPVTG,115.9,T,116.1,M,000.6,N,001.1,K,A*2E
$GPGSV,2,1,08,02,38,079,41,09,19,151,,12,57,077,41,14,28,253,42*7D
$GPGSV,2,2,08,25,76,336,48,29,52,223,43,30,33,290,42,31,25,313,40*7B
$GPGSA,M,3,02,12,14,25,29,30,31,,,,,,2.9,1.4,2.5*3E
Trace #96 at position 23.750000
$GPZDA,085445.04,09,10,2011,00,00*60
$GPRMC,085445.00,A,4611.968325,N,01258.223117,E,001.0,179.7,091011,0.2,E,A*35
$GPGGA,085446.00,4611.968141,N,01258.223187,E,1,07,1.4,140.32,M,46.25,M,,*66
$GPGLL,4611.968141,N,01258.223187,E,085446.00,A,A*60
$GPVTG,115.9,T,116.1,M,000.6,N,001.1,K,A*2E
$GPGSV,2,1,08,02,38,079,41,09,19,151,,12,57,077,41,14,28,253,42*7D
$GPGSV,2,2,08,25,76,336,48,29,52,223,43,30,33,290,42,31,25,313,40*7B
$GPGSA,M,3,02,12,14,25,29,30,31,,,,,,2.9,1.4,2.5*3E
Trace #97 at position 24.000000
$GPZDA,085446.04,09,10,2011,00,00*63
$GPRMC,085446.00,A,4611.968141,N,01258.223187,E,000.6,115.9,091011,0.2,E,A*3C
$GPGGA,085447.00,4611.967867,N,01258.223391,E,1,07,1.4,140.27,M,46.25,M,,*64
$GPGLL,4611.967867,N,01258.223391,E,085447.00,A,A*66
$GPVTG,155.0,T,155.2,M,001.7,N,003.1,K,A*25
$GPGSV,2,1,08,02,38,079,41,09,19,151,,12,57,077,42,14,28,253,41*7D
$GPGSV,2,2,08,25,76,336,48,29,52,223,43,30,33,290,43,31,25,313,40*7A
$GPGSA,M,3,02,12,14,25,29,30,31,,,,,,2.9,1.4,2.5*3E
Trace #98 at position 24.250000
$GPZDA,085448.04,09,10,2011,00,00*6D
$GPRMC,085448.00,A,4611.967399,N,01258.223437,E,001.8,190.7,091011,0.2,E,A*38
$GPGGA,085449.00,4611.966945,N,01258.223482,E,1,07,1.4,140.05,M,46.25,M,,*6F
$GPGLL,4611.966945,N,01258.223482,E,085449.00,A,A*6D
$GPVTG,158.3,T,158.4,M,001.6,N,003.0,K,A*20
$GPGSV,2,1,08,02,38,079,42,09,19,151,,12,57,077,42,14,28,253,41*7E
$GPGSV,2,2,08,25,76,336,48,29,52,223,43,30,33,290,42,31,25,313,40*7B
$GPGSA,M,3,02,12,14,25,29,30,31,,,,,,2.9,1.4,2.5*3E
Trace #99 at position 24.500000
$GPZDA,085449.04,09,10,2011,00,00*6C
$GPRMC,085449.00,A,4611.966945,N,01258.223482,E,001.6,158.3,091011,0.2,E,A*33
$GPGGA,085450.00,4611.966635,N,01258.223596,E,1,07,1.4,140.09,M,46.25,M,,*67
$GPGLL,4611.966635,N,01258.223596,E,085450.00,A,A*69
$GPVTG,181.5,T,181.7,M,000.6,N,001.2,K,A*24
$GPGSV,2,1,08,02,38,078,40,09,19,151,,12,57,077,41,14,28,253,41*7E
$GPGSV,2,2,08,25,76,336,48,29,52,223,44,30,33,290,42,31,25,313,41*7D
$GPGSA,M,3,02,12,14,25,29,30,31,,,,,,2.9,1.4,2.5*3E
Trace #100 at position 24.750000
$GPZDA,085449.04,09,10,2011,00,00*6C
$GPRMC,085449.00,A,4611.966945,N,01258.223482,E,001.6,158.3,091011,0.2,E,A*33
$GPGGA,085450.00,4611.966635,N,01258.223596,E,1,07,1.4,140.09,M,46.25,M,,*67
$GPGLL,4611.966635,N,01258.223596,E,085450.00,A,A*69
$GPVTG,181.5,T,181.7,M,000.6,N,001.2,K,A*24
$GPGSV,2,1,08,02,38,078,40,09,19,151,,12,57,077,41,14,28,253,41*7E
$GPGSV,2,2,08,25,76,336,48,29,52,223,44,30,33,290,42,31,25,313,41*7D
$GPGSA,M,3,02,12,14,25,29,30,31,,,,,,2.9,1.4,2.5*3E
Trace #101 at position 25.000000
$GPZDA,085449.04,09,10,2011,00,00*6C
$GPRMC,085449.00,A,4611.966945,N,01258.223482,E,001.6,158.3,091011,0.2,E,A*33
$GPGGA,085450.00,4611.966635,N,01258.223596,E,1,07,1.4,140.09,M,46.25,M,,*67
$GPGLL,4611.966635,N,01258.223596,E,085450.00,A,A*69
$GPVTG,181.5,T,181.7,M,000.6,N,001.2,K,A*24
$GPGSV,2,1,08,02,38,078,40,09,19,151,,12,57,077,41,14,28,253,41*7E
$GPGSV,2,2,08,25,76,336,48,29,52,223,44,30,33,290,42,31,25,313,41*7D
$GPGSA,M,3,02,12,14,25,29,30,31,,,,,,2.9,1.4,2.5*3E
Trace #102 at position 25.250000
$GPZDA,085449.04,09,10,2011,00,00*6C
$GPRMC,085449.00,A,4611.966945,N,01258.223482,E,001.6,158.3,091011,0.2,E,A*33
$GPGGA,085450.00,4611.966635,N,01258.223596,E,1,07,1.4,140.09,M,46.25,M,,*67
$GPGLL,4611.966635,N,01258.223596,E,085450.00,A,A*69
$GPVTG,181.5,T,181.7,M,000.6,N,001.2,K,A*24
$GPGSV,2,1,08,02,38,078,40,09,19,151,,12,57,077,41,14,28,253,41*7E
$GPGSV,2,2,08,25,76,336,48,29,52,223,44,30,33,290,42,31,25,313,41*7D
$GPGSA,M,3,02,12,14,25,29,30,31,,,,,,2.9,1.4,2.5*3E
Trace #103 at position 25.500000
$GPZDA,085450.04,09,10,2011,00,00*64
$GPRMC,085450.00,A,4611.966635,N,01258.223596,E,000.6,181.5,091011,0.2,E,A*34
$GPGGA,085451.00,4611.966543,N,01258.223590,E,1,07,1.4,140.11,M,46.25,M,,*6B
$GPGLL,4611.966543,N,01258.223590,E,085451.00,A,A*6C
$GPVTG,166.4,T,166.5,M,000.0,N,000.0,K,A*22
$GPGSV,2,1,08,02,38,078,41,09,19,151,,12,57,077,42,14,28,253,42*7F
$GPGSV,2,2,08,25,76,336,47,29,52,223,43,30,33,290,41,31,25,313,41*76
$GPGSA,M,3,02,12,14,25,29,30,31,,,,,,2.9,1.4,2.5*3E
Trace #104 at position 25.750000
$GPZDA,085450.04,09,10,2011,00,00*64
$GPRMC,085450.00,A,4611.966635,N,01258.223596,E,000.6,181.5,091011,0.2,E,A*34
$GPGGA,085451.00,4611.966543,N,01258.223590,E,1,07,1.4,140.11,M,46.25,M,,*6B
$GPGLL,4611.966543,N,01258.223590,E,085451.00,A,A*6C
$GPVTG,166.4,T,166.5,M,000.0,N,000.0,K,A*22
$GPGSV,2,1,08,02,38,078,41,09,19,151,,12,57,077,42,14,28,253,42*7F
$GPGSV,2,2,08,25,76,336,47,29,52,223,43,30,33,290,41,31,25,313,41*76
$GPGSA,M,3,02,12,14,25,29,30,31,,,,,,2.9,1.4,2.5*3E
Trace #105 at position 26.000000
$GPZDA,085450.04,09,10,2011,00,00*64
$GPRMC,085450.00,A,4611.966635,N,01258.223596,E,000.6,181.5,091011,0.2,E,A*34
$GPGGA,085451.00,4611.966543,N,01258.223590,E,1,07,1.4,140.11,M,46.25,M,,*6B
$GPGLL,4611.966543,N,01258.223590,E,085451.00,A,A*6C
$GPVTG,166.4,T,166.5,M,000.0,N,000.0,K,A*22
$GPGSV,2,1,08,02,38,078,41,09,19,151,,12,57,077,42,14,28,253,42*7F
$GPGSV,2,2,08,25,76,336,47,29,52,223,43,30,33,290,41,31,25,313,41*76
$GPGSA,M,3,02,12,14,25,29,30,31,,,,,,2.9,1.4,2.5*3E
Trace #106 at position 26.250000
$GPZDA,085450.04,09,10,2011,00,00*64
$GPRMC,085450.00,A,4611.966635,N,01258.223596,E,000.6,181.5,091011,0.2,E,A*34
$GPGGA,085451.00,4611.966543,N,01258.223590,E,1,07,1.4,140.11,M,46.25,M,,*6B
$GPGLL,4611.966543,N,01258.223590,E,085451.00,A,A*6C
$GPVTG,166.4,T,166.5,M,000.0,N,000.0,K,A*22
$GPGSV,2,1,08,02,38,078,41,09,19,151,,12,57,077,42,14,28,253,42*7F
$GPGSV,2,2,08,25,76,336,47,29,52,223,43,30,33,290,41,31,25,313,41*76
$GPGSA,M,3,02,12,14,25,29,30,31,,,,,,2.9,1.4,2.5*3E
Trace #107 at position 26.500000
$GPZDA,085451.04,09,10,2011,00,00*65
$GPRMC,085451.00,A,4611.966543,N,01258.223590,E,000.0,166.4,091011,0.2,E,A*3F
$GPGGA,085452.00,4611.966366,N,01258.223628,E,1,07,1.4,140.13,M,46.25,M,,*6B
$GPGLL,4611.966366,N,01258.223628,E,085452.00,A,A*6E
$GPVTG,172.2,T,172.4,M,001.2,N,002.2,K,A*26
$GPGSV,2,1,08,02,38,078,41,09,19,151,,12,57,077,41,14,28,253,41*7F
$GPGSV,2,2,08,25,76,336,49,29,52,223,42,30,33,290,43,31,25,313,41*7B
$GPGSA,M,3,02,12,14,25,29,30,31,,,,,,2.9,1.4,2.5*3E
Trace #108 at position 26.750000
$GPZDA,085451.04,09,10,2011,00,00*65
$GPRMC,085451.00,A,4611.966543,N,01258.223590,E,000.0,166.4,091011,0.2,E,A*3F
$GPGGA,085452.00,4611.966366,N,01258.223628,E,1,07,1.4,140.13,M,46.25,M,,*6B
$GPGLL,4611.966366,N,01258.223628,E,085452.00,A,A*6E
$GPVTG,172.2,T,172.4,M,001.2,N,002.2,K,A*26
$GPGSV,2,1,08,02,38,078,41,09,19,151,,12,57,077,41,14,28,253,41*7F
$GPGSV,2,2,08,25,76,336,49,29,52,223,42,30,33,290,43,31,25,313,41*7B
$GPGSA,M,3,02,12,14,25,29,30,31,,,,,,2.9,1.4,2.5*3E
Trace #109 at position 27.000000
$GPZDA,085451.04,09,10,2011,00,00*65
$GPRMC,085451.00,A,4611.966543,N,01258.223590,E,000.0,166.4,091011,0.2,E,A*3F
$GPGGA,085452.00,4611.966366,N,01258.223628,E,1,07,1.4,140.13,M,46.25,M,,*6B
$GPGLL,4611.966366,N,01258.223628,E,085452.00,A,A*6E
$GPVTG,172.2,T,172.4,M,001.2,N,002.2,K,A*26
$GPGSV,2,1,08,02,38,078,41,09,19,151,,12,57,077,41,14,28,253,41*7F
$GPGSV,2,2,08,25,76,336,49,29,52,223,42,30,33,290,43,31,25,313,41*7B
$GPGSA,M,3,02,12,14,25,29,30,31,,,,,,2.9,1.4,2.5*3E
Trace #110 at position 27.250000
$GPZDA,085451.04,09,10,2011,00,00*65
$GPRMC,085451.00,A,4611.966543,N,01258.223590,E,000.0,166.4,091011,0.2,E,A*3F
$GPGGA,085452.00,4611.966366,N,01258.223628,E,1,07,1.4,140.13,M,46.25,M,,*6B
$GPGLL,4611.966366,N,01258.223628,E,085452.00,A,A*6E
$GPVTG,172.2,T,172.4,M,001.2,N,002.2,K,A*26
$GPGSV,2,1,08,02,38,078,41,09,19,151,,12,57,077,41,14,28,253,41*7F
$GPGSV,2,2,08,25,76,336,49,29,52,223,42,30,33,290,43,31,25,313,41*7B
$GPGSA,M,3,02,12,14,25,29,30,31,,,,,,2.9,1.4,2.5*3E
Trace #111 at position 27.500000
$GPZDA,085451.04,09,10,2011,00,00*65
$GPRMC,085451.00,A,4611.966543,N,01258.223590,E,000.0,166.4,091011,0.2,E,A*3F
$GPGGA,085452.00,4611.966366,N,01258.223628,E,1,07,1.4,140.13,M,46.25,M,,*6B
$GPGLL,4611.966366,N,01258.223628,E,085452.00,A,A*6E
$GPVTG,172.2,T,172.4,M,001.2,N,002.2,K,A*26
$GPGSV,2,1,08,02,38,078,41,09,19,151,,12,57,077,41,14,28,253,41*7F
$GPGSV,2,2,08,25,76,336,49,29,52,223,42,30,33,290,43,31,25,313,41*7B
$GPGSA,M,3,02,12,14,25,29,30,31,,,,,,2.9,1.4,2.5*3E
Trace #112 at position 27.750000
$GPZDA,085452.04,09,10,2011,00,00*66
$GPRMC,085452.00,A,4611.966366,N,01258.223628,E,001.2,172.2,091011,0.2,E,A*3D
$GPGGA,085453.00,4611.966138,N,01258.223726,E,1,07,1.4,140.18,M,46.25,M,,*67
$GPGLL,4611.966138,N,01258.223726,E,085453.00,A,A*69
$GPVTG,144.1,T,144.3,M,000.4,N,000.8,K,A*2D
$GPGSV,2,1,08,02,38,078,41,09,19,151,,12,57,077,42,14,28,253,42*7F
$GPGSV,2,2,08,25,76,336,48,29,52,223,43,30,33,290,42,31,25,313,42*79
$GPGSA,M,3,02,12,14,25,29,30,31,,,,,,2.9,1.4,2.5*3E
Trace #113 at position 28.000000
$GPZDA,085452.04,09,10,2011,00,00*66
$GPRMC,085452.00,A,4611.966366,N,01258.223628,E,001.2,172.2,091011,0.2,E,A*3D
$GPGGA,085453.00,4611.966138,N,01258.223726,E,1,07,1.4,140.18,M,46.25,M,,*67
$GPGLL,4611.966138,N,01258.223726,E,085453.00,A,A*69
$GPVTG,144.1,T,144.3,M,000.4,N,000.8,K,A*2D
$GPGSV,2,1,08,02,38,078,41,09,19,151,,12,57,077,42,14,28,253,42*7F
$GPGSV,2,2,08,25,76,336,48,29,52,223,43,30,33,290,42,31,25,313,42*79
$GPGSA,M,3,02,12,14,25,29,30,31,,,,,,2.9,1.4,2.5*3E
Trace #114 at position 28.250000
$GPZDA,085452.04,09,10,2011,00,00*66
$GPRMC,085452.00,A,4611.966366,N,01258.223628,E,001.2,172.2,091011,0.2,E,A*3D
$GPGGA,085453.00,4611.966138,N,01258.223726,E,1,07,1.4,140.18,M,46.25,M,,*67
$GPGLL,4611.966138,N,01258.223726,E,085453.00,A,A*69
$GPVTG,144.1,T,144.3,M,000.4,N,000.8,K,A*2D
$GPGSV,2,1,08,02,38,078,41,09,19,151,,12,57,077,42,14,28,253,42*7F
$GPGSV,2,2,08,25,76,336,48,29,52,223,43,30,33,290,42,31,25,313,42*79
$GPGSA,M,3,02,12,14,25,29,30,31,,,,,,2.9,1.4,2.5*3E
Trace #115 at position 28.500000
$GPZDA,085452.04,09,10,2011,00,00*66
