Trace #1 at position 0.000000
$GPZDA,091014.03,08,10,2011,00,00*63
$GPRMC,091014.00,A,4611.951740,N,01258.218000,E,000.2,331.7,081011,0.2,E,A*3E
$GPGGA,091015.00,4611.951774,N,01258.217984,E,1,05,3.5,139.42,M,46.25,M,,*6F
$GPGLL,4611.951774,N,01258.217984,E,091015.00,A,A*61
$GPVTG,155.4,T,155.6,M,000.1,N,000.1,K,A*21
$GPGSV,2,1,07,02,38,072,47,12,53,083,49,14,25,248,40,25,79,359,43*78
$GPGSV,2,2,07,29,57,226,46,30,38,293,,31,30,312,36,,,,*47
$GPGSA,M,3,02,12,14,25,29,,,,,,,,4.3,3.5,2.5*30
Trace #2 at position 0.250000
$GPZDA,091018.03,08,10,2011,00,00*6F
$GPRMC,091018.00,A,4611.951812,N,01258.217999,E,000.1,162.1,081011,0.2,E,A*3D
$GPGGA,091019.00,4611.951825,N,01258.218000,E,1,05,3.5,139.43,M,46.25,M,,*63
$GPGLL,4611.951825,N,01258.218000,E,091019.00,A,A*6C
$GPVTG,69.0,T,69.2,M,000.0,N,000.0,K,A*21
$GPGSV,2,1,07,02,38,072,47,12,53,083,50,14,25,248,39,25,79,359,42*7F
$GPGSV,2,2,07,29,57,226,45,30,38,293,,31,30,312,34,,,,*46
$GPGSA,M,3,02,12,14,25,29,,,,,,,,4.3,3.5,2.5*30
Trace #3 at position 0.500000
$GPZDA,091019.03,08,10,2011,00,00*6E
$GPRMC,091019.00,A,4611.951825,N,01258.218000,E,000.0,69.0,081011,0.2,E,A*04
$GPGGA,091020.00,4611.951841,N,01258.217999,E,1,05,3.5,139.41,M,46.25,M,,*6F
$GPGLL,4611.951841,N,01258.217999,E,091020.00,A,A*62
$GPVTG,214.1,T,214.3,M,000.0,N,000.0,K,A*21
$GPGSV,2,1,07,02,38,072,49,12,53,083,50,14,25,248,39,25,79,359,45*76
$GPGSV,2,2,07,29,57,226,45,30,38,293,,31,30,312,38,,,,*4A
$GPGSA,M,3,02,12,14,25,29,,,,,,,,4.3,3.5,2.5*30
Trace #4 at position 0.750000
$GPZDA,091021.03,08,10,2011,00,00*65
$GPRMC,091021.00,A,4611.951859,N,01258.217992,E,000.0,315.1,081011,0.2,E,A*30
$GPGGA,091022.00,4611.951885,N,01258.217983,E,1,05,3.5,139.41,M,46.25,M,,*6E
$GPGLL,4611.951885,N,01258.217983,E,091022.00,A,A*63
$GPVTG,333.4,T,333.6,M,000.1,N,000.1,K,A*21
$GPGSV,2,1,07,02,38,072,50,12,53,083,50,14,25,248,39,25,79,000,43*77
$GPGSV,2,2,07,29,57,226,46,30,38,293,,31,30,312,38,,,,*49
$GPGSA,M,3,02,12,14,25,29,,,,,,,,4.3,3.5,2.5*30
Trace #5 at position 1.000000
$GPZDA,091022.03,08,10,2011,00,00*66
$GPRMC,091022.00,A,4611.951885,N,01258.217983,E,000.1,333.4,081011,0.2,E,A*32
$GPGGA,091023.00,4611.951908,N,01258.217985,E,1,05,3.5,139.42,M,46.25,M,,*6E
$GPGLL,4611.951908,N,01258.217985,E,091023.00,A,A*60
$GPVTG,55.9,T,56.1,M,000.0,N,000.1,K,A*29
$GPGSV,2,1,07,02,38,072,48,12,53,083,48,14,25,248,38,25,79,000,44*71
$GPGSV,2,2,07,29,57,226,46,30,38,293,,31,30,312,38,,,,*49
$GPGSA,M,3,02,12,14,25,29,,,,,,,,4.3,3.5,2.5*30
Trace #6 at position 1.250000
$GPZDA,091023.04,08,10,2011,00,00*60
$GPRMC,091023.00,A,4611.951908,N,01258.217985,E,000.0,55.9,081011,0.2,E,A*0E
$GPGGA,091024.00,4611.951935,N,01258.217954,E,1,05,3.5,139.46,M,46.25,M,,*6F
$GPGLL,4611.951935,N,01258.217954,E,091024.00,A,A*65
$GPVTG,292.5,T,292.7,M,000.2,N,000.4,K,A*27
$GPGSV,2,1,07,02,38,072,48,12,53,083,47,14,25,248,40,25,79,000,47*72
$GPGSV,2,2,07,29,57,226,46,30,38,293,,31,30,312,36,,,,*47
$GPGSA,M,3,02,12,14,25,29,,,,,,,,4.3,3.5,2.5*30
Trace #7 at position 1.500000
$GPZDA,091024.03,08,10,2011,00,00*60
$GPRMC,091024.00,A,4611.951935,N,01258.217954,E,000.2,292.5,081011,0.2,E,A*3C
$GPGGA,091025.00,4611.952000,N,01258.217894,E,1,05,3.5,139.49,M,46.25,M,,*60
$GPGLL,4611.952000,N,01258.217894,E,091025.00,A,A*65
$GPVTG,333.4,T,333.6,M,000.3,N,000.6,K,A*24
$GPGSV,2,1,07,02,38,072,47,12,53,083,46,14,25,248,38,25,79,000,46*72
$GPGSV,2,2,07,29,57,226,45,30,38,293,33,31,30,312,36,,,,*44
$GPGSA,M,3,02,12,14,25,29,,,,,,,,4.3,3.5,2.5*30
Trace #8 at position 1.750000
$GPZDA,091026.03,08,10,2011,00,00*62
$GPRMC,091026.00,A,4611.952112,N,01258.217842,E,000.4,336.8,081011,0.2,E,A*32
$GPGGA,091027.00,4611.952212,N,01258.217804,E,1,05,3.5,139.47,M,46.25,M,,*64
$GPGLL,4611.952212,N,01258.217804,E,091027.00,A,A*6F
$GPVTG,340.4,T,340.6,M,000.2,N,000.4,K,A*27
$GPGSV,2,1,07,02,38,072,48,12,53,083,46,14,25,248,40,25,79,000,46*72
$GPGSV,2,2,07,29,57,226,45,30,38,293,39,31,30,312,29,,,,*40
$GPGSA,M,3,02,12,14,25,29,,,,,,,,4.3,3.5,2.5*30
Trace #9 at position 2.000000
$GPZDA,091028.03,08,10,2011,00,00*6C
$GPRMC,091028.00,A,4611.952281,N,01258.217799,E,000.2,354.3,081011,0.2,E,A*35
$GPGGA,091029.00,4611.952447,N,01258.217839,E,1,05,3.5,139.45,M,46.25,M,,*60
$GPGLL,4611.952447,N,01258.217839,E,091029.00,A,A*69
$GPVTG,14.7,T,14.8,M,000.9,N,001.7,K,A*23
$GPGSV,2,1,07,02,38,072,48,12,53,083,46,14,25,248,39,25,79,000,47*7D
$GPGSV,2,2,07,29,57,226,41,30,39,293,33,31,30,312,32,,,,*45
$GPGSA,M,3,02,12,14,25,29,,,,,,,,4.3,3.5,2.5*30
Trace #10 at position 2.250000
$GPZDA,091030.03,08,10,2011,00,00*65
$GPRMC,091030.00,A,4611.952675,N,01258.217842,E,000.8,348.8,081011,0.2,E,A*36
$GPGGA,091031.00,4611.952792,N,01258.217667,E,1,05,3.5,139.34,M,46.25,M,,*61
$GPGLL,4611.952792,N,01258.217667,E,091031.00,A,A*6E
$GPVTG,274.8,T,274.9,M,000.7,N,001.4,K,A*20
$GPGSV,2,1,07,02,38,072,48,12,53,083,47,14,25,248,40,25,79,000,48*7D
$GPGSV,2,2,07,29,57,226,45,30,39,293,36,31,30,312,36,,,,*40
$GPGSA,M,3,02,12,14,25,29,,,,,,,,4.3,3.5,2.5*30
Trace #11 at position 2.500000
$GPZDA,091030.03,08,10,2011,00,00*65
$GPRMC,091030.00,A,4611.952675,N,01258.217842,E,000.8,348.8,081011,0.2,E,A*36
$GPGGA,091031.00,4611.952792,N,01258.217667,E,1,05,3.5,139.34,M,46.25,M,,*61
$GPGLL,4611.952792,N,01258.217667,E,091031.00,A,A*6E
$GPVTG,274.8,T,274.9,M,000.7,N,001.4,K,A*20
$GPGSV,2,1,07,02,38,072,48,12,53,083,47,14,25,248,40,25,79,000,48*7D
$GPGSV,2,2,07,29,57,226,45,30,39,293,36,31,30,312,36,,,,*40
$GPGSA,M,3,02,12,14,25,29,,,,,,,,4.3,3.5,2.5*30
Trace #12 at position 2.750000
$GPZDA,091031.03,08,10,2011,00,00*64
$GPRMC,091031.00,A,4611.952792,N,01258.217667,E,000.7,274.8,081011,0.2,E,A*37
$GPGGA,091032.00,4611.952819,N,01258.217514,E,1,05,3.5,139.39,M,46.25,M,,*64
$GPGLL,4611.952819,N,01258.217514,E,091032.00,A,A*66
$GPVTG,318.2,T,318.3,M,000.2,N,000.4,K,A*24
$GPGSV,2,1,07,02,38,072,48,12,53,083,47,14,25,248,39,25,79,000,48*73
$GPGSV,2,2,07,29,57,226,43,30,39,293,35,31,30,312,38,,,,*4B
$GPGSA,M,3,02,12,14,25,29,,,,,,,,4.3,3.5,2.5*30
Trace #13 at position 3.000000
$GPZDA,091033.03,08,10,2011,00,00*66
$GPRMC,091033.00,A,4611.952864,N,01258.217463,E,000.3,303.4,081011,0.2,E,A*3C
$GPGGA,091034.00,4611.952943,N,01258.217476,E,1,05,3.5,139.38,M,46.25,M,,*68
$GPGLL,4611.952943,N,01258.217476,E,091034.00,A,A*6B
$GPVTG,24.8,T,25.0,M,000.4,N,000.8,K,A*26
$GPGSV,2,1,07,02,38,072,48,12,53,083,46,14,25,248,40,25,79,000,47*73
$GPGSV,2,2,07,29,57,226,44,30,39,293,37,31,30,312,31,,,,*47
$GPGSA,M,3,02,12,14,25,29,,,,,,,,4.3,3.5,2.5*30
Trace #14 at position 3.250000
$GPZDA,091034.03,08,10,2011,00,00*61
$GPRMC,091034.00,A,4611.952943,N,01258.217476,E,000.4,24.8,081011,0.2,E,A*06
$GPGGA,091035.00,4611.953056,N,01258.217472,E,1,05,3.5,139.43,M,46.25,M,,*6D
$GPGLL,4611.953056,N,01258.217472,E,091035.00,A,A*62
$GPVTG,328.0,T,328.2,M,000.5,N,001.0,K,A*25
$GPGSV,2,1,07,02,38,072,48,12,53,083,48,14,25,248,37,25,79,000,48*72
$GPGSV,2,2,07,29,57,226,42,30,39,293,32,31,30,312,30,,,,*45
$GPGSA,M,3,02,12,14,25,29,,,,,,,,4.3,3.5,2.5*30
Trace #15 at position 3.500000
$GPZDA,091035.03,08,10,2011,00,00*60
$GPRMC,091035.00,A,4611.953056,N,01258.217472,E,000.5,328.0,081011,0.2,E,A*39
$GPGGA,091036.00,4611.953137,N,01258.217442,E,1,05,3.5,139.41,M,46.25,M,,*69
$GPGLL,4611.953137,N,01258.217442,E,091036.00,A,A*64
$GPVTG,10.4,T,10.5,M,000.2,N,000.3,K,A*23
$GPGSV,2,1,07,02,38,072,47,12,53,083,47,14,25,248,39,25,79,000,47*73
$GPGSV,2,2,07,29,57,226,42,30,39,293,36,31,30,312,,,,,*42
$GPGSA,M,3,02,12,14,25,29,,,,,,,,4.3,3.5,2.5*30
Trace #16 at position 3.750000
$GPZDA,091035.03,08,10,2011,00,00*60
$GPRMC,091035.00,A,4611.953056,N,01258.217472,E,000.5,328.0,081011,0.2,E,A*39
$GPGGA,091036.00,4611.953137,N,01258.217442,E,1,05,3.5,139.41,M,46.25,M,,*69
$GPGLL,4611.953137,N,01258.217442,E,091036.00,A,A*64
$GPVTG,10.4,T,10.5,M,000.2,N,000.3,K,A*23
$GPGSV,2,1,07,02,38,072,47,12,53,083,47,14,25,248,39,25,79,000,47*73
$GPGSV,2,2,07,29,57,226,42,30,39,293,36,31,30,312,,,,,*42
$GPGSA,M,3,02,12,14,25,29,,,,,,,,4.3,3.5,2.5*30
Trace #17 at position 4.000000
$GPZDA,091036.03,08,10,2011,00,00*63
$GPRMC,091036.00,A,4611.953137,N,01258.217442,E,000.2,10.4,081011,0.2,E,A*04
$GPGGA,091037.00,4611.953190,N,01258.217392,E,1,05,3.5,139.41,M,46.25,M,,*6F
$GPGLL,4611.953190,N,01258.217392,E,091037.00,A,A*62
$GPVTG,303.0,T,303.2,M,000.4,N,000.8,K,A*2D
$GPGSV,2,1,07,02,38,072,49,12,53,083,47,14,25,248,36,25,79,000,48*7D
$GPGSV,2,2,07,29,57,226,40,30,39,293,22,31,30,312,,,,,*45
$GPGSA,M,3,02,12,14,25,29,,,,,,,,4.3,3.5,2.5*30
Trace #18 at position 4.250000
$GPZDA,091037.03,08,10,2011,00,00*62
$GPRMC,091037.00,A,4611.953190,N,01258.217392,E,000.4,303.0,081011,0.2,E,A*31
$GPGGA,091038.00,4611.953263,N,01258.217230,E,1,05,3.5,139.47,M,46.25,M,,*60
$GPGLL,4611.953263,N,01258.217230,E,091038.00,A,A*6B
$GPVTG,290.5,T,290.7,M,000.6,N,001.2,K,A*24
$GPGSV,2,1,07,02,38,072,48,12,53,083,46,14,25,248,38,25,79,000,46*7D
$GPGSV,2,2,07,29,57,226,41,30,39,293,26,31,30,312,,,,,*40
$GPGSA,M,3,02,12,14,25,29,,,,,,,,4.3,3.5,2.5*30
Trace #19 at position 4.500000
$GPZDA,091037.03,08,10,2011,00,00*62
$GPRMC,091037.00,A,4611.953190,N,01258.217392,E,000.4,303.0,081011,0.2,E,A*31
$GPGGA,091038.00,4611.953263,N,01258.217230,E,1,05,3.5,139.47,M,46.25,M,,*60
$GPGLL,4611.953263,N,01258.217230,E,091038.00,A,A*6B
$GPVTG,290.5,T,290.7,M,000.6,N,001.2,K,A*24
$GPGSV,2,1,07,02,38,072,48,12,53,083,46,14,25,248,38,25,79,000,46*7D
$GPGSV,2,2,07,29,57,226,41,30,39,293,26,31,30,312,,,,,*40
$GPGSA,M,3,02,12,14,25,29,,,,,,,,4.3,3.5,2.5*30
Trace #20 at position 4.750000
$GPZDA,091038.04,08,10,2011,00,00*6A
$GPRMC,091038.00,A,4611.953263,N,01258.217230,E,000.6,290.5,081011,0.2,E,A*34
$GPGGA,091039.00,4611.953294,N,01258.217203,E,1,05,3.5,139.52,M,46.25,M,,*6D
$GPGLL,4611.953294,N,01258.217203,E,091039.00,A,A*62
$GPVTG,111.7,T,111.9,M,000.3,N,000.6,K,A*28
$GPGSV,2,1,07,02,38,072,48,12,53,083,47,14,25,248,37,25,79,000,47*72
$GPGSV,2,2,07,29,57,226,43,30,39,293,,31,30,312,,,,,*46
$GPGSA,M,3,02,12,14,25,29,,,,,,,,4.3,3.5,2.5*30
Trace #21 at position 5.000000
$GPZDA,091039.03,08,10,2011,00,00*6C
$GPRMC,091039.00,A,4611.953294,N,01258.217203,E,000.3,111.7,081011,0.2,E,A*30
$GPGGA,091040.00,4611.953337,N,01258.217237,E,1,05,3.5,139.58,M,46.25,M,,*66
$GPGLL,4611.953337,N,01258.217237,E,091040.00,A,A*63
$GPVTG,313.6,T,313.7,M,000.3,N,000.6,K,A*27
$GPGSV,2,1,07,02,38,072,48,12,53,083,48,14,25,248,37,25,79,000,47*7D
$GPGSV,2,2,07,29,57,226,42,30,39,293,,31,30,312,35,,,,*41
$GPGSA,M,3,02,12,14,25,29,,,,,,,,4.3,3.5,2.5*30
Trace #22 at position 5.250000
$GPZDA,091040.03,08,10,2011,00,00*62
$GPRMC,091040.00,A,4611.953337,N,01258.217237,E,000.3,313.6,081011,0.2,E,A*30
$GPGGA,091041.00,4611.953441,N,01258.217302,E,1,04,5.2,139.73,M,46.25,M,,*6F
$GPGLL,4611.953441,N,01258.217302,E,091041.00,A,A*63
$GPVTG,40.9,T,41.0,M,000.6,N,001.1,K,A*2D
$GPGSV,2,1,07,02,38,072,49,12,53,083,47,14,25,248,35,25,79,000,47*71
$GPGSV,2,2,07,29,57,226,43,30,39,293,,31,30,312,34,,,,*41
$GPGSA,M,3,02,12,25,29,,,,,,,,,8.8,5.2,7.1*32
Trace #23 at position 5.500000
$GPZDA,091041.03,08,10,2011,00,00*63
$GPRMC,091041.00,A,4611.953441,N,01258.217302,E,000.6,40.9,081011,0.2,E,A*0F
$GPGGA,091042.00,4611.953600,N,01258.217245,E,1,04,5.2,139.93,M,46.25,M,,*67
$GPGLL,4611.953600,N,01258.217245,E,091042.00,A,A*65
$GPVTG,306.7,T,306.8,M,001.0,N,001.8,K,A*24
$GPGSV,2,1,07,02,38,072,49,12,53,083,48,14,25,248,37,25,79,000,46*7D
$GPGSV,2,2,07,29,57,226,41,30,39,293,,31,30,312,32,,,,*45
$GPGSA,M,3,02,12,25,29,,,,,,,,,8.8,5.2,7.1*32
Trace #24 at position 5.750000
$GPZDA,091041.03,08,10,2011,00,00*63
$GPRMC,091041.00,A,4611.953441,N,01258.217302,E,000.6,40.9,081011,0.2,E,A*0F
$GPGGA,091042.00,4611.953600,N,01258.217245,E,1,04,5.2,139.93,M,46.25,M,,*67
$GPGLL,4611.953600,N,01258.217245,E,091042.00,A,A*65
$GPVTG,306.7,T,306.8,M,001.0,N,001.8,K,A*24
$GPGSV,2,1,07,02,38,072,49,12,53,083,48,14,25,248,37,25,79,000,46*7D
$GPGSV,2,2,07,29,57,226,41,30,39,293,,31,30,312,32,,,,*45
$GPGSA,M,3,02,12,25,29,,,,,,,,,8.8,5.2,7.1*32
Trace #25 at position 6.000000
$GPZDA,091042.03,08,10,2011,00,00*60
$GPRMC,091042.00,A,4611.953600,N,01258.217245,E,001.0,306.7,081011,0.2,E,A*31
$GPGGA,091043.00,4611.953839,N,01258.216939,E,1,05,3.6,139.98,M,46.25,M,,*6B
$GPGLL,4611.953839,N,01258.216939,E,091043.00,A,A*61
$GPVTG,316.5,T,316.6,M,001.3,N,002.4,K,A*24
$GPGSV,2,1,07,02,38,072,48,12,53,083,48,14,25,248,39,25,79,000,47*73
$GPGSV,2,2,07,29,57,226,41,30,39,293,,31,30,312,29,,,,*4F
$GPGSA,M,3,02,12,14,25,29,,,,,,,,4.3,3.6,2.5*33
Trace #26 at position 6.250000
$GPZDA,091043.04,08,10,2011,00,00*66
$GPRMC,091043.00,A,4611.953839,N,01258.216939,E,001.3,316.5,081011,0.2,E,A*35
$GPGGA,091044.00,4611.954098,N,01258.216814,E,1,05,3.6,139.94,M,46.25,M,,*6A
$GPGLL,4611.954098,N,01258.216814,E,091044.00,A,A*6C
$GPVTG,6.3,T,6.5,M,000.8,N,001.5,K,A*29
$GPGSV,2,1,07,02,38,072,48,12,53,083,48,14,25,248,40,25,79,000,48*72
$GPGSV,2,2,07,29,57,226,42,30,39,293,,31,30,312,34,,,,*40
$GPGSA,M,3,02,12,14,25,29,,,,,,,,4.3,3.6,2.5*33
Trace #27 at position 6.500000
$GPZDA,091043.04,08,10,2011,00,00*66
$GPRMC,091043.00,A,4611.953839,N,01258.216939,E,001.3,316.5,081011,0.2,E,A*35
$GPGGA,091044.00,4611.954098,N,01258.216814,E,1,05,3.6,139.94,M,46.25,M,,*6A
$GPGLL,4611.954098,N,01258.216814,E,091044.00,A,A*6C
$GPVTG,6.3,T,6.5,M,000.8,N,001.5,K,A*29
$GPGSV,2,1,07,02,38,072,48,12,53,083,48,14,25,248,40,25,79,000,48*72
$GPGSV,2,2,07,29,57,226,42,30,39,293,,31,30,312,34,,,,*40
$GPGSA,M,3,02,12,14,25,29,,,,,,,,4.3,3.6,2.5*33
Trace #28 at position 6.750000
$GPZDA,091044.03,08,10,2011,00,00*66
$GPRMC,091044.00,A,4611.954098,N,01258.216814,E,000.8,6.3,081011,0.2,E,A*36
$GPGGA,091045.00,4611.954298,N,01258.216841,E,1,05,3.6,139.91,M,46.25,M,,*6C
$GPGLL,4611.954298,N,01258.216841,E,091045.00,A,A*6F
$GPVTG,350.0,T,350.2,M,000.6,N,001.1,K,A*27
$GPGSV,2,1,07,02,38,072,47,12,53,083,48,14,25,248,37,25,79,000,48*7D
$GPGSV,2,2,07,29,57,226,42,30,39,293,,31,30,312,35,,,,*41
$GPGSA,M,3,02,12,14,25,29,,,,,,,,4.3,3.6,2.5*33
Trace #29 at position 7.000000
$GPZDA,091045.03,08,10,2011,00,00*67
$GPRMC,091045.00,A,4611.954298,N,01258.216841,E,000.6,350.0,081011,0.2,E,A*38
$GPGGA,091046.00,4611.954460,N,01258.216845,E,1,05,3.6,139.82,M,46.25,M,,*68
$GPGLL,4611.954460,N,01258.216845,E,091046.00,A,A*69
$GPVTG,3.4,T,3.5,M,000.6,N,001.1,K,A*24
$GPGSV,2,1,07,02,38,072,47,12,53,083,48,14,25,248,40,25,79,000,48*7D
$GPGSV,2,2,07,29,57,226,44,30,39,293,,31,30,312,35,,,,*47
$GPGSA,M,3,02,12,14,25,29,,,,,,,,4.3,3.6,2.5*33
Trace #30 at position 7.250000
$GPZDA,091045.03,08,10,2011,00,00*67
$GPRMC,091045.00,A,4611.954298,N,01258.216841,E,000.6,350.0,081011,0.2,E,A*38
$GPGGA,091046.00,4611.954460,N,01258.216845,E,1,05,3.6,139.82,M,46.25,M,,*68
$GPGLL,4611.954460,N,01258.216845,E,091046.00,A,A*69
$GPVTG,3.4,T,3.5,M,000.6,N,001.1,K,A*24
$GPGSV,2,1,07,02,38,072,47,12,53,083,48,14,25,248,40,25,79,000,48*7D
$GPGSV,2,2,07,29,57,226,44,30,39,293,,31,30,312,35,,,,*47
$GPGSA,M,3,02,12,14,25,29,,,,,,,,4.3,3.6,2.5*33
Trace #31 at position 7.500000
$GPZDA,091046.03,08,10,2011,00,00*64
$GPRMC,091046.00,A,4611.954460,N,01258.216845,E,000.6,3.4,081011,0.2,E,A*3F
$GPGGA,091047.00,4611.954671,N,01258.216612,E,1,05,3.6,139.74,M,46.25,M,,*6E
$GPGLL,4611.954671,N,01258.216612,E,091047.00,A,A*66
$GPVTG,306.4,T,306.5,M,001.7,N,003.1,K,A*26
$GPGSV,2,1,07,02,38,072,47,12,53,083,47,14,25,248,39,25,79,000,48*7C
$GPGSV,2,2,07,29,57,226,45,30,39,293,,31,30,312,32,,,,*41
$GPGSA,M,3,02,12,14,25,29,,,,,,,,4.3,3.6,2.5*33
Trace #32 at position 7.750000
$GPZDA,091047.03,08,10,2011,00,00*65
$GPRMC,091047.00,A,4611.954671,N,01258.216612,E,001.7,306.4,081011,0.2,E,A*36
$GPGGA,091048.00,4611.954942,N,01258.216373,E,1,05,3.6,139.70,M,46.25,M,,*68
$GPGLL,4611.954942,N,01258.216373,E,091048.00,A,A*64
$GPVTG,351.9,T,352.1,M,001.1,N,002.0,K,A*2A
$GPGSV,2,1,07,02,38,072,47,12,53,083,48,14,25,248,39,25,79,000,47*7C
$GPGSV,2,2,07,29,57,226,42,30,39,293,,31,30,312,34,,,,*40
$GPGSA,M,3,02,12,14,25,29,,,,,,,,4.3,3.6,2.5*33
Trace #33 at position 8.000000
$GPZDA,091047.03,08,10,2011,00,00*65
$GPRMC,091047.00,A,4611.954671,N,01258.216612,E,001.7,306.4,081011,0.2,E,A*36
$GPGGA,091048.00,4611.954942,N,01258.216373,E,1,05,3.6,139.70,M,46.25,M,,*68
$GPGLL,4611.954942,N,01258.216373,E,091048.00,A,A*64
$GPVTG,351.9,T,352.1,M,001.1,N,002.0,K,A*2A
$GPGSV,2,1,07,02,38,072,47,12,53,083,48,14,25,248,39,25,79,000,47*7C
$GPGSV,2,2,07,29,57,226,42,30,39,293,,31,30,312,34,,,,*40
$GPGSA,M,3,02,12,14,25,29,,,,,,,,4.3,3.6,2.5*33
Trace #34 at position 8.250000
$GPZDA,091048.03,08,10,2011,00,00*6A
$GPRMC,091048.00,A,4611.954942,N,01258.216373,E,001.1,351.9,081011,0.2,E,A*3D
$GPGGA,091049.00,4611.955166,N,01258.216209,E,1,05,3.6,139.67,M,46.25,M,,*6C
$GPGLL,4611.955166,N,01258.216209,E,091049.00,A,A*66
$GPVTG,304.9,T,305.0,M,001.2,N,002.3,K,A*29
$GPGSV,2,1,07,02,38,072,48,12,53,083,48,14,25,248,38,25,79,000,47*72
$GPGSV,2,2,07,29,57,226,39,30,39,293,,31,30,312,33,,,,*4B
$GPGSA,M,3,02,12,14,25,29,,,,,,,,4.3,3.6,2.5*33
Trace #35 at position 8.500000
$GPZDA,091049.03,08,10,2011,00,00*6B
$GPRMC,091049.00,A,4611.955166,N,01258.216209,E,001.2,304.9,081011,0.2,E,A*3C
$GPGGA,091050.00,4611.955295,N,01258.216062,E,1,05,3.6,139.73,M,46.25,M,,*61
$GPGLL,4611.955295,N,01258.216062,E,091050.00,A,A*6E
$GPVTG,336.9,T,337.1,M,000.3,N,000.6,K,A*2F
$GPGSV,2,1,07,02,38,072,48,12,53,083,48,14,25,248,38,25,79,001,48*7C
$GPGSV,2,2,07,29,57,226,40,30,39,293,,31,30,312,33,,,,*45
$GPGSA,M,3,02,12,14,25,29,,,,,,,,4.3,3.6,2.5*33
Trace #36 at position 8.750000
$GPZDA,091050.03,08,10,2011,00,00*63
$GPRMC,091050.00,A,4611.955295,N,01258.216062,E,000.3,336.9,081011,0.2,E,A*35
$GPGGA,091051.00,4611.955494,N,01258.216024,E,1,05,3.6,139.71,M,46.25,M,,*67
$GPGLL,4611.955494,N,01258.216024,E,091051.00,A,A*6A
$GPVTG,341.0,T,341.1,M,001.3,N,002.3,K,A*21
$GPGSV,2,1,07,02,38,072,48,12,53,083,48,14,25,248,37,25,79,001,48*73
$GPGSV,2,2,07,29,57,226,40,30,39,293,,31,30,312,34,,,,*42
$GPGSA,M,3,02,12,14,25,29,,,,,,,,4.3,3.6,2.5*33
Trace #37 at position 9.000000
$GPZDA,091051.03,08,10,2011,00,00*62
$GPRMC,091051.00,A,4611.955494,N,01258.216024,E,001.3,341.0,081011,0.2,E,A*39
$GPGGA,091052.00,4611.955753,N,01258.216030,E,1,05,3.6,139.69,M,46.25,M,,*60
$GPGLL,4611.955753,N,01258.216030,E,091052.00,A,A*64
$GPVTG,8.8,T,8.9,M,000.9,N,001.6,K,A*2C
$GPGSV,2,1,07,02,38,072,48,12,53,083,48,14,25,248,37,25,79,001,48*73
$GPGSV,2,2,07,29,57,226,41,30,39,293,,31,30,312,31,,,,*46
$GPGSA,M,3,02,12,14,25,29,,,,,,,,4.3,3.6,2.5*33
Trace #38 at position 9.250000
$GPZDA,091051.03,08,10,2011,00,00*62
$GPRMC,091051.00,A,4611.955494,N,01258.216024,E,001.3,341.0,081011,0.2,E,A*39
$GPGGA,091052.00,4611.955753,N,01258.216030,E,1,05,3.6,139.69,M,46.25,M,,*60
$GPGLL,4611.955753,N,01258.216030,E,091052.00,A,A*64
$GPVTG,8.8,T,8.9,M,000.9,N,001.6,K,A*2C
$GPGSV,2,1,07,02,38,072,48,12,53,083,48,14,25,248,37,25,79,001,48*73
$GPGSV,2,2,07,29,57,226,41,30,39,293,,31,30,312,31,,,,*46
$GPGSA,M,3,02,12,14,25,29,,,,,,,,4.3,3.6,2.5*33
Trace #39 at position 9.500000
$GPZDA,091052.03,08,10,2011,00,00*61
$GPRMC,091052.00,A,4611.955753,N,01258.216030,E,000.9,8.8,081011,0.2,E,A*3A
$GPGGA,091053.00,4611.955990,N,01258.215975,E,1,05,3.6,139.65,M,46.25,M,,*67
$GPGLL,4611.955990,N,01258.215975,E,091053.00,A,A*6F
$GPVTG,328.0,T,328.2,M,001.3,N,002.4,K,A*25
$GPGSV,2,1,07,02,38,072,48,12,53,083,48,14,25,248,37,25,79,001,48*73
$GPGSV,2,2,07,29,57,226,41,30,39,293,,31,30,312,34,,,,*43
$GPGSA,M,3,02,12,14,25,29,,,,,,,,4.3,3.6,2.5*33
Trace #40 at position 9.750000
$GPZDA,091053.03,08,10,2011,00,00*60
$GPRMC,091053.00,A,4611.955990,N,01258.215975,E,001.3,328.0,081011,0.2,E,A*33
$GPGGA,091054.00,4611.956146,N,01258.215890,E,1,05,3.6,139.60,M,46.25,M,,*6F
$GPGLL,4611.956146,N,01258.215890,E,091054.00,A,A*62
$GPVTG,354.2,T,354.4,M,000.2,N,000.5,K,A*22
$GPGSV,2,1,07,02,38,072,48,12,53,083,47,14,25,248,38,25,79,001,48*73
$GPGSV,2,2,07,29,58,226,39,30,39,293,,31,30,312,33,,,,*44
$GPGSA,M,3,02,12,14,25,29,,,,,,,,4.3,3.6,2.5*33
Trace #41 at position 10.000000
$GPZDA,091054.03,08,10,2011,00,00*67
$GPRMC,091054.00,A,4611.956146,N,01258.215890,E,000.2,354.2,081011,0.2,E,A*37
$GPGGA,091055.00,4611.956260,N,01258.215886,E,1,05,3.6,139.62,M,46.25,M,,*6C
$GPGLL,4611.956260,N,01258.215886,E,091055.00,A,A*63
$GPVTG,342.6,T,342.7,M,000.8,N,001.4,K,A*2F
$GPGSV,2,1,07,02,38,072,49,12,53,083,47,14,25,248,38,25,79,001,48*72
$GPGSV,2,2,07,29,58,226,40,30,39,293,,31,30,312,33,,,,*4A
$GPGSA,M,3,02,12,14,25,29,,,,,,,,4.3,3.6,2.5*33
Trace #42 at position 10.250000
$GPZDA,091054.03,08,10,2011,00,00*67
$GPRMC,091054.00,A,4611.956146,N,01258.215890,E,000.2,354.2,081011,0.2,E,A*37
$GPGGA,091055.00,4611.956260,N,01258.215886,E,1,05,3.6,139.62,M,46.25,M,,*6C
$GPGLL,4611.956260,N,01258.215886,E,091055.00,A,A*63
$GPVTG,342.6,T,342.7,M,000.8,N,001.4,K,A*2F
$GPGSV,2,1,07,02,38,072,49,12,53,083,47,14,25,248,38,25,79,001,48*72
$GPGSV,2,2,07,29,58,226,40,30,39,293,,31,30,312,33,,,,*4A
$GPGSA,M,3,02,12,14,25,29,,,,,,,,4.3,3.6,2.5*33
Trace #43 at position 10.500000
$GPZDA,091055.03,08,10,2011,00,00*66
$GPRMC,091055.00,A,4611.956260,N,01258.215886,E,000.8,342.6,081011,0.2,E,A*3F
$GPGGA,091056.00,4611.956445,N,01258.215709,E,1,05,3.6,139.60,M,46.25,M,,*64
$GPGLL,4611.956445,N,01258.215709,E,091056.00,A,A*69
$GPVTG,310.1,T,310.3,M,001.2,N,002.3,K,A*23
$GPGSV,2,1,07,02,38,072,48,12,53,083,48,14,24,248,38,25,79,001,48*7D
$GPGSV,2,2,07,29,58,226,39,30,39,293,,31,30,312,33,,,,*44
$GPGSA,M,3,02,12,14,25,29,,,,,,,,4.3,3.6,2.5*33
Trace #44 at position 10.750000
$GPZDA,091056.03,08,10,2011,00,00*65
$GPRMC,091056.00,A,4611.956445,N,01258.215709,E,001.2,310.1,081011,0.2,E,A*3E
$GPGGA,091057.00,4611.956638,N,01258.215590,E,1,05,3.6,139.53,M,46.25,M,,*6F
$GPGLL,4611.956638,N,01258.215590,E,091057.00,A,A*62
$GPVTG,0.7,T,0.8,M,000.8,N,001.5,K,A*20
$GPGSV,2,1,07,02,38,072,47,12,53,083,48,14,24,248,39,25,79,001,47*7C
$GPGSV,2,2,07,29,58,226,42,30,39,293,,31,30,312,34,,,,*4F
$GPGSA,M,3,02,12,14,25,29,,,,,,,,4.3,3.6,2.5*33
Trace #45 at position 11.000000
$GPZDA,091057.03,08,10,2011,00,00*64
$GPRMC,091057.00,A,4611.956638,N,01258.215590,E,000.8,0.7,081011,0.2,E,A*3A
$GPGGA,091058.00,4611.956764,N,01258.215682,E,1,05,3.6,139.53,M,46.25,M,,*68
$GPGLL,4611.956764,N,01258.215682,E,091058.00,A,A*65
$GPVTG,28.8,T,29.0,M,000.4,N,000.7,K,A*29
$GPGSV,2,1,07,02,38,072,46,12,53,083,47,14,24,248,38,25,79,001,48*7C
$GPGSV,2,2,07,29,58,226,42,30,39,293,,31,30,312,32,,,,*49
$GPGSA,M,3,02,12,14,25,29,,,,,,,,4.3,3.6,2.5*33
Trace #46 at position 11.250000
$GPZDA,091058.03,08,10,2011,00,00*6B
$GPRMC,091058.00,A,4611.956764,N,01258.215682,E,000.4,28.8,081011,0.2,E,A*04
$GPGGA,091059.00,4611.956893,N,01258.215669,E,1,05,3.6,139.50,M,46.25,M,,*68
$GPGLL,4611.956893,N,01258.215669,E,091059.00,A,A*66
$GPVTG,331.5,T,331.6,M,000.9,N,001.7,K,A*2F
$GPGSV,2,1,07,02,38,072,47,12,53,083,48,14,24,248,37,25,79,001,47*72
$GPGSV,2,2,07,29,58,226,42,30,39,293,,31,30,312,34,,,,*4F
$GPGSA,M,3,02,12,14,25,29,,,,,,,,4.3,3.6,2.5*33
Trace #47 at position 11.500000
$GPZDA,091059.03,08,10,2011,00,00*6A
$GPRMC,091059.00,A,4611.956893,N,01258.215669,E,000.9,331.5,081011,0.2,E,A*3C
$GPGGA,091100.00,4611.957123,N,01258.215610,E,1,05,3.6,139.39,M,46.25,M,,*67
$GPGLL,4611.957123,N,01258.215610,E,091100.00,A,A*66
$GPVTG,356.9,T,357.1,M,001.2,N,002.1,K,A*2A
$GPGSV,2,1,07,02,38,072,48,12,53,083,48,14,24,248,36,25,79,001,48*73
$GPGSV,2,2,07,29,58,226,40,30,39,293,,31,30,312,34,,,,*4D
$GPGSA,M,3,02,12,14,25,29,,,,,,,,4.3,3.6,2.5*33
Trace #48 at position 11.750000
$GPZDA,091100.03,08,10,2011,00,00*67
$GPRMC,091100.00,A,4611.957123,N,01258.215610,E,001.2,356.9,081011,0.2,E,A*3B
$GPGGA,091101.00,4611.957264,N,01258.215643,E,1,05,3.6,139.38,M,46.25,M,,*61
$GPGLL,4611.957264,N,01258.215643,E,091101.00,A,A*61
$GPVTG,21.0,T,21.2,M,000.2,N,000.4,K,A*27
$GPGSV,2,1,07,02,38,072,49,12,53,083,47,14,24,248,38,25,79,001,47*7C
$GPGSV,2,2,07,29,58,226,40,30,39,293,,31,30,312,35,,,,*4C
$GPGSA,M,3,02,12,14,25,29,,,,,,,,4.3,3.6,2.5*33
Trace #49 at position 12.000000
$GPZDA,091101.03,08,10,2011,00,00*66
$GPRMC,091101.00,A,4611.957264,N,01258.215643,E,000.2,21.0,081011,0.2,E,A*07
$GPGGA,091102.00,4611.957354,N,01258.215591,E,1,05,3.6,139.43,M,46.25,M,,*60
$GPGLL,4611.957354,N,01258.215591,E,091102.00,A,A*6C
$GPVTG,326.2,T,326.4,M,000.8,N,001.5,K,A*29
$GPGSV,2,1,07,02,38,072,48,12,53,083,47,14,24,248,39,25,79,001,48*73
$GPGSV,2,2,07,29,58,226,42,30,39,293,,31,30,312,33,,,,*48
$GPGSA,M,3,02,12,14,25,29,,,,,,,,4.3,3.6,2.5*33
Trace #50 at position 12.250000
$GPZDA,091102.03,08,10,2011,00,00*65
$GPRMC,091102.00,A,4611.957354,N,01258.215591,E,000.8,326.2,081011,0.2,E,A*36
$GPGGA,091103.00,4611.957356,N,01258.215546,E,1,05,3.6,139.57,M,46.25,M,,*6C
$GPGLL,4611.957356,N,01258.215546,E,091103.00,A,A*65
$GPVTG,169.1,T,169.3,M,000.6,N,001.1,K,A*27
$GPGSV,2,1,07,02,38,072,47,12,53,083,48,14,24,248,39,25,79,001,48*73
$GPGSV,2,2,07,29,58,226,40,30,39,293,,31,30,312,34,,,,*4D
$GPGSA,M,3,02,12,14,25,29,,,,,,,,4.3,3.6,2.5*33
Trace #51 at position 12.500000
$GPZDA,091103.03,08,10,2011,00,00*64
$GPRMC,091103.00,A,4611.957356,N,01258.215546,E,000.6,169.1,081011,0.2,E,A*3B
$GPGGA,091104.00,4611.957360,N,01258.215603,E,1,04,5.2,139.72,M,46.25,M,,*68
$GPGLL,4611.957360,N,01258.215603,E,091104.00,A,A*65
$GPVTG,6.5,T,6.7,M,000.6,N,001.2,K,A*24
$GPGSV,2,1,07,02,38,072,49,12,52,083,48,14,24,248,36,25,79,001,47*7C
$GPGSV,2,2,07,29,58,226,43,30,39,293,,31,30,312,32,,,,*48
$GPGSA,M,3,02,12,25,29,,,,,,,,,8.8,5.2,7.0*33
Trace #52 at position 12.750000
$GPZDA,091104.03,08,10,2011,00,00*63
$GPRMC,091104.00,A,4611.957360,N,01258.215603,E,000.6,6.5,081011,0.2,E,A*37
$GPGGA,091105.00,4611.957539,N,01258.215573,E,1,04,5.2,139.75,M,46.25,M,,*60
$GPGLL,4611.957539,N,01258.215573,E,091105.00,A,A*6A
$GPVTG,337.2,T,337.4,M,000.8,N,001.4,K,A*28
$GPGSV,2,1,07,02,38,072,48,12,52,083,48,14,24,248,39,25,79,001,48*7D
$GPGSV,2,2,07,29,58,226,41,30,39,293,,31,30,312,32,,,,*4A
$GPGSA,M,3,02,12,25,29,,,,,,,,,8.8,5.2,7.0*33
Trace #53 at position 13.000000
$GPZDA,091105.03,08,10,2011,00,00*62
$GPRMC,091105.00,A,4611.957539,N,01258.215573,E,000.8,337.2,081011,0.2,E,A*30
$GPGGA,091106.00,4611.957721,N,01258.215432,E,1,04,5.2,139.84,M,46.25,M,,*62
$GPGLL,4611.957721,N,01258.215432,E,091106.00,A,A*66
$GPVTG,322.8,T,322.9,M,000.9,N,001.6,K,A*2C
$GPGSV,2,1,07,02,38,072,47,12,52,083,48,14,24,248,39,25,79,001,47*7D
$GPGSV,2,2,07,29,58,227,43,30,39,294,,31,30,312,32,,,,*4E
$GPGSA,M,3,02,12,25,29,,,,,,,,,8.8,5.2,7.0*33
Trace #54 at position 13.250000
$GPZDA,091105.03,08,10,2011,00,00*62
$GPRMC,091105.00,A,4611.957539,N,01258.215573,E,000.8,337.2,081011,0.2,E,A*30
$GPGGA,091106.00,4611.957721,N,01258.215432,E,1,04,5.2,139.84,M,46.25,M,,*62
$GPGLL,4611.957721,N,01258.215432,E,091106.00,A,A*66
$GPVTG,322.8,T,322.9,M,000.9,N,001.6,K,A*2C
$GPGSV,2,1,07,02,38,072,47,12,52,083,48,14,24,248,39,25,79,001,47*7D
$GPGSV,2,2,07,29,58,227,43,30,39,294,,31,30,312,32,,,,*4E
$GPGSA,M,3,02,12,25,29,,,,,,,,,8.8,5.2,7.0*33
Trace #55 at position 13.500000
$GPZDA,091106.03,08,10,2011,00,00*61
$GPRMC,091106.00,A,4611.957721,N,01258.215432,E,000.9,322.8,081011,0.2,E,A*33
$GPGGA,091107.00,4611.957858,N,01258.215353,E,1,05,3.6,139.86,M,46.25,M,,*63
$GPGLL,4611.957858,N,01258.215353,E,091107.00,A,A*66
$GPVTG,11.5,T,11.6,M,000.3,N,000.6,K,A*25
$GPGSV,2,1,07,02,38,072,47,12,52,083,47,14,24,248,41,25,79,001,47*7D
$GPGSV,2,2,07,29,58,227,42,30,39,294,,31,30,312,33,,,,*4E
$GPGSA,M,3,02,12,14,25,29,,,,,,,,4.3,3.6,2.4*32
Trace #56 at position 13.750000
$GPZDA,091107.03,08,10,2011,00,00*60
$GPRMC,091107.00,A,4611.957858,N,01258.215353,E,000.3,11.5,081011,0.2,E,A*07
$GPGGA,091108.00,4611.957933,N,01258.215367,E,1,05,3.6,139.89,M,46.25,M,,*68
$GPGLL,4611.957933,N,01258.215367,E,091108.00,A,A*62
$GPVTG,352.7,T,352.8,M,000.2,N,000.3,K,A*2D
$GPGSV,2,1,07,02,38,072,48,12,52,083,47,14,24,248,38,25,79,001,45*7E
$GPGSV,2,2,07,29,58,227,42,30,39,294,,31,30,312,29,,,,*45
$GPGSA,M,3,02,12,14,25,29,,,,,,,,4.3,3.6,2.4*32
Trace #57 at position 14.000000
$GPZDA,091108.03,08,10,2011,00,00*6F
$GPRMC,091108.00,A,4611.957933,N,01258.215367,E,000.2,352.7,081011,0.2,E,A*34
$GPGGA,091109.00,4611.958009,N,01258.215363,E,1,05,3.6,139.89,M,46.25,M,,*62
$GPGLL,4611.958009,N,01258.215363,E,091109.00,A,A*68
$GPVTG,1.5,T,1.6,M,000.3,N,000.6,K,A*25
$GPGSV,2,1,07,02,38,072,48,12,52,083,47,14,24,248,38,25,79,001,47*7C
$GPGSV,2,2,07,29,58,227,43,30,39,294,,31,30,312,33,,,,*4F
$GPGSA,M,3,02,12,14,25,29,,,,,,,,4.3,3.6,2.4*32
Trace #58 at position 14.250000
$GPZDA,091109.03,08,10,2011,00,00*6E
$GPRMC,091109.00,A,4611.958009,N,01258.215363,E,000.3,1.5,081011,0.2,E,A*38
$GPGGA,091110.00,4611.958098,N,01258.215253,E,1,05,3.6,139.90,M,46.25,M,,*68
$GPGLL,4611.958098,N,01258.215253,E,091110.00,A,A*6A
$GPVTG,289.6,T,289.8,M,000.7,N,001.2,K,A*29
$GPGSV,2,1,07,02,38,072,48,12,52,083,48,14,24,248,37,25,79,001,46*7D
$GPGSV,2,2,07,29,58,227,41,30,39,294,,31,30,312,31,,,,*4F
$GPGSA,M,3,02,12,14,25,29,,,,,,,,4.3,3.6,2.4*32
Trace #59 at position 14.500000
$GPZDA,091110.03,08,10,2011,00,00*66
$GPRMC,091110.00,A,4611.958098,N,01258.215253,E,000.7,289.6,081011,0.2,E,A*3F
$GPGGA,091111.00,4611.958193,N,01258.215054,E,1,05,3.6,139.96,M,46.25,M,,*60
$GPGLL,4611.958193,N,01258.215054,E,091111.00,A,A*64
$GPVTG,303.2,T,303.3,M,000.6,N,001.1,K,A*24
$GPGSV,2,1,07,02,38,072,47,12,52,083,48,14,24,248,39,25,79,001,47*7D
$GPGSV,2,2,07,29,58,227,41,30,39,294,,31,30,312,33,,,,*4D
$GPGSA,M,3,02,12,14,25,29,,,,,,,,4.3,3.6,2.4*32
Trace #60 at position 14.750000
$GPZDA,091111.03,08,10,2011,00,00*67
$GPRMC,091111.00,A,4611.958193,N,01258.215054,E,000.6,303.2,081011,0.2,E,A*37
$GPGGA,091112.00,4611.958325,N,01258.214890,E,1,05,3.6,139.99,M,46.25,M,,*62
$GPGLL,4611.958325,N,01258.214890,E,091112.00,A,A*69
$GPVTG,313.3,T,313.5,M,000.7,N,001.4,K,A*27
$GPGSV,2,1,07,02,38,072,48,12,52,083,48,14,24,248,39,25,79,001,47*72
$GPGSV,2,2,07,29,58,227,41,30,39,294,,31,30,312,33,,,,*4D
$GPGSA,M,3,02,12,14,25,29,,,,,,,,4.3,3.6,2.4*32
Trace #61 at position 15.000000
$GPZDA,091111.03,08,10,2011,00,00*67
$GPRMC,091111.00,A,4611.958193,N,01258.215054,E,000.6,303.2,081011,0.2,E,A*37
$GPGGA,091112.00,4611.958325,N,01258.214890,E,1,05,3.6,139.99,M,46.25,M,,*62
$GPGLL,4611.958325,N,01258.214890,E,091112.00,A,A*69
$GPVTG,313.3,T,313.5,M,000.7,N,001.4,K,A*27
$GPGSV,2,1,07,02,38,072,48,12,52,083,48,14,24,248,39,25,79,001,47*72
$GPGSV,2,2,07,29,58,227,41,30,39,294,,31,30,312,33,,,,*4D
$GPGSA,M,3,02,12,14,25,29,,,,,,,,4.3,3.6,2.4*32
Trace #62 at position 15.250000
$GPZDA,091112.03,08,10,2011,00,00*64
$GPRMC,091112.00,A,4611.958325,N,01258.214890,E,000.7,313.3,081011,0.2,E,A*3B
$GPGGA,091113.00,4611.958443,N,01258.214814,E,1,05,3.6,140.08,M,46.25,M,,*6E
$GPGLL,4611.958443,N,01258.214814,E,091113.00,A,A*63
$GPVTG,341.1,T,341.2,M,000.2,N,000.3,K,A*21
$GPGSV,2,1,07,02,38,072,47,12,52,083,47,14,24,248,38,25,79,001,48*7C
$GPGSV,2,2,07,29,58,227,40,30,39,294,,31,30,312,33,,,,*4C
$GPGSA,M,3,02,12,14,25,29,,,,,,,,4.3,3.6,2.4*32
Trace #63 at position 15.500000
$GPZDA,091113.03,08,10,2011,00,00*65
$GPRMC,091113.00,A,4611.958443,N,01258.214814,E,000.2,341.1,081011,0.2,E,A*31
$GPGGA,091114.00,4611.958598,N,01258.214784,E,1,05,3.6,140.14,M,46.25,M,,*65
$GPGLL,4611.958598,N,01258.214784,E,091114.00,A,A*65
$GPVTG,339.0,T,339.2,M,000.8,N,001.5,K,A*2D
$GPGSV,2,1,07,02,38,072,48,12,52,083,47,14,24,248,39,25,79,002,48*71
$GPGSV,2,2,07,29,58,227,42,30,39,294,,31,30,312,34,,,,*49
$GPGSA,M,3,02,12,14,25,29,,,,,,,,4.3,3.6,2.4*32
Trace #64 at position 15.750000
$GPZDA,091114.03,08,10,2011,00,00*62
$GPRMC,091114.00,A,4611.958598,N,01258.214784,E,000.8,339.0,081011,0.2,E,A*33
$GPGGA,091115.00,4611.958799,N,01258.214675,E,1,05,3.6,140.08,M,46.25,M,,*65
$GPGLL,4611.958799,N,01258.214675,E,091115.00,A,A*68
$GPVTG,320.1,T,320.3,M,000.8,N,001.4,K,A*2C
$GPGSV,2,1,07,02,38,072,47,12,52,083,47,14,24,248,38,25,79,002,48*7F
$GPGSV,2,2,07,29,58,227,41,30,39,294,,31,30,312,33,,,,*4D
$GPGSA,M,3,02,12,14,25,29,,,,,,,,4.3,3.6,2.4*32
Trace #65 at position 16.000000
$GPZDA,091115.03,08,10,2011,00,00*63
$GPRMC,091115.00,A,4611.958799,N,01258.214675,E,000.8,320.1,081011,0.2,E,A*37
$GPGGA,091116.00,4611.959043,N,01258.214600,E,1,05,3.6,139.98,M,46.25,M,,*62
$GPGLL,4611.959043,N,01258.214600,E,091116.00,A,A*68
$GPVTG,353.0,T,353.2,M,001.1,N,002.1,K,A*22
$GPGSV,2,1,07,02,38,072,48,12,52,083,48,14,24,248,39,25,79,002,47*71
$GPGSV,2,2,07,29,58,227,42,30,39,294,,31,30,312,,,,,*4E
$GPGSA,M,3,02,12,14,25,29,,,,,,,,4.3,3.6,2.4*32
Trace #66 at position 16.250000
$GPZDA,091116.03,08,10,2011,00,00*60
$GPRMC,091116.00,A,4611.959043,N,01258.214600,E,001.1,353.0,081011,0.2,E,A*3A
$GPGGA,091117.00,4611.959264,N,01258.214583,E,1,05,3.6,139.96,M,46.25,M,,*62
$GPGLL,4611.959264,N,01258.214583,E,091117.00,A,A*66
$GPVTG,342.8,T,342.9,M,000.5,N,001.0,K,A*26
$GPGSV,2,1,07,02,38,072,47,12,52,083,47,14,24,248,39,25,79,002,47*71
$GPGSV,2,2,07,29,58,227,41,30,39,294,,31,30,312,31,,,,*4F
$GPGSA,M,3,02,12,14,25,29,,,,,,,,4.3,3.6,2.4*32
Trace #67 at position 16.500000
$GPZDA,091116.03,08,10,2011,00,00*60
$GPRMC,091116.00,A,4611.959043,N,01258.214600,E,001.1,353.0,081011,0.2,E,A*3A
$GPGGA,091117.00,4611.959264,N,01258.214583,E,1,05,3.6,139.96,M,46.25,M,,*62
$GPGLL,4611.959264,N,01258.214583,E,091117.00,A,A*66
$GPVTG,342.8,T,342.9,M,000.5,N,001.0,K,A*26
$GPGSV,2,1,07,02,38,072,47,12,52,083,47,14,24,248,39,25,79,002,47*71
$GPGSV,2,2,07,29,58,227,41,30,39,294,,31,30,312,31,,,,*4F
$GPGSA,M,3,02,12,14,25,29,,,,,,,,4.3,3.6,2.4*32
Trace #68 at position 16.750000
$GPZDA,091118.03,08,10,2011,00,00*6E
$GPRMC,091118.00,A,4611.959364,N,01258.214519,E,000.4,299.7,081011,0.2,E,A*3D
$GPGGA,091119.00,4611.959420,N,01258.214329,E,1,05,3.6,140.31,M,46.25,M,,*6F
$GPGLL,4611.959420,N,01258.214329,E,091119.00,A,A*68
$GPVTG,274.5,T,274.7,M,000.8,N,001.6,K,A*2E
$GPGSV,2,1,07,02,38,072,47,12,52,083,48,14,24,248,39,25,79,002,48*71
$GPGSV,2,2,07,29,58,227,42,30,39,294,,31,30,312,35,,,,*48
$GPGSA,M,3,02,12,14,25,29,,,,,,,,4.3,3.6,2.4*32
Trace #69 at position 17.000000
$GPZDA,091119.03,08,10,2011,00,00*6F
$GPRMC,091119.00,A,4611.959420,N,01258.214329,E,000.8,274.5,081011,0.2,E,A*33
$GPGGA,091120.00,4611.959556,N,01258.214262,E,1,05,3.6,140.44,M,46.25,M,,*69
$GPGLL,4611.959556,N,01258.214262,E,091120.00,A,A*6C
$GPVTG,14.5,T,14.6,M,000.8,N,001.5,K,A*2C
$GPGSV,2,1,07,02,38,072,47,12,52,083,48,14,24,248,39,25,79,002,47*7E
$GPGSV,2,2,07,29,58,227,41,30,39,294,,31,30,312,35,,,,*4B
$GPGSA,M,3,02,12,14,25,29,,,,,,,,4.3,3.6,2.4*32
Trace #70 at position 17.250000
$GPZDA,091120.03,08,10,2011,00,00*65
$GPRMC,091120.00,A,4611.959556,N,01258.214262,E,000.8,14.5,081011,0.2,E,A*03
$GPGGA,091121.00,4611.959729,N,01258.214373,E,1,05,3.6,140.38,M,46.25,M,,*68
$GPGLL,4611.959729,N,01258.214373,E,091121.00,A,A*66
$GPVTG,20.2,T,20.3,M,000.4,N,000.7,K,A*21
$GPGSV,2,1,07,02,38,072,47,12,52,083,48,14,24,248,40,25,79,002,47*70
$GPGSV,2,2,07,29,58,227,43,30,39,294,,31,30,312,34,,,,*48
$GPGSA,M,3,02,12,14,25,29,,,,,,,,4.3,3.6,2.4*32
Trace #71 at position 17.500000
$GPZDA,091120.03,08,10,2011,00,00*65
$GPRMC,091120.00,A,4611.959556,N,01258.214262,E,000.8,14.5,081011,0.2,E,A*03
$GPGGA,091121.00,4611.959729,N,01258.214373,E,1,05,3.6,140.38,M,46.25,M,,*68
$GPGLL,4611.959729,N,01258.214373,E,091121.00,A,A*66
$GPVTG,20.2,T,20.3,M,000.4,N,000.7,K,A*21
$GPGSV,2,1,07,02,38,072,47,12,52,083,48,14,24,248,40,25,79,002,47*70
$GPGSV,2,2,07,29,58,227,43,30,39,294,,31,30,312,34,,,,*48
$GPGSA,M,3,02,12,14,25,29,,,,,,,,4.3,3.6,2.4*32
Trace #72 at position 17.750000
$GPZDA,091122.03,08,10,2011,00,00*67
$GPRMC,091122.00,A,4611.959843,N,01258.214367,E,000.5,317.5,081011,0.2,E,A*31
$GPGGA,091123.00,4611.960006,N,01258.214234,E,1,05,3.6,140.24,M,46.25,M,,*65
$GPGLL,4611.960006,N,01258.214234,E,091123.00,A,A*66
$GPVTG,324.5,T,324.6,M,000.9,N,001.6,K,A*2E
$GPGSV,2,1,07,02,38,072,47,12,52,083,48,14,24,248,40,25,79,002,47*70
$GPGSV,2,2,07,29,58,227,44,30,39,294,,31,30,312,,,,,*48
$GPGSA,M,3,02,12,14,25,29,,,,,,,,4.3,3.6,2.4*32
Trace #73 at position 18.000000
$GPZDA,091123.03,08,10,2011,00,00*66
$GPRMC,091123.00,A,4611.960006,N,01258.214234,E,000.9,324.5,081011,0.2,E,A*38
$GPGGA,091124.00,4611.960094,N,01258.214145,E,1,05,3.6,140.23,M,46.25,M,,*6B
$GPGLL,4611.960094,N,01258.214145,E,091124.00,A,A*6F
$GPVTG,209.4,T,209.5,M,000.2,N,000.4,K,A*24
$GPGSV,2,1,07,02,38,072,47,12,52,083,48,14,24,248,38,25,79,002,47*7F
$GPGSV,2,2,07,29,58,227,43,30,39,294,,31,30,312,32,,,,*4E
$GPGSA,M,3,02,12,14,25,29,,,,,,,,4.3,3.6,2.4*32
Trace #74 at position 18.250000
$GPZDA,091123.03,08,10,2011,00,00*66
$GPRMC,091123.00,A,4611.960006,N,01258.214234,E,000.9,324.5,081011,0.2,E,A*38
$GPGGA,091124.00,4611.960094,N,01258.214145,E,1,05,3.6,140.23,M,46.25,M,,*6B
$GPGLL,4611.960094,N,01258.214145,E,091124.00,A,A*6F
$GPVTG,209.4,T,209.5,M,000.2,N,000.4,K,A*24
$GPGSV,2,1,07,02,38,072,47,12,52,083,48,14,24,248,38,25,79,002,47*7F
$GPGSV,2,2,07,29,58,227,43,30,39,294,,31,30,312,32,,,,*4E
$GPGSA,M,3,02,12,14,25,29,,,,,,,,4.3,3.6,2.4*32
Trace #75 at position 18.500000
$GPZDA,091124.03,08,10,2011,00,00*61
$GPRMC,091124.00,A,4611.960094,N,01258.214145,E,000.2,209.4,081011,0.2,E,A*35
$GPGGA,091125.00,4611.960161,N,01258.214111,E,1,05,3.6,140.21,M,46.25,M,,*62
$GPGLL,4611.960161,N,01258.214111,E,091125.00,A,A*64
$GPVTG,333.5,T,333.7,M,000.6,N,001.1,K,A*27
$GPGSV,2,1,07,02,38,072,48,12,52,083,48,14,24,248,38,25,79,002,47*70
$GPGSV,2,2,07,29,58,227,40,30,39,294,,31,30,312,35,,,,*4A
$GPGSA,M,3,02,12,14,25,29,,,,,,,,4.3,3.6,2.4*32
Trace #76 at position 18.750000
$GPZDA,091125.03,08,10,2011,00,00*60
$GPRMC,091125.00,A,4611.960161,N,01258.214111,E,000.6,333.5,081011,0.2,E,A*33
$GPGGA,091126.00,4611.960302,N,01258.214045,E,1,05,3.6,140.24,M,46.25,M,,*63
$GPGLL,4611.960302,N,01258.214045,E,091126.00,A,A*60
$GPVTG,326.7,T,326.9,M,000.5,N,000.9,K,A*21
$GPGSV,2,1,07,02,38,072,46,12,52,083,48,14,24,248,38,25,79,002,47*7E
$GPGSV,2,2,07,29,58,227,44,30,39,294,,31,30,312,34,,,,*4F
$GPGSA,M,3,02,12,14,25,29,,,,,,,,4.3,3.6,2.4*32
Trace #77 at position 19.000000
$GPZDA,091126.03,08,10,2011,00,00*63
$GPRMC,091126.00,A,4611.960302,N,01258.214045,E,000.5,326.7,081011,0.2,E,A*32
$GPGGA,091127.00,4611.960524,N,01258.213969,E,1,05,3.6,140.19,M,46.25,M,,*6E
$GPGLL,4611.960524,N,01258.213969,E,091127.00,A,A*63
$GPVTG,343.7,T,343.9,M,001.1,N,002.1,K,A*2E
$GPGSV,2,1,07,02,38,072,47,12,52,083,48,14,24,248,38,25,79,002,48*70
$GPGSV,2,2,07,29,58,227,42,30,39,294,,31,30,312,34,,,,*49
$GPGSA,M,3,02,12,14,25,29,,,,,,,,4.3,3.6,2.4*32
Trace #78 at position 19.250000
$GPZDA,091126.03,08,10,2011,00,00*63
$GPRMC,091126.00,A,4611.960302,N,01258.214045,E,000.5,326.7,081011,0.2,E,A*32
$GPGGA,091127.00,4611.960524,N,01258.213969,E,1,05,3.6,140.19,M,46.25,M,,*6E
$GPGLL,4611.960524,N,01258.213969,E,091127.00,A,A*63
$GPVTG,343.7,T,343.9,M,001.1,N,002.1,K,A*2E
$GPGSV,2,1,07,02,38,072,47,12,52,083,48,14,24,248,38,25,79,002,48*70
$GPGSV,2,2,07,29,58,227,42,30,39,294,,31,30,312,34,,,,*49
$GPGSA,M,3,02,12,14,25,29,,,,,,,,4.3,3.6,2.4*32
Trace #79 at position 19.500000
$GPZDA,091127.03,08,10,2011,00,00*62
$GPRMC,091127.00,A,4611.960524,N,01258.213969,E,001.1,343.7,081011,0.2,E,A*37
$GPGGA,091128.00,4611.960753,N,01258.213837,E,1,05,3.6,140.08,M,46.25,M,,*69
$GPGLL,4611.960753,N,01258.213837,E,091128.00,A,A*64
$GPVTG,314.5,T,314.7,M,000.8,N,001.5,K,A*2D
$GPGSV,2,1,07,02,38,072,48,12,52,083,48,14,24,248,37,25,79,002,48*70
$GPGSV,2,2,07,29,58,227,41,30,39,294,,31,30,312,33,,,,*4D
$GPGSA,M,3,02,12,14,25,29,,,,,,,,4.3,3.6,2.4*32
Trace #80 at position 19.750000
$GPZDA,091128.03,08,10,2011,00,00*6D
$GPRMC,091128.00,A,4611.960753,N,01258.213837,E,000.8,314.5,081011,0.2,E,A*38
$GPGGA,091129.00,4611.960872,N,01258.213755,E,1,04,5.2,140.07,M,46.25,M,,*63
$GPGLL,4611.960872,N,01258.213755,E,091129.00,A,A*62
$GPVTG,340.2,T,340.4,M,000.3,N,000.6,K,A*20
$GPGSV,2,1,07,02,38,072,48,12,52,083,48,14,24,248,35,25,79,002,48*72
$GPGSV,2,2,07,29,58,227,40,30,39,294,,31,30,312,36,,,,*49
$GPGSA,M,3,02,12,25,29,,,,,,,,,8.7,5.2,7.0*3C
Trace #81 at position 20.000000
$GPZDA,091129.03,08,10,2011,00,00*6C
$GPRMC,091129.00,A,4611.960872,N,01258.213755,E,000.3,340.2,081011,0.2,E,A*33
$GPGGA,091130.00,4611.961048,N,01258.213819,E,1,04,5.2,140.06,M,46.25,M,,*6D
$GPGLL,4611.961048,N,01258.213819,E,091130.00,A,A*6D
$GPVTG,13.1,T,13.2,M,001.0,N,001.9,K,A*29
$GPGSV,2,1,07,02,38,072,48,12,52,083,49,14,24,248,36,25,79,002,48*70
$GPGSV,2,2,07,29,58,227,40,30,39,294,,31,30,312,35,,,,*4A
$GPGSA,M,3,02,12,25,29,,,,,,,,,8.7,5.2,7.0*3C
Trace #82 at position 20.250000
$GPZDA,091130.03,08,10,2011,00,00*64
$GPRMC,091130.00,A,4611.961048,N,01258.213819,E,001.0,13.1,081011,0.2,E,A*08
$GPGGA,091131.00,4611.961249,N,01258.213857,E,1,04,5.2,139.97,M,46.25,M,,*63
$GPGLL,4611.961249,N,01258.213857,E,091131.00,A,A*65
$GPVTG,342.6,T,342.8,M,000.6,N,001.0,K,A*2A
$GPGSV,2,1,07,02,38,072,48,12,52,083,48,14,24,248,37,25,79,002,48*70
$GPGSV,2,2,07,29,58,227,40,30,39,294,,31,30,312,35,,,,*4A
$GPGSA,M,3,02,12,25,29,,,,,,,,,8.7,5.2,7.0*3C
Trace #83 at position 20.500000
$GPZDA,091131.03,08,10,2011,00,00*65
$GPRMC,091131.00,A,4611.961249,N,01258.213857,E,000.6,342.6,081011,0.2,E,A*37
$GPGGA,091132.00,4611.961463,N,01258.213754,E,1,04,5.2,139.72,M,46.25,M,,*69
$GPGLL,4611.961463,N,01258.213754,E,091132.00,A,A*64
$GPVTG,338.9,T,339.0,M,001.2,N,002.3,K,A*29
$GPGSV,2,1,07,02,38,072,47,12,52,083,48,14,24,248,39,25,79,002,48*71
$GPGSV,2,2,07,29,58,227,43,30,39,294,,31,30,312,36,,,,*4A
$GPGSA,M,3,02,12,25,29,,,,,,,,,8.7,5.2,7.0*3C
Trace #84 at position 20.750000
$GPZDA,091131.03,08,10,2011,00,00*65
$GPRMC,091131.00,A,4611.961249,N,01258.213857,E,000.6,342.6,081011,0.2,E,A*37
$GPGGA,091132.00,4611.961463,N,01258.213754,E,1,04,5.2,139.72,M,46.25,M,,*69
$GPGLL,4611.961463,N,01258.213754,E,091132.00,A,A*64
$GPVTG,338.9,T,339.0,M,001.2,N,002.3,K,A*29
$GPGSV,2,1,07,02,38,072,47,12,52,083,48,14,24,248,39,25,79,002,48*71
$GPGSV,2,2,07,29,58,227,43,30,39,294,,31,30,312,36,,,,*4A
$GPGSA,M,3,02,12,25,29,,,,,,,,,8.7,5.2,7.0*3C
Trace #85 at position 21.000000
$GPZDA,091132.03,08,10,2011,00,00*66
$GPRMC,091132.00,A,4611.961463,N,01258.213754,E,001.2,338.9,081011,0.2,E,A*31
$GPGGA,091133.00,4611.961698,N,01258.213751,E,1,04,5.2,139.56,M,46.25,M,,*6D
$GPGLL,4611.961698,N,01258.213751,E,091133.00,A,A*66
$GPVTG,24.7,T,24.9,M,000.8,N,001.6,K,A*22
$GPGSV,2,1,07,02,38,072,48,12,52,083,48,14,24,248,38,25,79,002,48*7F
$GPGSV,2,2,07,29,58,227,42,30,39,294,,31,30,312,34,,,,*49
$GPGSA,M,3,02,12,25,29,,,,,,,,,8.7,5.2,7.0*3C
Trace #86 at position 21.250000
$GPZDA,091133.03,08,10,2011,00,00*67
$GPRMC,091133.00,A,4611.961698,N,01258.213751,E,000.8,24.7,081011,0.2,E,A*08
$GPGGA,091134.00,4611.961834,N,01258.213698,E,1,04,5.2,139.56,M,46.25,M,,*66
$GPGLL,4611.961834,N,01258.213698,E,091134.00,A,A*6D
$GPVTG,304.1,T,304.2,M,000.8,N,001.5,K,A*2C
$GPGSV,2,1,07,02,38,072,47,12,52,083,48,14,24,248,37,25,79,002,48*7F
$GPGSV,2,2,07,29,58,227,42,30,39,294,,31,30,312,33,,,,*4E
$GPGSA,M,3,02,12,25,29,,,,,,,,,8.7,5.2,7.0*3C
Trace #87 at position 21.500000
$GPZDA,091134.03,08,10,2011,00,00*60
$GPRMC,091134.00,A,4611.961834,N,01258.213698,E,000.8,304.1,081011,0.2,E,A*34
$GPGGA,091135.00,4611.961980,N,01258.213622,E,1,04,5.2,139.52,M,46.25,M,,*6C
$GPGLL,4611.961980,N,01258.213622,E,091135.00,A,A*63
$GPVTG,14.7,T,14.8,M,000.8,N,001.6,K,A*23
$GPGSV,2,1,07,02,38,072,47,12,52,083,48,14,24,248,38,25,79,002,48*70
$GPGSV,2,2,07,29,58,227,43,30,39,294,,31,30,312,33,,,,*4F
$GPGSA,M,3,02,12,25,29,,,,,,,,,8.7,5.2,7.0*3C
Trace #88 at position 21.750000
$GPZDA,091135.03,08,10,2011,00,00*61
$GPRMC,091135.00,A,4611.961980,N,01258.213622,E,000.8,14.7,081011,0.2,E,A*0E
$GPGGA,091136.00,4611.962097,N,01258.213598,E,1,04,5.2,139.45,M,46.25,M,,*67
$GPGLL,4611.962097,N,01258.213598,E,091136.00,A,A*6E
$GPVTG,305.6,T,305.8,M,000.5,N,000.9,K,A*21
$GPGSV,2,1,07,02,38,072,48,12,52,083,48,14,24,248,37,25,79,002,48*70
$GPGSV,2,2,07,29,58,227,41,30,39,294,,31,30,312,35,,,,*4B
$GPGSA,M,3,02,12,25,29,,,,,,,,,8.7,5.2,7.0*3C
Trace #89 at position 22.000000
$GPZDA,091135.03,08,10,2011,00,00*61
$GPRMC,091135.00,A,4611.961980,N,01258.213622,E,000.8,14.7,081011,0.2,E,A*0E
$GPGGA,091136.00,4611.962097,N,01258.213598,E,1,04,5.2,139.45,M,46.25,M,,*67
$GPGLL,4611.962097,N,01258.213598,E,091136.00,A,A*6E
$GPVTG,305.6,T,305.8,M,000.5,N,000.9,K,A*21
$GPGSV,2,1,07,02,38,072,48,12,52,083,48,14,24,248,37,25,79,002,48*70
$GPGSV,2,2,07,29,58,227,41,30,39,294,,31,30,312,35,,,,*4B
$GPGSA,M,3,02,12,25,29,,,,,,,,,8.7,5.2,7.0*3C
Trace #90 at position 22.250000
$GPZDA,091136.03,08,10,2011,00,00*62
$GPRMC,091136.00,A,4611.962097,N,01258.213598,E,000.5,305.6,081011,0.2,E,A*3C
$GPGGA,091137.00,4611.962214,N,01258.213495,E,1,04,5.2,139.46,M,46.25,M,,*60
$GPGLL,4611.962214,N,01258.213495,E,091137.00,A,A*6A
$GPVTG,344.6,T,344.8,M,000.8,N,001.4,K,A*20
$GPGSV,2,1,07,02,38,072,47,12,52,083,49,14,24,248,39,25,79,002,48*70
$GPGSV,2,2,07,29,58,227,41,30,39,294,,31,30,312,35,,,,*4B
$GPGSA,M,3,02,12,25,29,,,,,,,,,8.7,5.2,7.0*3C
Trace #91 at position 22.500000
$GPZDA,091137.03,08,10,2011,00,00*63
$GPRMC,091137.00,A,4611.962214,N,01258.213495,E,000.8,344.6,081011,0.2,E,A*30
$GPGGA,091138.00,4611.962398,N,01258.213450,E,1,04,5.2,139.47,M,46.25,M,,*62
$GPGLL,4611.962398,N,01258.213450,E,091138.00,A,A*69
$GPVTG,353.4,T,353.6,M,000.7,N,001.4,K,A*23
$GPGSV,2,1,07,02,38,071,46,12,52,083,47,14,24,248,38,25,79,003,48*7C
$GPGSV,2,2,07,29,58,227,41,30,39,294,,31,30,312,33,,,,*4D
$GPGSA,M,3,02,12,25,29,,,,,,,,,8.7,5.2,7.0*3C
Trace #92 at position 22.750000
$GPZDA,091138.03,08,10,2011,00,00*6C
$GPRMC,091138.00,A,4611.962398,N,01258.213450,E,000.7,353.4,081011,0.2,E,A*38
$GPGGA,091139.00,4611.962510,N,01258.213493,E,1,04,5.2,139.42,M,46.25,M,,*6F
$GPGLL,4611.962510,N,01258.213493,E,091139.00,A,A*61
$GPVTG,60.8,T,61.0,M,000.4,N,000.7,K,A*29
$GPGSV,2,1,07,02,38,071,47,12,52,083,47,14,24,248,38,25,79,003,48*7D
$GPGSV,2,2,07,29,58,227,41,30,39,294,,31,30,312,28,,,,*47
$GPGSA,M,3,02,12,25,29,,,,,,,,,8.7,5.2,7.0*3C
Trace #93 at position 23.000000
$GPZDA,091139.03,08,10,2011,00,00*6D
$GPRMC,091139.00,A,4611.962510,N,01258.213493,E,000.4,60.8,081011,0.2,E,A*0C
$GPGGA,091140.00,4611.962555,N,01258.213515,E,1,04,5.2,139.56,M,46.25,M,,*6A
$GPGLL,4611.962555,N,01258.213515,E,091140.00,A,A*61
$GPVTG,324.1,T,324.3,M,000.2,N,000.4,K,A*27
$GPGSV,2,1,07,02,38,071,47,12,52,083,47,14,24,248,37,25,79,003,47*7D
$GPGSV,2,2,07,29,58,227,41,30,39,294,,31,30,312,33,,,,*4D
$GPGSA,M,3,02,12,25,29,,,,,,,,,8.7,5.2,7.0*3C
Trace #94 at position 23.250000
$GPZDA,091139.03,08,10,2011,00,00*6D
$GPRMC,091139.00,A,4611.962510,N,01258.213493,E,000.4,60.8,081011,0.2,E,A*0C
$GPGGA,091140.00,4611.962555,N,01258.213515,E,1,04,5.2,139.56,M,46.25,M,,*6A
$GPGLL,4611.962555,N,01258.213515,E,091140.00,A,A*61
$GPVTG,324.1,T,324.3,M,000.2,N,000.4,K,A*27
$GPGSV,2,1,07,02,38,071,47,12,52,083,47,14,24,248,37,25,79,003,47*7D
$GPGSV,2,2,07,29,58,227,41,30,39,294,,31,30,312,33,,,,*4D
$GPGSA,M,3,02,12,25,29,,,,,,,,,8.7,5.2,7.0*3C
Trace #95 at position 23.500000
$GPZDA,091140.03,08,10,2011,00,00*63
$GPRMC,091140.00,A,4611.962555,N,01258.213515,E,000.2,324.1,081011,0.2,E,A*30
$GPGGA,091141.00,4611.962676,N,01258.213473,E,1,04,5.2,139.68,M,46.25,M,,*65
$GPGLL,4611.962676,N,01258.213473,E,091141.00,A,A*63
$GPVTG,3.5,T,3.7,M,000.7,N,001.2,K,A*25
$GPGSV,2,1,07,02,38,071,47,12,52,083,47,14,24,248,38,25,79,003,48*7D
$GPGSV,2,2,07,29,58,227,42,30,39,294,,31,30,312,32,,,,*4F
$GPGSA,M,3,02,12,25,29,,,,,,,,,8.7,5.2,7.0*3C
Trace #96 at position 23.750000
$GPZDA,091141.03,08,10,2011,00,00*62
$GPRMC,091141.00,A,4611.962676,N,01258.213473,E,000.7,3.5,081011,0.2,E,A*35
$GPGGA,091142.00,4611.962833,N,01258.213385,E,1,04,5.2,139.73,M,46.25,M,,*6D
$GPGLL,4611.962833,N,01258.213385,E,091142.00,A,A*61
$GPVTG,318.6,T,318.8,M,000.6,N,001.1,K,A*2B
$GPGSV,2,1,07,02,38,071,47,12,52,083,47,14,24,248,39,25,79,003,48*7C
$GPGSV,2,2,07,29,58,227,41,30,39,294,,31,30,312,32,,,,*4C
$GPGSA,M,3,02,12,25,29,,,,,,,,,8.7,5.2,7.0*3C
Trace #97 at position 24.000000
$GPZDA,091142.03,08,10,2011,00,00*61
$GPRMC,091142.00,A,4611.962833,N,01258.213385,E,000.6,318.6,081011,0.2,E,A*3C
$GPGGA,091143.00,4611.962931,N,01258.213282,E,1,04,5.2,139.82,M,46.25,M,,*67
$GPGLL,4611.962931,N,01258.213282,E,091143.00,A,A*65
$GPVTG,335.3,T,335.5,M,000.2,N,000.3,K,A*24
$GPGSV,2,1,07,02,38,071,47,12,52,083,48,14,24,248,37,25,79,003,47*72
$GPGSV,2,2,07,29,58,227,41,30,39,294,,31,30,312,33,,,,*4D
$GPGSA,M,3,02,12,25,29,,,,,,,,,8.7,5.2,6.9*34
Trace #98 at position 24.250000
$GPZDA,091142.03,08,10,2011,00,00*61
$GPRMC,091142.00,A,4611.962833,N,01258.213385,E,000.6,318.6,081011,0.2,E,A*3C
$GPGGA,091143.00,4611.962931,N,01258.213282,E,1,04,5.2,139.82,M,46.25,M,,*67
$GPGLL,4611.962931,N,01258.213282,E,091143.00,A,A*65
$GPVTG,335.3,T,335.5,M,000.2,N,000.3,K,A*24
$GPGSV,2,1,07,02,38,071,47,12,52,083,48,14,24,248,37,25,79,003,47*72
$GPGSV,2,2,07,29,58,227,41,30,39,294,,31,30,312,33,,,,*4D
$GPGSA,M,3,02,12,25,29,,,,,,,,,8.7,5.2,6.9*34
Trace #99 at position 24.500000
$GPZDA,091143.03,08,10,2011,00,00*60
$GPRMC,091143.00,A,4611.962931,N,01258.213282,E,000.2,335.3,081011,0.2,E,A*36
$GPGGA,091144.00,4611.963060,N,01258.213280,E,1,04,5.2,139.94,M,46.25,M,,*69
$GPGLL,4611.963060,N,01258.213280,E,091144.00,A,A*6C
$GPVTG,15.6,T,15.7,M,000.7,N,001.2,K,A*26
$GPGSV,2,1,07,02,38,071,48,12,52,083,48,14,24,248,38,25,79,003,47*72
$GPGSV,2,2,07,29,58,227,41,30,39,294,,31,30,312,35,,,,*4B
$GPGSA,M,3,02,12,25,29,,,,,,,,,8.7,5.2,6.9*34
Trace #100 at position 24.750000
$GPZDA,091144.03,08,10,2011,00,00*67
$GPRMC,091144.00,A,4611.963060,N,01258.213280,E,000.7,15.6,081011,0.2,E,A*0E
$GPGGA,091145.00,4611.963238,N,01258.213245,E,1,04,5.2,140.09,M,46.25,M,,*64
$GPGLL,4611.963238,N,01258.213245,E,091145.00,A,A*6B
$GPVTG,337.6,T,337.7,M,000.6,N,001.1,K,A*24
$GPGSV,2,1,07,02,38,071,48,12,52,083,48,14,24,248,36,25,79,003,48*73
$GPGSV,2,2,07,29,58,227,40,30,39,294,,31,30,312,34,,,,*4B
$GPGSA,M,3,02,12,25,29,,,,,,,,,8.7,5.2,6.9*34
Trace #101 at position 25.000000
$GPZDA,091145.03,08,10,2011,00,00*66
$GPRMC,091145.00,A,4611.963238,N,01258.213245,E,000.6,337.6,081011,0.2,E,A*3B
$GPGGA,091146.00,4611.963475,N,01258.213238,E,1,04,5.2,140.06,M,46.25,M,,*6D
$GPGLL,4611.963475,N,01258.213238,E,091146.00,A,A*6D
$GPVTG,16.9,T,17.1,M,001.2,N,002.2,K,A*29
$GPGSV,2,1,07,02,38,071,47,12,52,083,48,14,24,248,38,25,79,003,47*7D
$GPGSV,2,2,07,29,58,227,42,30,39,294,,31,30,312,34,,,,*49
$GPGSA,M,3,02,12,25,29,,,,,,,,,8.6,5.2,6.9*35
Trace #102 at position 25.250000
$GPZDA,091150.03,08,10,2011,00,00*62
$GPRMC,091150.00,A,4611.964279,N,01258.213197,E,001.1,23.1,081011,0.2,E,A*06
$GPGGA,091151.00,4611.964434,N,01258.213173,E,1,04,5.2,140.25,M,46.25,M,,*64
$GPGLL,4611.964434,N,01258.213173,E,091151.00,A,A*65
$GPVTG,331.5,T,331.6,M,000.3,N,000.5,K,A*26
$GPGSV,2,1,07,02,38,071,48,12,52,083,48,14,24,248,38,25,79,003,47*72
$GPGSV,2,2,07,29,58,227,43,30,39,294,,31,30,312,36,,,,*4A
$GPGSA,M,3,02,12,25,29,,,,,,,,,8.6,5.2,6.9*35
Trace #103 at position 25.500000
$GPZDA,091151.03,08,10,2011,00,00*63
$GPRMC,091151.00,A,4611.964434,N,01258.213173,E,000.3,331.5,081011,0.2,E,A*35
$GPGGA,091152.00,4611.964497,N,01258.213072,E,1,04,5.2,140.31,M,46.25,M,,*6B
$GPGLL,4611.964497,N,01258.213072,E,091152.00,A,A*6F
$GPVTG,351.2,T,351.3,M,000.3,N,000.5,K,A*24
$GPGSV,2,1,07,02,38,071,48,12,52,083,48,14,24,248,37,25,79,003,47*7D
$GPGSV,2,2,07,29,58,227,42,30,39,294,,31,30,312,34,,,,*49
$GPGSA,M,3,02,12,25,29,,,,,,,,,8.6,5.2,6.9*35
Trace #104 at position 25.750000
$GPZDA,091151.03,08,10,2011,00,00*63
$GPRMC,091151.00,A,4611.964434,N,01258.213173,E,000.3,331.5,081011,0.2,E,A*35
$GPGGA,091152.00,4611.964497,N,01258.213072,E,1,04,5.2,140.31,M,46.25,M,,*6B
$GPGLL,4611.964497,N,01258.213072,E,091152.00,A,A*6F
$GPVTG,351.2,T,351.3,M,000.3,N,000.5,K,A*24
$GPGSV,2,1,07,02,38,071,48,12,52,083,48,14,24,248,37,25,79,003,47*7D
$GPGSV,2,2,07,29,58,227,42,30,39,294,,31,30,312,34,,,,*49
$GPGSA,M,3,02,12,25,29,,,,,,,,,8.6,5.2,6.9*35
Trace #105 at position 26.000000
$GPZDA,091152.03,08,10,2011,00,00*60
$GPRMC,091152.00,A,4611.964497,N,01258.213072,E,000.3,351.2,081011,0.2,E,A*3E
$GPGGA,091153.00,4611.964524,N,01258.213014,E,1,05,3.6,140.29,M,46.25,M,,*69
$GPGLL,4611.964524,N,01258.213014,E,091153.00,A,A*67
$GPVTG,43.4,T,43.5,M,000.1,N,000.1,K,A*22
$GPGSV,2,1,07,02,38,071,47,12,52,083,47,14,24,248,39,25,79,003,46*72
$GPGSV,2,2,07,29,58,227,41,30,39,294,,31,30,312,35,,,,*4B
$GPGSA,M,3,02,12,14,25,29,,,,,,,,4.4,3.6,2.4*35
Trace #106 at position 26.250000
$GPZDA,091153.04,08,10,2011,00,00*66
$GPRMC,091153.00,A,4611.964524,N,01258.213014,E,000.1,43.4,081011,0.2,E,A*02
$GPGGA,091154.00,4611.964523,N,01258.212974,E,1,05,3.6,140.26,M,46.25,M,,*68
$GPGLL,4611.964523,N,01258.212974,E,091154.00,A,A*69
$GPVTG,356.9,T,357.0,M,000.1,N,000.2,K,A*28
$GPGSV,2,1,07,02,38,071,48,12,52,083,47,14,24,248,39,25,79,003,46*7D
$GPGSV,2,2,07,29,58,227,41,30,39,294,,31,30,312,33,,,,*4D
$GPGSA,M,3,02,12,14,25,29,,,,,,,,4.4,3.6,2.4*35
Trace #107 at position 26.500000
$GPZDA,091154.03,08,10,2011,00,00*66
$GPRMC,091154.00,A,4611.964523,N,01258.212974,E,000.1,356.9,081011,0.2,E,A*36
$GPGGA,091155.00,4611.964516,N,01258.212932,E,1,05,3.6,140.27,M,46.25,M,,*6C
$GPGLL,4611.964516,N,01258.212932,E,091155.00,A,A*6C
$GPVTG,323.0,T,323.1,M,000.0,N,000.1,K,A*23
$GPGSV,2,1,07,02,38,071,47,12,52,083,47,14,24,248,39,25,79,003,47*73
$GPGSV,2,2,07,29,58,227,41,30,39,294,,31,30,312,34,,,,*4A
$GPGSA,M,3,02,12,14,25,29,,,,,,,,4.4,3.6,2.4*35
Trace #108 at position 26.750000
$GPZDA,091154.03,08,10,2011,00,00*66
$GPRMC,091154.00,A,4611.964523,N,01258.212974,E,000.1,356.9,081011,0.2,E,A*36
$GPGGA,091155.00,4611.964516,N,01258.212932,E,1,05,3.6,140.27,M,46.25,M,,*6C
$GPGLL,4611.964516,N,01258.212932,E,091155.00,A,A*6C
$GPVTG,323.0,T,323.1,M,000.0,N,000.1,K,A*23
$GPGSV,2,1,07,02,38,071,47,12,52,083,47,14,24,248,39,25,79,003,47*73
$GPGSV,2,2,07,29,58,227,41,30,39,294,,31,30,312,34,,,,*4A
$GPGSA,M,3,02,12,14,25,29,,,,,,,,4.4,3.6,2.4*35
Trace #109 at position 27.000000
$GPZDA,091155.03,08,10,2011,00,00*67
$GPRMC,091155.00,A,4611.964516,N,01258.212932,E,000.0,323.0,081011,0.2,E,A*39
$GPGGA,091156.00,4611.964498,N,01258.212895,E,1,05,3.6,140.30,M,46.25,M,,*62
$GPGLL,4611.964498,N,01258.212895,E,091156.00,A,A*64
$GPVTG,267.1,T,267.3,M,000.0,N,000.0,K,A*21
$GPGSV,2,1,07,02,38,071,47,12,52,083,48,14,24,248,39,25,79,003,48*73
$GPGSV,2,2,07,29,58,227,40,30,39,294,,31,30,312,35,,,,*4A
$GPGSA,M,3,02,12,14,25,29,,,,,,,,4.4,3.6,2.4*35
Trace #110 at position 27.250000
$GPZDA,091156.03,08,10,2011,00,00*64
$GPRMC,091156.00,A,4611.964498,N,01258.212895,E,000.0,267.1,081011,0.2,E,A*31
$GPGGA,091157.00,4611.964517,N,01258.212785,E,1,05,3.6,140.41,M,46.25,M,,*6D
$GPGLL,4611.964517,N,01258.212785,E,091157.00,A,A*6D
$GPVTG,298.0,T,298.2,M,000.5,N,000.9,K,A*2D
$GPGSV,2,1,07,02,38,071,48,12,52,083,48,14,24,248,38,25,79,003,48*7D
$GPGSV,2,2,07,29,58,227,41,30,39,294,,31,30,312,33,,,,*4D
$GPGSA,M,3,02,12,14,25,29,,,,,,,,4.4,3.6,2.4*35
Trace #111 at position 27.500000
$GPZDA,091157.03,08,10,2011,00,00*65
$GPRMC,091157.00,A,4611.964517,N,01258.212785,E,000.5,298.0,081011,0.2,E,A*3C
$GPGGA,091158.00,4611.964675,N,01258.212612,E,1,05,3.6,140.51,M,46.25,M,,*6B
$GPGLL,4611.964675,N,01258.212612,E,091158.00,A,A*6A
$GPVTG,336.9,T,337.1,M,001.1,N,002.0,K,A*28
$GPGSV,2,1,07,02,38,071,48,12,52,083,47,14,24,248,38,25,79,003,48*72
$GPGSV,2,2,07,29,58,227,41,30,39,294,,31,30,312,35,,,,*4B
$GPGSA,M,3,02,12,14,25,29,,,,,,,,4.4,3.6,2.4*35
Trace #112 at position 27.750000
$GPZDA,091158.03,08,10,2011,00,00*6A
$GPRMC,091158.00,A,4611.964675,N,01258.212612,E,001.1,336.9,081011,0.2,E,A*32
$GPGGA,091159.00,4611.964898,N,01258.212350,E,1,05,3.6,140.51,M,46.25,M,,*64
$GPGLL,4611.964898,N,01258.212350,E,091159.00,A,A*65
$GPVTG,306.6,T,306.7,M,001.2,N,002.3,K,A*20
$GPGSV,2,1,07,02,38,071,49,12,52,083,47,14,24,248,37,25,79,003,48*7C
$GPGSV,2,2,07,29,58,227,41,30,39,294,,31,30,312,36,,,,*48
$GPGSA,M,3,02,12,14,25,29,,,,,,,,4.4,3.6,2.4*35
Trace #113 at position 28.000000
$GPZDA,091159.03,08,10,2011,00,00*6B
$GPRMC,091159.00,A,4611.964898,N,01258.212350,E,001.2,306.6,081011,0.2,E,A*32
$GPGGA,091200.00,4611.965152,N,01258.212175,E,1,05,3.6,140.46,M,46.25,M,,*66
$GPGLL,4611.965152,N,01258.212175,E,091200.00,A,A*61
$GPVTG,358.6,T,358.8,M,001.2,N,002.3,K,A*2F
$GPGSV,2,1,07,02,38,071,48,12,52,083,47,14,24,248,38,25,79,003,47*7D
$GPGSV,2,2,07,29,58,227,42,30,39,294,,31,30,312,36,,,,*4B
$GPGSA,M,3,02,12,14,25,29,,,,,,,,4.4,3.6,2.4*35
Trace #114 at position 28.250000
$GPZDA,091200.03,08,10,2011,00,00*64
$GPRMC,091200.00,A,4611.965152,N,01258.212175,E,001.2,358.6,081011,0.2,E,A*3D
$GPGGA,091201.00,4611.965327,N,01258.212199,E,1,05,3.6,140.47,M,46.25,M,,*64
$GPGLL,4611.965327,N,01258.212199,E,091201.00,A,A*62
$GPVTG,34.4,T,34.6,M,000.1,N,000.3,K,A*23
$GPGSV,2,1,07,02,38,071,48,12,52,083,48,14,24,248,38,25,79,003,48*7D
$GPGSV,2,2,07,29,58,227,41,30,39,294,,31,30,312,36,,,,*48
$GPGSA,M,3,02,12,14,25,29,,,,,,,,4.4,3.6,2.4*35
Trace #115 at position 28.500000
$GPZDA,091200.03,08,10,2011,00,00*64
$GPRMC,091200.00,A,4611.965152,N,01258.212175,E,001.2,358.6,081011,0.2,E,A*3D
$GPGGA,091201.00,4611.965327,N,01258.212199,E,1,05,3.6,140.47,M,46.25,M,,*64
$GPGLL,4611.965327,N,01258.212199,E,091201.00,A,A*62
$GPVTG,34.4,T,34.6,M,000.1,N,000.3,K,A*23
$GPGSV,2,1,07,02,38,071,48,12,52,083,48,14,24,248,38,25,79,003,48*7D
$GPGSV,2,2,07,29,58,227,41,30,39,294,,31,30,312,36,,,,*48
$GPGSA,M,3,02,12,14,25,29,,,,,,,,4.4,3.6,2.4*35
Trace #116 at position 28.750000
$GPZDA,091201.03,08,10,2011,00,00*65
$GPRMC,091201.00,A,4611.965327,N,01258.212199,E,000.1,34.4,081011,0.2,E,A*07
$GPGGA,091202.00,4611.965379,N,01258.212115,E,1,05,3.6,140.56,M,46.25,M,,*68
$GPGLL,4611.965379,N,01258.212115,E,091202.00,A,A*6E
$GPVTG,291.4,T,291.6,M,000.6,N,001.1,K,A*27
$GPGSV,2,1,07,02,38,071,47,12,52,083,47,14,24,248,38,25,79,004,48*7A
$GPGSV,2,2,07,29,58,227,41,30,39,294,,31,30,312,34,,,,*4A
$GPGSA,M,3,02,12,14,25,29,,,,,,,,4.4,3.6,2.4*35
Trace #117 at position 29.000000
$GPZDA,091202.03,08,10,2011,00,00*66
$GPRMC,091202.00,A,4611.965379,N,01258.212115,E,000.6,291.4,081011,0.2,E,A*31
$GPGGA,091203.00,4611.965449,N,01258.212020,E,1,05,3.6,140.62,M,46.25,M,,*6D
$GPGLL,4611.965449,N,01258.212020,E,091203.00,A,A*6C
$GPVTG,354.4,T,354.6,M,000.3,N,000.5,K,A*27
$GPGSV,2,1,07,02,38,071,47,12,52,083,48,14,24,248,38,25,79,004,49*74
$GPGSV,2,2,07,29,58,227,42,30,39,294,,31,30,312,37,,,,*4A
$GPGSA,M,3,02,12,14,25,29,,,,,,,,4.4,3.6,2.4*35
Trace #118 at position 29.250000
$GPZDA,091203.03,08,10,2011,00,00*67
$GPRMC,091203.00,A,4611.965449,N,01258.212020,E,000.3,354.4,081011,0.2,E,A*3E
