Trace #1 at position 0.000000
$GPZDA,082013.04,08,10,2011,00,00*61
$GPRMC,082013.00,A,4611.975462,N,01258.204194,E,000.0,348.2,081011,0.2,E,A*36
$GPGGA,082014.00,4611.975493,N,01258.204215,E,1,07,1.2,142.43,M,46.25,M,,*6B
$GPGLL,4611.975493,N,01258.204215,E,082014.00,A,A*6F
$GPVTG,4.3,T,4.5,M,000.0,N,000.1,K,A*24
$GPGSV,2,1,08,04,21,052,39,02,35,100,37,09,36,145,,12,70,048,44*7D
$GPGSV,2,2,08,14,36,272,39,25,63,297,45,29,34,214,41,30,19,280,40*78
$GPGSA,M,3,04,02,12,14,25,29,30,,,,,,2.1,1.2,1.7*37
Trace #2 at position 0.250000
$GPZDA,082015.04,08,10,2011,00,00*67
$GPRMC,082015.00,A,4611.975492,N,01258.204223,E,000.2,227.9,081011,0.2,E,A*31
$GPGGA,082016.00,4611.975486,N,01258.204234,E,1,06,1.5,142.32,M,46.25,M,,*6E
$GPGLL,4611.975486,N,01258.204234,E,082016.00,A,A*6A
$GPVTG,116.4,T,116.5,M,000.0,N,000.0,K,A*22
$GPGSV,2,1,08,04,21,052,39,02,35,100,25,09,36,145,,12,70,048,44*7E
$GPGSV,2,2,08,14,36,272,40,25,63,297,48,29,34,214,41,30,19,280,41*7A
$GPGSA,M,3,04,12,14,25,29,30,,,,,,,2.3,1.5,1.8*3F
Trace #3 at position 0.500000
$GPZDA,082016.03,08,10,2011,00,00*63
$GPRMC,082016.00,A,4611.975486,N,01258.204234,E,000.0,116.4,081011,0.2,E,A*3F
$GPGGA,082017.00,4611.975499,N,01258.204265,E,1,06,1.5,142.21,M,46.25,M,,*67
$GPGLL,4611.975499,N,01258.204265,E,082017.00,A,A*61
$GPVTG,333.9,T,334.0,M,000.0,N,000.0,K,A*2D
$GPGSV,2,1,08,04,21,052,40,02,35,100,32,09,36,145,,12,70,048,43*71
$GPGSV,24,25,29,30,,,,,,,2.3,1.5,1.8*3F
$GPZDA,082017.03,08,10,2011,00,00*62
$GPRMC,082017.00,A,4611.975499,N,01258.204265,E,000.0,333.9,081011,0.2,E,A*3C
$GPGGA,082018.00,4611.975514,N,01258.204289,E,1,06,1.5,142.14,M,46.25,M,,*68
$GPGLL,4611.975514,N,01258.204289,E,082018.00,A,A*68
$GPVTG,25.1,T,25.3,M,000.0,N,000.0,K,A*21
$GPGSV,2,1,08,04,21,052,38,02,35,100,29,09,36,145,,12,70,048,41*76
$GPGSV,2,2,08,14,36,272,40,25,63,297,47,29,34,214,41,30,19,280,41*75
$GPGSA,M,3,04,12,14,25,29,30,,,,,,,2.3,1.5,1.8*3F04289,E,000.0,25.1,081011,0.2,E,A*09
Trace #4 at position 0.750000
$GPGGA,082019.00,4611.975517,N,01258.204313,E,1,06,1.5,142.08,M,46.25,M,,*65
$GPGLL,4611.975517,N,01258.204313,E,082019.00,A,A*68
$GPVTG,178.8,T,179.0,M,000.1,N,000.1,K,A*2A
$GPGSV,2,1,08,04,21,052,38,02,35,100,29,09,36,145,,12,70,048,41*76
$GPGSV,2,2,08,14,36,272,41,25,63,297,47,29,34,214,41,30,19,280,41*74
$GPGSA,M,3,04,12,14,25,29,30,,,,,,,2.3,1.5,1.8*3F
Trace #5 at position 1.000000
$GPGGA,082019.00,4611.975517,N,01258.204313,E,1,06,1.5,142.08,M,46.25,M,,*65
$GPGLL,4611.975517,N,01258.204313,E,082019.00,A,A*68
$GPVTG,178.8,T,179.0,M,000.1,N,000.1,K,A*2A
$GPGSV,2,1,08,04,21,052,38,02,35,100,29,09,36,145,,12,70,048,41*76
$GPGSV,2,2,08,14,36,272,41,25,63,297,47,29,34,214,41,30,19,280,41*74
$GPGSA,M,3,04,12,14,25,29,30,,,,,,,2.3,1.5,1.8*3F
Trace #6 at position 1.250000
$GPZDA,082019.03,08,10,2011,00,00*6C
$GPRMC,082019.00,A,4611.975517,N,01258.204313,E,000.1,178.8,081011,0.2$GPGGA,082020.00,4611.975519,N,01258.204331,E,1,06,1.5,142.03,M,46.25,M,,*6A
$GPGLL,4611.975519,N,01258.204331,E,082020.00,A,A*6C
$GPVTG,316.5,T,316.7,M,000.0,N,000.0,K,A*21
$GPGSV,2,1,08,04,21,052,38,02,35,100,30,09,36,145,,12,70,048,40*7F
$GPGSV,2,2,08,14,36,272,41,25,63,297,46,29,34,214,41,30,19,280,40*74
$GPGSA,M,3,04,12,14,25,29,30,,,,,,,2.3,1.5,1.8*3F
Trace #7 at position 1.500000
$GPZDA,082019.03,08,10,2011,00,00*6C
$GPRMC,082019.00,A,4611.975517,N,01258.204313,E,000.1,178.8,081011,0.2$GPGGA,082020.00,4611.975519,N,01258.204331,E,1,06,1.5,142.03,M,46.25,M,,*6A
$GPGLL,4611.975519,N,01258.204331,E,082020.00,A,A*6C
$GPVTG,316.5,T,316.7,M,000.0,N,000.0,K,A*21
$GPGSV,2,1,08,04,21,052,38,02,35,100,30,09,36,145,,12,70,048,40*7F
$GPGSV,2,2,08,14,36,272,41,25,63,297,46,29,34,214,41,30,19,280,40*74
$GPGSA,M,3,04,12,14,25,29,30,,,,,,,2.3,1.5,1.8*3F
Trace #8 at position 1.750000
$GPZDA,082020.03,08,10,2011,00,00*66
$GPRMC,082020.00,A,4611.975519,N,01258.204331,E,000.0,316.5,081011,0.2,E,A*3A
$GPGGA,082021.00,4611.975529,N,01258.204345,E,1,06,1.5,141.98,M,46.25,M,,*6A
$GPGLL,4611.975529,N,01258.204345,E,082021.00,A,A*6D
$GPVTG,345.3,T,345.4,M,000.0,N,000.0,K,A*24
$GPGSV,2,1,08,04,21,052,37,02,35,100,29,09,36,145,,12,70,048,40*78
$GPGSV,2,2,08,14,36,272,40,25,63,297,46,29,34,214,41,30,19,280,40*75
$GPGSA,M,3,04,12,14,25,29,30,,,,,,,2.3,1.5,1.8*3F
Trace #9 at position 2.000000
$GPZDA,082020.03,08,10,2011,00,00*66
$GPRMC,082020.00,A,4611.975519,N,01258.204331,E,000.0,316.5,081011,0.2,E,A*3A
$GPGGA,082021.00,4611.975529,N,01258.204345,E,1,06,1.5,141.98,M,46.25,M,,*6A
$GPGLL,4611.975529,N,01258.204345,E,082021.00,A,A*6D
$GPVTG,345.3,T,345.4,M,000.0,N,000.0,K,A*24
$GPGSV,2,1,08,04,21,052,37,02,35,100,29,09,36,145,,12,70,048,40*78
$GPGSV,2,2,08,14,36,272,40,25,63,297,46,29,34,214,41,30,19,280,40*75
$GPGSA,M,3,04,12,14,25,29,30,,,,,,,2.3,1.5,1.8*3F
Trace #10 at position 2.250000
$GPZDA,082021.03,08,10,2011,00,00*67
$GPRMC,082021.00,A,4611.975529,N,01258.204345,E,000.0,345.3,081011,0.2,E,A*3B
$GPGGA,082022.00,4611.975490,N,01258.204387,E,1,06,1.5,141.91,M,46.25,M,,*6D
$GPGLL,4611.975490,N,01258.204387,E,082022.00,A,A*63
$GPVTG,156.7,T,156.8,M,000.4,N,000.7,K,A*2F
$GPGSV,2,1,08,04,21,052,37,02,35,100,,09,36,145,,12,70,048,43*70
$GPGSV,2,2,08,14,36,272,40,25,63,297,45,29,34,214,42,30,19,280,40*75
$GPGSA,M,3,04,12,14,25,29,30,,,,,,,2.3,1.5,1.8*3F
Trace #11 at position 2.500000
$GPZDA,082021.03,08,10,2011,00,00*67
$GPRMC,082021.00,A,4611.975529,N,01258.204345,E,000.0,345.3,081011,0.2,E,A*3B
$GPGGA,082022.00,4611.975490,N,01258.204387,E,1,06,1.5,141.91,M,46.25,M,,*6D
$GPGLL,4611.975490,N,01258.204387,E,082022.00,A,A*63
$GPVTG,156.7,T,156.8,M,000.4,N,000.7,K,A*2F
$GPGSV,2,1,08,04,21,052,37,02,35,100,,09,36,145,,12,70,048,43*70
$GPGSV,2,2,08,14,36,272,40,25,63,297,45,29,34,214,42,30,19,280,40*75
$GPGSA,M,3,04,12,14,25,29,30,,,,,,,2.3,1.5,1.8*3F
Trace #12 at position 2.750000
$GPZDA,082022.03,08,10,2011,00,00*64
$GPRMC,082022.00,A,4611.975490,N,01258.204387,E,000.4,156.7,081011,0.2,E,A*35
$GPGGA,082023.00,4611.975426,N,01258.204413,E,1,06,1.5,141.86,M,46.25,M,,*6D
$GPGLL,4611.975426,N,01258.204413,E,082023.00,A,A*65
$GPVTG,209.8,T,209.9,M,000.2,N,000.4,K,A*24
$GPGSV,2,1,08,04,21,052,39,02,35,100,,09,36,145,,12,70,048,41*7C
$GPGSV,2,2,08,14,36,272,38,25,63,297,46,29,34,214,40,30,19,280,39*75
$GPGSA,M,3,04,12,14,25,29,30,,,,,,,2.3,1.5,1.8*3F
Trace #13 at position 3.000000
$GPZDA,082022.03,08,10,2011,00,00*64
$GPRMC,082022.00,A,4611.975490,N,01258.204387,E,000.4,156.7,081011,0.2,E,A*35
$GPGGA,082023.00,4611.975426,N,01258.204413,E,1,06,1.5,141.86,M,46.25,M,,*6D
$GPGLL,4611.975426,N,01258.204413,E,082023.00,A,A*65
$GPVTG,209.8,T,209.9,M,000.2,N,000.4,K,A*24
$GPGSV,2,1,08,04,21,052,39,02,35,100,,09,36,145,,12,70,048,41*7C
$GPGSV,2,2,08,14,36,272,38,25,63,297,46,29,34,214,40,30,19,280,39*75
$GPGSA,M,3,04,12,14,25,29,30,,,,,,,2.3,1.5,1.8*3F
Trace #14 at position 3.250000
$GPZDA,082023.04,08,10,2011,00,00*62
$GPRMC,082023.00,A,4611.975426,N,01258.204413,E,000.2,209.8,081011,0.2,E,A*33
$GPGGA,082024.00,4611.975350,N,01258.204401,E,1,06,1.5,141.84,M,46.25,M,,*6D
$GPGLL,4611.975350,N,01258.204401,E,082024.00,A,A*67
$GPVTG,188.1,T,188.2,M,000.4,N,000.7,K,A*23
$GPGSV,2,1,08,04,21,052,42,02,35,100,33,09,36,145,,12,70,048,42*73
$GPGSV,2,2,08,14,36,272,43,25,63,297,46,29,34,214,43,30,19,280,39*7A
$GPGSA,M,3,04,12,14,25,29,30,,,,,,,2.3,1.5,1.8*3F
Trace #15 at position 3.500000
$GPZDA,082023.04,08,10,2011,00,00*62
$GPRMC,082023.00,A,4611.975426,N,01258.204413,E,000.2,209.8,081011,0.2,E,A*33
$GPGGA,082024.00,4611.975350,N,01258.204401,E,1,06,1.5,141.84,M,46.25,M,,*6D
$GPGLL,4611.975350,N,01258.204401,E,082024.00,A,A*67
$GPVTG,188.1,T,188.2,M,000.4,N,000.7,K,A*23
$GPGSV,2,1,08,04,21,052,42,02,35,100,33,09,36,145,,12,70,048,42*73
$GPGSV,2,2,08,14,36,272,43,25,63,297,46,29,34,214,43,30,19,280,39*7A
$GPGSA,M,3,04,12,14,25,29,30,,,,,,,2.3,1.5,1.8*3F
Trace #16 at position 3.750000
$GPZDA,082024.03,08,10,2011,00,00*62
$GPRMC,082024.00,A,4611.975350,N,01258.204401,E,000.4,188.1,081011,0.2,E,A*34
$GPGGA,082025.00,4611.975160,N,01258.204481,E,1,06,1.5,141.81,M,46.25,M,,*60
$GPGLL,4611.975160,N,01258.204481,E,082025.00,A,A*6F
$GPVTG,159.6,T,159.7,M,001.0,N,001.9,K,A*2B
$GPGSV,2,1,08,04,21,052,41,02,35,100,32,09,36,145,,12,70,048,42*71
$GPGSV,2,2,08,14,36,272,42,25,63,297,46,29,34,214,43,30,19,280,38*7A
$GPGSA,M,3,04,12,14,25,29,30,,,,,,,2.3,1.5,1.8*3F
Trace #17 at position 4.000000
$GPZDA,082024.03,08,10,2011,00,00*62
$GPRMC,082024.00,A,4611.975350,N,01258.204401,E,000.4,188.1,081011,0.2,E,A*34
$GPGGA,082025.00,4611.975160,N,01258.204481,E,1,06,1.5,141.81,M,46.25,M,,*60
$GPGLL,4611.975160,N,01258.204481,E,082025.00,A,A*6F
$GPVTG,159.6,T,159.7,M,001.0,N,001.9,K,A*2B
$GPGSV,2,1,08,04,21,052,41,02,35,100,32,09,36,145,,12,70,048,42*71
$GPGSV,2,2,08,14,36,272,42,25,63,297,46,29,34,214,43,30,19,280,38*7A
$GPGSA,M,3,04,12,14,25,29,30,,,,,,,2.3,1.5,1.8*3F
Trace #18 at position 4.250000
$GPZDA,082025.03,08,10,2011,00,00*63
$GPRMC,082025.00,A,4611.975160,N,01258.204481,E,001.0,159.6,081011,0.2,E,A*32
$GPGGA,082026.00,4611.974874,N,01258.204595,E,1,06,1.5,141.85,M,46.25,M,,*6E
$GPGLL,4611.974874,N,01258.204595,E,082026.00,A,A*65
$GPVTG,174.9,T,175.1,M,001.1,N,002.0,K,A*28
$GPGSV,2,1,08,04,21,052,39,02,35,100,33,09,36,145,,12,70,048,42*7F
$GPGSV,2,2,08,14,36,272,41,25,63,297,46,29,34,214,42,30,19,280,39*79
$GPGSA,M,3,04,12,14,25,29,30,,,,,,,2.3,1.5,1.8*3F
Trace #19 at position 4.500000
$GPZDA,082025.03,08,10,2011,00,00*63
$GPRMC,082025.00,A,4611.975160,N,01258.204481,E,001.0,159.6,081011,0.2,E,A*32
$GPGGA,082026.00,4611.974874,N,01258.204595,E,1,06,1.5,141.85,M,46.25,M,,*6E
$GPGLL,4611.974874,N,01258.204595,E,082026.00,A,A*65
$GPVTG,174.9,T,175.1,M,001.1,N,002.0,K,A*28
$GPGSV,2,1,08,04,21,052,39,02,35,100,33,09,36,145,,12,70,048,42*7F
$GPGSV,2,2,08,14,36,272,41,25,63,297,46,29,34,214,42,30,19,280,39*79
$GPGSA,M,3,04,12,14,25,29,30,,,,,,,2.3,1.5,1.8*3F
Trace #20 at position 4.750000
$GPZDA,082025.03,08,10,2011,00,00*63
$GPRMC,082025.00,A,4611.975160,N,01258.204481,E,001.0,159.6,081011,0.2,E,A*32
$GPGGA,082026.00,4611.974874,N,01258.204595,E,1,06,1.5,141.85,M,46.25,M,,*6E
$GPGLL,4611.974874,N,01258.204595,E,082026.00,A,A*65
$GPVTG,174.9,T,175.1,M,001.1,N,002.0,K,A*28
$GPGSV,2,1,08,04,21,052,39,02,35,100,33,09,36,145,,12,70,048,42*7F
$GPGSV,2,2,08,14,36,272,41,25,63,297,46,29,34,214,42,30,19,280,39*79
$GPGSA,M,3,04,12,14,25,29,30,,,,,,,2.3,1.5,1.8*3F
Trace #21 at position 5.000000
$GPZDA,082026.03,08,10,2011,00,00*60
$GPRMC,082026.00,A,4611.974874,N,01258.204595,E,001.1,174.9,081011,0.2,E,A*39
$GPGGA,082027.00,4611.974575,N,01258.204673,E,1,06,1.5,141.82,M,46.25,M,,*6F
$GPGLL,4611.974575,N,01258.204673,E,082027.00,A,A*63
$GPVTG,171.3,T,171.5,M,001.1,N,002.0,K,A*27
$GPGSV,2,1,08,04,21,052,40,02,35,100,33,09,36,145,,12,70,048,42*71
$GPGSV,2,2,08,14,36,272,41,25,63,297,46,29,34,214,42,30,19,280,38*78
$GPGSA,M,3,04,12,14,25,29,30,,,,,,,2.3,1.5,1.8*3F
Trace #22 at position 5.250000
$GPZDA,082026.03,08,10,2011,00,00*60
$GPRMC,082026.00,A,4611.974874,N,01258.204595,E,001.1,174.9,081011,0.2,E,A*39
$GPGGA,082027.00,4611.974575,N,01258.204673,E,1,06,1.5,141.82,M,46.25,M,,*6F
$GPGLL,4611.974575,N,01258.204673,E,082027.00,A,A*63
$GPVTG,171.3,T,171.5,M,001.1,N,002.0,K,A*27
$GPGSV,2,1,08,04,21,052,40,02,35,100,33,09,36,145,,12,70,048,42*71
$GPGSV,2,2,08,14,36,272,41,25,63,297,46,29,34,214,42,30,19,280,38*78
$GPGSA,M,3,04,12,14,25,29,30,,,,,,,2.3,1.5,1.8*3F
Trace #23 at position 5.500000
$GPZDA,082027.03,08,10,2011,00,00*61
$GPRMC,082027.00,A,4611.974575,N,01258.204673,E,001.1,171.3,081011,0.2,E,A*30
$GPGGA,082028.00,4611.974300,N,01258.204787,E,1,06,1.5,141.77,M,46.25,M,,*64
$GPGLL,4611.974300,N,01258.204787,E,082028.00,A,A*62
$GPVTG,162.5,T,162.6,M,000.9,N,001.7,K,A*2F
$GPGSV,2,1,08,04,21,052,40,02,35,100,33,09,36,145,,12,70,048,42*71
$GPGSV,2,2,08,14,36,272,41,25,63,297,46,29,34,214,41,30,19,280,38*7B
$GPGSA,M,3,04,12,14,25,29,30,,,,,,,2.3,1.5,1.8*3F
Trace #24 at position 5.750000
$GPZDA,082027.03,08,10,2011,00,00*61
$GPRMC,082027.00,A,4611.974575,N,01258.204673,E,001.1,171.3,081011,0.2,E,A*30
$GPGGA,082028.00,4611.974300,N,01258.204787,E,1,06,1.5,141.77,M,46.25,M,,*64
$GPGLL,4611.974300,N,01258.204787,E,082028.00,A,A*62
$GPVTG,162.5,T,162.6,M,000.9,N,001.7,K,A*2F
$GPGSV,2,1,08,04,21,052,40,02,35,100,33,09,36,145,,12,70,048,42*71
$GPGSV,2,2,08,14,36,272,41,25,63,297,46,29,34,214,41,30,19,280,38*7B
$GPGSA,M,3,04,12,14,25,29,30,,,,,,,2.3,1.5,1.8*3F
Trace #25 at position 6.000000
$GPZDA,082027.03,08,10,2011,00,00*61
$GPRMC,082027.00,A,4611.974575,N,01258.204673,E,001.1,171.3,081011,0.2,E,A*30
$GPGGA,082028.00,4611.974300,N,01258.204787,E,1,06,1.5,141.77,M,46.25,M,,*64
$GPGLL,4611.974300,N,01258.204787,E,082028.00,A,A*62
$GPVTG,162.5,T,162.6,M,000.9,N,001.7,K,A*2F
$GPGSV,2,1,08,04,21,052,40,02,35,100,33,09,36,145,,12,70,048,42*71
$GPGSV,2,2,08,14,36,272,41,25,63,297,46,29,34,214,41,30,19,280,38*7B
$GPGSA,M,3,04,12,14,25,29,30,,,,,,,2.3,1.5,1.8*3F
Trace #26 at position 6.250000
$GPZDA,082027.03,08,10,2011,00,00*61
$GPRMC,082027.00,A,4611.974575,N,01258.204673,E,001.1,171.3,081011,0.2,E,A*30
$GPGGA,082028.00,4611.974300,N,01258.204787,E,1,06,1.5,141.77,M,46.25,M,,*64
$GPGLL,4611.974300,N,01258.204787,E,082028.00,A,A*62
$GPVTG,162.5,T,162.6,M,000.9,N,001.7,K,A*2F
$GPGSV,2,1,08,04,21,052,40,02,35,100,33,09,36,145,,12,70,048,42*71
$GPGSV,2,2,08,14,36,272,41,25,63,297,46,29,34,214,41,30,19,280,38*7B
$GPGSA,M,3,04,12,14,25,29,30,,,,,,,2.3,1.5,1.8*3F
Trace #27 at position 6.500000
$GPZDA,082027.03,08,10,2011,00,00*61
$GPRMC,082027.00,A,4611.974575,N,01258.204673,E,001.1,171.3,081011,0.2,E,A*30
$GPGGA,082028.00,4611.974300,N,01258.204787,E,1,06,1.5,141.77,M,46.25,M,,*64
$GPGLL,4611.974300,N,01258.204787,E,082028.00,A,A*62
$GPVTG,162.5,T,162.6,M,000.9,N,001.7,K,A*2F
$GPGSV,2,1,08,04,21,052,40,02,35,100,33,09,36,145,,12,70,048,42*71
$GPGSV,2,2,08,14,36,272,41,25,63,297,46,29,34,214,41,30,19,280,38*7B
$GPGSA,M,3,04,12,14,25,29,30,,,,,,,2.3,1.5,1.8*3F
Trace #28 at position 6.750000
$GPZDA,082028.04,08,10,2011,00,00*69
$GPRMC,082028.00,A,4611.974300,N,01258.204787,E,000.9,162.5,081011,0.2,E,A*3C
$GPGGA,082029.00,4611.974068,N,01258.205011,E,1,06,1.5,141.85,M,46.25,M,,*6C
$GPGLL,4611.974068,N,01258.205011,E,082029.00,A,A*67
$GPVTG,136.2,T,136.4,M,001.1,N,001.9,K,A*2D
$GPGSV,2,1,08,04,21,052,41,02,35,100,33,09,36,145,,12,70,048,42*70
$GPGSV,2,2,08,14,36,12,14,25,29,30,,,,,,,2.3,1.5,1.8*3F
$GPZDA,082029.03,08,10,2011,00,00*6F
$GPRMC,082029.00,A,4611.974068,N,01258.205011,E,001.1,136.2,081011,0.2,E,A*36
$GPGGA,082030.00,4611.973827,N,01258.205178,E,1,06,1.5,141.84,M,46.25,M,,*6F
$GPGLL,4611.973827,N,01258.205178,E,082030.00,A,A*65
$GPVTG,176.8,T,176.9,M,001.0,N,001.9,K,A*2B
$GPGSV,2,1,08,04,21,052,42,02,35,100,34,09,36,145,,12,70,048,42*74
$GPGSV,2,2,08,14,36,272,43,25,63,297,46,29,34,214,42,30,19,281,39*7A
$GPGSA,M,3,04,12,14,25,29,30,,,,,,,2.3,1.5,,4611.973827,N,01258.205178,E,001.0,176.8,081011,0.2,E,A*3B
Trace #29 at position 7.000000
$GPZDA,082028.04,08,10,2011,00,00*69
$GPRMC,082028.00,A,4611.974300,N,01258.204787,E,000.9,162.5,081011,0.2,E,A*3C
$GPGGA,082029.00,4611.974068,N,01258.205011,E,1,06,1.5,141.85,M,46.25,M,,*6C
$GPGLL,4611.974068,N,01258.205011,E,082029.00,A,A*67
$GPVTG,136.2,T,136.4,M,001.1,N,001.9,K,A*2D
$GPGSV,2,1,08,04,21,052,41,02,35,100,33,09,36,145,,12,70,048,42*70
$GPGSV,2,2,08,14,36,12,14,25,29,30,,,,,,,2.3,1.5,1.8*3F
$GPZDA,082029.03,08,10,2011,00,00*6F
$GPRMC,082029.00,A,4611.974068,N,01258.205011,E,001.1,136.2,081011,0.2,E,A*36
$GPGGA,082030.00,4611.973827,N,01258.205178,E,1,06,1.5,141.84,M,46.25,M,,*6F
$GPGLL,4611.973827,N,01258.205178,E,082030.00,A,A*65
$GPVTG,176.8,T,176.9,M,001.0,N,001.9,K,A*2B
$GPGSV,2,1,08,04,21,052,42,02,35,100,34,09,36,145,,12,70,048,42*74
$GPGSV,2,2,08,14,36,272,43,25,63,297,46,29,34,214,42,30,19,281,39*7A
$GPGSA,M,3,04,12,14,25,29,30,,,,,,,2.3,1.5,,4611.973827,N,01258.205178,E,001.0,176.8,081011,0.2,E,A*3B
Trace #30 at position 7.250000
$GPGGA,082031.00,4611.973555,N,01258.205279,E,1,06,1.5,141.80,M,46.25,M,,*60
$GPGLL,4611.973555,N,01258.205279,E,082031.00,A,A*6E
$GPVTG,158.3,T,158.4,M,001.1,N,002.0,K,A*26
$GPGSV,2,1,08,04,21,052,40,02,35,100,35,09,36,145,,12,70,048,42*77
$GPGSV,2,2,08,14,36,272,42,25,63,297,46,29,34,214,42,30,19,281,40*75
$GPGSA,M,3,04,12,14,25,29,30,,,,,,,2.3,1.5,1.8*3F
Trace #31 at position 7.500000
$GPGGA,082031.00,4611.973555,N,01258.205279,E,1,06,1.5,141.80,M,46.25,M,,*60
$GPGLL,4611.973555,N,01258.205279,E,082031.00,A,A*6E
$GPVTG,158.3,T,158.4,M,001.1,N,002.0,K,A*26
$GPGSV,2,1,08,04,21,052,40,02,35,100,35,09,36,145,,12,70,048,42*77
$GPGSV,2,2,08,14,36,272,42,25,63,297,46,29,34,214,42,30,19,281,40*75
$GPGSA,M,3,04,12,14,25,29,30,,,,,,,2.3,1.5,1.8*3F
Trace #32 at position 7.750000
$GPGGA,082031.00,4611.973555,N,01258.205279,E,1,06,1.5,141.80,M,46.25,M,,*60
$GPGLL,4611.973555,N,01258.205279,E,082031.00,A,A*6E
$GPVTG,158.3,T,158.4,M,001.1,N,002.0,K,A*26
$GPGSV,2,1,08,04,21,052,40,02,35,100,35,09,36,145,,12,70,048,42*77
$GPGSV,2,2,08,14,36,272,42,25,63,297,46,29,34,214,42,30,19,281,40*75
$GPGSA,M,3,04,12,14,25,29,30,,,,,,,2.3,1.5,1.8*3F
Trace #33 at position 8.000000
$GPZDA,082031.03,08,10,2011,00,00*66
$GPRMC,082031.00,A,4611.973555,N,01258.205279,E$GPGGA,082032.00,4611.973266,N,01258.205522,E,1,06,1.5,141.83,M,46.25,M,,*6E
$GPGLL,4611.973266,N,01258.205522,E,082032.00,A,A*63
$GPVTG,143.8,T,143.9,M,001.4,N,002.6,K,A*23
$GPGSV,2,1,08,04,21,052,41,02,35,100,35,09,36,145,,12,70,048,41*75
$GPGSV,2,2,08,14,36,272,41,25,63,297,46,29,34,214,43,30,19,281,39*79
$GPGSA,M,3,04,12,14,25,29,30,,,,,,,2.3,1.5,1.8*3F
Trace #34 at position 8.250000
$GPZDA,082031.03,08,10,2011,00,00*66
$GPRMC,082031.00,A,4611.973555,N,01258.205279,E$GPGGA,082032.00,4611.973266,N,01258.205522,E,1,06,1.5,141.83,M,46.25,M,,*6E
$GPGLL,4611.973266,N,01258.205522,E,082032.00,A,A*63
$GPVTG,143.8,T,143.9,M,001.4,N,002.6,K,A*23
$GPGSV,2,1,08,04,21,052,41,02,35,100,35,09,36,145,,12,70,048,41*75
$GPGSV,2,2,08,14,36,272,41,25,63,297,46,29,34,214,43,30,19,281,39*79
$GPGSA,M,3,04,12,14,25,29,30,,,,,,,2.3,1.5,1.8*3F
Trace #35 at position 8.500000
$GPZDA,082032.03,08,10,2011,00,00*65
$GPRMC,082032.00,A,4611.973266,N,01258.205522,E,001.4,143.8,081011,0.2,E,A*3F
$GPGGA,082033.00,4611.972954,N,01258.205675,E,1,06,1.5,141.82,M,46.25,M,,*64
$GPGLL,4611.972954,N,01258.205675,E,082033.00,A,A*68
$GPVTG,180.9,T,181.1,M,001.1,N,002.1,K,A*29
$GPGSV,2,1,08,04,21,052,41,02,35,100,33,09,36,145,,12,70,048,41*73
$GPGSV,2,2,08,14,36,272,41,25,63,297,46,29,34,214,42,30,19,281,39*78
$GPGSA,M,3,04,12,14,25,29,30,,,,,,,2.3,1.5,1.8*3F
Trace #36 at position 8.750000
$GPZDA,082032.03,08,10,2011,00,00*65
$GPRMC,082032.00,A,4611.973266,N,01258.205522,E,001.4,143.8,081011,0.2,E,A*3F
$GPGGA,082033.00,4611.972954,N,01258.205675,E,1,06,1.5,141.82,M,46.25,M,,*64
$GPGLL,4611.972954,N,01258.205675,E,082033.00,A,A*68
$GPVTG,180.9,T,181.1,M,001.1,N,002.1,K,A*29
$GPGSV,2,1,08,04,21,052,41,02,35,100,33,09,36,145,,12,70,048,41*73
$GPGSV,2,2,08,14,36,272,41,25,63,297,46,29,34,214,42,30,19,281,39*78
$GPGSA,M,3,04,12,14,25,29,30,,,,,,,2.3,1.5,1.8*3F
Trace #37 at position 9.000000
$GPZDA,082032.03,08,10,2011,00,00*65
$GPRMC,082032.00,A,4611.973266,N,01258.205522,E,001.4,143.8,081011,0.2,E,A*3F
$GPGGA,082033.00,4611.972954,N,01258.205675,E,1,06,1.5,141.82,M,46.25,M,,*64
$GPGLL,4611.972954,N,01258.205675,E,082033.00,A,A*68
$GPVTG,180.9,T,181.1,M,001.1,N,002.1,K,A*29
$GPGSV,2,1,08,04,21,052,41,02,35,100,33,09,36,145,,12,70,048,41*73
$GPGSV,2,2,08,14,36,272,41,25,63,297,46,29,34,214,42,30,19,281,39*78
$GPGSA,M,3,04,12,14,25,29,30,,,,,,,2.3,1.5,1.8*3F
Trace #38 at position 9.250000
$GPZDA,082033.04,08,10,2011,00,00*63
$GPRMC,082033.00,A,4611.972954,N,01258.205675,E,001.1,180.9,081011,0.2,E,A*3F
$GPGGA,082034.00,4611.972606,N,01258.205803,E,1,06,1.5,141.73,M,46.25,M,,*6A
$GPGLL,4611.972606,N,01258.205803,E,082034.00,A,A*68
$GPVTG,154.0,T,154.2,M,001.6,N,002.9,K,A*2D
$GPGSV,2,1,08,04,21,052,41,02,35,100,32,09,36,145,,12,70,048,41*72
$GPGSV,2,2,08,14,36,272,42,25,63,297,45,29,34,214,42,30,19,281,38*79
$GPGSA,M,3,04,12,14,25,29,30,,,,,,,2.3,1.5,1.8*3F
Trace #39 at position 9.500000
$GPZDA,082033.04,08,10,2011,00,00*63
$GPRMC,082033.00,A,4611.972954,N,01258.205675,E,001.1,180.9,081011,0.2,E,A*3F
$GPGGA,082034.00,4611.972606,N,01258.205803,E,1,06,1.5,141.73,M,46.25,M,,*6A
$GPGLL,4611.972606,N,01258.205803,E,082034.00,A,A*68
$GPVTG,154.0,T,154.2,M,001.6,N,002.9,K,A*2D
$GPGSV,2,1,08,04,21,052,41,02,35,100,32,09,36,145,,12,70,048,41*72
$GPGSV,2,2,08,14,36,272,42,25,63,297,45,29,34,214,42,30,19,281,38*79
$GPGSA,M,3,04,12,14,25,29,30,,,,,,,2.3,1.5,1.8*3F
Trace #40 at position 9.750000
$GPZDA,082033.04,08,10,2011,00,00*63
$GPRMC,082033.00,A,4611.972954,N,01258.205675,E,001.1,180.9,081011,0.2,E,A*3F
$GPGGA,082034.00,4611.972606,N,01258.205803,E,1,06,1.5,141.73,M,46.25,M,,*6A
$GPGLL,4611.972606,N,01258.205803,E,082034.00,A,A*68
$GPVTG,154.0,T,154.2,M,001.6,N,002.9,K,A*2D
$GPGSV,2,1,08,04,21,052,41,02,35,100,32,09,36,145,,12,70,048,41*72
$GPGSV,2,2,08,14,36,272,42,25,63,297,45,29,34,214,42,30,19,281,38*79
$GPGSA,M,3,04,12,14,25,29,30,,,,,,,2.3,1.5,1.8*3F
Trace #41 at position 10.000000
$GPZDA,082034.03,08,10,2011,00,00*63
$GPRMC,082034.00,A,4611.972606,N,01258.205803,E,001.6,154.0,081011,0.2,E,A*38
$GPGGA,082035.00,4611.972245,N,01258.205951,E,1,06,1.5,141.67,M,46.25,M,,*6B
$GPGLL,4611.972245,N,01258.205951,E,082035.00,A,A*6C
$GPVTG,175.5,T,175.6,M,001.3,N,002.3,K,A*23
$GPGSV,2,1,08,04,21,052,40,02,35,100,31,09,36,145,,12,70,048,41*70
$GPGSV,2,2,08,14,36,272,42,25,63,297,45,29,34,214,42,30,19,281,38*79
$GPGSA,M,3,04,12,14,25,29,30,,,,,,,2.3,1.5,1.8*3F
Trace #42 at position 10.250000
$GPZDA,082034.03,08,10,2011,00,00*63
$GPRMC,082034.00,A,4611.972606,N,01258.205803,E,001.6,154.0,081011,0.2,E,A*38
$GPGGA,082035.00,4611.972245,N,01258.205951,E,1,06,1.5,141.67,M,46.25,M,,*6B
$GPGLL,4611.972245,N,01258.205951,E,082035.00,A,A*6C
$GPVTG,175.5,T,175.6,M,001.3,N,002.3,K,A*23
$GPGSV,2,1,08,04,21,052,40,02,35,100,31,09,36,145,,12,70,048,41*70
$GPGSV,2,2,08,14,36,272,42,25,63,297,45,29,34,214,42,30,19,281,38*79
$GPGSA,M,3,04,12,14,25,29,30,,,,,,,2.3,1.5,1.8*3F
Trace #43 at position 10.500000
$GPZDA,082035.03,08,10,2011,00,00*62
$GPRMC,082035.00,A,4611.972245,N,01258.205951,E,001.3,175.5,081011,0.2,E,A*3F
$GPGGA,082036.00,4611.971958,N,01258.206016,E,1,06,1.5,141.65,M,46.25,M,,*67
$GPGLL,4611.971958,N,01258.206016,E,082036.00,A,A*62
$GPVTG,165.1,T,165.3,M,000.9,N,001.7,K,A*2E
$GPGSV,2,1,08,04,21,052,40,02,35,100,33,09,36,145,,12,70,048,41*72
$GPGSV,2,2,08,14,36,272,42,25,63,297,45,29,34,214,43,30,19,281,39*79
$GPGSA,M,3,04,12,14,25,29,30,,,,,,,2.3,1.5,1.8*3F
Trace #44 at position 10.750000
$GPZDA,082035.03,08,10,2011,00,00*62
$GPRMC,082035.00,A,4611.972245,N,01258.205951,E,001.3,175.5,081011,0.2,E,A*3F
$GPGGA,082036.00,4611.971958,N,01258.206016,E,1,06,1.5,141.65,M,46.25,M,,*67
$GPGLL,4611.971958,N,01258.206016,E,082036.00,A,A*62
$GPVTG,165.1,T,165.3,M,000.9,N,001.7,K,A*2E
$GPGSV,2,1,08,04,21,052,40,02,35,100,33,09,36,145,,12,70,048,41*72
$GPGSV,2,2,08,14,36,272,42,25,63,297,45,29,34,214,43,30,19,281,39*79
$GPGSA,M,3,04,12,14,25,29,30,,,,,,,2.3,1.5,1.8*3F
Trace #45 at position 11.000000
$GPZDA,082035.03,08,10,2011,00,00*62
$GPRMC,082035.00,A,4611.972245,N,01258.205951,E,001.3,175.5,081011,0.2,E,A*3F
$GPGGA,082036.00,4611.971958,N,01258.206016,E,1,06,1.5,141.65,M,46.25,M,,*67
$GPGLL,4611.971958,N,01258.206016,E,082036.00,A,A*62
$GPVTG,165.1,T,165.3,M,000.9,N,001.7,K,A*2E
$GPGSV,2,1,08,04,21,052,40,02,35,100,33,09,36,145,,12,70,048,41*72
$GPGSV,2,2,08,14,36,272,42,25,63,297,45,29,34,214,43,30,19,281,39*79
$GPGSA,M,3,04,12,14,25,29,30,,,,,,,2.3,1.5,1.8*3F
Trace #46 at position 11.250000
$GPZDA,082036.03,08,10,2011,00,00*61
$GPRMC,082036.00,A,4611.971958,N,01258.206016,E,000.9,165.1,081011,0.2,E,A*3F
$GPGGA,082037.00,4611.971698,N,01258.206140,E,1,06,1.5,141.67,M,46.25,M,,*65
$GPGLL,4611.971698,N,01258.206140,E,082037.00,A,A*62
$GPVTG,160.0,T,160.1,M,001.1,N,002.0,K,A*20
$GPGSV,2,1,08,04,21,052,41,02,35,100,34,09,36,145,,12,70,048,41*74
$GPGSV,2,2,08,14,36,272,42,25,63,297,46,29,34,214,42,30,19,281,39*7B
$GPGSA,M,3,04,12,14,25,29,30,,,,,,,2.3,1.5,1.8*3F
Trace #47 at position 11.500000
$GPZDA,082036.03,08,10,2011,00,00*61
$GPRMC,082036.00,A,4611.971958,N,01258.206016,E,000.9,165.1,081011,0.2,E,A*3F
$GPGGA,082037.00,4611.971698,N,01258.206140,E,1,06,1.5,141.67,M,46.25,M,,*65
$GPGLL,4611.971698,N,01258.206140,E,082037.00,A,A*62
$GPVTG,160.0,T,160.1,M,001.1,N,002.0,K,A*20
$GPGSV,2,1,08,04,21,052,41,02,35,100,34,09,36,145,,12,70,048,41*74
$GPGSV,2,2,08,14,36,272,42,25,63,297,46,29,34,214,42,30,19,281,39*7B
$GPGSA,M,3,04,12,14,25,29,30,,,,,,,2.3,1.5,1.8*3F
Trace #48 at position 11.750000
$GPZDA,082036.03,08,10,2011,00,00*61
$GPRMC,082036.00,A,4611.971958,N,01258.206016,E,000.9,165.1,081011,0.2,E,A*3F
$GPGGA,082037.00,4611.971698,N,01258.206140,E,1,06,1.5,141.67,M,46.25,M,,*65
$GPGLL,4611.971698,N,01258.206140,E,082037.00,A,A*62
$GPVTG,160.0,T,160.1,M,001.1,N,002.0,K,A*20
$GPGSV,2,1,08,04,21,052,41,02,35,100,34,09,36,145,,12,70,048,41*74
$GPGSV,2,2,08,14,36,272,42,25,63,297,46,29,34,214,42,30,19,281,39*7B
$GPGSA,M,3,04,12,14,25,29,30,,,,,,,2.3,1.5,1.8*3F
Trace #49 at position 12.000000
$GPZDA,082037.03,08,10,2011,00,00*60
$GPRMC,082037.00,A,4611.971698,N,01258.206140,E,001.1,160.0,081011,0.2,E,A*32
$GPGGA,082038.00,4611.971366,N,01258.206321,E,1,06,1.5,141.67,M,46.25,M,,*6B
$GPGLL,4611.971366,N,01258.206321,E,082038.00,A,A*6C
$GPVTG,159.6,T,159.8,M,001.5,N,002.7,K,A*2C
$GPGSV,2,1,08,04,21,052,40,02,35,100,34,09,36,145,,12,70,048,40*74
$GPGSV,2,2,08,14,36,272,41,25,63,297,46,29,34,214,42,30,19,281,39*78
$GPGSA,M,3,04,12,14,25,29,30,,,,,,,2.3,1.5,1.8*3F
Trace #50 at position 12.250000
$GPZDA,082037.03,08,10,2011,00,00*60
$GPRMC,082037.00,A,4611.971698,N,01258.206140,E,001.1,160.0,081011,0.2,E,A*32
$GPGGA,082038.00,4611.971366,N,01258.206321,E,1,06,1.5,141.67,M,46.25,M,,*6B
$GPGLL,4611.971366,N,01258.206321,E,082038.00,A,A*6C
$GPVTG,159.6,T,159.8,M,001.5,N,002.7,K,A*2C
$GPGSV,2,1,08,04,21,052,40,02,35,100,34,09,36,145,,12,70,048,40*74
$GPGSV,2,2,08,14,36,272,41,25,63,297,46,29,34,214,42,30,19,281,39*78
$GPGSA,M,3,04,12,14,25,29,30,,,,,,,2.3,1.5,1.8*3F
Trace #51 at position 12.500000
$GPZDA,082037.03,08,10,2011,00,00*60
$GPRMC,082037.00,A,4611.971698,N,01258.206140,E,001.1,160.0,081011,0.2,E,A*32
$GPGGA,082038.00,4611.971366,N,01258.206321,E,1,06,1.5,141.67,M,46.25,M,,*6B
$GPGLL,4611.971366,N,01258.206321,E,082038.00,A,A*6C
$GPVTG,159.6,T,159.8,M,001.5,N,002.7,K,A*2C
$GPGSV,2,1,08,04,21,052,40,02,35,100,34,09,36,145,,12,70,048,40*74
$GPGSV,2,2,08,14,36,272,41,25,63,297,46,29,34,214,42,30,19,281,39*78
$GPGSA,M,3,04,12,14,25,29,30,,,,,,,2.3,1.5,1.8*3F
Trace #52 at position 12.750000
$GPZDA,082038.04,08,10,2011,00,00*68
$GPRMC,082038.00,A,4611.971366,N,01258.206321,E,001.5,159.6,081011,0.2,E,A*34
$GPGGA,082039.00,4611.970997,N,01258.206469,E,1,06,1.5,141.61,M,46.25,M,,*62
$GPGLL,4611.970997,N,01258.206469,E,082039.00,A,A*63
$GPVTG,170.9,T,171.1,M,001.3,N,002.4,K,A*2E
$GPGSV,2,1,08,04,21,052,41,02,35,100,31,09,36,145,,12,70,048,41*71
$GPGSV,2,2,08,14,36,272,41,25,63,297,46,29,34,214,42,30,19,281,39*78
$GPGSA,M,3,04,12,14,25,29,30,,,,,,,2.3,1.5,1.8*3F
Trace #53 at position 13.000000
$GPZDA,082038.04,08,10,2011,00,00*68
$GPRMC,082038.00,A,4611.971366,N,01258.206321,E,001.5,159.6,081011,0.2,E,A*34
$GPGGA,082039.00,4611.970997,N,01258.206469,E,1,06,1.5,141.61,M,46.25,M,,*62
$GPGLL,4611.970997,N,01258.206469,E,082039.00,A,A*63
$GPVTG,170.9,T,171.1,M,001.3,N,002.4,K,A*2E
$GPGSV,2,1,08,04,21,052,41,02,35,100,31,09,36,145,,12,70,048,41*71
$GPGSV,2,2,08,14,36,272,41,25,63,297,46,29,34,214,42,30,19,281,39*78
$GPGSA,M,3,04,12,14,25,29,30,,,,,,,2.3,1.5,1.8*3F
Trace #54 at position 13.250000
$GPZDA,082038.04,08,10,2011,00,00*68
$GPRMC,082038.00,A,4611.971366,N,01258.206321,E,001.5,159.6,081011,0.2,E,A*34
$GPGGA,082039.00,4611.970997,N,01258.206469,E,1,06,1.5,141.61,M,46.25,M,,*62
$GPGLL,4611.970997,N,01258.206469,E,082039.00,A,A*63
$GPVTG,170.9,T,171.1,M,001.3,N,002.4,K,A*2E
$GPGSV,2,1,08,04,21,052,41,02,35,100,31,09,36,145,,12,70,048,41*71
$GPGSV,2,2,08,14,36,272,41,25,63,297,46,29,34,214,42,30,19,281,39*78
$GPGSA,M,3,04,12,14,25,29,30,,,,,,,2.3,1.5,1.8*3F
Trace #55 at position 13.500000
$GPZDA,082039.04,08,10,2011,00,00*69
$GPRMC,082039.00,A,4611.970997,N,01258.206469,E,001.3,170.9,081011,0.2,E,A*39
$GPGGA,082040.00,4611.970588,N,01258.206588,E,1,06,1.5,141.56,M,46.25,M,,*64
$GPGLL,4611.970588,N,01258.206588,E,082040.00,A,A*61
$GPVTG,169.2,T,169.4,M,001.7,N,003.2,K,A*22
$GPGSV,2,1,08,04,21,052,40,02,35,100,31,09,36,145,,12,70,048,42*73
$GPGSV,2,2,08,14,36,272,43,25,63,297,46,29,34,214,42,30,19,281,39*7A
$GPGSA,M,3,04,12,14,25,29,30,,,,,,,2.3,1.5,1.8*3F
Trace #56 at position 13.750000
$GPZDA,082039.04,08,10,2011,00,00*69
$GPRMC,082039.00,A,4611.970997,N,01258.206469,E,001.3,170.9,081011,0.2,E,A*39
$GPGGA,082040.00,4611.970588,N,01258.206588,E,1,06,1.5,141.56,M,46.25,M,,*64
$GPGLL,4611.970588,N,01258.206588,E,082040.00,A,A*61
$GPVTG,169.2,T,169.4,M,001.7,N,003.2,K,A*22
$GPGSV,2,1,08,04,21,052,40,02,35,100,31,09,36,145,,12,70,048,42*73
$GPGSV,2,2,08,14,36,272,43,25,63,297,46,29,34,214,42,30,19,281,39*7A
$GPGSA,M,3,04,12,14,25,29,30,,,,,,,2.3,1.5,1.8*3F
Trace #57 at position 14.000000
$GPZDA,082039.04,08,10,2011,00,00*69
$GPRMC,082039.00,A,4611.970997,N,01258.206469,E,001.3,170.9,081011,0.2,E,A*39
$GPGGA,082040.00,4611.970588,N,01258.206588,E,1,06,1.5,141.56,M,46.25,M,,*64
$GPGLL,4611.970588,N,01258.206588,E,082040.00,A,A*61
$GPVTG,169.2,T,169.4,M,001.7,N,003.2,K,A*22
$GPGSV,2,1,08,04,21,052,40,02,35,100,31,09,36,145,,12,70,048,42*73
$GPGSV,2,2,08,14,36,272,43,25,63,297,46,29,34,214,42,30,19,281,39*7A
$GPGSA,M,3,04,12,14,25,29,30,,,,,,,2.3,1.5,1.8*3F
Trace #58 at position 14.250000
$GPZDA,082040.03,08,10,2011,00,00*60
$GPRMC,082040.00,A,4611.970588,N,01258.206588,E,001.7,169.2,081011,0.2,E,A*3C
$GPGGA,082041.00,4611.970197,N,01258.206767,E,1,06,1.5,141.59,M,46.25,M,,*63
$GPGLL,4611.970197,N,01258.206767,E,082041.00,A,A*69
$GPVTG,156.1,T,156.3,M,001.3,N,002.4,K,A*25
$GPGSV,2,1,08,04,21,052,40,02,35,100,32,09,36,145,,12,70,048,41*73
$GPGSV,2,2,08,14,36,272,42,25,63,297,48,29,34,214,42,30,19,281,40*7B
$GPGSA,M,3,04,12,14,25,29,30,,,,,,,2.3,1.5,1.8*3F
Trace #59 at position 14.500000
$GPZDA,082040.03,08,10,2011,00,00*60
$GPRMC,082040.00,A,4611.970588,N,01258.206588,E,001.7,169.2,081011,0.2,E,A*3C
$GPGGA,082041.00,4611.970197,N,01258.206767,E,1,06,1.5,141.59,M,46.25,M,,*63
$GPGLL,4611.970197,N,01258.206767,E,082041.00,A,A*69
$GPVTG,156.1,T,156.3,M,001.3,N,002.4,K,A*25
$GPGSV,2,1,08,04,21,052,40,02,35,100,32,09,36,145,,12,70,048,41*73
$GPGSV,2,2,08,14,36,272,42,25,63,297,48,29,34,214,42,30,19,281,40*7B
$GPGSA,M,3,04,12,14,25,29,30,,,,,,,2.3,1.5,1.8*3F
Trace #60 at position 14.750000
$GPZDA,082040.03,08,10,2011,00,00*60
$GPRMC,082040.00,A,4611.970588,N,01258.206588,E,001.7,169.2,081011,0.2,E,A*3C
$GPGGA,082041.00,4611.970197,N,01258.206767,E,1,06,1.5,141.59,M,46.25,M,,*63
$GPGLL,4611.970197,N,01258.206767,E,082041.00,A,A*69
$GPVTG,156.1,T,156.3,M,001.3,N,002.4,K,A*25
$GPGSV,2,1,08,04,21,052,40,02,35,100,32,09,36,145,,12,70,048,41*73
$GPGSV,2,2,08,14,36,272,42,25,63,297,48,29,34,214,42,30,19,281,40*7B
$GPGSA,M,3,04,12,14,25,29,30,,,,,,,2.3,1.5,1.8*3F
Trace #61 at position 15.000000
$GPZDA,082040.03,08,10,2011,00,00*60
$GPRMC,082040.00,A,4611.970588,N,01258.206588,E,001.7,169.2,081011,0.2,E,A*3C
$GPGGA,082041.00,4611.970197,N,01258.206767,E,1,06,1.5,141.59,M,46.25,M,,*63
$GPGLL,4611.970197,N,01258.206767,E,082041.00,A,A*69
$GPVTG,156.1,T,156.3,M,001.3,N,002.4,K,A*25
$GPGSV,2,1,08,04,21,052,40,02,35,100,32,09,36,145,,12,70,048,41*73
$GPGSV,2,2,08,14,36,272,42,25,63,297,48,29,34,214,42,30,19,281,40*7B
$GPGSA,M,3,04,12,14,25,29,30,,,,,,,2.3,1.5,1.8*3F
Trace #62 at position 15.250000
$GPZDA,082040.03,08,10,2011,00,00*60
$GPRMC,082040.00,A,4611.970588,N,01258.206588,E,001.7,169.2,081011,0.2,E,A*3C
$GPGGA,082041.00,4611.970197,N,01258.206767,E,1,06,1.5,141.59,M,46.25,M,,*63
$GPGLL,4611.970197,N,01258.206767,E,082041.00,A,A*69
$GPVTG,156.1,T,156.3,M,001.3,N,002.4,K,A*25
$GPGSV,2,1,08,04,21,052,40,02,35,100,32,09,36,145,,12,70,048,41*73
$GPGSV,2,2,08,14,36,272,42,25,63,297,48,29,34,214,42,30,19,281,40*7B
$GPGSA,M,3,04,12,14,25,29,30,,,,,,,2.3,1.5,1.8*3F
Trace #63 at position 15.500000
$GPZDA,082041.03,08,10,2011,00,00*61
$GPRMC,082041.00,A,4611.970197,N,01258.206767,E,001.3,156.1,081011,0.2,E,A*3F
$GPGGA,082042.00,4611.969912,N,01258.206967,E,1,06,1.5,141.66,M,46.25,M,,*6F
$GPGLL,4611.969912,N,01258.206967,E,082042.00,A,A*69
$GPVTG,151.2,T,151.4,M,001.0,N,001.9,K,A*2C
$GPGSV,2,1,08,04,21,052,38,02,35,099,29,09,36,145,,12,70,048,42*74
$GPGSV,2,2,08,14,36,272,42,25,63,297,47,29,34DA,082042.03,08,10,2011,00,00*62
$GPRMC,082042.00,A,4611.969912,N,01258.206967,E,001.0,151.2,081011,0.2,E,A*38
$GPGGA,082043.00,4611.969572,N,01258.207114,E,1,06,1.5,141.69,M,46.25,M,,*66
$GPGLL,4611.969572,N,01258.207114,E,082043.00,A,A*6F
$GPVTG,169.9,T,170.1,M,001.6,N,003.0,K,A*27
$GPGSV,2,1,08,04,21,052,40,02,35,099,,09,36,145,,12,70,048,43*71
$GPGSV,2,2,08,14,36,272,43,25,63,297,47,29,34,214,44,30,20,281,41*78
$GPGSA,M,3,04,12,14,25,29,30,,,,,,,2.3,1.5,1.8*3F
Trace #64 at position 15.750000
$GPZDA,082041.03,08,10,2011,00,00*61
$GPRMC,082041.00,A,4611.970197,N,01258.206767,E,001.3,156.1,081011,0.2,E,A*3F
$GPGGA,082042.00,4611.969912,N,01258.206967,E,1,06,1.5,141.66,M,46.25,M,,*6F
$GPGLL,4611.969912,N,01258.206967,E,082042.00,A,A*69
$GPVTG,151.2,T,151.4,M,001.0,N,001.9,K,A*2C
$GPGSV,2,1,08,04,21,052,38,02,35,099,29,09,36,145,,12,70,048,42*74
$GPGSV,2,2,08,14,36,272,42,25,63,297,47,29,34DA,082042.03,08,10,2011,00,00*62
$GPRMC,082042.00,A,4611.969912,N,01258.206967,E,001.0,151.2,081011,0.2,E,A*38
$GPGGA,082043.00,4611.969572,N,01258.207114,E,1,06,1.5,141.69,M,46.25,M,,*66
$GPGLL,4611.969572,N,01258.207114,E,082043.00,A,A*6F
$GPVTG,169.9,T,170.1,M,001.6,N,003.0,K,A*27
$GPGSV,2,1,08,04,21,052,40,02,35,099,,09,36,145,,12,70,048,43*71
$GPGSV,2,2,08,14,36,272,43,25,63,297,47,29,34,214,44,30,20,281,41*78
$GPGSA,M,3,04,12,14,25,29,30,,,,,,,2.3,1.5,1.8*3F
Trace #65 at position 16.000000
$GPZDA,082041.03,08,10,2011,00,00*61
$GPRMC,082041.00,A,4611.970197,N,01258.206767,E,001.3,156.1,081011,0.2,E,A*3F
$GPGGA,082042.00,4611.969912,N,01258.206967,E,1,06,1.5,141.66,M,46.25,M,,*6F
$GPGLL,4611.969912,N,01258.206967,E,082042.00,A,A*69
$GPVTG,151.2,T,151.4,M,001.0,N,001.9,K,A*2C
$GPGSV,2,1,08,04,21,052,38,02,35,099,29,09,36,145,,12,70,048,42*74
$GPGSV,2,2,08,14,36,272,42,25,63,297,47,29,34DA,082042.03,08,10,2011,00,00*62
$GPRMC,082042.00,A,4611.969912,N,01258.206967,E,001.0,151.2,081011,0.2,E,A*38
$GPGGA,082043.00,4611.969572,N,01258.207114,E,1,06,1.5,141.69,M,46.25,M,,*66
$GPGLL,4611.969572,N,01258.207114,E,082043.00,A,A*6F
$GPVTG,169.9,T,170.1,M,001.6,N,003.0,K,A*27
$GPGSV,2,1,08,04,21,052,40,02,35,099,,09,36,145,,12,70,048,43*71
$GPGSV,2,2,08,14,36,272,43,25,63,297,47,29,34,214,44,30,20,281,41*78
$GPGSA,M,3,04,12,14,25,29,30,,,,,,,2.3,1.5,1.8*3F
Trace #66 at position 16.250000
$GPZDA,082043.04,08,10,2011,00,00*6$GPGGA,082044.00,4611.969214,N,01258.207264,E,1,06,1.5,141.76,M,46.25,M,,*6C
$GPGLL,4611.969214,N,01258.207264,E,082044.00,A,A*6B
$GPVTG,155.1,T,155.3,M,001.2,N,002.1,K,A*21
$GPGSV,2,1,08,04,21,052,38,02,35,099,,09,36,145,,12,70,048,42*7F
$GPGSV,2,2,08,14,36,272,42,25,63,297,46,29,34,214,42,30,20,281,39*71
$GPGSA,M,3,04,12,14,25,29,30,,,,,,,2.3,1.5,1.8*3F
Trace #67 at position 16.500000
$GPZDA,082043.04,08,10,2011,00,00*6$GPGGA,082044.00,4611.969214,N,01258.207264,E,1,06,1.5,141.76,M,46.25,M,,*6C
$GPGLL,4611.969214,N,01258.207264,E,082044.00,A,A*6B
$GPVTG,155.1,T,155.3,M,001.2,N,002.1,K,A*21
$GPGSV,2,1,08,04,21,052,38,02,35,099,,09,36,145,,12,70,048,42*7F
$GPGSV,2,2,08,14,36,272,42,25,63,297,46,29,34,214,42,30,20,281,39*71
$GPGSA,M,3,04,12,14,25,29,30,,,,,,,2.3,1.5,1.8*3F
Trace #68 at position 16.750000
$GPZDA,082043.04,08,10,2011,00,00*6$GPGGA,082044.00,4611.969214,N,01258.207264,E,1,06,1.5,141.76,M,46.25,M,,*6C
$GPGLL,4611.969214,N,01258.207264,E,082044.00,A,A*6B
$GPVTG,155.1,T,155.3,M,001.2,N,002.1,K,A*21
$GPGSV,2,1,08,04,21,052,38,02,35,099,,09,36,145,,12,70,048,42*7F
$GPGSV,2,2,08,14,36,272,42,25,63,297,46,29,34,214,42,30,20,281,39*71
$GPGSA,M,3,04,12,14,25,29,30,,,,,,,2.3,1.5,1.8*3F
Trace #69 at position 17.000000
$GPZDA,082044.03,08,10,2011,00,00*64
$GPRMC,082044.00,A,4611.969214,N,01258.207264,E,001.2,155.1,081011,0.2,E,A*3F
$GPGGA,082045.00,4611.968874,N,01258.207546,E,1,06,1.5,141.84,M,46.25,M,,*6A
$GPGLL,4611.968874,N,01258.207546,E,082045.00,A,A*60
$GPVTG,144.4,T,144.5,M,001.8,N,003.3,K,A*2B
$GPGSV,2,1,08,04,21,052,40,02,35,099,31,09,36,145,,12,70,048,42*72
$GPGSV,2,2,08,14,36,272,42,25,63,297,46,29,34,214,42,30,20,281,39*71
$GPGSA,M,3,04,12,14,25,29,30,,,,,,,2.3,1.5,1.8*3F
Trace #70 at position 17.250000
$GPZDA,082044.03,08,10,2011,00,00*64
$GPRMC,082044.00,A,4611.969214,N,01258.207264,E,001.2,155.1,081011,0.2,E,A*3F
$GPGGA,082045.00,4611.968874,N,01258.207546,E,1,06,1.5,141.84,M,46.25,M,,*6A
$GPGLL,4611.968874,N,01258.207546,E,082045.00,A,A*60
$GPVTG,144.4,T,144.5,M,001.8,N,003.3,K,A*2B
$GPGSV,2,1,08,04,21,052,40,02,35,099,31,09,36,145,,12,70,048,42*72
$GPGSV,2,2,08,14,36,272,42,25,63,297,46,29,34,214,42,30,20,281,39*71
$GPGSA,M,3,04,12,14,25,29,30,,,,,,,2.3,1.5,1.8*3F
Trace #71 at position 17.500000
$GPZDA,082045.04,08,10,2011,00,00*62
$GPRMC,082045.00,A,4611.968874,N,01258.207546,E,001.8,144.4,081011,0.2,E,A*3B
$GPGGA,082046.00,4611.968522,N,01258.207821,E,1,06,1.5,141.86,M,46.25,M,,*69
$GPGLL,4611.968522,N,01258.207821,E,082046.00,A,A*61
$GPVTG,155.1,T,155.3,M,001.2,N,002.3,K,A*23
$GPGSV,2,1,08,04,21,052,41,02,35,099,34,09,36,145,,12,70,048,41*75
$GPGSV,2,2,08,14,36,272,43,25,63,297,46,29,34,214,42,30,20,281,38*71
$GPGSA,M,3,04,12,14,25,29,30,,,,,,,2.3,1.5,1.8*3F
Trace #72 at position 17.750000
$GPZDA,082045.04,08,10,2011,00,00*62
$GPRMC,082045.00,A,4611.968874,N,01258.207546,E,001.8,144.4,081011,0.2,E,A*3B
$GPGGA,082046.00,4611.968522,N,01258.207821,E,1,06,1.5,141.86,M,46.25,M,,*69
$GPGLL,4611.968522,N,01258.207821,E,082046.00,A,A*61
$GPVTG,155.1,T,155.3,M,001.2,N,002.3,K,A*23
$GPGSV,2,1,08,04,21,052,41,02,35,099,34,09,36,145,,12,70,048,41*75
$GPGSV,2,2,08,14,36,272,43,25,63,297,46,29,34,214,42,30,20,281,38*71
$GPGSA,M,3,04,12,14,25,29,30,,,,,,,2.3,1.5,1.8*3F
Trace #73 at position 18.000000
$GPZDA,082046.03,08,10,2011,00,00*66
$GPRMC,082046.00,A,4611.968522,N,01258.207821,E,001.2,155.1,081011,0.2,E,A*35
$GPGGA,082047.00,4611.968136,N,01258.207910,E,1,06,1.5,141.90,M,46.25,M,,*6D
$GPGLL,4611.968136,N,01258.207910,E,082047.00,A,A*62
$GPVTG,177.9,T,178.0,M,001.7,N,003.1,K,A*21
$GPGSV,2,1,08,04,21,052,41,02,35,099,33,09,36,145,,12,70,048,41*72
$GPGSV,2,2,08,14,36,272,43,25,63,297,46,29,34,214,43,30,20,281,39*71
$GPGSA,M,3,04,12,14,25,29,30,,,,,,,2.3,1.5,1.8*3F
Trace #74 at position 18.250000
$GPZDA,082046.03,08,10,2011,00,00*66
$GPRMC,082046.00,A,4611.968522,N,01258.207821,E,001.2,155.1,081011,0.2,E,A*35
$GPGGA,082047.00,4611.968136,N,01258.207910,E,1,06,1.5,141.90,M,46.25,M,,*6D
$GPGLL,4611.968136,N,01258.207910,E,082047.00,A,A*62
$GPVTG,177.9,T,178.0,M,001.7,N,003.1,K,A*21
$GPGSV,2,1,08,04,21,052,41,02,35,099,33,09,36,145,,12,70,048,41*72
$GPGSV,2,2,08,14,36,272,43,25,63,297,46,29,34,214,43,30,20,281,39*71
$GPGSA,M,3,04,12,14,25,29,30,,,,,,,2.3,1.5,1.8*3F
Trace #75 at position 18.500000
$GPZDA,082046.03,08,10,2011,00,00*66
$GPRMC,082046.00,A,4611.968522,N,01258.207821,E,001.2,155.1,081011,0.2,E,A*35
$GPGGA,082047.00,4611.968136,N,01258.207910,E,1,06,1.5,141.90,M,46.25,M,,*6D
$GPGLL,4611.968136,N,01258.207910,E,082047.00,A,A*62
$GPVTG,177.9,T,178.0,M,001.7,N,003.1,K,A*21
$GPGSV,2,1,08,04,21,052,41,02,35,099,33,09,36,145,,12,70,048,41*72
$GPGSV,2,2,08,14,36,272,43,25,63,297,46,29,34,214,43,30,20,281,39*71
$GPGSA,M,3,04,12,14,25,29,30,,,,,,,2.3,1.5,1.8*3F
Trace #76 at position 18.750000
$GPZDA,082047.03,08,10,2011,00,00*67
$GPRMC,082047.00,A,4611.968136,N,01258.207910,E,001.7,177.9,081011,0.2,E,A*3B
$GPGGA,082048.00,4611.967762,N,01258.208036,E,1,06,1.5,141.96,M,46.25,M,,*6E
$GPGLL,4611.967762,N,01258.208036,E,082048.00,A,A*67
$GPVTG,146.8,T,147.0,M,001.2,N,002.2,K,A*29
$GPGSV,2,1,08,04,21,052,40,02,35,099,33,09,36,145,,12,70,048,40*72
$GPGSV,2,2,08,14,36,272,43,25,63,297,47,29,34,214,44,30,20,281,39*77
$GPGSA,M,3,04,12,14,25,29,30,,,,,,,2.3,1.5,1.8*3F
Trace #77 at position 19.000000
$GPZDA,082047.03,08,10,2011,00,00*67
$GPRMC,082047.00,A,4611.968136,N,01258.207910,E,001.7,177.9,081011,0.2,E,A*3B
$GPGGA,082048.00,4611.967762,N,01258.208036,E,1,06,1.5,141.96,M,46.25,M,,*6E
$GPGLL,4611.967762,N,01258.208036,E,082048.00,A,A*67
$GPVTG,146.8,T,147.0,M,001.2,N,002.2,K,A*29
$GPGSV,2,1,08,04,21,052,40,02,35,099,33,09,36,145,,12,70,048,40*72
$GPGSV,2,2,08,14,36,272,43,25,63,297,47,29,34,214,44,30,20,281,39*77
$GPGSA,M,3,04,12,14,25,29,30,,,,,,,2.3,1.5,1.8*3F
Trace #78 at position 19.250000
$GPZDA,082048.04,08,10,2011,00,00*6F
$GPRMC,082048.00,A,4611.967762,N,01258.208036,E,001.2,146.8,081011,0.2,E,A*38
$GPGGA,082049.00,4611.967395,N,01258.208264,E,1,06,1.5,141.96,M,46.25,M,,*66
$GPGLL,4611.967395,N,01258.208264,E,082049.00,A,A*6F
$GPVTG,160.0,T,160.1,M,001.7,N,003.1,K,A*26
$GPGSV,2,1,08,04,21,052,40,02,35,099,35,09,36,145,,12,70,048,40*74
$GPGSV,2,2,08,14,36,272,42,25,63,297,47,29,34,214,42,30,20,281,39*70
$GPGSA,M,3,04,12,14,25,29,30,,,,,,,2.3,1.5,1.8*3F
Trace #79 at position 19.500000
$GPZDA,082048.04,08,10,2011,00,00*6F
$GPRMC,082048.00,A,4611.967762,N,01258.208036,E,001.2,146.8,081011,0.2,E,A*38
$GPGGA,082049.00,4611.967395,N,01258.208264,E,1,06,1.5,141.96,M,46.25,M,,*66
$GPGLL,4611.967395,N,01258.208264,E,082049.00,A,A*6F
$GPVTG,160.0,T,160.1,M,001.7,N,003.1,K,A*26
$GPGSV,2,1,08,04,21,052,40,02,35,099,35,09,36,145,,12,70,048,40*74
$GPGSV,2,2,08,14,36,272,42,25,63,297,47,29,34,214,42,30,20,281,39*70
$GPGSA,M,3,04,12,14,25,29,30,,,,,,,2.3,1.5,1.8*3F
Trace #80 at position 19.750000
$GPZDA,082048.04,08,10,2011,00,00*6F
$GPRMC,082048.00,A,4611.967762,N,01258.208036,E,001.2,146.8,081011,0.2,E,A*38
$GPGGA,082049.00,4611.967395,N,01258.208264,E,1,06,1.5,141.96,M,46.25,M,,*66
$GPGLL,4611.967395,N,01258.208264,E,082049.00,A,A*6F
$GPVTG,160.0,T,160.1,M,001.7,N,003.1,K,A*26
$GPGSV,2,1,08,04,21,052,40,02,35,099,35,09,36,145,,12,70,048,40*74
$GPGSV,2,2,08,14,36,272,42,25,63,297,47,29,34,214,42,30,20,281,39*70
$GPGSA,M,3,04,12,14,25,29,30,,,,,,,2.3,1.5,1.8*3F
Trace #81 at position 20.000000
$GPZDA,082049.03,08,10,2011,00,00*69
$GPRMC,082049.00,A,4611.967395,N,01258.208264,E,001.7,160.0,081011,0.2,E,A*39
$GPGGA,082050.00,4611.966996,N,01258.208472,E,1,06,1.5,141.92,M,46.25,M,,*63
$GPGLL,4611.966996,N,01258.208472,E,082050.00,A,A*6E
$GPVTG,154.5,T,154.7,M,001.4,N,002.5,K,A*23
$GPGSV,2,1,08,04,21,052,40,02,35,099,33,09,36,145,,12,70,048,40*72
$GPGSV,2,2,08,14,36,272,44,25,63,297,47,29,34,214,43,30,20,281,38*76
$GPGSA,M,3,04,12,14,25,29,30,,,,,,,2.3,1.5,1.8*3F
Trace #82 at position 20.250000
$GPZDA,082049.03,08,10,2011,00,00*69
$GPRMC,082049.00,A,4611.967395,N,01258.208264,E,001.7,160.0,081011,0.2,E,A*39
$GPGGA,082050.00,4611.966996,N,01258.208472,E,1,06,1.5,141.92,M,46.25,M,,*63
$GPGLL,4611.966996,N,01258.208472,E,082050.00,A,A*6E
$GPVTG,154.5,T,154.7,M,001.4,N,002.5,K,A*23
$GPGSV,2,1,08,04,21,052,40,02,35,099,33,09,36,145,,12,70,048,40*72
$GPGSV,2,2,08,14,36,272,44,25,63,297,47,29,34,214,43,30,20,281,38*76
$GPGSA,M,3,04,12,14,25,29,30,,,,,,,2.3,1.5,1.8*3F
Trace #83 at position 20.500000
$GPZDA,082050.03,08,10,2011,00,00*61
$GPRMC,082050.00,A,4611.966996,N,01258.208472,E,001.4,154.5,081011,0.2,E,A*39
$GPGGA,082051.00,4611.966618,N,01258.208613,E,1,06,1.5,141.91,M,46.25,M,,*6D
$GPGLL,4611.966618,N,01258.208613,E,082051.00,A,A*63
$GPVTG,170.0,T,170.1,M,001.5,N,002.7,K,A*23
$GPGSV,2,1,08,04,21,052,40,02,35,099,32,09,36,145,,12,70,048,41*72
$GPGSV,2,2,08,14,36,272,43,25,63,297,47,29,34,214,43,30,20,281,38*71
$GPGSA,M,3,04,12,14,25,29,30,,,,,,,2.3,1.5,1.8*3F
Trace #84 at position 20.750000
$GPZDA,082050.03,08,10,2011,00,00*61
$GPRMC,082050.00,A,4611.966996,N,01258.208472,E,001.4,154.5,081011,0.2,E,A*39
$GPGGA,082051.00,4611.966618,N,01258.208613,E,1,06,1.5,141.91,M,46.25,M,,*6D
$GPGLL,4611.966618,N,01258.208613,E,082051.00,A,A*63
$GPVTG,170.0,T,170.1,M,001.5,N,002.7,K,A*23
$GPGSV,2,1,08,04,21,052,40,02,35,099,32,09,36,145,,12,70,048,41*72
$GPGSV,2,2,08,14,36,272,43,25,63,297,47,29,34,214,43,30,20,281,38*71
$GPGSA,M,3,04,12,14,25,29,30,,,,,,,2.3,1.5,1.8*3F
Trace #85 at position 21.000000
$GPZDA,082050.03,08,10,2011,00,00*61
$GPRMC,082050.00,A,4611.966996,N,01258.208472,E,001.4,154.5,081011,0.2,E,A*39
$GPGGA,082051.00,4611.966618,N,01258.208613,E,1,06,1.5,141.91,M,46.25,M,,*6D
$GPGLL,4611.966618,N,01258.208613,E,082051.00,A,A*63
$GPVTG,170.0,T,170.1,M,001.5,N,002.7,K,A*23
$GPGSV,2,1,08,04,21,052,40,02,35,099,32,09,36,145,,12,70,048,41*72
$GPGSV,2,2,08,14,36,272,43,25,63,297,47,29,34,214,43,30,20,281,38*71
$GPGSA,M,3,04,12,14,25,29,30,,,,,,,2.3,1.5,1.8*3F
Trace #86 at position 21.250000
$GPZDA,082051.03,08,10,2011,00,00*60
$GPRMC,082051.00,A,4611.966618,N,01258.208613,E,001.5,170.0,081011,0.2,E,A*36
$GPGGA,082052.00,4611.966323,N,01258.208659,E,1,06,1.5,141.95,M,46.25,M,,*69
$GPGLL,4611.966323,N,01258.208659,E,082052.00,A,A*63
$GPVTG,173.6,T,173.7,M,000.7,N,001.3,K,A*27
$GPGSV,2,1,08,04,21,052,39,02,35,099,32,09,36,145,,12,70,048,40*7D
$GPGSV,2,2,08,14,36,272,43,25,63,297,48,29,34,214,43,30,20,281,41*70
$GPGSA,M,3,04,12,14,25,29,30,,,,,,,2.3,1.5,1.8*3F
Trace #87 at position 21.500000
$GPZDA,082051.03,08,10,2011,00,00*60
$GPRMC,082051.00,A,4611.966618,N,01258.208613,E,001.5,170.0,081011,0.2,E,A*36
$GPGGA,082052.00,4611.966323,N,01258.208659,E,1,06,1.5,141.95,M,46.25,M,,*69
$GPGLL,4611.966323,N,01258.208659,E,082052.00,A,A*63
$GPVTG,173.6,T,173.7,M,000.7,N,001.3,K,A*27
$GPGSV,2,1,08,04,21,052,39,02,35,099,32,09,36,145,,12,70,048,40*7D
$GPGSV,2,2,08,14,36,272,43,25,63,297,48,29,34,214,43,30,20,281,41*70
$GPGSA,M,3,04,12,14,25,29,30,,,,,,,2.3,1.5,1.8*3F
Trace #88 at position 21.750000
$GPZDA,082051.03,08,10,2011,00,00*60
$GPRMC,082051.00,A,4611.966618,N,01258.208613,E,001.5,170.0,081011,0.2,E,A*36
$GPGGA,082052.00,4611.966323,N,01258.208659,E,1,06,1.5,141.95,M,46.25,M,,*69
$GPGLL,4611.966323,N,01258.208659,E,082052.00,A,A*63
$GPVTG,173.6,T,173.7,M,000.7,N,001.3,K,A*27
$GPGSV,2,1,08,04,21,052,39,02,35,099,32,09,36,145,,12,70,048,40*7D
$GPGSV,2,2,08,14,36,272,43,25,63,297,48,29,34,214,43,30,20,281,41*70
$GPGSA,M,3,04,12,14,25,29,30,,,,,,,2.3,1.5,1.8*3F
Trace #89 at position 22.000000
$GPZDA,082052.03,08,10,2011,00,00*63
$GPRMC,082052.00,A,4611.966323,N,01258.208659,E,000.7,173.6,081011,0.2,E,A*30
$GPGGA,082053.00,4611.966091,N,01258.208813,E,1,06,1.5,141.95,M,46.25,M,,*62
$GPGLL,4611.966091,N,01258.208813,E,082053.00,A,A*68
$GPVTG,138.9,T,139.0,M,001.3,N,002.3,K,A*28
$GPGSV,2,1,08,04,21,052,40,02,35,099,29,09,36,145,,12,70,048,40*79
$GPGSV,2,2,08,14,36,272,42,25,63,297,47,29,34,214,42,30,20,281,39*70
$GPGSA,M,3,04,12,14,25,29,30,,,,,,,2.3,1.5,1.8*3F
Trace #90 at position 22.250000
$GPZDA,082052.03,08,10,2011,00,00*63
$GPRMC,082052.00,A,4611.966323,N,01258.208659,E,000.7,173.6,081011,0.2,E,A*30
$GPGGA,082053.00,4611.966091,N,01258.208813,E,1,06,1.5,141.95,M,46.25,M,,*62
$GPGLL,4611.966091,N,01258.208813,E,082053.00,A,A*68
$GPVTG,138.9,T,139.0,M,001.3,N,002.3,K,A*28
$GPGSV,2,1,08,04,21,052,40,02,35,099,29,09,36,145,,12,70,048,40*79
$GPGSV,2,2,08,14,36,272,42,25,63,297,47,29,34,214,42,30,20,281,39*70
$GPGSA,M,3,04,12,14,25,29,30,,,,,,,2.3,1.5,1.8*3F
Trace #91 at position 22.500000
$GPZDA,082053.04,08,10,2011,00,00*65
$GPRMC,082053.00,A,4611.966091,N,01258.208813,E,001.3,138.9,081011,0.2,E,A*3E
$GPGGA,082054.00,4611.965815,N,01258.209112,E,1,06,1.5,141.90,M,46.25,M,,*6E
$GPGLL,4611.965815,N,01258.209112,E,082054.00,A,A*61
$GPVTG,137.4,T,137.6,M,001.3,N,002.5,K,A*24
$GPGSV,2,1,08,04,21,051,40,02,35,099,34,09,36,145,,12,70,048,41*77
$GPGSV,2,2,08,14,36,272,43,25,63,297,47,29,34,214,44,30,20,281,38*76
$GPGSA,M,3,04,12,14,25,29,30,,,,,,,2.3,1.5,1.8*3F
Trace #92 at position 22.750000
$GPZDA,082053.04,08,10,2011,00,00*65
$GPRMC,082053.00,A,4611.966091,N,01258.208813,E,001.3,138.9,081011,0.2,E,A*3E
$GPGGA,082054.00,4611.965815,N,01258.209112,E,1,06,1.5,141.90,M,46.25,M,,*6E
$GPGLL,4611.965815,N,01258.209112,E,082054.00,A,A*61
$GPVTG,137.4,T,137.6,M,001.3,N,002.5,K,A*24
$GPGSV,2,1,08,04,21,051,40,02,35,099,34,09,36,145,,12,70,048,41*77
$GPGSV,2,2,08,14,36,272,43,25,63,297,47,29,34,214,44,30,20,281,38*76
$GPGSA,M,3,04,12,14,25,29,30,,,,,,,2.3,1.5,1.8*3F
Trace #93 at position 23.000000
$GPZDA,082054.04,08,10,2011,00,00*62
$GPRMC,082054.00,A,4611.965815,N,01258.209112,E,001.3,137.4,081011,0.2,E,A*35
$GPGGA,082055.00,4611.965585,N,01258.209208,E,1,05,1.8,141.66,M,46.25,M,,*64
$GPGLL,4611.965585,N,01258.209208,E,082055.00,A,A*6C
$GPVTG,172.2,T,172.4,M,001.0,N,001.9,K,A*2C
$GPGSV,2,1,08,04,21,051,40,02,35,099,30,09,36,145,,12,70,048,41*73
$GPGSV,2,2,08,14,36,272,43,25,63,297,47,29,34,214,43,30,20,281,34*7D
$GPGSA,001.0,172.2,081011,0.2,E,A*3C
Trace #94 at position 23.250000
$GPZDA,082054.04,08,10,2011,00,00*62
$GPRMC,082054.00,A,4611.965815,N,01258.209112,E,001.3,137.4,081011,0.2,E,A*35
$GPGGA,082055.00,4611.965585,N,01258.209208,E,1,05,1.8,141.66,M,46.25,M,,*64
$GPGLL,4611.965585,N,01258.209208,E,082055.00,A,A*6C
$GPVTG,172.2,T,172.4,M,001.0,N,001.9,K,A*2C
$GPGSV,2,1,08,04,21,051,40,02,35,099,30,09,36,145,,12,70,048,41*73
$GPGSV,2,2,08,14,36,272,43,25,63,297,47,29,34,214,43,30,20,281,34*7D
$GPGSA,001.0,172.2,081011,0.2,E,A*3C
Trace #95 at position 23.500000
$GPGGA,082056.00,4611.965267,N,01258.209254,E,1,05,1.8,141.39,M,46.25,M,,*6F
$GPGLL,4611.965267,N,01258.209254,E,082056.00,A,A*6D
$GPVTG,159.9,T,160.0,M,001.7,N,003.1,K,A*24
$GPGSV,2,1,08,04,21,051,41,02,35,099,30,09,36,145,,12,70,048,42*71
$GPGSV,2,2,08,14,36,272,41,25,63,297,47,29,34,214,43,30,20,281,31*7A
$GPGSA,M,3,04,12,14,25,29,,,,,,,,2.8,1.8,2.1*30
Trace #96 at position 23.750000
$GPGGA,082056.00,4611.965267,N,01258.209254,E,1,05,1.8,141.39,M,46.25,M,,*6F
$GPGLL,4611.965267,N,01258.209254,E,082056.00,A,A*6D
$GPVTG,159.9,T,160.0,M,001.7,N,003.1,K,A*24
$GPGSV,2,1,08,04,21,051,41,02,35,099,30,09,36,145,,12,70,048,42*71
$GPGSV,2,2,08,14,36,272,41,25,63,297,47,29,34,214,43,30,20,281,31*7A
$GPGSA,M,3,04,12,14,25,29,,,,,,,,2.8,1.8,2.1*30
Trace #97 at position 24.000000
$GPZDA,082056.03,08,10,2011,00,00*67
$GPRMC,082056.00,A,4611.965267,N,01258.209254,E,001.7,159.9,081011,0.2,E,A*38$GPGGA,082057.00,4611.965019,N,01258.209509,E,1,05,1.8,141.23,M,46.25,M,,*61
$GPGLL,4611.965019,N,01258.209509,E,082057.00,A,A*68
$GPVTG,110.1,T,110.3,M,001.3,N,002.5,K,A*24
$GPGSV,2,1,08,04,21,051,40,02,35,099,34,09,36,145,,12,70,048,41*77
$GPGSV,2,2,08,14,36,272,41,25,63,297,47,29,34,214,43,30,20,281,33*78
$GPGSA,M,3,04,12,14,25,29,,,,,,,,2.8,1.8,2.1*30
Trace #98 at position 24.250000
$GPZDA,082056.03,08,10,2011,00,00*67
$GPRMC,082056.00,A,4611.965267,N,01258.209254,E,001.7,159.9,081011,0.2,E,A*38$GPGGA,082057.00,4611.965019,N,01258.209509,E,1,05,1.8,141.23,M,46.25,M,,*61
$GPGLL,4611.965019,N,01258.209509,E,082057.00,A,A*68
$GPVTG,110.1,T,110.3,M,001.3,N,002.5,K,A*24
$GPGSV,2,1,08,04,21,051,40,02,35,099,34,09,36,145,,12,70,048,41*77
$GPGSV,2,2,08,14,36,272,41,25,63,297,47,29,34,214,43,30,20,281,33*78
$GPGSA,M,3,04,12,14,25,29,,,,,,,,2.8,1.8,2.1*30
Trace #99 at position 24.500000
$GPZDA,082057.03,08,10,2011,00,00*66
$GPRMC,082057.00,A,4611.965019,N,01258.209509,E,001.3,110.1,081011,0.2,E,A*3C
$GPGGA,082058.00,4611.964738,N,01258.209651,E,1,05,1.8,141.11,M,46.25,M,,*64
$GPGLL,4611.964738,N,01258.209651,E,082058.00,A,A*6C
$GPVTG,179.3,T,179.4,M,001.7,N,003.2,K,A*23
$GPGSV,2,1,08,04,21,051,40,02,35,099,33,09,36,145,,12,70,048,40*71
$GPGSV,2,2,08,14,36,272,41,25,63,297,46,29,34,214,43,30,20,281,32*78
$GPGSA,M,3,04,12,14,25,29,,,,,,,,2.8,1.8,2.1*30
Trace #100 at position 24.750000
$GPZDA,082110.03,08,10,2011,00,00*64
$GPRMC,082110.00,A,4611.961890,N,01258.209779,E,000.2,183.9,081011,0.2,E,A*34
$GPGGA,,,,,,0,03,,,M,,M,,*65
$GPGLL,,,,,,V,N*64
$GPVTG,,T,,,,N,,K,N*61
$GPGSV,2,1,08,04,21,051,34,02,35,099,33,09,36,145,,12,70,049,33*77
$GPGSV,2,2,08,14,36,272,37,25,64,297,37,29,34,214,28,30,20,281,36*71
$GPGSA,M,1,,,,,,,,,,,,,9.9,8.9,4.3*3A
Trace #101 at position 25.000000
$GPZDA,082111.02,08,10,2011,00,00*64
$GPRMC,082110.00,V,,,,,,,,,,N*77
$GPGGA,082112.00,4611.960983,N,01258.210145,E,1,04,8.8,139.73,M,46.25,M,,*68
$GPGLL,4611.960983,N,01258.210145,E,082112.00,A,A*63
$GPVTG,165.0,T,165.1,M,004.2,N,007.7,K,A*24
$GPGSV,2,1,08,04,21,051,40,02,35,099,29,09,36,145,,12,70,049,42*79
$GPGSV,2,2,08,14,36,272,37,25,64,297,41,29,34,214,35,30,20,281,28*73
$GPGSA,M,3,04,12,14,25,,,,,,,,,9.3,8.8,3.1*33
Trace #102 at position 25.250000
$GPZDA,082111.02,08,10,2011,00,00*64
$GPRMC,082110.00,V,,,,,,,,,,N*77
$GPGGA,082112.00,4611.960983,N,01258.210145,E,1,04,8.8,139.73,M,46.25,M,,*68
$GPGLL,4611.960983,N,01258.210145,E,082112.00,A,A*63
$GPVTG,165.0,T,165.1,M,004.2,N,007.7,K,A*24
$GPGSV,2,1,08,04,21,051,40,02,35,099,29,09,36,145,,12,70,049,42*79
$GPGSV,2,2,08,14,36,272,37,25,64,297,41,29,34,214,35,30,20,281,28*73
$GPGSA,M,3,04,12,14,25,,,,,,,,,9.3,8.8,3.1*33
Trace #103 at position 25.500000
$GPZDA,082111.02,08,10,2011,00,00*64
$GPRMC,082110.00,V,,,,,,,,,,N*77
$GPGGA,082112.00,4611.960983,N,01258.210145,E,1,04,8.8,139.73,M,46.25,M,,*68
$GPGLL,4611.960983,N,01258.210145,E,082112.00,A,A*63
$GPVTG,165.0,T,165.1,M,004.2,N,007.7,K,A*24
$GPGSV,2,1,08,04,21,051,40,02,35,099,29,09,36,145,,12,70,049,42*79
$GPGSV,2,2,08,14,36,272,37,25,64,297,41,29,34,214,35,30,20,281,28*73
$GPGSA,M,3,04,12,14,25,,,,,,,,,9.3,8.8,3.1*33
Trace #104 at position 25.750000
$GPZDA,082111.02,08,10,2011,00,00*64
$GPRMC,082110.00,V,,,,,,,,,,N*77
$GPGGA,082112.00,4611.960983,N,01258.210145,E,1,04,8.8,139.73,M,46.25,M,,*68
$GPGLL,4611.960983,N,01258.210145,E,082112.00,A,A*63
$GPVTG,165.0,T,165.1,M,004.2,N,007.7,K,A*24
$GPGSV,2,1,08,04,21,051,40,02,35,099,29,09,36,145,,12,70,049,42*79
$GPGSV,2,2,08,14,36,272,37,25,64,297,41,29,34,214,35,30,20,281,28*73
$GPGSA,M,3,04,12,14,25,,,,,,,,,9.3,8.8,3.1*33
Trace #105 at position 26.000000
$GPZDA,082112.03,08,10,2011,00,00*66
$GPRMC,082112.00,A,4611.960983,N,01258.210145,E,004.2,165.0,081011,0.2,E,A*30
$GPGGA,082113.00,4611.960573,N,01258.210328,E,1,04,8.8,139.31,M,46.25,M,,*65
$GPGLL,4611.960573,N,01258.210328,E,082113.00,A,A*68
$GPVTG,166.5,T,166.7,M,001.3,N,002.4,K,A*25
$GPGSV,2,1,08,04,21,051,37,02,35,099,33,09,36,145,,12,70,049,38*7F
$GPGSV,2,2,08,14,36,272,37,25,64,297,40,29,34,214,37,30,20,281,32*7B
$GPGSA,M,3,04,12,14,25,,,,,,,,,9.3,8.8,3.1*33
Trace #106 at position 26.250000
$GPZDA,082112.03,08,10,2011,00,00*66
$GPRMC,082112.00,A,4611.960983,N,01258.210145,E,004.2,165.0,081011,0.2,E,A*30
$GPGGA,082113.00,4611.960573,N,01258.210328,E,1,04,8.8,139.31,M,46.25,M,,*65
$GPGLL,4611.960573,N,01258.210328,E,082113.00,A,A*68
$GPVTG,166.5,T,166.7,M,001.3,N,002.4,K,A*25
$GPGSV,2,1,08,04,21,051,37,02,35,099,33,09,36,145,,12,70,049,38*7F
$GPGSV,2,2,08,14,36,272,37,25,64,297,40,29,34,214,37,30,20,281,32*7B
$GPGSA,M,3,04,12,14,25,,,,,,,,,9.3,8.8,3.1*33
Trace #107 at position 26.500000
$GPZDA,082112.03,08,10,2011,00,00*66
$GPRMC,082112.00,A,4611.960983,N,01258.210145,E,004.2,165.0,081011,0.2,E,A*30
$GPGGA,082113.00,4611.960573,N,01258.210328,E,1,04,8.8,139.31,M,46.25,M,,*65
$GPGLL,4611.960573,N,01258.210328,E,082113.00,A,A*68
$GPVTG,166.5,T,166.7,M,001.3,N,002.4,K,A*25
$GPGSV,2,1,08,04,21,051,37,02,35,099,33,09,36,145,,12,70,049,38*7F
$GPGSV,2,2,08,14,36,272,37,25,64,297,40,29,34,214,37,30,20,281,32*7B
$GPGSA,M,3,04,12,14,25,,,,,,,,,9.3,8.8,3.1*33
Trace #108 at position 26.750000
$GPZDA,082113.03,08,10,2011,00,00*67
$GPRMC,082113.00,A,4611.960573,N,01258.210328,E,001.3,166.5,081011,0.2,E,A*39
$GPGGA,082114.00,4611.960645,N,01258.210361,E,1,04,8.8,139.44,M,46.25,M,,*6B
$GPGLL,4611.960645,N,01258.210361,E,082114.00,A,A*64
$GPVTG,141.5,T,141.6,M,000.5,N,001.0,K,A*24
$GPGSV,2,1,08,04,21,051,38,02,35,099,32,09,36,145,,12,70,049,40*7E
$GPGSV,2,2,08,14,36,272,37,25,64,297,43,29,34,214,37,30,20,281,33*79
$GPGSA,M,3,04,12,14,25,,,,,,,,,9.3,8.8,3.1*33
Trace #109 at position 27.000000
$GPZDA,082113.03,08,10,2011,00,00*67
$GPRMC,082113.00,A,4611.960573,N,01258.210328,E,001.3,166.5,081011,0.2,E,A*39
$GPGGA,082114.00,4611.960645,N,01258.210361,E,1,04,8.8,139.44,M,46.25,M,,*6B
$GPGLL,4611.960645,N,01258.210361,E,082114.00,A,A*64
$GPVTG,141.5,T,141.6,M,000.5,N,001.0,K,A*24
$GPGSV,2,1,08,04,21,051,38,02,35,099,32,09,36,145,,12,70,049,40*7E
$GPGSV,2,2,08,14,36,272,37,25,64,297,43,29,34,214,37,30,20,281,33*79
$GPGSA,M,3,04,12,14,25,,,,,,,,,9.3,8.8,3.1*33
Trace #110 at position 27.250000
$GPZDA,082113.03,08,10,2011,00,00*67
$GPRMC,082113.00,A,4611.960573,N,01258.210328,E,001.3,166.5,081011,0.2,E,A*39
$GPGGA,082114.00,4611.960645,N,01258.210361,E,1,04,8.8,139.44,M,46.25,M,,*6B
$GPGLL,4611.960645,N,01258.210361,E,082114.00,A,A*64
$GPVTG,141.5,T,141.6,M,000.5,N,001.0,K,A*24
$GPGSV,2,1,08,04,21,051,38,02,35,099,32,09,36,145,,12,70,049,40*7E
$GPGSV,2,2,08,14,36,272,37,25,64,297,43,29,34,214,37,30,20,281,33*79
$GPGSA,M,3,04,12,14,25,,,,,,,,,9.3,8.8,3.1*33
Trace #111 at position 27.500000
$GPZDA,082114.03,08,10,2011,00,00*60
$GPRMC,082114.00,A,4611.960645,N,01258.210361,E,000.5,141.5,081011,0.2,E,A*37
$GPGGA,082115.00,4611.960856,N,01258.210343,E,1,04,2.9,139.58,M,46.25,M,,*60
$GPGLL,4611.960856,N,01258.210343,E,082115.00,A,A*69
$GPVTG,164.0,T,164.2,M,000.2,N,000.4,K,A*27
$GPGSV,2,1,08,04,21,051,39,02,35,099,36,09,36,145,,12,70,049,41*7A
$GPGSV,2,2,08,14,36,272,35,25,64,297,46,29,34,214,42,30,20,281,32*7D
$GPGSA,M,3,04,12,25,29,,,,,,,,,4.0,2.9,2.8*30
Trace #112 at position 27.750000
$GPZDA,082114.03,08,10,2011,00,00*60
$GPRMC,082114.00,A,4611.960645,N,01258.210361,E,000.5,141.5,081011,0.2,E,A*37
$GPGGA,082115.00,4611.960856,N,01258.210343,E,1,04,2.9,139.58,M,46.25,M,,*60
$GPGLL,4611.960856,N,01258.210343,E,082115.00,A,A*69
$GPVTG,164.0,T,164.2,M,000.2,N,000.4,K,A*27
$GPGSV,2,1,08,04,21,051,39,02,35,099,36,09,36,145,,12,70,049,41*7A
$GPGSV,2,2,08,14,36,272,35,25,64,297,46,29,34,214,42,30,20,281,32*7D
$GPGSA,M,3,04,12,25,29,,,,,,,,,4.0,2.9,2.8*30
Trace #113 at position 28.000000
$GPZDA,082115.03,08,10,2011,00,00*61
$GPRMC,082115.00,A,4611.960856,N,01258.210343,E,000.2,164.0,081011,0.2,E,A*3F
$GPGGA,082116.00,4611.961089,N,01258.210278,E,1,04,2.9,139.70,M,46.25,M,,*6B
$GPGLL,4611.961089,N,01258.210278,E,082116.00,A,A*68
