Trace #1 at position 0.000000
$GPZDA,083727.04,09,10,2011,00,00*61
$GPRMC,083727.00,A,4611.953821,N,01258.227772,E,000.0,106.9,0$GPGGA,083728.00,4611.953809,N,01258.227831,E,1,08,1.0,140.21,M,46.25,M,,*6F
$GPGLL,4611.953809,N,01258.227831,E,083728.00,A,A*60
$GPVTG,67.6,T,67.8,M,000.2,N,000.3,K,A*2C
$GPGSV,3,1,09,02,38,088,43,04,17,044,39,09,27,149,38,12,63,066,41*7C
$GPGSV,3,2,09,14,33,261,39,25,71,313,38,29,44,218,45,30,26,286,39*70
$GPGSV,3,3,09,31,18,314,,,,,,,,,,,,,*4D
$GPGSA,M,3,02,04,09,12,14,25,29,30,,,,,2.0,1.0,1.7*3D
Trace #2 at position 0.250000
$GPZDA,083730.04,09,10,2011,00,00*67
$GPRMC,083730.00,A,4611.953764,N,01258.227833,E,000.1,185.3,091011,0.2,E,A*37
$GPGGA,083731.46,N,01258.227830,E,083731.00,A,A*6D
$GPVTG,286.9,T,287.1,M,000.1,N,000.1,K,A*2A
$GPGSV,3,1,09,02,38,088,43,04,17,044,41,09,27,149,40,12,63,066,45*78
$GPGSV,3,2,09,14,33,261,41,25,71,314,43,29,44,219,48,30,26,286,40*76
$GPGSV,3,3,09,31,18,314,,,,,,,,,,,,,*4D
$GPGSA,M,3,02,04,09,12,14,25,29,30,,,,,2.0,1.0,1.7*3D
Trace #3 at position 0.500000
$GPZDA,083731.04,09,10,2011,00,00*66
$GPRMC,083731.00,A,4611.953746,N,01258.227830,E,000.1,286.9,091011,0.2,E,A*3F
$GPGGA,083732.00,4611.953733,N,01258.227827,E,1,08,1.0,140.12,M,46.25,M,,*6500.0,N,000.1,K,A*2A
$GPGSV,3,1,09,02,38,088,45,04,17,044,43,09,27,149,39,12,63,066,44*73
$GPGSV,3,2,09,14,32,261,41,25,71,314,44,29,44,219,47,30,26,286,40*7F
$GPGSV,3,3,09,31,18,314,,,,,,,,,,,,,*4D
$GPGSA,M,3,02,04,09,12,14,25,29,30,,,,,2.0,1.0,1.7*3D
Trace #4 at position 0.750000
$GPZDA,083732.04,09,10,2011,00,00*65
$GPRMC,083732.00,A,4611.953733,N,01258.227827,E,000.0,190.9,091011,0.2,E,A*3D
$GPGGA,083733.00,4611.953718,N,01258.227834,E,1,08,1.0,140.09,M,46.25,M,,*65
$GPGLL,4611.953718,N,01258.227834,E,083733.00,A,A*60
$GPVTG,,,,,,,*4D
$GPGSA,M,3,02,04,09,12,14,25,29,30,,,,,2.0,1.0,1.7*3D
Trace #5 at position 1.000000
$GPZDA,083732.04,09,10,2011,00,00*65
$GPRMC,083732.00,A,4611.953733,N,01258.227827,E,000.0,190.9,091011,0.2,E,A*3D
$GPGGA,083733.00,4611.953718,N,01258.227834,E,1,08,1.0,140.09,M,46.25,M,,*65
$GPGLL,4611.953718,N,01258.227834,E,083733.00,A,A*60
$GPVTG,,,,,,,*4D
$GPGSA,M,3,02,04,09,12,14,25,29,30,,,,,2.0,1.0,1.7*3D
Trace #6 at position 1.250000
$GPZDA,083732.04,09,10,2011,00,00*65
$GPRMC,083732.00,A,4611.953733,N,01258.227827,E,000.0,190.9,091011,0.2,E,A*3D
$GPGGA,083733.00,4611.953718,N,01258.227834,E,1,08,1.0,140.09,M,46.25,M,,*65
$GPGLL,4611.953718,N,01258.227834,E,083733.00,A,A*60
$GPVTG,,,,,,,*4D
$GPGSA,M,3,02,04,09,12,14,25,29,30,,,,,2.0,1.0,1.7*3D
Trace #7 at position 1.500000
$GPZDA,083732.04,09,10,2011,00,00*65
$GPRMC,083732.00,A,4611.953733,N,01258.227827,E,000.0,190.9,091011,0.2,E,A*3D
$GPGGA,083733.00,4611.953718,N,01258.227834,E,1,08,1.0,140.09,M,46.25,M,,*65
$GPGLL,4611.953718,N,01258.227834,E,083733.00,A,A*60
$GPVTG,,,,,,,*4D
$GPGSA,M,3,02,04,09,12,14,25,29,30,,,,,2.0,1.0,1.7*3D
Trace #8 at position 1.750000
$GPZDA,083733.04,09,10,2011,00,00*64
$GPRMC,083733.00,A,4611.953718,N,01258.227834,E,000.0,220.5,091011,0.2,E,A*33
$GPGGA,083734.00,4611.953709,N,01258.227838,E,1,08,1.0,140.07,M,46.25,M,,*60
$GPGLL,4611.953709,N,01258.227838,E,083734.00,A,A*6B
$GPVTG,204.8,T,204.9,M,000.0,N,000.1,K,A*23
$GPGSV,3,1,09,02,38,088,45,04,17,044,42,09,27,149,41,12,63,066,42*7B
$GPGSV,3,2,09,14,32,261,40,25,71,314,43,29,44,219,46,30,26,286,40*78
$GPGSV,3,3,*3D
$GPZDA,083734.04,09,10,2011,00,00*63
$GPRMC,083734.00,A,4611.953709,N,01258.227838,E,000.0,204.8,091011,0.2,E,A*33
$GPGGA,083735.00,4611.953704,N,01258.227844,E,1,08,1.0,140.09,M,46.25,M,,*69
$GPGLL,4611.953704,N,01258.227844,E,083735.00,A,A*6C
$GPVTG,55.4,T,55.5,M,000.0,N,000.0,K,A*22
$GPGSV,3,1,09,02,38,088,44,04,17,044,42,09,27,149,42,12,63,066,42*79
$GPGSV,3,2,09,14,32,261,41,25,71,314,43,29,44,219,46,30,26,286,40*79
$GPGSV,3,3,09,31,18,314,,,,,,,,,,,,,*4D
$GPGSA,M,3,02,04,09,12,14,25,29,3011.953704,N,01258.227844,E,000.0,55.4,091011,0.2,E,A*0E
Trace #9 at position 2.000000
$GPGGA,083736.00,4611.953708,N,01258.227850,E,1,08,1.0,140.10,M,46.25,M,,*6B
$GPGLL,4611.953708,N,01258.227850,E,083736.00,A,A*66
$GPVTG,354.6,T,354.7,M,000.0,N,000.1,K,A*23
$GPGSV,3,1,09,02,38,088,44,04,17,044,41,09,27,149,40,12,63,066,43*79
$GPGSV,3,2,09,14,32,261,39,25,71,314,42,29,44,219,46,30,26,286,39*79
$GPGSV,3,3,09,31,18,314,,,,,,,,,,,,,*4D
$GPGSA,M,3,02,04,09,12,14,25,29,30,,,,,2.0,1.0,1.7*3D
Trace #10 at position 2.250000
$GPGGA,083736.00,4611.953708,N,01258.227850,E,1,08,1.0,140.10,M,46.25,M,,*6B
$GPGLL,4611.953708,N,01258.227850,E,083736.00,A,A*66
$GPVTG,354.6,T,354.7,M,000.0,N,000.1,K,A*23
$GPGSV,3,1,09,02,38,088,44,04,17,044,41,09,27,149,40,12,63,066,43*79
$GPGSV,3,2,09,14,32,261,39,25,71,314,42,29,44,219,46,30,26,286,39*79
$GPGSV,3,3,09,31,18,314,,,,,,,,,,,,,*4D
$GPGSA,M,3,02,04,09,12,14,25,29,30,,,,,2.0,1.0,1.7*3D
Trace #11 at position 2.500000
$GPZDA,083736.04,09,10,2011,00,00*61
$GPR$GPGGA,083737.00,4611.953775,N,01258.227789,E,1,08,1.0,140.08,M,46.25,M,,*62
$GPGLL,4611.953775,N,01258.227789,E,083737.00,A,A*66
$GPVTG,325.5,T,325.6,M,000.6,N,001.1,K,A*26
$GPGSV,3,1,09,02,38,088,45,04,17,044,40,09,27,149,39,12,63,066,41*75
$GPGSV,3,2,09,14,32,261,40,25,71,314,44,29,44,219,46,30,26,286,39*71
$GPGSV,3,3,09,31,18,314,,,,,,,,,,,,,*4D
$GPGSA,M,3,02,04,09,12,14,25,29,30,,,,,2.0,1.0,1.7*3D
Trace #12 at position 2.750000
$GPZDA,083736.04,09,10,2011,00,00*61
$GPR$GPGGA,083737.00,4611.953775,N,01258.227789,E,1,08,1.0,140.08,M,46.25,M,,*62
$GPGLL,4611.953775,N,01258.227789,E,083737.00,A,A*66
$GPVTG,325.5,T,325.6,M,000.6,N,001.1,K,A*26
$GPGSV,3,1,09,02,38,088,45,04,17,044,40,09,27,149,39,12,63,066,41*75
$GPGSV,3,2,09,14,32,261,40,25,71,314,44,29,44,219,46,30,26,286,39*71
$GPGSV,3,3,09,31,18,314,,,,,,,,,,,,,*4D
$GPGSA,M,3,02,04,09,12,14,25,29,30,,,,,2.0,1.0,1.7*3D
Trace #13 at position 3.000000
$GPZDA,083736.04,09,10,2011,00,00*61
$GPR$GPGGA,083737.00,4611.953775,N,01258.227789,E,1,08,1.0,140.08,M,46.25,M,,*62
$GPGLL,4611.953775,N,01258.227789,E,083737.00,A,A*66
$GPVTG,325.5,T,325.6,M,000.6,N,001.1,K,A*26
$GPGSV,3,1,09,02,38,088,45,04,17,044,40,09,27,149,39,12,63,066,41*75
$GPGSV,3,2,09,14,32,261,40,25,71,314,44,29,44,219,46,30,26,286,39*71
$GPGSV,3,3,09,31,18,314,,,,,,,,,,,,,*4D
$GPGSA,M,3,02,04,09,12,14,25,29,30,,,,,2.0,1.0,1.7*3D
Trace #14 at position 3.250000
$GPZDA,083737.04,09,10,2011,00,00*60
$GPRMC,083737.00,A,4611.953775,N,01258.227789,E,000.6,325.5,0$GPGGA,083738.00,4611.953882,N,01258.227724,E,1,08,1.0,140.07,M,46.25,M,,*62
$GPGLL,4611.953882,N,01258.227724,E,083738.00,A,A*69
$GPVTG,349.2,T,349.4,M,000.3,N,000.6,K,A*20
$GPGSV,3,1,09,02,38,088,45,04,17,044,40,09,26,149,41,12,63,066,41*7B
$GPGSV,3,2,09,14,32,261,38,25,71,314,46,29,44,219,47,30,26,286,39*7D
$GPGSV,3,3,09,31,18,314,,,,,,,,,,,,,*4D
$GPGSA,M,3,02,04,09,12,14,25,29,30,,,,,2.0,1.0,1.7*3D
Trace #15 at position 3.500000
$GPZDA,083737.04,09,10,2011,00,00*60
$GPRMC,083737.00,A,4611.953775,N,01258.227789,E,000.6,325.5,0$GPGGA,083738.00,4611.953882,N,01258.227724,E,1,08,1.0,140.07,M,46.25,M,,*62
$GPGLL,4611.953882,N,01258.227724,E,083738.00,A,A*69
$GPVTG,349.2,T,349.4,M,000.3,N,000.6,K,A*20
$GPGSV,3,1,09,02,38,088,45,04,17,044,40,09,26,149,41,12,63,066,41*7B
$GPGSV,3,2,09,14,32,261,38,25,71,314,46,29,44,219,47,30,26,286,39*7D
$GPGSV,3,3,09,31,18,314,,,,,,,,,,,,,*4D
$GPGSA,M,3,02,04,09,12,14,25,29,30,,,,,2.0,1.0,1.7*3D
Trace #16 at position 3.750000
$GPZDA,083737.04,09,10,2011,00,00*60
$GPRMC,083737.00,A,4611.953775,N,01258.227789,E,000.6,325.5,0$GPGGA,083738.00,4611.953882,N,01258.227724,E,1,08,1.0,140.07,M,46.25,M,,*62
$GPGLL,4611.953882,N,01258.227724,E,083738.00,A,A*69
$GPVTG,349.2,T,349.4,M,000.3,N,000.6,K,A*20
$GPGSV,3,1,09,02,38,088,45,04,17,044,40,09,26,149,41,12,63,066,41*7B
$GPGSV,3,2,09,14,32,261,38,25,71,314,46,29,44,219,47,30,26,286,39*7D
$GPGSV,3,3,09,31,18,314,,,,,,,,,,,,,*4D
$GPGSA,M,3,02,04,09,12,14,25,29,30,,,,,2.0,1.0,1.7*3D
Trace #17 at position 4.000000
$GPZDA,083738.04,09,10,2011,00,00*6F
$GPRMC,083738.00,A,4611.953882,N,01258.227724,E,000.3,349.2,0$GPGGA,083739.00,4611.954018,N,01258.227662,E,1,08,1.0,140.08,M,46.25,M,,*63
$GPGLL,4611.954018,N,01258.227662,E,083739.00,A,A*67
$GPVTG,336.3,T,336.5,M,000.7,N,001.4,K,A*27
$GPGSV,3,1,09,02,38,088,46,04,17,044,40,09,26,149,41,12,63,066,42*7B
$GPGSV,3,2,09,14,32,261,38,25,71,314,42,29,44,219,46,30,26,286,39*78
$GPGSV,3,3,09,31,18,314,,,,,,,,,,,,,*4D
$GPGSA,M,3,02,04,09,12,14,25,29,30,,,,,2.0,1.0,1.7*3D
Trace #18 at position 4.250000
$GPZDA,083738.04,09,10,2011,00,00*6F
$GPRMC,083738.00,A,4611.953882,N,01258.227724,E,000.3,349.2,0$GPGGA,083739.00,4611.954018,N,01258.227662,E,1,08,1.0,140.08,M,46.25,M,,*63
$GPGLL,4611.954018,N,01258.227662,E,083739.00,A,A*67
$GPVTG,336.3,T,336.5,M,000.7,N,001.4,K,A*27
$GPGSV,3,1,09,02,38,088,46,04,17,044,40,09,26,149,41,12,63,066,42*7B
$GPGSV,3,2,09,14,32,261,38,25,71,314,42,29,44,219,46,30,26,286,39*78
$GPGSV,3,3,09,31,18,314,,,,,,,,,,,,,*4D
$GPGSA,M,3,02,04,09,12,14,25,29,30,,,,,2.0,1.0,1.7*3D
Trace #19 at position 4.500000
$GPZDA,083738.04,09,10,2011,00,00*6F
$GPRMC,083738.00,A,4611.953882,N,01258.227724,E,000.3,349.2,0$GPGGA,083739.00,4611.954018,N,01258.227662,E,1,08,1.0,140.08,M,46.25,M,,*63
$GPGLL,4611.954018,N,01258.227662,E,083739.00,A,A*67
$GPVTG,336.3,T,336.5,M,000.7,N,001.4,K,A*27
$GPGSV,3,1,09,02,38,088,46,04,17,044,40,09,26,149,41,12,63,066,42*7B
$GPGSV,3,2,09,14,32,261,38,25,71,314,42,29,44,219,46,30,26,286,39*78
$GPGSV,3,3,09,31,18,314,,,,,,,,,,,,,*4D
$GPGSA,M,3,02,04,09,12,14,25,29,30,,,,,2.0,1.0,1.7*3D
Trace #20 at position 4.750000
$GPZDA,083739.04,09,10,2011,00,00*6E
$GPRMC,083739.00,A,4611.954018,N,01258.227662,E,000.7,336.3,0$GPGGA,083740.00,4611.954257,N,01258.227588,E,1,07,1.1,140.05,M,46.25,M,,*60
$GPGLL,4611.954257,N,01258.227588,E,083740.00,A,A*67
$GPVTG,350.4,T,350.5,M,001.2,N,002.1,K,A*22
$GPGSV,3,1,09,02,38,088,44,04,17,044,40,09,26,149,45,12,63,066,43*7C
$GPGSV,3,2,09,14,32,261,38,25,71,314,43,29,44,219,46,30,26,286,36*76
$GPGSV,3,3,09,31,18,314,,,,,,,,,,,,,*4D
$GPGSA,M,3,02,04,09,12,14,25,29,,,,,,2.2,1.1,1.8*32
Trace #21 at position 5.000000
$GPZDA,083739.04,09,10,2011,00,00*6E
$GPRMC,083739.00,A,4611.954018,N,01258.227662,E,000.7,336.3,0$GPGGA,083740.00,4611.954257,N,01258.227588,E,1,07,1.1,140.05,M,46.25,M,,*60
$GPGLL,4611.954257,N,01258.227588,E,083740.00,A,A*67
$GPVTG,350.4,T,350.5,M,001.2,N,002.1,K,A*22
$GPGSV,3,1,09,02,38,088,44,04,17,044,40,09,26,149,45,12,63,066,43*7C
$GPGSV,3,2,09,14,32,261,38,25,71,314,43,29,44,219,46,30,26,286,36*76
$GPGSV,3,3,09,31,18,314,,,,,,,,,,,,,*4D
$GPGSA,M,3,02,04,09,12,14,25,29,,,,,,2.2,1.1,1.8*32
Trace #22 at position 5.250000
$GPZDA,083739.04,09,10,2011,00,00*6E
$GPRMC,083739.00,A,4611.954018,N,01258.227662,E,000.7,336.3,0$GPGGA,083740.00,4611.954257,N,01258.227588,E,1,07,1.1,140.05,M,46.25,M,,*60
$GPGLL,4611.954257,N,01258.227588,E,083740.00,A,A*67
$GPVTG,350.4,T,350.5,M,001.2,N,002.1,K,A*22
$GPGSV,3,1,09,02,38,088,44,04,17,044,40,09,26,149,45,12,63,066,43*7C
$GPGSV,3,2,09,14,32,261,38,25,71,314,43,29,44,219,46,30,26,286,36*76
$GPGSV,3,3,09,31,18,314,,,,,,,,,,,,,*4D
$GPGSA,M,3,02,04,09,12,14,25,29,,,,,,2.2,1.1,1.8*32
Trace #23 at position 5.500000
$GPZDA,083740.04,09,10,2011,00,00*60
$GPRMC,083740.00,A,4611.954257,N,01258.227588,E,001.2,350.4,091$GPGGA,083741.00,4611.954569,N,01258.227527,E,1,07,1.1,140.02,M,46.25,M,,*69
$GPGLL,4611.954569,N,01258.227527,E,083741.00,A,A*69
$GPVTG,351.4,T,351.6,M,001.3,N,002.3,K,A*22
$GPGSV,3,1,09,02,38,088,43,04,17,044,41,09,26,149,45,12,63,066,45*7C
$GPGSV,3,2,09,14,32,261,40,25,71,314,41,29,44,219,46,30,26,286,37*7A
$GPGSV,3,3,09,31,18,314,,,,,,,,,,,,,*4D
$GPGSA,M,3,02,04,09,12,14,25,29,,,,,,2.2,1.1,1.8*32
Trace #24 at position 5.750000
$GPZDA,083740.04,09,10,2011,00,00*60
$GPRMC,083740.00,A,4611.954257,N,01258.227588,E,001.2,350.4,091$GPGGA,083741.00,4611.954569,N,01258.227527,E,1,07,1.1,140.02,M,46.25,M,,*69
$GPGLL,4611.954569,N,01258.227527,E,083741.00,A,A*69
$GPVTG,351.4,T,351.6,M,001.3,N,002.3,K,A*22
$GPGSV,3,1,09,02,38,088,43,04,17,044,41,09,26,149,45,12,63,066,45*7C
$GPGSV,3,2,09,14,32,261,40,25,71,314,41,29,44,219,46,30,26,286,37*7A
$GPGSV,3,3,09,31,18,314,,,,,,,,,,,,,*4D
$GPGSA,M,3,02,04,09,12,14,25,29,,,,,,2.2,1.1,1.8*32
Trace #25 at position 6.000000
$GPZDA,083740.04,09,10,2011,00,00*60
$GPRMC,083740.00,A,4611.954257,N,01258.227588,E,001.2,350.4,091$GPGGA,083741.00,4611.954569,N,01258.227527,E,1,07,1.1,140.02,M,46.25,M,,*69
$GPGLL,4611.954569,N,01258.227527,E,083741.00,A,A*69
$GPVTG,351.4,T,351.6,M,001.3,N,002.3,K,A*22
$GPGSV,3,1,09,02,38,088,43,04,17,044,41,09,26,149,45,12,63,066,45*7C
$GPGSV,3,2,09,14,32,261,40,25,71,314,41,29,44,219,46,30,26,286,37*7A
$GPGSV,3,3,09,31,18,314,,,,,,,,,,,,,*4D
$GPGSA,M,3,02,04,09,12,14,25,29,,,,,,2.2,1.1,1.8*32
Trace #26 at position 6.250000
$GPZDA,083741.04,09,10,2011,00,00*61
$GPRMC,083741.00,A,4611.954569,N,01258.227527,E,001.3,351.4,091$GPGGA,083742.00,4611.954810,N,01258.227477,E,1,07,1.1,140.12,M,46.25,M,,*6C
$GPGLL,4611.954810,N,01258.227477,E,083742.00,A,A*6D
$GPVTG,350.9,T,351.1,M,000.6,N,001.1,K,A*2C
$GPGSV,3,1,09,02,38,088,45,04,17,044,41,09,26,149,45,12,63,066,44*7B
$GPGSV,3,2,09,14,32,261,39,25,71,314,42,29,44,219,47,30,26,286,36*77
$GPGSV,3,3,09,31,18,314,,,,,,,,,,,,,*4D
$GPGSA,M,3,02,04,09,12,14,25,29,,,,,,2.2,1.1,1.8*32
Trace #27 at position 6.500000
$GPZDA,083741.04,09,10,2011,00,00*61
$GPRMC,083741.00,A,4611.954569,N,01258.227527,E,001.3,351.4,091$GPGGA,083742.00,4611.954810,N,01258.227477,E,1,07,1.1,140.12,M,46.25,M,,*6C
$GPGLL,4611.954810,N,01258.227477,E,083742.00,A,A*6D
$GPVTG,350.9,T,351.1,M,000.6,N,001.1,K,A*2C
$GPGSV,3,1,09,02,38,088,45,04,17,044,41,09,26,149,45,12,63,066,44*7B
$GPGSV,3,2,09,14,32,261,39,25,71,314,42,29,44,219,47,30,26,286,36*77
$GPGSV,3,3,09,31,18,314,,,,,,,,,,,,,*4D
$GPGSA,M,3,02,04,09,12,14,25,29,,,,,,2.2,1.1,1.8*32
Trace #28 at position 6.750000
$GPZDA,083741.04,09,10,2011,00,00*61
$GPRMC,083741.00,A,4611.954569,N,01258.227527,E,001.3,351.4,091$GPGGA,083742.00,4611.954810,N,01258.227477,E,1,07,1.1,140.12,M,46.25,M,,*6C
$GPGLL,4611.954810,N,01258.227477,E,083742.00,A,A*6D
$GPVTG,350.9,T,351.1,M,000.6,N,001.1,K,A*2C
$GPGSV,3,1,09,02,38,088,45,04,17,044,41,09,26,149,45,12,63,066,44*7B
$GPGSV,3,2,09,14,32,261,39,25,71,314,42,29,44,219,47,30,26,286,36*77
$GPGSV,3,3,09,31,18,314,,,,,,,,,,,,,*4D
$GPGSA,M,3,02,04,09,12,14,25,29,,,,,,2.2,1.1,1.8*32
Trace #29 at position 7.000000
$GPZDA,083742.04,09,10,2011,00,00*62
$GPRMC,083742.00,A,4611.954810,N,01258.227477,E,000.6,350.9,0911258.227296,E,1,07,1.1,140.30,M,46.25,M,,*64
$GPGLL,4611.954955,N,01258.227296,E,083743.00,A,A*65
$GPVTG,299.6,T,299.8,M,000.9,N,001.8,K,A*2D
$GPGSV,3,1,09,02,38,088,44,04,17,044,38,09,26,149,45,12,63,066,43*73
$GPGSV,3,2,09,14,32,261,39,25,71,314,45,29,44,219,47,30,26,286,36*70
$GPGSV,3,3,09,31,18,314,,,,,,,,,,,,,*4D
$GPGSA,M,3,02,04,09,12,14,25,29,,,,,,2.2,1.1,1.8*32
Trace #30 at position 7.250000
$GPZDA,083742.04,09,10,2011,00,00*62
$GPRMC,083742.00,A,4611.954810,N,01258.227477,E,000.6,350.9,0911258.227296,E,1,07,1.1,140.30,M,46.25,M,,*64
$GPGLL,4611.954955,N,01258.227296,E,083743.00,A,A*65
$GPVTG,299.6,T,299.8,M,000.9,N,001.8,K,A*2D
$GPGSV,3,1,09,02,38,088,44,04,17,044,38,09,26,149,45,12,63,066,43*73
$GPGSV,3,2,09,14,32,261,39,25,71,314,45,29,44,219,47,30,26,286,36*70
$GPGSV,3,3,09,31,18,314,,,,,,,,,,,,,*4D
$GPGSA,M,3,02,04,09,12,14,25,29,,,,,,2.2,1.1,1.8*32
Trace #31 at position 7.500000
$GPZDA,083742.04,09,10,2011,00,00*62
$GPRMC,083742.00,A,4611.954810,N,01258.227477,E,000.6,350.9,0911258.227296,E,1,07,1.1,140.30,M,46.25,M,,*64
$GPGLL,4611.954955,N,01258.227296,E,083743.00,A,A*65
$GPVTG,299.6,T,299.8,M,000.9,N,001.8,K,A*2D
$GPGSV,3,1,09,02,38,088,44,04,17,044,38,09,26,149,45,12,63,066,43*73
$GPGSV,3,2,09,14,32,261,39,25,71,314,45,29,44,219,47,30,26,286,36*70
$GPGSV,3,3,09,31,18,314,,,,,,,,,,,,,*4D
$GPGSA,M,3,02,04,09,12,14,25,29,,,,,,2.2,1.1,1.8*32
Trace #32 at position 7.750000
$GPZDA,083743.04,09,10,2011,00,00*63
$GPRMC,083743.00,A,4611.954955,N,01258.227296,E,000.9,299.6,091011,0.2,E,A*3E
$GPGGA,083744.00,N,01258.227122,E,083744.00,A,A*60
$GPVTG,354.6,T,354.8,M,001.3,N,002.5,K,A*28
$GPGSV,3,1,09,02,38,088,45,04,17,044,41,09,26,149,45,12,63,066,43*7C
$GPGSV,3,2,09,14,32,261,39,25,71,314,42,29,44,219,47,30,26,286,35*74
$GPGSV,3,3,09,31,18,314,,,,,,,,,,,,,*4D
$GPGSA,M,3,02,04,09,12,14,25,29,,,,,,2.2,1.1,1.8*32
Trace #33 at position 8.000000
$GPZDA,083744.04,09,10,2011,00,00*64
$GPRMC,083744.00,A,4611.955215,N,01258.227122,E,001.3,354.6,091011,0.2,E,A*30
$GPGGA,083745.00,4611.955574,N,01258.226972,E,1,07,1.1,140.48,M,46.25,M,,*63
$G
Trace #34 at position 8.250000
$GPGSV,3,1,09,02,38,088,46,04,17,044,42,09,26,149,44,12,63,066,43*7D
$GPGSV,3,2,09,14,32,261,39,25,71,314,42,29,44,219,46,30,26,286,34*74
$GPGSV,3,3,09,31,18,314,,,,,,,,,,,,,*4D
$GPGSA,M,3,02,04,09,12,14,25,29,,,,,,2.2,1.1,1.8*32
Trace #35 at position 8.500000
$GPGSV,3,1,09,02,38,088,46,04,17,044,42,09,26,149,44,12,63,066,43*7D
$GPGSV,3,2,09,14,32,261,39,25,71,314,42,29,44,219,46,30,26,286,34*74
$GPGSV,3,3,09,31,18,314,,,,,,,,,,,,,*4D
$GPGSA,M,3,02,04,09,12,14,25,29,,,,,,2.2,1.1,1.8*32
Trace #36 at position 8.750000
$GPZDA,083745.04,09,10,2011,00,00*65
$GPRMC,083745.00,A,4611.955574,N,01258.226972,E,001.3,331.0,091011,0.2,E,A*38
$GPGGA,083746.00,4611.955885,N,01258.226828,E,1,07,1.1,140.59,M,46.25,M,,*6D
$GPGLL,4611.955885,N,01258.226828,E,083746.00,A,A*63
$GPVTG,354.6,T,354.8,M,000.9,*4D
$GPGSA,M,3,02,04,09,12,14,25,29,,,,,,2.2,1.1,1.8*32
Trace #37 at position 9.000000
$GPZDA,083745.04,09,10,2011,00,00*65
$GPRMC,083745.00,A,4611.955574,N,01258.226972,E,001.3,331.0,091011,0.2,E,A*38
$GPGGA,083746.00,4611.955885,N,01258.226828,E,1,07,1.1,140.59,M,46.25,M,,*6D
$GPGLL,4611.955885,N,01258.226828,E,083746.00,A,A*63
$GPVTG,354.6,T,354.8,M,000.9,*4D
$GPGSA,M,3,02,04,09,12,14,25,29,,,,,,2.2,1.1,1.8*32
Trace #38 at position 9.250000
$GPZDA,083745.04,09,10,2011,00,00*65
$GPRMC,083745.00,A,4611.955574,N,01258.226972,E,001.3,331.0,091011,0.2,E,A*38
$GPGGA,083746.00,4611.955885,N,01258.226828,E,1,07,1.1,140.59,M,46.25,M,,*6D
$GPGLL,4611.955885,N,01258.226828,E,083746.00,A,A*63
$GPVTG,354.6,T,354.8,M,000.9,*4D
$GPGSA,M,3,02,04,09,12,14,25,29,,,,,,2.2,1.1,1.8*32
Trace #39 at position 9.500000
$GPZDA,083745.04,09,10,2011,00,00*65
$GPRMC,083745.00,A,4611.955574,N,01258.226972,E,001.3,331.0,091011,0.2,E,A*38
$GPGGA,083746.00,4611.955885,N,01258.226828,E,1,07,1.1,140.59,M,46.25,M,,*6D
$GPGLL,4611.955885,N,01258.226828,E,083746.00,A,A*63
$GPVTG,354.6,T,354.8,M,000.9,*4D
$GPGSA,M,3,02,04,09,12,14,25,29,,,,,,2.2,1.1,1.8*32
Trace #40 at position 9.750000
$GPZDA,083745.04,09,10,2011,00,00*65
$GPRMC,083745.00,A,4611.955574,N,01258.226972,E,001.3,331.0,091011,0.2,E,A*38
$GPGGA,083746.00,4611.955885,N,01258.226828,E,1,07,1.1,140.59,M,46.25,M,,*6D
$GPGLL,4611.955885,N,01258.226828,E,083746.00,A,A*63
$GPVTG,354.6,T,354.8,M,000.9,*4D
$GPGSA,M,3,02,04,09,12,14,25,29,,,,,,2.2,1.1,1.8*32
Trace #41 at position 10.000000
$GPZDA,083745.04,09,10,2011,00,00*65
$GPRMC,083745.00,A,4611.955574,N,01258.226972,E,001.3,331.0,091011,0.2,E,A*38
$GPGGA,083746.00,4611.955885,N,01258.226828,E,1,07,1.1,140.59,M,46.25,M,,*6D
$GPGLL,4611.955885,N,01258.226828,E,083746.00,A,A*63
$GPVTG,354.6,T,354.8,M,000.9,*4D
$GPGSA,M,3,02,04,09,12,14,25,29,,,,,,2.2,1.1,1.8*32
Trace #42 at position 10.250000
$GPZDA,083746.04,09,10,2011,00,00*66
$GPRMC,083746.00,A,4611.955885,N,01258.226828,E,000.9,354.6,091011,0.2,E,A*38
$GPGGA,083747.00,4611.956241,N,01258.226702,E,1,07,1.1,140.60,M,46.25,M,,*60
$GPGLL,4611.956241,N,01258.226702,E,083747.00,A,A*64
$GPVTG,340.1,T,340.3,M,001.6,N,003.0,K,A*25
$GPGSV,3,1,09,02,38,088,45,04,17,044,40,09,26,149,43,12,63,066,43*7B
$GPGSV,3,2,09,14,32,261,41,25,71,314,42,29,44,219,46,30,26,286,36*79
$GPGSV,3,3,09,31,180,2011,00,00*67
$GPRMC,083747.00,A,4611.956241,N,01258.226702,E,001.6,340.1,091011,0.2,E,A*33
$GPGGA,083748.00,4611.956646,N,01258.226470,E,1,07,1.1,140.51,M,46.25,M,,*68
$GPGLL,4611.956646,N,01258.226470,E,083748.00,A,A*6E
$GPVTG,332.5,T,332.6,M,001.5,N,002.8,K,A*2E
$GPGSV,3,1,09,02,38,088,45,04,17,044,40,09,26,149,44,12,63,066,44*7B
$GPGSV,3,2,09,14,32,261,40,25,71,314,42,29,44,219,46,30,26,286,34*7A
$GPGSV,3,3,09,31,18,314,,,,,,,,,,,,,*4D
$GPGSA,M,3,02,04,09,12,14,25,29,,,,,,2.2,1.1,1.8*32
Trace #43 at position 10.500000
$GPZDA,083746.04,09,10,2011,00,00*66
$GPRMC,083746.00,A,4611.955885,N,01258.226828,E,000.9,354.6,091011,0.2,E,A*38
$GPGGA,083747.00,4611.956241,N,01258.226702,E,1,07,1.1,140.60,M,46.25,M,,*60
$GPGLL,4611.956241,N,01258.226702,E,083747.00,A,A*64
$GPVTG,340.1,T,340.3,M,001.6,N,003.0,K,A*25
$GPGSV,3,1,09,02,38,088,45,04,17,044,40,09,26,149,43,12,63,066,43*7B
$GPGSV,3,2,09,14,32,261,41,25,71,314,42,29,44,219,46,30,26,286,36*79
$GPGSV,3,3,09,31,180,2011,00,00*67
$GPRMC,083747.00,A,4611.956241,N,01258.226702,E,001.6,340.1,091011,0.2,E,A*33
$GPGGA,083748.00,4611.956646,N,01258.226470,E,1,07,1.1,140.51,M,46.25,M,,*68
$GPGLL,4611.956646,N,01258.226470,E,083748.00,A,A*6E
$GPVTG,332.5,T,332.6,M,001.5,N,002.8,K,A*2E
$GPGSV,3,1,09,02,38,088,45,04,17,044,40,09,26,149,44,12,63,066,44*7B
$GPGSV,3,2,09,14,32,261,40,25,71,314,42,29,44,219,46,30,26,286,34*7A
$GPGSV,3,3,09,31,18,314,,,,,,,,,,,,,*4D
$GPGSA,M,3,02,04,09,12,14,25,29,,,,,,2.2,1.1,1.8*32
Trace #44 at position 10.750000
$GPZDA,083746.04,09,10,2011,00,00*66
$GPRMC,083746.00,A,4611.955885,N,01258.226828,E,000.9,354.6,091011,0.2,E,A*38
$GPGGA,083747.00,4611.956241,N,01258.226702,E,1,07,1.1,140.60,M,46.25,M,,*60
$GPGLL,4611.956241,N,01258.226702,E,083747.00,A,A*64
$GPVTG,340.1,T,340.3,M,001.6,N,003.0,K,A*25
$GPGSV,3,1,09,02,38,088,45,04,17,044,40,09,26,149,43,12,63,066,43*7B
$GPGSV,3,2,09,14,32,261,41,25,71,314,42,29,44,219,46,30,26,286,36*79
$GPGSV,3,3,09,31,180,2011,00,00*67
$GPRMC,083747.00,A,4611.956241,N,01258.226702,E,001.6,340.1,091011,0.2,E,A*33
$GPGGA,083748.00,4611.956646,N,01258.226470,E,1,07,1.1,140.51,M,46.25,M,,*68
$GPGLL,4611.956646,N,01258.226470,E,083748.00,A,A*6E
$GPVTG,332.5,T,332.6,M,001.5,N,002.8,K,A*2E
$GPGSV,3,1,09,02,38,088,45,04,17,044,40,09,26,149,44,12,63,066,44*7B
$GPGSV,3,2,09,14,32,261,40,25,71,314,42,29,44,219,46,30,26,286,34*7A
$GPGSV,3,3,09,31,18,314,,,,,,,,,,,,,*4D
$GPGSA,M,3,02,04,09,12,14,25,29,,,,,,2.2,1.1,1.8*32
Trace #45 at position 11.000000
$GPZDA,083746.04,09,10,2011,00,00*66
$GPRMC,083746.00,A,4611.955885,N,01258.226828,E,000.9,354.6,091011,0.2,E,A*38
$GPGGA,083747.00,4611.956241,N,01258.226702,E,1,07,1.1,140.60,M,46.25,M,,*60
$GPGLL,4611.956241,N,01258.226702,E,083747.00,A,A*64
$GPVTG,340.1,T,340.3,M,001.6,N,003.0,K,A*25
$GPGSV,3,1,09,02,38,088,45,04,17,044,40,09,26,149,43,12,63,066,43*7B
$GPGSV,3,2,09,14,32,261,41,25,71,314,42,29,44,219,46,30,26,286,36*79
$GPGSV,3,3,09,31,180,2011,00,00*67
$GPRMC,083747.00,A,4611.956241,N,01258.226702,E,001.6,340.1,091011,0.2,E,A*33
$GPGGA,083748.00,4611.956646,N,01258.226470,E,1,07,1.1,140.51,M,46.25,M,,*68
$GPGLL,4611.956646,N,01258.226470,E,083748.00,A,A*6E
$GPVTG,332.5,T,332.6,M,001.5,N,002.8,K,A*2E
$GPGSV,3,1,09,02,38,088,45,04,17,044,40,09,26,149,44,12,63,066,44*7B
$GPGSV,3,2,09,14,32,261,40,25,71,314,42,29,44,219,46,30,26,286,34*7A
$GPGSV,3,3,09,31,18,314,,,,,,,,,,,,,*4D
$GPGSA,M,3,02,04,09,12,14,25,29,,,,,,2.2,1.1,1.8*32
Trace #46 at position 11.250000
$GPZD,001.5,332.5,091011,0.2,E,A*3B
$GPGGA,083749.00,4611.956999,N,01258.226274,E,1,07,1.1,140.57,M,46.25,M,,*60
$GPGLL,4611.956999,N,01258.226274,E,083749.00,A,A*60
$GPVTG,341.4,T,341.5,M,001.2,N,002.2,K,A*21
$GPGSV,3,1,09,02,38,088,44,04,17,044,41,09,26,149,43,12,63,066,44*7C
$GPGSV,3,2,09,14,32,261,40,25,71,314,42,29,44,219,46,30,26,286,34*7A
$GPGSV,3,3,09,31,18,314,,,,,,,,,,,,,*4D
$GPGSA,M,3,02,04,09,12,14,25,29,,,,,,2.2,1.1,1.8*32
Trace #47 at position 11.500000
$GPZD,001.5,332.5,091011,0.2,E,A*3B
$GPGGA,083749.00,4611.956999,N,01258.226274,E,1,07,1.1,140.57,M,46.25,M,,*60
$GPGLL,4611.956999,N,01258.226274,E,083749.00,A,A*60
$GPVTG,341.4,T,341.5,M,001.2,N,002.2,K,A*21
$GPGSV,3,1,09,02,38,088,44,04,17,044,41,09,26,149,43,12,63,066,44*7C
$GPGSV,3,2,09,14,32,261,40,25,71,314,42,29,44,219,46,30,26,286,34*7A
$GPGSV,3,3,09,31,18,314,,,,,,,,,,,,,*4D
$GPGSA,M,3,02,04,09,12,14,25,29,,,,,,2.2,1.1,1.8*32
Trace #48 at position 11.750000
$GPZD,001.5,332.5,091011,0.2,E,A*3B
$GPGGA,083749.00,4611.956999,N,01258.226274,E,1,07,1.1,140.57,M,46.25,M,,*60
$GPGLL,4611.956999,N,01258.226274,E,083749.00,A,A*60
$GPVTG,341.4,T,341.5,M,001.2,N,002.2,K,A*21
$GPGSV,3,1,09,02,38,088,44,04,17,044,41,09,26,149,43,12,63,066,44*7C
$GPGSV,3,2,09,14,32,261,40,25,71,314,42,29,44,219,46,30,26,286,34*7A
$GPGSV,3,3,09,31,18,314,,,,,,,,,,,,,*4D
$GPGSA,M,3,02,04,09,12,14,25,29,,,,,,2.2,1.1,1.8*32
Trace #49 at position 12.000000
$GPZD,001.5,332.5,091011,0.2,E,A*3B
$GPGGA,083749.00,4611.956999,N,01258.226274,E,1,07,1.1,140.57,M,46.25,M,,*60
$GPGLL,4611.956999,N,01258.226274,E,083749.00,A,A*60
$GPVTG,341.4,T,341.5,M,001.2,N,002.2,K,A*21
$GPGSV,3,1,09,02,38,088,44,04,17,044,41,09,26,149,43,12,63,066,44*7C
$GPGSV,3,2,09,14,32,261,40,25,71,314,42,29,44,219,46,30,26,286,34*7A
$GPGSV,3,3,09,31,18,314,,,,,,,,,,,,,*4D
$GPGSA,M,3,02,04,09,12,14,25,29,,,,,,2.2,1.1,1.8*32
Trace #50 at position 12.250000
$GPZDA,083749.04,09,10,2011,00,00*69
$GPRMC,083749.00,A,4611.956999,$GPGGA,083750.00,4611.957371,N,01258.226076,E,1,07,1.1,140.67,M,46.25,M,,*66
$GPGLL,4611.957371,N,01258.226076,E,083750.00,A,A*65
$GPVTG,333.9,T,334.0,M,001.6,N,003.0,K,A*29
$GPGSV,3,1,09,02,38,088,44,04,17,044,39,09,26,149,42,12,63,066,43*75
$GPGSV,3,2,09,14,32,261,40,25,71,314,43,29,44,219,46,30,26,286,34*7B
$GPGSV,3,3,09,31,18,314,,,,,,,,,,,,,*4D
$GPGSA,M,3,02,04,09,12,14,25,29,,,,,,2.2,1.1,1.8*32
Trace #51 at position 12.500000
$GPZDA,083749.04,09,10,2011,00,00*69
$GPRMC,083749.00,A,4611.956999,$GPGGA,083750.00,4611.957371,N,01258.226076,E,1,07,1.1,140.67,M,46.25,M,,*66
$GPGLL,4611.957371,N,01258.226076,E,083750.00,A,A*65
$GPVTG,333.9,T,334.0,M,001.6,N,003.0,K,A*29
$GPGSV,3,1,09,02,38,088,44,04,17,044,39,09,26,149,42,12,63,066,43*75
$GPGSV,3,2,09,14,32,261,40,25,71,314,43,29,44,219,46,30,26,286,34*7B
$GPGSV,3,3,09,31,18,314,,,,,,,,,,,,,*4D
$GPGSA,M,3,02,04,09,12,14,25,29,,,,,,2.2,1.1,1.8*32
Trace #52 at position 12.750000
$GPZDA,083749.04,09,10,2011,00,00*69
$GPRMC,083749.00,A,4611.956999,$GPGGA,083750.00,4611.957371,N,01258.226076,E,1,07,1.1,140.67,M,46.25,M,,*66
$GPGLL,4611.957371,N,01258.226076,E,083750.00,A,A*65
$GPVTG,333.9,T,334.0,M,001.6,N,003.0,K,A*29
$GPGSV,3,1,09,02,38,088,44,04,17,044,39,09,26,149,42,12,63,066,43*75
$GPGSV,3,2,09,14,32,261,40,25,71,314,43,29,44,219,46,30,26,286,34*7B
$GPGSV,3,3,09,31,18,314,,,,,,,,,,,,,*4D
$GPGSA,M,3,02,04,09,12,14,25,29,,,,,,2.2,1.1,1.8*32
Trace #53 at position 13.000000
$GPZDA,083749.04,09,10,2011,00,00*69
$GPRMC,083749.00,A,4611.956999,$GPGGA,083750.00,4611.957371,N,01258.226076,E,1,07,1.1,140.67,M,46.25,M,,*66
$GPGLL,4611.957371,N,01258.226076,E,083750.00,A,A*65
$GPVTG,333.9,T,334.0,M,001.6,N,003.0,K,A*29
$GPGSV,3,1,09,02,38,088,44,04,17,044,39,09,26,149,42,12,63,066,43*75
$GPGSV,3,2,09,14,32,261,40,25,71,314,43,29,44,219,46,30,26,286,34*7B
$GPGSV,3,3,09,31,18,314,,,,,,,,,,,,,*4D
$GPGSA,M,3,02,04,09,12,14,25,29,,,,,,2.2,1.1,1.8*32
Trace #54 at position 13.250000
$GPZDA,083750.04,09,10,2011,00,00*61
$GPRMC,083750.00,A,4611.957371,N,01258.226076,E,001.6,333.9,091$GPGGA,083751.00,4611.957833,N,01258.225882,E,1,07,1.1,140.64,M,46.25,M,,*69
$GPGLL,4611.957833,N,01258.225882,E,083751.00,A,A*69
$GPVTG,349.1,T,349.2,M,001.9,N,003.5,K,A*2E
$GPGSV,3,1,09,02,38,088,45,04,17,044,41,09,26,149,43,12,63,066,43*7A
$GPGSV,3,2,09,14,32,261,40,25,71,314,44,29,44,219,47,30,26,286,33*7A
$GPGSV,3,3,09,31,18,314,,,,,,,,,,,,,*4D
$GPGSA,M,3,02,04,09,12,14,25,29,,,,,,2.2,1.1,1.8*32
Trace #55 at position 13.500000
$GPZDA,083750.04,09,10,2011,00,00*61
$GPRMC,083750.00,A,4611.957371,N,01258.226076,E,001.6,333.9,091$GPGGA,083751.00,4611.957833,N,01258.225882,E,1,07,1.1,140.64,M,46.25,M,,*69
$GPGLL,4611.957833,N,01258.225882,E,083751.00,A,A*69
$GPVTG,349.1,T,349.2,M,001.9,N,003.5,K,A*2E
$GPGSV,3,1,09,02,38,088,45,04,17,044,41,09,26,149,43,12,63,066,43*7A
$GPGSV,3,2,09,14,32,261,40,25,71,314,44,29,44,219,47,30,26,286,33*7A
$GPGSV,3,3,09,31,18,314,,,,,,,,,,,,,*4D
$GPGSA,M,3,02,04,09,12,14,25,29,,,,,,2.2,1.1,1.8*32
Trace #56 at position 13.750000
$GPZDA,083750.04,09,10,2011,00,00*61
$GPRMC,083750.00,A,4611.957371,N,01258.226076,E,001.6,333.9,091$GPGGA,083751.00,4611.957833,N,01258.225882,E,1,07,1.1,140.64,M,46.25,M,,*69
$GPGLL,4611.957833,N,01258.225882,E,083751.00,A,A*69
$GPVTG,349.1,T,349.2,M,001.9,N,003.5,K,A*2E
$GPGSV,3,1,09,02,38,088,45,04,17,044,41,09,26,149,43,12,63,066,43*7A
$GPGSV,3,2,09,14,32,261,40,25,71,314,44,29,44,219,47,30,26,286,33*7A
$GPGSV,3,3,09,31,18,314,,,,,,,,,,,,,*4D
$GPGSA,M,3,02,04,09,12,14,25,29,,,,,,2.2,1.1,1.8*32
Trace #57 at position 14.000000
$GPZDA,083750.04,09,10,2011,00,00*61
$GPRMC,083750.00,A,4611.957371,N,01258.226076,E,001.6,333.9,091$GPGGA,083751.00,4611.957833,N,01258.225882,E,1,07,1.1,140.64,M,46.25,M,,*69
$GPGLL,4611.957833,N,01258.225882,E,083751.00,A,A*69
$GPVTG,349.1,T,349.2,M,001.9,N,003.5,K,A*2E
$GPGSV,3,1,09,02,38,088,45,04,17,044,41,09,26,149,43,12,63,066,43*7A
$GPGSV,3,2,09,14,32,261,40,25,71,314,44,29,44,219,47,30,26,286,33*7A
$GPGSV,3,3,09,31,18,314,,,,,,,,,,,,,*4D
$GPGSA,M,3,02,04,09,12,14,25,29,,,,,,2.2,1.1,1.8*32
Trace #58 at position 14.250000
$GPZDA,083751.04,09,10,2011,00,00*60
$GPRMC,083751.00,A,4611.957833,N,01258.225882,E,001.9,349.1,091$GPGGA,083752.00,4611.958343,N,01258.225854,E,1,07,1.1,140.51,M,46.25,M,,*64
$GPGLL,4611.958343,N,01258.225854,E,083752.00,A,A*62
$GPVTG,7.2,T,7.3,M,002.0,N,003.6,K,A*25
$GPGSV,3,1,09,02,38,088,44,04,17,044,41,09,26,149,44,12,63,066,43*7C
$GPGSV,3,2,09,14,32,261,40,25,71,314,44,29,44,219,46,30,27,286,33*7A
$GPGSV,3,3,09,31,18,314,,,,,,,,,,,,,*4D
$GPGSA,M,3,02,04,09,12,14,25,29,,,,,,2.2,1.1,1.8*32
Trace #59 at position 14.500000
$GPZDA,083751.04,09,10,2011,00,00*60
$GPRMC,083751.00,A,4611.957833,N,01258.225882,E,001.9,349.1,091$GPGGA,083752.00,4611.958343,N,01258.225854,E,1,07,1.1,140.51,M,46.25,M,,*64
$GPGLL,4611.958343,N,01258.225854,E,083752.00,A,A*62
$GPVTG,7.2,T,7.3,M,002.0,N,003.6,K,A*25
$GPGSV,3,1,09,02,38,088,44,04,17,044,41,09,26,149,44,12,63,066,43*7C
$GPGSV,3,2,09,14,32,261,40,25,71,314,44,29,44,219,46,30,27,286,33*7A
$GPGSV,3,3,09,31,18,314,,,,,,,,,,,,,*4D
$GPGSA,M,3,02,04,09,12,14,25,29,,,,,,2.2,1.1,1.8*32
Trace #60 at position 14.750000
$GPZDA,083751.04,09,10,2011,00,00*60
$GPRMC,083751.00,A,4611.957833,N,01258.225882,E,001.9,349.1,091$GPGGA,083752.00,4611.958343,N,01258.225854,E,1,07,1.1,140.51,M,46.25,M,,*64
$GPGLL,4611.958343,N,01258.225854,E,083752.00,A,A*62
$GPVTG,7.2,T,7.3,M,002.0,N,003.6,K,A*25
$GPGSV,3,1,09,02,38,088,44,04,17,044,41,09,26,149,44,12,63,066,43*7C
$GPGSV,3,2,09,14,32,261,40,25,71,314,44,29,44,219,46,30,27,286,33*7A
$GPGSV,3,3,09,31,18,314,,,,,,,,,,,,,*4D
$GPGSA,M,3,02,04,09,12,14,25,29,,,,,,2.2,1.1,1.8*32
Trace #61 at position 15.000000
$GPZDA,083751.04,09,10,2011,00,00*60
$GPRMC,083751.00,A,4611.957833,N,01258.225882,E,001.9,349.1,091$GPGGA,083752.00,4611.958343,N,01258.225854,E,1,07,1.1,140.51,M,46.25,M,,*64
$GPGLL,4611.958343,N,01258.225854,E,083752.00,A,A*62
$GPVTG,7.2,T,7.3,M,002.0,N,003.6,K,A*25
$GPGSV,3,1,09,02,38,088,44,04,17,044,41,09,26,149,44,12,63,066,43*7C
$GPGSV,3,2,09,14,32,261,40,25,71,314,44,29,44,219,46,30,27,286,33*7A
$GPGSV,3,3,09,31,18,314,,,,,,,,,,,,,*4D
$GPGSA,M,3,02,04,09,12,14,25,29,,,,,,2.2,1.1,1.8*32
Trace #62 at position 15.250000
$GPZDA,083752.04,09,10,2011,00,00*63
$GPRMC,083752.00,A,4611.958343,N,01258.225854,E,002.0,7.2,091011,0.$GPGGA,083753.00,4611.958843,N,01258.225793,E,1,07,1.1,140.40,M,46.25,M,,*6A
$GPGLL,4611.958843,N,01258.225793,E,083753.00,A,A*6C
$GPVTG,346.1,T,346.3,M,001.9,N,003.6,K,A*2C
$GPGSV,3,1,09,02,38,088,44,04,17,044,41,09,26,149,43,12,63,066,44*7C
$GPGSV,3,2,09,14,32,261,41,25,71,314,43,29,44,219,46,30,27,286,34*7B
$GPGSV,3,3,09,31,18,314,,,,,,,,,,,,,*4D
$GPGSA,M,3,02,04,09,12,14,25,29,,,,,,2.2,1.1,1.8*32
Trace #63 at position 15.500000
$GPZDA,083752.04,09,10,2011,00,00*63
$GPRMC,083752.00,A,4611.958343,N,01258.225854,E,002.0,7.2,091011,0.$GPGGA,083753.00,4611.958843,N,01258.225793,E,1,07,1.1,140.40,M,46.25,M,,*6A
$GPGLL,4611.958843,N,01258.225793,E,083753.00,A,A*6C
$GPVTG,346.1,T,346.3,M,001.9,N,003.6,K,A*2C
$GPGSV,3,1,09,02,38,088,44,04,17,044,41,09,26,149,43,12,63,066,44*7C
$GPGSV,3,2,09,14,32,261,41,25,71,314,43,29,44,219,46,30,27,286,34*7B
$GPGSV,3,3,09,31,18,314,,,,,,,,,,,,,*4D
$GPGSA,M,3,02,04,09,12,14,25,29,,,,,,2.2,1.1,1.8*32
Trace #64 at position 15.750000
$GPZDA,083752.04,09,10,2011,00,00*63
$GPRMC,083752.00,A,4611.958343,N,01258.225854,E,002.0,7.2,091011,0.$GPGGA,083753.00,4611.958843,N,01258.225793,E,1,07,1.1,140.40,M,46.25,M,,*6A
$GPGLL,4611.958843,N,01258.225793,E,083753.00,A,A*6C
$GPVTG,346.1,T,346.3,M,001.9,N,003.6,K,A*2C
$GPGSV,3,1,09,02,38,088,44,04,17,044,41,09,26,149,43,12,63,066,44*7C
$GPGSV,3,2,09,14,32,261,41,25,71,314,43,29,44,219,46,30,27,286,34*7B
$GPGSV,3,3,09,31,18,314,,,,,,,,,,,,,*4D
$GPGSA,M,3,02,04,09,12,14,25,29,,,,,,2.2,1.1,1.8*32
Trace #65 at position 16.000000
$GPZDA,083752.04,09,10,2011,00,00*63
$GPRMC,083752.00,A,4611.958343,N,01258.225854,E,002.0,7.2,091011,0.$GPGGA,083753.00,4611.958843,N,01258.225793,E,1,07,1.1,140.40,M,46.25,M,,*6A
$GPGLL,4611.958843,N,01258.225793,E,083753.00,A,A*6C
$GPVTG,346.1,T,346.3,M,001.9,N,003.6,K,A*2C
$GPGSV,3,1,09,02,38,088,44,04,17,044,41,09,26,149,43,12,63,066,44*7C
$GPGSV,3,2,09,14,32,261,41,25,71,314,43,29,44,219,46,30,27,286,34*7B
$GPGSV,3,3,09,31,18,314,,,,,,,,,,,,,*4D
$GPGSA,M,3,02,04,09,12,14,25,29,,,,,,2.2,1.1,1.8*32
Trace #66 at position 16.250000
$GPZDA,083753.04,09,10,2011,00,00*62
$GPRMC,083753.00,A,4611.958843,N,01258.225793,E,001.9,346.1,091$GPGGA,083754.00,4611.959282,N,01258.225665,E,1,07,1.1,140.38,M,46.25,M,,*6C
$GPGLL,4611.959282,N,01258.225665,E,083754.00,A,A*65
$GPVTG,357.5,T,357.7,M,001.5,N,002.8,K,A*2F
$GPGSV,3,1,09,02,38,088,44,04,17,043,40,09,26,149,43,12,63,066,44*7A
$GPGSV,3,2,09,14,32,261,41,25,71,314,42,29,44,219,46,30,27,286,32*7C
$GPGSV,3,3,09,31,18,314,,,,,,,,,,,,,*4D
$GPGSA,M,3,02,04,09,12,14,25,29,,,,,,2.2,1.1,1.8*32
Trace #67 at position 16.500000
$GPZDA,083753.04,09,10,2011,00,00*62
$GPRMC,083753.00,A,4611.958843,N,01258.225793,E,001.9,346.1,091$GPGGA,083754.00,4611.959282,N,01258.225665,E,1,07,1.1,140.38,M,46.25,M,,*6C
$GPGLL,4611.959282,N,01258.225665,E,083754.00,A,A*65
$GPVTG,357.5,T,357.7,M,001.5,N,002.8,K,A*2F
$GPGSV,3,1,09,02,38,088,44,04,17,043,40,09,26,149,43,12,63,066,44*7A
$GPGSV,3,2,09,14,32,261,41,25,71,314,42,29,44,219,46,30,27,286,32*7C
$GPGSV,3,3,09,31,18,314,,,,,,,,,,,,,*4D
$GPGSA,M,3,02,04,09,12,14,25,29,,,,,,2.2,1.1,1.8*32
Trace #68 at position 16.750000
$GPZDA,083753.04,09,10,2011,00,00*62
$GPRMC,083753.00,A,4611.958843,N,01258.225793,E,001.9,346.1,091$GPGGA,083754.00,4611.959282,N,01258.225665,E,1,07,1.1,140.38,M,46.25,M,,*6C
$GPGLL,4611.959282,N,01258.225665,E,083754.00,A,A*65
$GPVTG,357.5,T,357.7,M,001.5,N,002.8,K,A*2F
$GPGSV,3,1,09,02,38,088,44,04,17,043,40,09,26,149,43,12,63,066,44*7A
$GPGSV,3,2,09,14,32,261,41,25,71,314,42,29,44,219,46,30,27,286,32*7C
$GPGSV,3,3,09,31,18,314,,,,,,,,,,,,,*4D
$GPGSA,M,3,02,04,09,12,14,25,29,,,,,,2.2,1.1,1.8*32
Trace #69 at position 17.000000
$GPZDA,083754.04,09,10,2011,00,00*65
$GPRMC,083754.00,A,4611.959282,N,01258.225665,E,001.5,357.5,091PGLL,4611.959697,N,01258.225485,E,083755.00,A,A*68
$GPVTG,335.9,T,336.1,M,001.8,N,003.3,K,A*21
$GPGSV,3,1,09,02,38,088,44,04,17,043,39,09,26,149,43,12,63,066,43*73
$GPGSV,3,2,09,14,32,261,41,25,71,314,42,29,44,219,46,30,27,286,32*7C
$GPGSV,3,3,09,31,18,314,,,,,,,,,,,,,*4D
$GPGSA,M,3,02,04,09,12,14,25,29,,,,,,2.2,1.1,1.8*32
Trace #70 at position 17.250000
$GPZDA,083754.04,09,10,2011,00,00*65
$GPRMC,083754.00,A,4611.959282,N,01258.225665,E,001.5,357.5,091PGLL,4611.959697,N,01258.225485,E,083755.00,A,A*68
$GPVTG,335.9,T,336.1,M,001.8,N,003.3,K,A*21
$GPGSV,3,1,09,02,38,088,44,04,17,043,39,09,26,149,43,12,63,066,43*73
$GPGSV,3,2,09,14,32,261,41,25,71,314,42,29,44,219,46,30,27,286,32*7C
$GPGSV,3,3,09,31,18,314,,,,,,,,,,,,,*4D
$GPGSA,M,3,02,04,09,12,14,25,29,,,,,,2.2,1.1,1.8*32
Trace #71 at position 17.500000
$GPZDA,083755.04,09,10,2011,00,00*64
$GPRMC,083755.00,A,4611.959697,N,01258.225485,E,001.8,335.9,091011,0.2,E,A*3B
$GPGGA,083756.00,4611.960138,N,01258.225170,E,1,07,1.1,140.48,M,,N,003.5,K,A*22
$GPGSV,3,1,09,02,38,088,44,04,17,043,41,09,26,149,42,12,63,066,43*7D
$GPGSV,3,2,09,14,32,261,42,25,71,314,42,29,44,219,45,30,27,286,33*7D
$GPGSV,3,3,09,31,18,314,,,,,,,,,,,,,*4D
$GPGSA,M,3,02,04,09,12,14,25,29,,,,,,2.2,1.1,1.8*32
Trace #72 at position 17.750000
$GPZDA,083755.04,09,10,2011,00,00*64
$GPRMC,083755.00,A,4611.959697,N,01258.225485,E,001.8,335.9,091011,0.2,E,A*3B
$GPGGA,083756.00,4611.960138,N,01258.225170,E,1,07,1.1,140.48,M,,N,003.5,K,A*22
$GPGSV,3,1,09,02,38,088,44,04,17,043,41,09,26,149,42,12,63,066,43*7D
$GPGSV,3,2,09,14,32,261,42,25,71,314,42,29,44,219,45,30,27,286,33*7D
$GPGSV,3,3,09,31,18,314,,,,,,,,,,,,,*4D
$GPGSA,M,3,02,04,09,12,14,25,29,,,,,,2.2,1.1,1.8*32
Trace #73 at position 18.000000
$GPZDA,083755.04,09,10,2011,00,00*64
$GPRMC,083755.00,A,4611.959697,N,01258.225485,E,001.8,335.9,091011,0.2,E,A*3B
$GPGGA,083756.00,4611.960138,N,01258.225170,E,1,07,1.1,140.48,M,,N,003.5,K,A*22
$GPGSV,3,1,09,02,38,088,44,04,17,043,41,09,26,149,42,12,63,066,43*7D
$GPGSV,3,2,09,14,32,261,42,25,71,314,42,29,44,219,45,30,27,286,33*7D
$GPGSV,3,3,09,31,18,314,,,,,,,,,,,,,*4D
$GPGSA,M,3,02,04,09,12,14,25,29,,,,,,2.2,1.1,1.8*32
Trace #74 at position 18.250000
$GPZDA,083756.04,09,10,2011,00,00*67
$GPRMC,083756.00,A,4611.960138,N,01258.225170,E,001.9,333.8,091011,0.2,E,A*39
$GPGGA,083757.00,4611.960633,N,01258.224825,E,1,07,1.1,140.47,M,46.25,M,,*68
$GPGLL,4611.960633,N,01258.224825,E,083757.00,A,A*69
$GPVTG,334.849,43,12,63,066,45*78
$GPGSV,3,2,09,14,32,261,40,25,71,314,41,29,44,219,46,30,27,286,36*7A
$GPGSV,3,3,09,31,18,314,,,,,,,,,,,,,*4D
$GPGSA,M,3,02,04,09,12,14,25,29,,,,,,2.2,1.1,1.8*32
Trace #75 at position 18.500000
$GPZDA,083756.04,09,10,2011,00,00*67
$GPRMC,083756.00,A,4611.960138,N,01258.225170,E,001.9,333.8,091011,0.2,E,A*39
$GPGGA,083757.00,4611.960633,N,01258.224825,E,1,07,1.1,140.47,M,46.25,M,,*68
$GPGLL,4611.960633,N,01258.224825,E,083757.00,A,A*69
$GPVTG,334.849,43,12,63,066,45*78
$GPGSV,3,2,09,14,32,261,40,25,71,314,41,29,44,219,46,30,27,286,36*7A
$GPGSV,3,3,09,31,18,314,,,,,,,,,,,,,*4D
$GPGSA,M,3,02,04,09,12,14,25,29,,,,,,2.2,1.1,1.8*32
Trace #76 at position 18.750000
$GPZDA,083756.04,09,10,2011,00,00*67
$GPRMC,083756.00,A,4611.960138,N,01258.225170,E,001.9,333.8,091011,0.2,E,A*39
$GPGGA,083757.00,4611.960633,N,01258.224825,E,1,07,1.1,140.47,M,46.25,M,,*68
$GPGLL,4611.960633,N,01258.224825,E,083757.00,A,A*69
$GPVTG,334.849,43,12,63,066,45*78
$GPGSV,3,2,09,14,32,261,40,25,71,314,41,29,44,219,46,30,27,286,36*7A
$GPGSV,3,3,09,31,18,314,,,,,,,,,,,,,*4D
$GPGSA,M,3,02,04,09,12,14,25,29,,,,,,2.2,1.1,1.8*32
Trace #77 at position 19.000000
$GPZDA,083756.04,09,10,2011,00,00*67
$GPRMC,083756.00,A,4611.960138,N,01258.225170,E,001.9,333.8,091011,0.2,E,A*39
$GPGGA,083757.00,4611.960633,N,01258.224825,E,1,07,1.1,140.47,M,46.25,M,,*68
$GPGLL,4611.960633,N,01258.224825,E,083757.00,A,A*69
$GPVTG,334.849,43,12,63,066,45*78
$GPGSV,3,2,09,14,32,261,40,25,71,314,41,29,44,219,46,30,27,286,36*7A
$GPGSV,3,3,09,31,18,314,,,,,,,,,,,,,*4D
$GPGSA,M,3,02,04,09,12,14,25,29,,,,,,2.2,1.1,1.8*32
Trace #78 at position 19.250000
$GPZDA,083756.04,09,10,2011,00,00*67
$GPRMC,083756.00,A,4611.960138,N,01258.225170,E,001.9,333.8,091011,0.2,E,A*39
$GPGGA,083757.00,4611.960633,N,01258.224825,E,1,07,1.1,140.47,M,46.25,M,,*68
$GPGLL,4611.960633,N,01258.224825,E,083757.00,A,A*69
$GPVTG,334.849,43,12,63,066,45*78
$GPGSV,3,2,09,14,32,261,40,25,71,314,41,29,44,219,46,30,27,286,36*7A
$GPGSV,3,3,09,31,18,314,,,,,,,,,,,,,*4D
$GPGSA,M,3,02,04,09,12,14,25,29,,,,,,2.2,1.1,1.8*32
Trace #79 at position 19.500000
$GPZDA,083756.04,09,10,2011,00,00*67
$GPRMC,083756.00,A,4611.960138,N,01258.225170,E,001.9,333.8,091011,0.2,E,A*39
$GPGGA,083757.00,4611.960633,N,01258.224825,E,1,07,1.1,140.47,M,46.25,M,,*68
$GPGLL,4611.960633,N,01258.224825,E,083757.00,A,A*69
$GPVTG,334.849,43,12,63,066,45*78
$GPGSV,3,2,09,14,32,261,40,25,71,314,41,29,44,219,46,30,27,286,36*7A
$GPGSV,3,3,09,31,18,314,,,,,,,,,,,,,*4D
$GPGSA,M,3,02,04,09,12,14,25,29,,,,,,2.2,1.1,1.8*32
Trace #80 at position 19.750000
$GPZDA,083756.04,09,10,2011,00,00*67
$GPRMC,083756.00,A,4611.960138,N,01258.225170,E,001.9,333.8,091011,0.2,E,A*39
$GPGGA,083757.00,4611.960633,N,01258.224825,E,1,07,1.1,140.47,M,46.25,M,,*68
$GPGLL,4611.960633,N,01258.224825,E,083757.00,A,A*69
$GPVTG,334.849,43,12,63,066,45*78
$GPGSV,3,2,09,14,32,261,40,25,71,314,41,29,44,219,46,30,27,286,36*7A
$GPGSV,3,3,09,31,18,314,,,,,,,,,,,,,*4D
$GPGSA,M,3,02,04,09,12,14,25,29,,,,,,2.2,1.1,1.8*32
Trace #81 at position 20.000000
$GPZDA,083757.04,09,10,2011,00,00*66
$GPRMC,083757.00,A,4611.960633,N,01258.224825,E,002.2,334.8,091011,0.2,E,A*33
$GPGGA,083758.00,4611.961080,N,01258.224629,E,1,07,1.1,140.57,M,46.25,M,,*6B
$GPGLL,4611.961080,N,01258.224629,E,083758.00,A,A*6B
$GPVTG,355.7,T,355.8,M,001.4,N,002.6,K,A*2D
$GPGSV,3,1,09,02,38,088,44,04,1.1,1.8*32
$GPZDA,083758.04,09,10,2011,00,00*69
$GPRMC,083758.00,A,4611.961080,N,01258.224629,E,001.4,355.7,091011,0.2,E,A*3C
$GPGGA,083759.00,4611.961507,N,01258.224493,E,1,07,1.1,140.61,M,46.25,M,,*66
$GPGLL,4611.961507,N,01258.224493,E,083759.00,A,A*63
$GPVTG,343.0,T,343.2,M,001.9,N,003.4,K,A*2E
$GPGSV,3,1,09,02,38,088,44,04,17,043,36,09,26,149,42,12,63,066,42*7C
$GPGSV,3,2,09,14,32,261,41,25,71,314,43,29,44,219,46,30,27,286,33*7C
$GPGSV,3,3,09,31,18,314,,,,,,,,,,,,,*4D
$GPGSA,M,3,02,04,09,12,14,N,01258.224493,E,001.9,343.0,091011,0.2,E,A*39
Trace #82 at position 20.250000
$GPZDA,083757.04,09,10,2011,00,00*66
$GPRMC,083757.00,A,4611.960633,N,01258.224825,E,002.2,334.8,091011,0.2,E,A*33
$GPGGA,083758.00,4611.961080,N,01258.224629,E,1,07,1.1,140.57,M,46.25,M,,*6B
$GPGLL,4611.961080,N,01258.224629,E,083758.00,A,A*6B
$GPVTG,355.7,T,355.8,M,001.4,N,002.6,K,A*2D
$GPGSV,3,1,09,02,38,088,44,04,1.1,1.8*32
$GPZDA,083758.04,09,10,2011,00,00*69
$GPRMC,083758.00,A,4611.961080,N,01258.224629,E,001.4,355.7,091011,0.2,E,A*3C
$GPGGA,083759.00,4611.961507,N,01258.224493,E,1,07,1.1,140.61,M,46.25,M,,*66
$GPGLL,4611.961507,N,01258.224493,E,083759.00,A,A*63
$GPVTG,343.0,T,343.2,M,001.9,N,003.4,K,A*2E
$GPGSV,3,1,09,02,38,088,44,04,17,043,36,09,26,149,42,12,63,066,42*7C
$GPGSV,3,2,09,14,32,261,41,25,71,314,43,29,44,219,46,30,27,286,33*7C
$GPGSV,3,3,09,31,18,314,,,,,,,,,,,,,*4D
$GPGSA,M,3,02,04,09,12,14,N,01258.224493,E,001.9,343.0,091011,0.2,E,A*39
Trace #83 at position 20.500000
$GPGGA,083800.00,4611.961981,N,01258.224218,E,1,07,1.1,140.53,M,46.25,M,,*63
$GPGLL,4611.961981,N,01258.224218,E,083800.00,A,A*67
$GPVTG,334.8,T,335.0,M,002.0,N,003.6,K,A*2D
$GPGSV,3,1,09,02,38,088,45,04,17,043,36,09,26,149,43,12,63,066,44*7A
$GPGSV,3,2,09,14,32,261,39,25,71,314,40,29,44,219,47,30,27,286,34*76
$GPGSV,3,3,09,31,18,314,,,,,,,,,,,,,*4D
$GPGSA,M,3,02,04,09,12,14,25,29,,,,,,2.2,1.1,1.8*32
Trace #84 at position 20.750000
$GPGGA,083800.00,4611.961981,N,01258.224218,E,1,07,1.1,140.53,M,46.25,M,,*63
$GPGLL,4611.961981,N,01258.224218,E,083800.00,A,A*67
$GPVTG,334.8,T,335.0,M,002.0,N,003.6,K,A*2D
$GPGSV,3,1,09,02,38,088,45,04,17,043,36,09,26,149,43,12,63,066,44*7A
$GPGSV,3,2,09,14,32,261,39,25,71,314,40,29,44,219,47,30,27,286,34*76
$GPGSV,3,3,09,31,18,314,,,,,,,,,,,,,*4D
$GPGSA,M,3,02,04,09,12,14,25,29,,,,,,2.2,1.1,1.8*32
Trace #85 at position 21.000000
$GPGGA,083800.00,4611.961981,N,01258.224218,E,1,07,1.1,140.53,M,46.25,M,,*63
$GPGLL,4611.961981,N,01258.224218,E,083800.00,A,A*67
$GPVTG,334.8,T,335.0,M,002.0,N,003.6,K,A*2D
$GPGSV,3,1,09,02,38,088,45,04,17,043,36,09,26,149,43,12,63,066,44*7A
$GPGSV,3,2,09,14,32,261,39,25,71,314,40,29,44,219,47,30,27,286,34*76
$GPGSV,3,3,09,31,18,314,,,,,,,,,,,,,*4D
$GPGSA,M,3,02,04,09,12,14,25,29,,,,,,2.2,1.1,1.8*32
Trace #86 at position 21.250000
$GPZDA,083800.04,09,10,2011,00,00*6B
$GPRMC,083800.0$GPGGA,083801.00,4611.962424,N,01258.223978,E,1,07,1.1,140.50,M,46.25,M,,*6A
$GPGLL,4611.962424,N,01258.223978,E,083801.00,A,A*6D
$GPVTG,344.7,T,344.9,M,001.6,N,003.0,K,A*29
$GPGSV,3,1,09,02,38,088,44,04,17,043,39,09,26,149,43,12,63,066,43*73
$GPGSV,3,2,09,14,32,261,39,25,71,314,41,29,44,219,47,30,27,286,34*77
$GPGSV,3,3,09,31,18,314,,,,,,,,,,,,,*4D
$GPGSA,M,3,02,04,09,12,14,25,29,,,,,,2.2,1.1,1.8*32
Trace #87 at position 21.500000
$GPZDA,083800.04,09,10,2011,00,00*6B
$GPRMC,083800.0$GPGGA,083801.00,4611.962424,N,01258.223978,E,1,07,1.1,140.50,M,46.25,M,,*6A
$GPGLL,4611.962424,N,01258.223978,E,083801.00,A,A*6D
$GPVTG,344.7,T,344.9,M,001.6,N,003.0,K,A*29
$GPGSV,3,1,09,02,38,088,44,04,17,043,39,09,26,149,43,12,63,066,43*73
$GPGSV,3,2,09,14,32,261,39,25,71,314,41,29,44,219,47,30,27,286,34*77
$GPGSV,3,3,09,31,18,314,,,,,,,,,,,,,*4D
$GPGSA,M,3,02,04,09,12,14,25,29,,,,,,2.2,1.1,1.8*32
Trace #88 at position 21.750000
$GPZDA,083800.04,09,10,2011,00,00*6B
$GPRMC,083800.0$GPGGA,083801.00,4611.962424,N,01258.223978,E,1,07,1.1,140.50,M,46.25,M,,*6A
$GPGLL,4611.962424,N,01258.223978,E,083801.00,A,A*6D
$GPVTG,344.7,T,344.9,M,001.6,N,003.0,K,A*29
$GPGSV,3,1,09,02,38,088,44,04,17,043,39,09,26,149,43,12,63,066,43*73
$GPGSV,3,2,09,14,32,261,39,25,71,314,41,29,44,219,47,30,27,286,34*77
$GPGSV,3,3,09,31,18,314,,,,,,,,,,,,,*4D
$GPGSA,M,3,02,04,09,12,14,25,29,,,,,,2.2,1.1,1.8*32
Trace #89 at position 22.000000
$GPZDA,083800.04,09,10,2011,00,00*6B
$GPRMC,083800.0$GPGGA,083801.00,4611.962424,N,01258.223978,E,1,07,1.1,140.50,M,46.25,M,,*6A
$GPGLL,4611.962424,N,01258.223978,E,083801.00,A,A*6D
$GPVTG,344.7,T,344.9,M,001.6,N,003.0,K,A*29
$GPGSV,3,1,09,02,38,088,44,04,17,043,39,09,26,149,43,12,63,066,43*73
$GPGSV,3,2,09,14,32,261,39,25,71,314,41,29,44,219,47,30,27,286,34*77
$GPGSV,3,3,09,31,18,314,,,,,,,,,,,,,*4D
$GPGSA,M,3,02,04,09,12,14,25,29,,,,,,2.2,1.1,1.8*32
Trace #90 at position 22.250000
$GPZDA,083801.04,09,10,2011,00,00*6A
$GPRMC,083801.00,A,4611.962424,N,01258.223978,E,001.6,344.7,091$GPGGA,083802.00,4611.962867,N,01258.223893,E,1,07,1.1,140.54,M,46.25,M,,*62
$GPGLL,4611.962867,N,01258.223893,E,083802.00,A,A*61
$GPVTG,359.4,T,359.6,M,001.8,N,003.4,K,A*2F
$GPGSV,3,1,09,02,38,088,44,04,17,043,41,09,26,149,43,12,63,066,44*7B
$GPGSV,3,2,09,14,32,261,41,25,71,314,40,29,44,219,46,30,27,286,*7F
$GPGSV,3,3,09,31,18,314,,,,,,,,,,,,,*4D
$GPGSA,M,3,02,04,09,12,14,25,29,,,,,,2.2,1.1,1.8*32
Trace #91 at position 22.500000
$GPZDA,083801.04,09,10,2011,00,00*6A
$GPRMC,083801.00,A,4611.962424,N,01258.223978,E,001.6,344.7,091$GPGGA,083802.00,4611.962867,N,01258.223893,E,1,07,1.1,140.54,M,46.25,M,,*62
$GPGLL,4611.962867,N,01258.223893,E,083802.00,A,A*61
$GPVTG,359.4,T,359.6,M,001.8,N,003.4,K,A*2F
$GPGSV,3,1,09,02,38,088,44,04,17,043,41,09,26,149,43,12,63,066,44*7B
$GPGSV,3,2,09,14,32,261,41,25,71,314,40,29,44,219,46,30,27,286,*7F
$GPGSV,3,3,09,31,18,314,,,,,,,,,,,,,*4D
$GPGSA,M,3,02,04,09,12,14,25,29,,,,,,2.2,1.1,1.8*32
Trace #92 at position 22.750000
$GPZDA,083801.04,09,10,2011,00,00*6A
$GPRMC,083801.00,A,4611.962424,N,01258.223978,E,001.6,344.7,091$GPGGA,083802.00,4611.962867,N,01258.223893,E,1,07,1.1,140.54,M,46.25,M,,*62
$GPGLL,4611.962867,N,01258.223893,E,083802.00,A,A*61
$GPVTG,359.4,T,359.6,M,001.8,N,003.4,K,A*2F
$GPGSV,3,1,09,02,38,088,44,04,17,043,41,09,26,149,43,12,63,066,44*7B
$GPGSV,3,2,09,14,32,261,41,25,71,314,40,29,44,219,46,30,27,286,*7F
$GPGSV,3,3,09,31,18,314,,,,,,,,,,,,,*4D
$GPGSA,M,3,02,04,09,12,14,25,29,,,,,,2.2,1.1,1.8*32
Trace #93 at position 23.000000
$GPZDA,083802.04,09,10,2011,00,00*69
$GPRMC,083802.00,A,4611.962867,N,01258.223893,E,001.8,359.4,09101$GPGGA,083803.00,4611.963334,N,01258.223804,E,1,07,1.1,140.56,M,46.25,M,,*63
$GPGLL,4611.963334,N,01258.223804,E,083803.00,A,A*62
$GPVTG,348.0,T,348.2,M,001.8,N,003.3,K,A*28
$GPGSV,3,1,09,02,38,088,44,04,17,043,42,09,26,149,41,12,63,066,44*7A
$GPGSV,3,2,09,14,32,261,42,25,71,314,41,29,44,219,46,30,27,286,*7D
$GPGSV,3,3,09,31,18,314,,,,,,,,,,,,,*4D
$GPGSA,M,3,02,04,09,12,14,25,29,,,,,,2.2,1.1,1.8*32
Trace #94 at position 23.250000
$GPZDA,083802.04,09,10,2011,00,00*69
$GPRMC,083802.00,A,4611.962867,N,01258.223893,E,001.8,359.4,09101$GPGGA,083803.00,4611.963334,N,01258.223804,E,1,07,1.1,140.56,M,46.25,M,,*63
$GPGLL,4611.963334,N,01258.223804,E,083803.00,A,A*62
$GPVTG,348.0,T,348.2,M,001.8,N,003.3,K,A*28
$GPGSV,3,1,09,02,38,088,44,04,17,043,42,09,26,149,41,12,63,066,44*7A
$GPGSV,3,2,09,14,32,261,42,25,71,314,41,29,44,219,46,30,27,286,*7D
$GPGSV,3,3,09,31,18,314,,,,,,,,,,,,,*4D
$GPGSA,M,3,02,04,09,12,14,25,29,,,,,,2.2,1.1,1.8*32
Trace #95 at position 23.500000
$GPZDA,083802.04,09,10,2011,00,00*69
$GPRMC,083802.00,A,4611.962867,N,01258.223893,E,001.8,359.4,09101$GPGGA,083803.00,4611.963334,N,01258.223804,E,1,07,1.1,140.56,M,46.25,M,,*63
$GPGLL,4611.963334,N,01258.223804,E,083803.00,A,A*62
$GPVTG,348.0,T,348.2,M,001.8,N,003.3,K,A*28
$GPGSV,3,1,09,02,38,088,44,04,17,043,42,09,26,149,41,12,63,066,44*7A
$GPGSV,3,2,09,14,32,261,42,25,71,314,41,29,44,219,46,30,27,286,*7D
$GPGSV,3,3,09,31,18,314,,,,,,,,,,,,,*4D
$GPGSA,M,3,02,04,09,12,14,25,29,,,,,,2.2,1.1,1.8*32
Trace #96 at position 23.750000
$GPZDA,083803.04,09,10,2011,00,00*68
$GPRMC,083803.00,A,4611.963334,N,01258.223804,E,001.8,348.0,09101$GPGGA,083804.00,4611.963797,N,01258.223588,E,1,07,1.1,140.54,M,46.25,M,,*62
$GPGLL,4611.963797,N,01258.223588,E,083804.00,A,A*61
$GPVTG,339.4,T,339.5,M,001.9,N,003.6,K,A*2F
$GPGSV,3,1,09,02,38,088,43,04,17,043,41,09,26,149,43,12,63,066,43*7B
$GPGSV,3,2,09,14,32,261,42,25,71,314,41,29,44,219,47,30,27,286,*7C
$GPGSV,3,3,09,31,18,314,,,,,,,,,,,,,*4D
$GPGSA,M,3,02,04,09,12,14,25,29,,,,,,2.2,1.1,1.8*32
Trace #97 at position 24.000000
$GPZDA,083803.04,09,10,2011,00,00*68
$GPRMC,083803.00,A,4611.963334,N,01258.223804,E,001.8,348.0,09101$GPGGA,083804.00,4611.963797,N,01258.223588,E,1,07,1.1,140.54,M,46.25,M,,*62
$GPGLL,4611.963797,N,01258.223588,E,083804.00,A,A*61
$GPVTG,339.4,T,339.5,M,001.9,N,003.6,K,A*2F
$GPGSV,3,1,09,02,38,088,43,04,17,043,41,09,26,149,43,12,63,066,43*7B
$GPGSV,3,2,09,14,32,261,42,25,71,314,41,29,44,219,47,30,27,286,*7C
$GPGSV,3,3,09,31,18,314,,,,,,,,,,,,,*4D
$GPGSA,M,3,02,04,09,12,14,25,29,,,,,,2.2,1.1,1.8*32
Trace #98 at position 24.250000
$GPZDA,083804.04,09,10,2011,00,00*6F
$GPRMC,083804.00,A,4611.963797,N,01258.223588,E,001.9,339.4,09101$GPGGA,083805.00,4611.964173,N,01258.223413,E,1,07,1.1,140.55,M,46.25,M,,*6A
$GPGLL,4611.964173,N,01258.223413,E,083805.00,A,A*68
$GPVTG,351.5,T,351.7,M,001.1,N,002.0,K,A*23
$GPGSV,3,1,09,02,38,088,43,04,17,043,42,09,26,149,42,12,63,066,45*7F
$GPGSV,3,2,09,14,32,261,43,25,71,314,40,29,44,219,46,30,27,286,36*78
$GPGSV,3,3,09,31,18,314,,,,,,,,,,,,,*4D
$GPGSA,M,3,02,04,09,12,14,25,29,,,,,,2.2,1.1,1.8*32
Trace #99 at position 24.500000
$GPZDA,083804.04,09,10,2011,00,00*6F
$GPRMC,083804.00,A,4611.963797,N,01258.223588,E,001.9,339.4,09101$GPGGA,083805.00,4611.964173,N,01258.223413,E,1,07,1.1,140.55,M,46.25,M,,*6A
$GPGLL,4611.964173,N,01258.223413,E,083805.00,A,A*68
$GPVTG,351.5,T,351.7,M,001.1,N,002.0,K,A*23
$GPGSV,3,1,09,02,38,088,43,04,17,043,42,09,26,149,42,12,63,066,45*7F
$GPGSV,3,2,09,14,32,261,43,25,71,314,40,29,44,219,46,30,27,286,36*78
$GPGSV,3,3,09,31,18,314,,,,,,,,,,,,,*4D
$GPGSA,M,3,02,04,09,12,14,25,29,,,,,,2.2,1.1,1.8*32
Trace #100 at position 24.750000
$GPZDA,083805.04,09,10,2011,00,00*6E
$GPRMC,083805.00,A,4611.964173,N,01258.223413,E,001.1,351.5,091$GPGGA,083806.00,4611.964508,N,01258.223256,E,1,07,1.1,140.61,M,46.25,M,,*61
$GPGLL,4611.964508,N,01258.223256,E,083806.00,A,A*64
$GPVTG,338.7,T,338.9,M,001.6,N,002.9,K,A*21
$GPGSV,3,1,09,02,38,088,44,04,17,043,40,09,26,149,44,12,63,066,43*7A
$GPGSV,3,2,09,14,32,261,41,25,71,314,41,29,44,219,47,30,27,286,34*78
$GPGSV,3,3,09,31,18,314,,,,,,,,,,,,,*4D
$GPGSA,M,3,02,04,09,12,14,25,29,,,,,,2.2,1.1,1.8*32
Trace #101 at position 25.000000
$GPZDA,083807.04,09,10,2011,00,00*6C
$GPRMC,083807.00,A,4611.964890,N,01258.223082,E,001.4,349.8,091011,0.2,E,A*37
PGLL,4611.965226,N,01258.222953,E,083808.00,A,A*6F
$GPVTG,344.2,T,344.4,M,001.1,N,002.1,K,A*26
$GPGSV,3,1,09,02,38,088,43,04,17,043,40,09,26,149,43,12,63,066,43*7A
$GPGSV,3,2,09,14,32,261,41,25,71,314,42,29,44,219,46,30,27,286,34*7A
$GPGSV,3,3,09,31,18,314,,,,,,,,,,,,,*4D
$GPGSA,M,3,02,04,09,12,14,25,29,,,,,,2.2,1.1,1.8*32
Trace #102 at position 25.250000
$GPZDA,083808.04,09,10,2011,00,00*63
$GPRMC,083808.00,A,4611.965226,N,01258.222953,E,001.1,344.2,091011,0.2,E,A*38
$GPGGA,083809.00,4611.965519,N,01258.222835,E,1,07,1.1,140.84,M,,N,001.9,K,A*28
$GPGSV,3,1,09,02,38,088,44,04,17,043,39,09,26,149,43,12,63,066,44*74
$GPGSV,3,2,09,14,32,261,41,25,71,314,40,29,44,219,46,30,27,286,33*7F
$GPGSV,3,3,09,31,18,314,,,,,,,,,,,,,*4D
$GPGSA,M,3,02,04,09,12,14,25,29,,,,,,2.2,1.1,1.8*32
Trace #103 at position 25.500000
$GPZDA,083808.04,09,10,2011,00,00*63
$GPRMC,083808.00,A,4611.965226,N,01258.222953,E,001.1,344.2,091011,0.2,E,A*38
$GPGGA,083809.00,4611.965519,N,01258.222835,E,1,07,1.1,140.84,M,,N,001.9,K,A*28
$GPGSV,3,1,09,02,38,088,44,04,17,043,39,09,26,149,43,12,63,066,44*74
$GPGSV,3,2,09,14,32,261,41,25,71,314,40,29,44,219,46,30,27,286,33*7F
$GPGSV,3,3,09,31,18,314,,,,,,,,,,,,,*4D
$GPGSA,M,3,02,04,09,12,14,25,29,,,,,,2.2,1.1,1.8*32
Trace #104 at position 25.750000
$GPZDA,083808.04,09,10,2011,00,00*63
$GPRMC,083808.00,A,4611.965226,N,01258.222953,E,001.1,344.2,091011,0.2,E,A*38
$GPGGA,083809.00,4611.965519,N,01258.222835,E,1,07,1.1,140.84,M,,N,001.9,K,A*28
$GPGSV,3,1,09,02,38,088,44,04,17,043,39,09,26,149,43,12,63,066,44*74
$GPGSV,3,2,09,14,32,261,41,25,71,314,40,29,44,219,46,30,27,286,33*7F
$GPGSV,3,3,09,31,18,314,,,,,,,,,,,,,*4D
$GPGSA,M,3,02,04,09,12,14,25,29,,,,,,2.2,1.1,1.8*32
Trace #105 at position 26.000000
$GPZDA,083809.04,09,10,2011,00,00*62
$GPRMC,083809.00,A,4611.965519,N,01258.222835,E,001.0,350.0,091011,0.2,E,A*35
$GPGGA,083810.00,4611.965837,N,01258.222644,E,1,07,1.1,140.85,M,46.25,M,,*6A
$GPGLL,4611.965837,N,01258.222644,E,083810.00,A,A*65
$GPVTG,330.77,043,41,09,26,149,43,12,63,067,44*7B
$GPGSV,3,2,09,14,32,261,40,25,71,314,39,29,44,219,47,30,27,286,34*76
$GPGSV,3,3,09,31,18,314,,,,,,,,,,,,,*4D
$GPGSA,M,3,02,04,09,12,14,25,29,,,,,,2.1,1.1,1.8*31
Trace #106 at position 26.250000
$GPZDA,083809.04,09,10,2011,00,00*62
$GPRMC,083809.00,A,4611.965519,N,01258.222835,E,001.0,350.0,091011,0.2,E,A*35
$GPGGA,083810.00,4611.965837,N,01258.222644,E,1,07,1.1,140.85,M,46.25,M,,*6A
$GPGLL,4611.965837,N,01258.222644,E,083810.00,A,A*65
$GPVTG,330.77,043,41,09,26,149,43,12,63,067,44*7B
$GPGSV,3,2,09,14,32,261,40,25,71,314,39,29,44,219,47,30,27,286,34*76
$GPGSV,3,3,09,31,18,314,,,,,,,,,,,,,*4D
$GPGSA,M,3,02,04,09,12,14,25,29,,,,,,2.1,1.1,1.8*31
Trace #107 at position 26.500000
$GPZDA,083809.04,09,10,2011,00,00*62
$GPRMC,083809.00,A,4611.965519,N,01258.222835,E,001.0,350.0,091011,0.2,E,A*35
$GPGGA,083810.00,4611.965837,N,01258.222644,E,1,07,1.1,140.85,M,46.25,M,,*6A
$GPGLL,4611.965837,N,01258.222644,E,083810.00,A,A*65
$GPVTG,330.77,043,41,09,26,149,43,12,63,067,44*7B
$GPGSV,3,2,09,14,32,261,40,25,71,314,39,29,44,219,47,30,27,286,34*76
$GPGSV,3,3,09,31,18,314,,,,,,,,,,,,,*4D
$GPGSA,M,3,02,04,09,12,14,25,29,,,,,,2.1,1.1,1.8*31
Trace #108 at position 26.750000
$GPZDA,083809.04,09,10,2011,00,00*62
$GPRMC,083809.00,A,4611.965519,N,01258.222835,E,001.0,350.0,091011,0.2,E,A*35
$GPGGA,083810.00,4611.965837,N,01258.222644,E,1,07,1.1,140.85,M,46.25,M,,*6A
$GPGLL,4611.965837,N,01258.222644,E,083810.00,A,A*65
$GPVTG,330.77,043,41,09,26,149,43,12,63,067,44*7B
$GPGSV,3,2,09,14,32,261,40,25,71,314,39,29,44,219,47,30,27,286,34*76
$GPGSV,3,3,09,31,18,314,,,,,,,,,,,,,*4D
$GPGSA,M,3,02,04,09,12,14,25,29,,,,,,2.1,1.1,1.8*31
Trace #109 at position 27.000000
$GPZDA,083809.04,09,10,2011,00,00*62
$GPRMC,083809.00,A,4611.965519,N,01258.222835,E,001.0,350.0,091011,0.2,E,A*35
$GPGGA,083810.00,4611.965837,N,01258.222644,E,1,07,1.1,140.85,M,46.25,M,,*6A
$GPGLL,4611.965837,N,01258.222644,E,083810.00,A,A*65
$GPVTG,330.77,043,41,09,26,149,43,12,63,067,44*7B
$GPGSV,3,2,09,14,32,261,40,25,71,314,39,29,44,219,47,30,27,286,34*76
$GPGSV,3,3,09,31,18,314,,,,,,,,,,,,,*4D
$GPGSA,M,3,02,04,09,12,14,25,29,,,,,,2.1,1.1,1.8*31
Trace #110 at position 27.250000
$GPZDA,083809.04,09,10,2011,00,00*62
$GPRMC,083809.00,A,4611.965519,N,01258.222835,E,001.0,350.0,091011,0.2,E,A*35
$GPGGA,083810.00,4611.965837,N,01258.222644,E,1,07,1.1,140.85,M,46.25,M,,*6A
$GPGLL,4611.965837,N,01258.222644,E,083810.00,A,A*65
$GPVTG,330.77,043,41,09,26,149,43,12,63,067,44*7B
$GPGSV,3,2,09,14,32,261,40,25,71,314,39,29,44,219,47,30,27,286,34*76
$GPGSV,3,3,09,31,18,314,,,,,,,,,,,,,*4D
$GPGSA,M,3,02,04,09,12,14,25,29,,,,,,2.1,1.1,1.8*31
Trace #111 at position 27.500000
$GPZDA,083809.04,09,10,2011,00,00*62
$GPRMC,083809.00,A,4611.965519,N,01258.222835,E,001.0,350.0,091011,0.2,E,A*35
$GPGGA,083810.00,4611.965837,N,01258.222644,E,1,07,1.1,140.85,M,46.25,M,,*6A
$GPGLL,4611.965837,N,01258.222644,E,083810.00,A,A*65
$GPVTG,330.77,043,41,09,26,149,43,12,63,067,44*7B
$GPGSV,3,2,09,14,32,261,40,25,71,314,39,29,44,219,47,30,27,286,34*76
$GPGSV,3,3,09,31,18,314,,,,,,,,,,,,,*4D
$GPGSA,M,3,02,04,09,12,14,25,29,,,,,,2.1,1.1,1.8*31
Trace #112 at position 27.750000
$GPZDA,083809.04,09,10,2011,00,00*62
$GPRMC,083809.00,A,4611.965519,N,01258.222835,E,001.0,350.0,091011,0.2,E,A*35
$GPGGA,083810.00,4611.965837,N,01258.222644,E,1,07,1.1,140.85,M,46.25,M,,*6A
$GPGLL,4611.965837,N,01258.222644,E,083810.00,A,A*65
$GPVTG,330.77,043,41,09,26,149,43,12,63,067,44*7B
$GPGSV,3,2,09,14,32,261,40,25,71,314,39,29,44,219,47,30,27,286,34*76
$GPGSV,3,3,09,31,18,314,,,,,,,,,,,,,*4D
$GPGSA,M,3,02,04,09,12,14,25,29,,,,,,2.1,1.1,1.8*31
Trace #113 at position 28.000000
$GPZDA,083810.04,09,10,2011,00,00*6A
$GPRMC,083810.00,A,4611.965837,N,01258.222644,E,001.4,330.7,091011,0.2,E,A*31
$GPGGA,083811.00,4611.966181,N,01258.222316,E,1,07,1.1,140.88,M,46.25,M,,*63
$GPGLL,4611.966181,N,01258.222316,E,083811.00,A,A*61
$GPVTG,321.3,T,321.4,M,001.6,N,002.9,K,A*28
$GPGSV,3,1,09,0,02,04,09,12,14,25,29,,,,,,2.1,1.1,1.8*31
$GPZDA,083811.04,09,10,2011,00,00*6B
$GPRMC,083811.00,A,4611.966181,N,01258.222316,E,001.6,321.3,091011,0.2,E,A*33
$GPGGA,083812.00,4611.966451,N,01258.222105,E,1,07,1.1,140.91,M,46.25,M,,*60
$GPGLL,4611.966451,N,01258.222105,E,083812.00,A,A*6A
$GPVTG,349.8,T,349.9,M,000.7,N,001.3,K,A*27
$GPGSV,3,1,09,02,38,088,43,04,17,043,40,09,26,149,42,12,63,067,42*7B
