Trace #1 at position 0.000000
$GPZDA,082801.03,09,10,2011,00,00*6C
$GPRMC,082801.00,A,4611.978588,N,01258.216384,E,000.1,218.8,091011,0.2,E,A*3B
$GPGGA,082802.00,4611.978596,N,01258.216378,E,1,05,2.4,138.18,M,46.25,M,,*60
$GPGLL,4611.978596,N,01258.216378,E,082802.00,A,A*60
$GPVTG,246.1,T,246.3,M,000.0,N,000.1,K,A*20
$GPGSV,2,1,08,02,37,093,,04,19,047,28,09,31,147,35,12,67,059,39*70
$GPGSV,2,2,08,14,34,266,43,25,68,305,41,29,39,216,38,30,23,283,43*7F
$GPGSA,M,3,12,14,25,29,30,,,,,,,,4.9,2.4,4.3*3B
Trace #2 at position 0.250000
$GPZDA,082804.03,09,10,2011,00,00*69
$GPRMC,082804.00,A,4611.978664,N,01258.216483,E,000.1,63.4,091011,0.2,E,A*0D
$GPGGA,082805.00,4611.978661,N,01258.216424,E,1,06,1.6,138.13,M,46.25,M,,*6B
$GPGLL,4611.978661,N,01258.216424,E,082805.00,A,A*62
$GPVTG,43.5,T,43.6,M,000.1,N,000.2,K,A*23
$GPGSV,2,1,08,02,37,093,,04,19,047,41,09,31,147,17,12,66,059,43*73
$GPGSV,2,2,08,14,34,266,43,25,68,305,47,29,39,216,44,30,23,283,41*70
$GPGSA,M,3,04,12,14,25,29,30,,,,,,,2.5,1.6,1.9*3B
Trace #3 at position 0.500000
$GPZDA,082804.03,09,10,2011,00,00*69
$GPRMC,082804.00,A,4611.978664,N,01258.216483,E,000.1,63.4,091011,0.2,E,A*0D
$GPGGA,082805.00,4611.978661,N,01258.216424,E,1,06,1.6,138.13,M,46.25,M,,*6B
$GPGLL,4611.978661,N,01258.216424,E,082805.00,A,A*62
$GPVTG,43.5,T,43.6,M,000.1,N,000.2,K,A*23
$GPGSV,2,1,08,02,37,093,,04,19,047,41,09,31,147,17,12,66,059,43*73
$GPGSV,2,2,08,14,34,266,43,25,68,305,47,29,39,216,44,30,23,283,41*70
$GPGSA,M,3,04,12,14,25,29,30,,,,,,,2.5,1.6,1.9*3B
Trace #4 at position 0.750000
$GPZDA,082805.04,09,10,2011,00,00*6F
$GPRMC,082805.00,A,4611.978661,N,01258.216424,E,000.1,43.5,091011,0.2,E,A*07
$GPGGA,082806.00,4611.978643,N,01258.216349,E,1,06,1.6,138.31,M,46.25,M,,*64
$GPGLL,4611.978643,N,01258.216349,E,082806.00,A,A*6D
$GPVTG,190.5,T,190.6,M,000.1,N,000.1,K,A*20
$GPGSV,2,1,08,02,37,093,,04,19,047,43,09,31,147,31,12,66,059,43*75
$GPGSV,2,2,08,14,34,266,43,25,68,305,47,29,39,216,45,30,23,283,40*70
$GPGSA,M,3,04,12,14,25,29,30,,,,,,,2.5,1.6,1.9*3B
Trace #5 at position 1.000000
$GPZDA,082806.03,09,10,2011,00,00*6B
$GPRMC,082806.00,A,4611.978643,N,01258.216349,E,000.1,190.5,091011,0.2,E,A*37
$GPGGA,082807.00,4611.978617,N,01258.216275,E,1,06,1.6,138.53,M,46.25,M,,*6E
$GPGLL,4611.978617,N,01258.216275,E,082807.00,A,A*63
$GPVTG,94.2,T,94.4,M,000.0,N,000.0,K,A*25
$GPGSV,2,1,08,02,37,093,,04,19,047,42,09,31,147,68,305,46,29,39,216,43,30,23,283,39*7E
$GPGSA,M,3,04,12,14,25,29,30,,,,,,,2.5,1.6,1.9*3B
Trace #6 at position 1.250000
$GPZDA,082806.03,09,10,2011,00,00*6B
$GPRMC,082806.00,A,4611.978643,N,01258.216349,E,000.1,190.5,091011,0.2,E,A*37
$GPGGA,082807.00,4611.978617,N,01258.216275,E,1,06,1.6,138.53,M,46.25,M,,*6E
$GPGLL,4611.978617,N,01258.216275,E,082807.00,A,A*63
$GPVTG,94.2,T,94.4,M,000.0,N,000.0,K,A*25
$GPGSV,2,1,08,02,37,093,,04,19,047,42,09,31,147,68,305,46,29,39,216,43,30,23,283,39*7E
$GPGSA,M,3,04,12,14,25,29,30,,,,,,,2.5,1.6,1.9*3B
Trace #7 at position 1.500000
$GPZDA,082806.03,09,10,2011,00,00*6B
$GPRMC,082806.00,A,4611.978643,N,01258.216349,E,000.1,190.5,091011,0.2,E,A*37
$GPGGA,082807.00,4611.978617,N,01258.216275,E,1,06,1.6,138.53,M,46.25,M,,*6E
$GPGLL,4611.978617,N,01258.216275,E,082807.00,A,A*63
$GPVTG,94.2,T,94.4,M,000.0,N,000.0,K,A*25
$GPGSV,2,1,08,02,37,093,,04,19,047,42,09,31,147,68,305,46,29,39,216,43,30,23,283,39*7E
$GPGSA,M,3,04,12,14,25,29,30,,,,,,,2.5,1.6,1.9*3B
Trace #8 at position 1.750000
$GPZDA,082806.03,09,10,2011,00,00*6B
$GPRMC,082806.00,A,4611.978643,N,01258.216349,E,000.1,190.5,091011,0.2,E,A*37
$GPGGA,082807.00,4611.978617,N,01258.216275,E,1,06,1.6,138.53,M,46.25,M,,*6E
$GPGLL,4611.978617,N,01258.216275,E,082807.00,A,A*63
$GPVTG,94.2,T,94.4,M,000.0,N,000.0,K,A*25
$GPGSV,2,1,08,02,37,093,,04,19,047,42,09,31,147,68,305,46,29,39,216,43,30,23,283,39*7E
$GPGSA,M,3,04,12,14,25,29,30,,,,,,,2.5,1.6,1.9*3B
Trace #9 at position 2.000000
$GPZDA,082806.03,09,10,2011,00,00*6B
$GPRMC,082806.00,A,4611.978643,N,01258.216349,E,000.1,190.5,091011,0.2,E,A*37
$GPGGA,082807.00,4611.978617,N,01258.216275,E,1,06,1.6,138.53,M,46.25,M,,*6E
$GPGLL,4611.978617,N,01258.216275,E,082807.00,A,A*63
$GPVTG,94.2,T,94.4,M,000.0,N,000.0,K,A*25
$GPGSV,2,1,08,02,37,093,,04,19,047,42,09,31,147,68,305,46,29,39,216,43,30,23,283,39*7E
$GPGSA,M,3,04,12,14,25,29,30,,,,,,,2.5,1.6,1.9*3B
Trace #10 at position 2.250000
$GPZDA,082807.03,09,10,2011,00,00*6A
$GPRMC,082807.00,A,4611.978617,N,01258.216275,E,000.0,94.2,091011,0.2,E,A*0A
$GPGGA,082808.00,4611.978561,N,01258.216255,E,1,05,2.0,138.83,M,46.25,M,,*6A
$GPGLL,4611.978561,N,01258.216255,E,082808.00,A,A*6C
$GPVTG,198.9,T,199.1,M,000.1,N,000.1,K,A*2A
$GPGSV,2,1,08,02,37,093,,04,19,047,42,09,31,147,,12,66,059,42*77
$GPGSV,2,2,08,14,34,266,45,25,68,305,47,29,39,216,42,30,23,283GPRMC,082808.00,A,4611.978561,N,01258.216255,E,000.1,198.9,091011,0.2,E,A*32
$GPGGA,082809.00,4611.978520,N,01258.216235,E,1,05,2.0,139.08,M,46.25,M,,*6A
$GPGLL,4611.978520,N,01258.216235,E,082809.00,A,A*6E
$GPVTG,357.7,T,357.9,M,000.1,N,000.1,K,A*2D
$GPGSV,2,1,08,02,37,093,,04,19,047,43,09,31,147,,12,66,059,42*76
$GPGSV,2,2,08,14,34,266,45,25,68,305,48,29,39,216,43,30,23,283,39*71
$GPGSA,M,3,04,12,14,25,29,,,,,,,,2.8,2.0,2.0*3A
Trace #11 at position 2.500000
$GPZDA,082807.03,09,10,2011,00,00*6A
$GPRMC,082807.00,A,4611.978617,N,01258.216275,E,000.0,94.2,091011,0.2,E,A*0A
$GPGGA,082808.00,4611.978561,N,01258.216255,E,1,05,2.0,138.83,M,46.25,M,,*6A
$GPGLL,4611.978561,N,01258.216255,E,082808.00,A,A*6C
$GPVTG,198.9,T,199.1,M,000.1,N,000.1,K,A*2A
$GPGSV,2,1,08,02,37,093,,04,19,047,42,09,31,147,,12,66,059,42*77
$GPGSV,2,2,08,14,34,266,45,25,68,305,47,29,39,216,42,30,23,283GPRMC,082808.00,A,4611.978561,N,01258.216255,E,000.1,198.9,091011,0.2,E,A*32
$GPGGA,082809.00,4611.978520,N,01258.216235,E,1,05,2.0,139.08,M,46.25,M,,*6A
$GPGLL,4611.978520,N,01258.216235,E,082809.00,A,A*6E
$GPVTG,357.7,T,357.9,M,000.1,N,000.1,K,A*2D
$GPGSV,2,1,08,02,37,093,,04,19,047,43,09,31,147,,12,66,059,42*76
$GPGSV,2,2,08,14,34,266,45,25,68,305,48,29,39,216,43,30,23,283,39*71
$GPGSA,M,3,04,12,14,25,29,,,,,,,,2.8,2.0,2.0*3A
Trace #12 at position 2.750000
$GPZDA,082807.03,09,10,2011,00,00*6A
$GPRMC,082807.00,A,4611.978617,N,01258.216275,E,000.0,94.2,091011,0.2,E,A*0A
$GPGGA,082808.00,4611.978561,N,01258.216255,E,1,05,2.0,138.83,M,46.25,M,,*6A
$GPGLL,4611.978561,N,01258.216255,E,082808.00,A,A*6C
$GPVTG,198.9,T,199.1,M,000.1,N,000.1,K,A*2A
$GPGSV,2,1,08,02,37,093,,04,19,047,42,09,31,147,,12,66,059,42*77
$GPGSV,2,2,08,14,34,266,45,25,68,305,47,29,39,216,42,30,23,283GPRMC,082808.00,A,4611.978561,N,01258.216255,E,000.1,198.9,091011,0.2,E,A*32
$GPGGA,082809.00,4611.978520,N,01258.216235,E,1,05,2.0,139.08,M,46.25,M,,*6A
$GPGLL,4611.978520,N,01258.216235,E,082809.00,A,A*6E
$GPVTG,357.7,T,357.9,M,000.1,N,000.1,K,A*2D
$GPGSV,2,1,08,02,37,093,,04,19,047,43,09,31,147,,12,66,059,42*76
$GPGSV,2,2,08,14,34,266,45,25,68,305,48,29,39,216,43,30,23,283,39*71
$GPGSA,M,3,04,12,14,25,29,,,,,,,,2.8,2.0,2.0*3A
Trace #13 at position 3.000000
$GPZDA,082809.03,09,10,2011,00,00*64
$GPRMC,082809.00,A,4611.978520,N,00.1,357.7,091011,0.2,E,A*3F
$GPGGA,082810.00,4611.978492,N,01258.216221,E,1,05,2.0,139.31,M,46.25,M,,*65
$GPGLL,4611.978492,N,01258.216221,E,082810.00,A,A*6B
$GPVTG,4.3,T,4.4,M,000.0,N,000.0,K,A*24
$GPGSV,2,1,08,02,37,093,,04,19,047,42,09,31,147,,12,66,059,42*77
$GPGSV,2,2,08,14,34,266,44,25,68,305,48,29,39,217,43,30,23,283,36*7E
$GPGSA,M,3,04,12,14,25,29,,,,,,,,2.8,2.0,2.0*3A
Trace #14 at position 3.250000
$GPZDA,082809.03,09,10,2011,00,00*64
$GPRMC,082809.00,A,4611.978520,N,00.1,357.7,091011,0.2,E,A*3F
$GPGGA,082810.00,4611.978492,N,01258.216221,E,1,05,2.0,139.31,M,46.25,M,,*65
$GPGLL,4611.978492,N,01258.216221,E,082810.00,A,A*6B
$GPVTG,4.3,T,4.4,M,000.0,N,000.0,K,A*24
$GPGSV,2,1,08,02,37,093,,04,19,047,42,09,31,147,,12,66,059,42*77
$GPGSV,2,2,08,14,34,266,44,25,68,305,48,29,39,217,43,30,23,283,36*7E
$GPGSA,M,3,04,12,14,25,29,,,,,,,,2.8,2.0,2.0*3A
Trace #15 at position 3.500000
$GPZDA,082809.03,09,10,2011,00,00*64
$GPRMC,082809.00,A,4611.978520,N,00.1,357.7,091011,0.2,E,A*3F
$GPGGA,082810.00,4611.978492,N,01258.216221,E,1,05,2.0,139.31,M,46.25,M,,*65
$GPGLL,4611.978492,N,01258.216221,E,082810.00,A,A*6B
$GPVTG,4.3,T,4.4,M,000.0,N,000.0,K,A*24
$GPGSV,2,1,08,02,37,093,,04,19,047,42,09,31,147,,12,66,059,42*77
$GPGSV,2,2,08,14,34,266,44,25,68,305,48,29,39,217,43,30,23,283,36*7E
$GPGSA,M,3,04,12,14,25,29,,,,,,,,2.8,2.0,2.0*3A
Trace #16 at position 3.750000
$GPZDA,082810.03,09,10,2011,00,00*6C
$GPRMC,082810.00,A,4611.978492,N,01258.216221,E,000.0,4.3,091011,0.2,E,A*3A
$GPGGA,082811.00,4611.978358,N,01258.216241,E,1,05,2.0,139.52,M,46.25,M,,*66
$GPGLL,4611.978358,N,01258.216241,E,082811.00,A,A*6D
$GPVTG,168.2,T,168.4,M,000.8,N,001.4,K,A*28
$GPGSV,2,1,08,02,37,093,36,04,19,047,43,09,31,147,,12,66,059,45*74
$GPGSV,2,2,08,14,34,266,43,25,68,305,47,29,39,217,44,30,23,283,39*7E
$GPGSA,M,3,04,12,14,25,29,,,,,,,,2.8,2.0,2.0*3A
Trace #17 at position 4.000000
$GPZDA,082810.03,09,10,2011,00,00*6C
$GPRMC,082810.00,A,4611.978492,N,01258.216221,E,000.0,4.3,091011,0.2,E,A*3A
$GPGGA,082811.00,4611.978358,N,01258.216241,E,1,05,2.0,139.52,M,46.25,M,,*66
$GPGLL,4611.978358,N,01258.216241,E,082811.00,A,A*6D
$GPVTG,168.2,T,168.4,M,000.8,N,001.4,K,A*28
$GPGSV,2,1,08,02,37,093,36,04,19,047,43,09,31,147,,12,66,059,45*74
$GPGSV,2,2,08,14,34,266,43,25,68,305,47,29,39,217,44,30,23,283,39*7E
$GPGSA,M,3,04,12,14,25,29,,,,,,,,2.8,2.0,2.0*3A
Trace #18 at position 4.250000
$GPZDA,082810.03,09,10,2011,00,00*6C
$GPRMC,082810.00,A,4611.978492,N,01258.216221,E,000.0,4.3,091011,0.2,E,A*3A
$GPGGA,082811.00,4611.978358,N,01258.216241,E,1,05,2.0,139.52,M,46.25,M,,*66
$GPGLL,4611.978358,N,01258.216241,E,082811.00,A,A*6D
$GPVTG,168.2,T,168.4,M,000.8,N,001.4,K,A*28
$GPGSV,2,1,08,02,37,093,36,04,19,047,43,09,31,147,,12,66,059,45*74
$GPGSV,2,2,08,14,34,266,43,25,68,305,47,29,39,217,44,30,23,283,39*7E
$GPGSA,M,3,04,12,14,25,29,,,,,,,,2.8,2.0,2.0*3A
Trace #19 at position 4.500000
$GPZDA,082811.03,09,10,2011,00,00*6D
$GPRMC,082811.00,A,4611.978358,N,01258.216241,E,000.8,168.2,091011,0.2,E,A*3E
$GPGGA,082812.00,4611.978125,N,01258.216241,E,1,06,1.6,139.54,M,46.25,M,,*6D
$GPGLL,4611.978125,N,01258.216241,E,082812.00,A,A*66
$GPVTG,173.6,T,173.8,M,001.0,N,001.9,K,A*24
$GPGSV,2,1,08,02,37,093,35,04,19,047,43,09,31,147,,12,66,059,44*76
$GPGSV,2,2,08,14,34,266,43,25,68,305,46,29,39,217,43,30,23,283,42*74
$GPGSA,M,3,04,12,14,25,29,30,,,,,,,2.5,1.6,1.9*3B
Trace #20 at position 4.750000
$GPZDA,082811.03,09,10,2011,00,00*6D
$GPRMC,082811.00,A,4611.978358,N,01258.216241,E,000.8,168.2,091011,0.2,E,A*3E
$GPGGA,082812.00,4611.978125,N,01258.216241,E,1,06,1.6,139.54,M,46.25,M,,*6D
$GPGLL,4611.978125,N,01258.216241,E,082812.00,A,A*66
$GPVTG,173.6,T,173.8,M,001.0,N,001.9,K,A*24
$GPGSV,2,1,08,02,37,093,35,04,19,047,43,09,31,147,,12,66,059,44*76
$GPGSV,2,2,08,14,34,266,43,25,68,305,46,29,39,217,43,30,23,283,42*74
$GPGSA,M,3,04,12,14,25,29,30,,,,,,,2.5,1.6,1.9*3B
Trace #21 at position 5.000000
$GPZDA,082811.03,09,10,2011,00,00*6D
$GPRMC,082811.00,A,4611.978358,N,01258.216241,E,000.8,168.2,091011,0.2,E,A*3E
$GPGGA,082812.00,4611.978125,N,01258.216241,E,1,06,1.6,139.54,M,46.25,M,,*6D
$GPGLL,4611.978125,N,01258.216241,E,082812.00,A,A*66
$GPVTG,173.6,T,173.8,M,001.0,N,001.9,K,A*24
$GPGSV,2,1,08,02,37,093,35,04,19,047,43,09,31,147,,12,66,059,44*76
$GPGSV,2,2,08,14,34,266,43,25,68,305,46,29,39,217,43,30,23,283,42*74
$GPGSA,M,3,04,12,14,25,29,30,,,,,,,2.5,1.6,1.9*3B
Trace #22 at position 5.250000
$GPZDA,082811.03,09,10,2011,00,00*6D
$GPRMC,082811.00,A,4611.978358,N,01258.216241,E,000.8,168.2,091011,0.2,E,A*3E
$GPGGA,082812.00,4611.978125,N,01258.216241,E,1,06,1.6,139.54,M,46.25,M,,*6D
$GPGLL,4611.978125,N,01258.216241,E,082812.00,A,A*66
$GPVTG,173.6,T,173.8,M,001.0,N,001.9,K,A*24
$GPGSV,2,1,08,02,37,093,35,04,19,047,43,09,31,147,,12,66,059,44*76
$GPGSV,2,2,08,14,34,266,43,25,68,305,46,29,39,217,43,30,23,283,42*74
$GPGSA,M,3,04,12,14,25,29,30,,,,,,,2.5,1.6,1.9*3B
Trace #23 at position 5.500000
$GPZDA,082812.04,09,10,2011,00,00*69
$GPRMC,082812.00,A,4611.978125,N,01258.216241,E,001.0,173.6,091011,0.2,E,A*32
$GPGGA,082813.00,4611.977885,N,01258.216319,E,1,06,1.6,139.54,M,46.25,M,,*6C
$GPGLL,4611.977885,N,01258.216319,E,082813.00,A,A*67
$GPVTG,145.5,T,145.6,M,001.0,N,001.8,K,A*28
$GPGSV,2,1,08,02,37,093,36,04,19,047,42,09,31,147,,12,66,059,43*73
$GPGSV,2,2,08,14,34,266,43,25,68,305,47,29,39,217,45,30,23,283,42*73
$GPGSA,M,3,04,12,14,25,29,30,,,,,,,2.5,1.6,1.9*3B
Trace #24 at position 5.750000
$GPZDA,082812.04,09,10,2011,00,00*69
$GPRMC,082812.00,A,4611.978125,N,01258.216241,E,001.0,173.6,091011,0.2,E,A*32
$GPGGA,082813.00,4611.977885,N,01258.216319,E,1,06,1.6,139.54,M,46.25,M,,*6C
$GPGLL,4611.977885,N,01258.216319,E,082813.00,A,A*67
$GPVTG,145.5,T,145.6,M,001.0,N,001.8,K,A*28
$GPGSV,2,1,08,02,37,093,36,04,19,047,42,09,31,147,,12,66,059,43*73
$GPGSV,2,2,08,14,34,266,43,25,68,305,47,29,39,217,45,30,23,283,42*73
$GPGSA,M,3,04,12,14,25,29,30,,,,,,,2.5,1.6,1.9*3B
Trace #25 at position 6.000000
$GPZDA,082812.04,09,10,2011,00,00*69
$GPRMC,082812.00,A,4611.978125,N,01258.216241,E,001.0,173.6,091011,0.2,E,A*32
$GPGGA,082813.00,4611.977885,N,01258.216319,E,1,06,1.6,139.54,M,46.25,M,,*6C
$GPGLL,4611.977885,N,01258.216319,E,082813.00,A,A*67
$GPVTG,145.5,T,145.6,M,001.0,N,001.8,K,A*28
$GPGSV,2,1,08,02,37,093,36,04,19,047,42,09,31,147,,12,66,059,43*73
$GPGSV,2,2,08,14,34,266,43,25,68,305,47,29,39,217,45,30,23,283,42*73
$GPGSA,M,3,04,12,14,25,29,30,,,,,,,2.5,1.6,1.9*3B
Trace #26 at position 6.250000
$GPZDA,082813.04,09,10,2011,00,00*68
$GPRMC,082813.00,A,4611.977885,N,01258.216319,E,001.0,145.5,091011,0.2,E,A*35
$GPGGA,082814.00,4611.977619,N,01258.216444,E,1,06,1.6,139.62,M,46.25,M,,*6A
$GPGLL,4611.977619,N,01258.216444,E,082814.00,A,A*64
$GPVTG,164.4,T,164.6,M,001.2,N,002.3,K,A*23
$GPGSV,2,1,08,02,37,093,38,04,19,047,41,09,31,147,,12,66,059,43*7E
$GPGSV,2,2,08,14,34,266,43,25,68,305,47,29,39,217,43,30,23,283,41*76
$GPGSA,M,3,04,12,14,25,29,30,,,,,,,2.5,1.6,1.9*3B
Trace #27 at position 6.500000
$GPZDA,082813.04,09,10,2011,00,00*68
$GPRMC,082813.00,A,4611.977885,N,01258.216319,E,001.0,145.5,091011,0.2,E,A*35
$GPGGA,082814.00,4611.977619,N,01258.216444,E,1,06,1.6,139.62,M,46.25,M,,*6A
$GPGLL,4611.977619,N,01258.216444,E,082814.00,A,A*64
$GPVTG,164.4,T,164.6,M,001.2,N,002.3,K,A*23
$GPGSV,2,1,08,02,37,093,38,04,19,047,41,09,31,147,,12,66,059,43*7E
$GPGSV,2,2,08,14,34,266,43,25,68,305,47,29,39,217,43,30,23,283,41*76
$GPGSA,M,3,04,12,14,25,29,30,,,,,,,2.5,1.6,1.9*3B
Trace #28 at position 6.750000
$GPZDA,082813.04,09,10,2011,00,00*68
$GPRMC,082813.00,A,4611.977885,N,01258.216319,E,001.0,145.5,091011,0.2,E,A*35
$GPGGA,082814.00,4611.977619,N,01258.216444,E,1,06,1.6,139.62,M,46.25,M,,*6A
$GPGLL,4611.977619,N,01258.216444,E,082814.00,A,A*64
$GPVTG,164.4,T,164.6,M,001.2,N,002.3,K,A*23
$GPGSV,2,1,08,02,37,093,38,04,19,047,41,09,31,147,,12,66,059,43*7E
$GPGSV,2,2,08,14,34,266,43,25,68,305,47,29,39,217,43,30,23,283,41*76
$GPGSA,M,3,04,12,14,25,29,30,,,,,,,2.5,1.6,1.9*3B
Trace #29 at position 7.000000
$GPZDA,082813.04,09,10,2011,00,00*68
$GPRMC,082813.00,A,4611.977885,N,01258.216319,E,001.0,145.5,091011,0.2,E,A*35
$GPGGA,082814.00,4611.977619,N,01258.216444,E,1,06,1.6,139.62,M,46.25,M,,*6A
$GPGLL,4611.977619,N,01258.216444,E,082814.00,A,A*64
$GPVTG,164.4,T,164.6,M,001.2,N,002.3,K,A*23
$GPGSV,2,1,08,02,37,093,38,04,19,047,41,09,31,147,,12,66,059,43*7E
$GPGSV,2,2,08,14,34,266,43,25,68,305,47,29,39,217,43,30,23,283,41*76
$GPGSA,M,3,04,12,14,25,29,30,,,,,,,2.5,1.6,1.9*3B
Trace #30 at position 7.250000
$GPZDA,082814.04,09,10,2011,00,00*6F
$GPRMC,082814.00,A,4611.977619,N,01258.216444,E,001.2,164.4,091011,0.2,E,A*36
$GPGGA,082815.00,4611.977313,N,01258.216568,E,1,06,1.6,139.74,M,46.25,M,,*6C
$GPGLL,4611.977313,N,01258.216568,E,082815.00,A,A*65
$GPVTG,154.0,T,154.1,M,001.2,N,002.2,K,A*21
$GPGSV,2,1,08,02,37,093,38,04,19,047,41,09,31,147,,12,66,059,43*7E
$GPGSV,2,2,08,14,34,266,43,25,68,305,46,29,39,217,43,30,23,283,42*74
$GPGSA,M,3,04,12,14,25,29,30,,,,,,,2.5,1.6,1.9*3B
Trace #31 at position 7.500000
$GPZDA,082814.04,09,10,2011,00,00*6F
$GPRMC,082814.00,A,4611.977619,N,01258.216444,E,001.2,164.4,091011,0.2,E,A*36
$GPGGA,082815.00,4611.977313,N,01258.216568,E,1,06,1.6,139.74,M,46.25,M,,*6C
$GPGLL,4611.977313,N,01258.216568,E,082815.00,A,A*65
$GPVTG,154.0,T,154.1,M,001.2,N,002.2,K,A*21
$GPGSV,2,1,08,02,37,093,38,04,19,047,41,09,31,147,,12,66,059,43*7E
$GPGSV,2,2,08,14,34,266,43,25,68,305,46,29,39,217,43,30,23,283,42*74
$GPGSA,M,3,04,12,14,25,29,30,,,,,,,2.5,1.6,1.9*3B
Trace #32 at position 7.750000
$GPZDA,082814.04,09,10,2011,00,00*6F
$GPRMC,082814.00,A,4611.977619,N,01258.216444,E,001.2,164.4,091011,0.2,E,A*36
$GPGGA,082815.00,4611.977313,N,01258.216568,E,1,06,1.6,139.74,M,46.25,M,,*6C
$GPGLL,4611.977313,N,01258.216568,E,082815.00,A,A*65
$GPVTG,154.0,T,154.1,M,001.2,N,002.2,K,A*21
$GPGSV,2,1,08,02,37,093,38,04,19,047,41,09,31,147,,12,66,059,43*7E
$GPGSV,2,2,08,14,34,266,43,25,68,305,46,29,39,217,43,30,23,283,42*74
$GPGSA,M,3,04,12,14,25,29,30,,,,,,,2.5,1.6,1.9*3B
Trace #33 at position 8.000000
$GPZDA,082814.04,09,10,2011,00,00*6F
$GPRMC,082814.00,A,4611.977619,N,01258.216444,E,001.2,164.4,091011,0.2,E,A*36
$GPGGA,082815.00,4611.977313,N,01258.216568,E,1,06,1.6,139.74,M,46.25,M,,*6C
$GPGLL,4611.977313,N,01258.216568,E,082815.00,A,A*65
$GPVTG,154.0,T,154.1,M,001.2,N,002.2,K,A*21
$GPGSV,2,1,08,02,37,093,38,04,19,047,41,09,31,147,,12,66,059,43*7E
$GPGSV,2,2,08,14,34,266,43,25,68,305,46,29,39,217,43,30,23,283,42*74
$GPGSA,M,3,04,12,14,25,29,30,,,,,,,2.5,1.6,1.9*3B
Trace #34 at position 8.250000
$GPZDA,082815.04,09,10,2011,00,00*6E
$GPRMC,082815.00,A,4611.977313,N,01258.216568,E,001.2,154.0,091011,0.2,E,A*30
$GPGGA,082816.00,4611.976946,N,01258.216764,E,1,06,1.6,139.86,M,46.25,M,,*67
$GPGLL,4611.976946,N,01258.216764,E,082816.00,A,A*63
$GPVTG,156.8,T,156.9,M,001.7,N,003.2,K,A*25
$GPGSV,2,1,08,02,37,093,37,04,19,047,42,09,31,147,,12,66,059,43*72
$GPGSV,2,2,08,14,34,266,42,25,68,305,46,29,40,217,43,30,23,283,40*79
$GPGSA,M,3,04,12,14,25,29,30,,,,,,,2.5,1.6,1.9*3B
Trace #35 at position 8.500000
$GPZDA,082815.04,09,10,2011,00,00*6E
$GPRMC,082815.00,A,4611.977313,N,01258.216568,E,001.2,154.0,091011,0.2,E,A*30
$GPGGA,082816.00,4611.976946,N,01258.216764,E,1,06,1.6,139.86,M,46.25,M,,*67
$GPGLL,4611.976946,N,01258.216764,E,082816.00,A,A*63
$GPVTG,156.8,T,156.9,M,001.7,N,003.2,K,A*25
$GPGSV,2,1,08,02,37,093,37,04,19,047,42,09,31,147,,12,66,059,43*72
$GPGSV,2,2,08,14,34,266,42,25,68,305,46,29,40,217,43,30,23,283,40*79
$GPGSA,M,3,04,12,14,25,29,30,,,,,,,2.5,1.6,1.9*3B
Trace #36 at position 8.750000
$GPZDA,082815.04,09,10,2011,00,00*6E
$GPRMC,082815.00,A,4611.977313,N,01258.216568,E,001.2,154.0,091011,0.2,E,A*30
$GPGGA,082816.00,4611.976946,N,01258.216764,E,1,06,1.6,139.86,M,46.25,M,,*67
$GPGLL,4611.976946,N,01258.216764,E,082816.00,A,A*63
$GPVTG,156.8,T,156.9,M,001.7,N,003.2,K,A*25
$GPGSV,2,1,08,02,37,093,37,04,19,047,42,09,31,147,,12,66,059,43*72
$GPGSV,2,2,08,14,34,266,42,25,68,305,46,29,40,217,43,30,23,283,40*79
$GPGSA,M,3,04,12,14,25,29,30,,,,,,,2.5,1.6,1.9*3B
Trace #37 at position 9.000000
$GPZDA,082816.03,09,10,2011,00,00*6A
$GPRMC,082816.00,A,4611.976946,N,01258.216764,E,001.7,156.8,091011,0.2,E,A*39
$GPGGA,082817.00,4611.976517,N,01258.216829,E,1,06,1.6,139.89,M,46.25,M,,*67
$GPGLL,4611.976517,N,01258.216829,E,082817.00,A,A*6C
$GPVTG,186.2,T,186.4,M,001.5,N,002.8,K,A*2B
$GPGSV,2,1,08,02,37,093,38,04,19,047,43,09,31,147,,12,66,059,42*7D
$GPGSV,2,2,08,14,34,266,43,25,68,305,47,29,40,217,43,30,23,283,42*7B
$GPGSA,M,3,04,12,14,25,29,30,,,,,,,2.5,1.6,1.9*3B
Trace #38 at position 9.250000
$GPZDA,082816.03,09,10,2011,00,00*6A
$GPRMC,082816.00,A,4611.976946,N,01258.216764,E,001.7,156.8,091011,0.2,E,A*39
$GPGGA,082817.00,4611.976517,N,01258.216829,E,1,06,1.6,139.89,M,46.25,M,,*67
$GPGLL,4611.976517,N,01258.216829,E,082817.00,A,A*6C
$GPVTG,186.2,T,186.4,M,001.5,N,002.8,K,A*2B
$GPGSV,2,1,08,02,37,093,38,04,19,047,43,09,31,147,,12,66,059,42*7D
$GPGSV,2,2,08,14,34,266,43,25,68,305,47,29,40,217,43,30,23,283,42*7B
$GPGSA,M,3,04,12,14,25,29,30,,,,,,,2.5,1.6,1.9*3B
Trace #39 at position 9.500000
$GPZDA,082816.03,09,10,2011,00,00*6A
$GPRMC,082816.00,A,4611.976946,N,01258.216764,E,001.7,156.8,091011,0.2,E,A*39
$GPGGA,082817.00,4611.976517,N,01258.216829,E,1,06,1.6,139.89,M,46.25,M,,*67
$GPGLL,4611.976517,N,01258.216829,E,082817.00,A,A*6C
$GPVTG,186.2,T,186.4,M,001.5,N,002.8,K,A*2B
$GPGSV,2,1,08,02,37,093,38,04,19,047,43,09,31,147,,12,66,059,42*7D
$GPGSV,2,2,08,14,34,266,43,25,68,305,47,29,40,217,43,30,23,283,42*7B
$GPGSA,M,3,04,12,14,25,29,30,,,,,,,2.5,1.6,1.9*3B
Trace #40 at position 9.750000
$GPZDA,082817.03,09,10,2011,00,00*6B
$GPRMC,082817.00,A,4611.976517,N,01258.216829,E,001.5,186.2,091011,0.2,E,A*33
$GPGGA,082818.00,4611.975977,N,01258.216971,E,1,06,1.6,139.79,M,46.25,M,,*62
$GPGLL,4611.975977,N,01258.216971,E,082818.00,A,A*66
$GPVTG,158.2,T,158.4,M,002.6,N,004.9,K,A*2C
$GPGSV,2,1,08,02,37,093,37,04,19,047,42,09,31,147,,12,66,059,43*72
$GPGSV,2,2,08,14,34,266,43,25,68,305,46,29,40,217,43,30,23,283,41*79
$GPGSA,M,3,04,12,14,25,29,30,,,,,,,2.5,1.6,1.9*3B
Trace #41 at position 10.000000
$GPZDA,082817.03,09,10,2011,00,00*6B
$GPRMC,082817.00,A,4611.976517,N,01258.216829,E,001.5,186.2,091011,0.2,E,A*33
$GPGGA,082818.00,4611.975977,N,01258.216971,E,1,06,1.6,139.79,M,46.25,M,,*62
$GPGLL,4611.975977,N,01258.216971,E,082818.00,A,A*66
$GPVTG,158.2,T,158.4,M,002.6,N,004.9,K,A*2C
$GPGSV,2,1,08,02,37,093,37,04,19,047,42,09,31,147,,12,66,059,43*72
$GPGSV,2,2,08,14,34,266,43,25,68,305,46,29,40,217,43,30,23,283,41*79
$GPGSA,M,3,04,12,14,25,29,30,,,,,,,2.5,1.6,1.9*3B
Trace #42 at position 10.250000
$GPZDA,082817.03,09,10,2011,00,00*6B
$GPRMC,082817.00,A,4611.976517,N,01258.216829,E,001.5,186.2,091011,0.2,E,A*33
$GPGGA,082818.00,4611.975977,N,01258.216971,E,1,06,1.6,139.79,M,46.25,M,,*62
$GPGLL,4611.975977,N,01258.216971,E,082818.00,A,A*66
$GPVTG,158.2,T,158.4,M,002.6,N,004.9,K,A*2C
$GPGSV,2,1,08,02,37,093,37,04,19,047,42,09,31,147,,12,66,059,43*72
$GPGSV,2,2,08,14,34,266,43,25,68,305,46,29,40,217,43,30,23,283,41*79
$GPGSA,M,3,04,12,14,25,29,30,,,,,,,2.5,1.6,1.9*3B
Trace #43 at position 10.500000
$GPZDA,082817.03,09,10,2011,00,00*6B
$GPRMC,082817.00,A,4611.976517,N,01258.216829,E,001.5,186.2,091011,0.2,E,A*33
$GPGGA,082818.00,4611.975977,N,01258.216971,E,1,06,1.6,139.79,M,46.25,M,,*62
$GPGLL,4611.975977,N,01258.216971,E,082818.00,A,A*66
$GPVTG,158.2,T,158.4,M,002.6,N,004.9,K,A*2C
$GPGSV,2,1,08,02,37,093,37,04,19,047,42,09,31,147,,12,66,059,43*72
$GPGSV,2,2,08,14,34,266,43,25,68,305,46,29,40,217,43,30,23,283,41*79
$GPGSA,M,3,04,12,14,25,29,30,,,,,,,2.5,1.6,1.9*3B
Trace #44 at position 10.750000
$GPZDA,082818.04,09,10,2011,00,00*63
$GPRMC,082818.00,A,4611.975977,N,01258.216971,E,002.6,158.2,091011,0.2,E,A*3A
$GPGGA,082819.00,4611.975473,N,01258.217239,E,1,06,1.6,139.82,M,46.25,M,,*68
$GPGLL,4611.975473,N,01258.217239,E,082819.00,A,A*68
$GPVTG,159.1,T,159.2,M,001.4,N,002.7,K,A*20
$GPGSV,3,1,09,02,37,093,37,04,19,047,43,09,31,147,,12,66,059,43*73
$GPGSV,3,2,09,14,34,266,43,25,68,305,46,29,40,217,43,30,23,283,41*79
$GPGSV,3,3,09,31,15,314,,,,,,,,,,,,,*40
$GPGSA,M,3,04,12,14,25,29,30,,,,,,,2.5,1.6,1.9*3B
Trace #45 at position 11.000000
$GPZDA,082818.04,09,10,2011,00,00*63
$GPRMC,082818.00,A,4611.975977,N,01258.216971,E,002.6,158.2,091011,0.2,E,A*3A
$GPGGA,082819.00,4611.975473,N,01258.217239,E,1,06,1.6,139.82,M,46.25,M,,*68
$GPGLL,4611.975473,N,01258.217239,E,082819.00,A,A*68
$GPVTG,159.1,T,159.2,M,001.4,N,002.7,K,A*20
$GPGSV,3,1,09,02,37,093,37,04,19,047,43,09,31,147,,12,66,059,43*73
$GPGSV,3,2,09,14,34,266,43,25,68,305,46,29,40,217,43,30,23,283,41*79
$GPGSV,3,3,09,31,15,314,,,,,,,,,,,,,*40
$GPGSA,M,3,04,12,14,25,29,30,,,,,,,2.5,1.6,1.9*3B
Trace #46 at position 11.250000
$GPZDA,082818.04,09,10,2011,00,00*63
$GPRMC,082818.00,A,4611.975977,N,01258.216971,E,002.6,158.2,091011,0.2,E,A*3A
$GPGGA,082819.00,4611.975473,N,01258.217239,E,1,06,1.6,139.82,M,46.25,M,,*68
$GPGLL,4611.975473,N,01258.217239,E,082819.00,A,A*68
$GPVTG,159.1,T,159.2,M,001.4,N,002.7,K,A*20
$GPGSV,3,1,09,02,37,093,37,04,19,047,43,09,31,147,,12,66,059,43*73
$GPGSV,3,2,09,14,34,266,43,25,68,305,46,29,40,217,43,30,23,283,41*79
$GPGSV,3,3,09,31,15,314,,,,,,,,,,,,,*40
$GPGSA,M,3,04,12,14,25,29,30,,,,,,,2.5,1.6,1.9*3B
Trace #47 at position 11.500000
$GPZDA,082818.04,09,10,2011,00,00*63
$GPRMC,082818.00,A,4611.975977,N,01258.216971,E,002.6,158.2,091011,0.2,E,A*3A
$GPGGA,082819.00,4611.975473,N,01258.217239,E,1,06,1.6,139.82,M,46.25,M,,*68
$GPGLL,4611.975473,N,01258.217239,E,082819.00,A,A*68
$GPVTG,159.1,T,159.2,M,001.4,N,002.7,K,A*20
$GPGSV,3,1,09,02,37,093,37,04,19,047,43,09,31,147,,12,66,059,43*73
$GPGSV,3,2,09,14,34,266,43,25,68,305,46,29,40,217,43,30,23,283,41*79
$GPGSV,3,3,09,31,15,314,,,,,,,,,,,,,*40
$GPGSA,M,3,04,12,14,25,29,30,,,,,,,2.5,1.6,1.9*3B
Trace #48 at position 11.750000
$GPZDA,082819.04,09,10,2011,00,00*62
$GPRMC,082819.00,A,4611.975473,N,01258.217239,E,001.4,159.1,091011,0.2,E,A*37
$GPGGA,082820.00,4611.975049,N,01258.217479,E,1,06,1.6,139.84,M,46.25,M,,*6B
$GPGLL,4611.975049,N,01258.217479,E,082820.00,A,A*6D
$GPVTG,154.5,T,154.6,M,002.0,N,003.7,K,A*26
$GPGSV,3,1,09,02,37,093,37,04,19,047,43,09,31,147,,12,66,059,43*73
$GPGSV,3,2,09,14,34,266,43,25,68,305,46,29,40,217,43,30,23,283,41*79
$GPGSV,3,3,09,31,15,314,,,,,,,,,,,,,*40
$GPGSA,M,3,04,12,14,25,29,30,,,,,,,2.5,1.6,1.9*3B
Trace #49 at position 12.000000
$GPZDA,082819.04,09,10,2011,00,00*62
$GPRMC,082819.00,A,4611.975473,N,01258.217239,E,001.4,159.1,091011,0.2,E,A*37
$GPGGA,082820.00,4611.975049,N,01258.217479,E,1,06,1.6,139.84,M,46.25,M,,*6B
$GPGLL,4611.975049,N,01258.217479,E,082820.00,A,A*6D
$GPVTG,154.5,T,154.6,M,002.0,N,003.7,K,A*26
$GPGSV,3,1,09,02,37,093,37,04,19,047,43,09,31,147,,12,66,059,43*73
$GPGSV,3,2,09,14,34,266,43,25,68,305,46,29,40,217,43,30,23,283,41*79
$GPGSV,3,3,09,31,15,314,,,,,,,,,,,,,*40
$GPGSA,M,3,04,12,14,25,29,30,,,,,,,2.5,1.6,1.9*3B
Trace #50 at position 12.250000
$GPZDA,082819.04,09,10,2011,00,00*62
$GPRMC,082819.00,A,4611.975473,N,01258.217239,E,001.4,159.1,091011,0.2,E,A*37
$GPGGA,082820.00,4611.975049,N,01258.217479,E,1,06,1.6,139.84,M,46.25,M,,*6B
$GPGLL,4611.975049,N,01258.217479,E,082820.00,A,A*6D
$GPVTG,154.5,T,154.6,M,002.0,N,003.7,K,A*26
$GPGSV,3,1,09,02,37,093,37,04,19,047,43,09,31,147,,12,66,059,43*73
$GPGSV,3,2,09,14,34,266,43,25,68,305,46,29,40,217,43,30,23,283,41*79
$GPGSV,3,3,09,31,15,314,,,,,,,,,,,,,*40
$GPGSA,M,3,04,12,14,25,29,30,,,,,,,2.5,1.6,1.9*3B
Trace #51 at position 12.500000
$GPZDA,082819.04,09,10,2011,00,00*62
$GPRMC,082819.00,A,4611.975473,N,01258.217239,E,001.4,159.1,091011,0.2,E,A*37
$GPGGA,082820.00,4611.975049,N,01258.217479,E,1,06,1.6,139.84,M,46.25,M,,*6B
$GPGLL,4611.975049,N,01258.217479,E,082820.00,A,A*6D
$GPVTG,154.5,T,154.6,M,002.0,N,003.7,K,A*26
$GPGSV,3,1,09,02,37,093,37,04,19,047,43,09,31,147,,12,66,059,43*73
$GPGSV,3,2,09,14,34,266,43,25,68,305,46,29,40,217,43,30,23,283,41*79
$GPGSV,3,3,09,31,15,314,,,,,,,,,,,,,*40
$GPGSA,M,3,04,12,14,25,29,30,,,,,,,2.5,1.6,1.9*3B
Trace #52 at position 12.750000
$GPZDA,082819.04,09,10,2011,00,00*62
$GPRMC,082819.00,A,4611.975473,N,01258.217239,E,001.4,159.1,091011,0.2,E,A*37
$GPGGA,082820.00,4611.975049,N,01258.217479,E,1,06,1.6,139.84,M,46.25,M,,*6B
$GPGLL,4611.975049,N,01258.217479,E,082820.00,A,A*6D
$GPVTG,154.5,T,154.6,M,002.0,N,003.7,K,A*26
$GPGSV,3,1,09,02,37,093,37,04,19,047,43,09,31,147,,12,66,059,43*73
$GPGSV,3,2,09,14,34,266,43,25,68,305,46,29,40,217,43,30,23,283,41*79
$GPGSV,3,3,09,31,15,314,,,,,,,,,,,,,*40
$GPGSA,M,3,04,12,14,25,29,30,,,,,,,2.5,1.6,1.9*3B
Trace #53 at position 13.000000
$GPZDA,082819.04,09,10,2011,00,00*62
$GPRMC,082819.00,A,4611.975473,N,01258.217239,E,001.4,159.1,091011,0.2,E,A*37
$GPGGA,082820.00,4611.975049,N,01258.217479,E,1,06,1.6,139.84,M,46.25,M,,*6B
$GPGLL,4611.975049,N,01258.217479,E,082820.00,A,A*6D
$GPVTG,154.5,T,154.6,M,002.0,N,003.7,K,A*26
$GPGSV,3,1,09,02,37,093,37,04,19,047,43,09,31,147,,12,66,059,43*73
$GPGSV,3,2,09,14,34,266,43,25,68,305,46,29,40,217,43,30,23,283,41*79
$GPGSV,3,3,09,31,15,314,,,,,,,,,,,,,*40
$GPGSA,M,3,04,12,14,25,29,30,,,,,,,2.5,1.6,1.9*3B
Trace #54 at position 13.250000
$GPZDA,082820.04,09,10,2011,00,00*68
$GPRMC,082820.00,A,4611.975049,N,01258.217479,E,002.0,154.5,091011,0.2,E,A*3C
$GPGGA,082821.00,4611.974578,N,01258.217759,E,1,06,1.6,139.78,M,46.25,M,,*6E
$GPGLL,4611.974578,N,01258.217759,E,082821.00,A,A*6B
$GPVTG,156.0,T,156.1,M,001.9,N,003.4,K,A*2D
$GPGSV,3,1,09,02,37,093,37,04,19,047,43,09,A,082821.04,09,10,2011,00,00*69
$GPRMC,082821.00,A,4611.974578,N,01258.217759,E,001.9,156.0,091011,0.2,E,A*37
$GPGGA,082822.00,4611.974119,N,01258.217958,E,1,06,1.6,139.86,M,46.25,M,,*60
$GPGLL,4611.974119,N,01258.217958,E,082822.00,A,A*64
$GPVTG,164.7,T,164.8,M,001.8,N,003.3,K,A*25
$GPGSV,3,1,09,02,37,093,35,04,19,047,42,09,31,147,,12,66,059,43*70
$GPGSV,3,2,09,14,34,266,44,25,68,305,46,29,40,217,42,30,23,284,41*78
$GPGSV,3,3,09,31,15,314,41,,,,,,,,,,,,*45
$GPGSA,M,3,04,12,14,25,29,30,,,,,,,2.5,1.601258.217958,E,001.8,164.7,091011,0.2,E,A*3F
Trace #55 at position 13.500000
$GPZDA,082820.04,09,10,2011,00,00*68
$GPRMC,082820.00,A,4611.975049,N,01258.217479,E,002.0,154.5,091011,0.2,E,A*3C
$GPGGA,082821.00,4611.974578,N,01258.217759,E,1,06,1.6,139.78,M,46.25,M,,*6E
$GPGLL,4611.974578,N,01258.217759,E,082821.00,A,A*6B
$GPVTG,156.0,T,156.1,M,001.9,N,003.4,K,A*2D
$GPGSV,3,1,09,02,37,093,37,04,19,047,43,09,A,082821.04,09,10,2011,00,00*69
$GPRMC,082821.00,A,4611.974578,N,01258.217759,E,001.9,156.0,091011,0.2,E,A*37
$GPGGA,082822.00,4611.974119,N,01258.217958,E,1,06,1.6,139.86,M,46.25,M,,*60
$GPGLL,4611.974119,N,01258.217958,E,082822.00,A,A*64
$GPVTG,164.7,T,164.8,M,001.8,N,003.3,K,A*25
$GPGSV,3,1,09,02,37,093,35,04,19,047,42,09,31,147,,12,66,059,43*70
$GPGSV,3,2,09,14,34,266,44,25,68,305,46,29,40,217,42,30,23,284,41*78
$GPGSV,3,3,09,31,15,314,41,,,,,,,,,,,,*45
$GPGSA,M,3,04,12,14,25,29,30,,,,,,,2.5,1.601258.217958,E,001.8,164.7,091011,0.2,E,A*3F
Trace #56 at position 13.750000
$GPZDA,082820.04,09,10,2011,00,00*68
$GPRMC,082820.00,A,4611.975049,N,01258.217479,E,002.0,154.5,091011,0.2,E,A*3C
$GPGGA,082821.00,4611.974578,N,01258.217759,E,1,06,1.6,139.78,M,46.25,M,,*6E
$GPGLL,4611.974578,N,01258.217759,E,082821.00,A,A*6B
$GPVTG,156.0,T,156.1,M,001.9,N,003.4,K,A*2D
$GPGSV,3,1,09,02,37,093,37,04,19,047,43,09,A,082821.04,09,10,2011,00,00*69
$GPRMC,082821.00,A,4611.974578,N,01258.217759,E,001.9,156.0,091011,0.2,E,A*37
$GPGGA,082822.00,4611.974119,N,01258.217958,E,1,06,1.6,139.86,M,46.25,M,,*60
$GPGLL,4611.974119,N,01258.217958,E,082822.00,A,A*64
$GPVTG,164.7,T,164.8,M,001.8,N,003.3,K,A*25
$GPGSV,3,1,09,02,37,093,35,04,19,047,42,09,31,147,,12,66,059,43*70
$GPGSV,3,2,09,14,34,266,44,25,68,305,46,29,40,217,42,30,23,284,41*78
$GPGSV,3,3,09,31,15,314,41,,,,,,,,,,,,*45
$GPGSA,M,3,04,12,14,25,29,30,,,,,,,2.5,1.601258.217958,E,001.8,164.7,091011,0.2,E,A*3F
Trace #57 at position 14.000000
$GPZDA,082820.04,09,10,2011,00,00*68
$GPRMC,082820.00,A,4611.975049,N,01258.217479,E,002.0,154.5,091011,0.2,E,A*3C
$GPGGA,082821.00,4611.974578,N,01258.217759,E,1,06,1.6,139.78,M,46.25,M,,*6E
$GPGLL,4611.974578,N,01258.217759,E,082821.00,A,A*6B
$GPVTG,156.0,T,156.1,M,001.9,N,003.4,K,A*2D
$GPGSV,3,1,09,02,37,093,37,04,19,047,43,09,A,082821.04,09,10,2011,00,00*69
$GPRMC,082821.00,A,4611.974578,N,01258.217759,E,001.9,156.0,091011,0.2,E,A*37
$GPGGA,082822.00,4611.974119,N,01258.217958,E,1,06,1.6,139.86,M,46.25,M,,*60
$GPGLL,4611.974119,N,01258.217958,E,082822.00,A,A*64
$GPVTG,164.7,T,164.8,M,001.8,N,003.3,K,A*25
$GPGSV,3,1,09,02,37,093,35,04,19,047,42,09,31,147,,12,66,059,43*70
$GPGSV,3,2,09,14,34,266,44,25,68,305,46,29,40,217,42,30,23,284,41*78
$GPGSV,3,3,09,31,15,314,41,,,,,,,,,,,,*45
$GPGSA,M,3,04,12,14,25,29,30,,,,,,,2.5,1.601258.217958,E,001.8,164.7,091011,0.2,E,A*3F
Trace #58 at position 14.250000
$GPGGA,082823.00,4611.973677,N,01258.218111,E,1,06,1.6,139.93,M,46.25,M,,*67
$GPGLL,4611.973677,N,01258.218111,E,082823.00,A,A*67
$GPVTG,164.0,T,164.2,M,001.7,N,003.1,K,A*25
$GPGSV,3,1,09,02,37,093,38,04,19,047,43,09,31,147,,12,66,059,43*7C
$GPGSV,3,2,09,14,34,266,43,25,68,305,46,29,40,217,43,30,23,284,41*7E
$GPGSV,3,3,09,31,15,314,41,,,,,,,,,,,,*45
$GPGSA,M,3,04,12,14,25,29,30,,,,,,,2.5,1.6,1.9*3B
Trace #59 at position 14.500000
$GPGGA,082823.00,4611.973677,N,01258.218111,E,1,06,1.6,139.93,M,46.25,M,,*67
$GPGLL,4611.973677,N,01258.218111,E,082823.00,A,A*67
$GPVTG,164.0,T,164.2,M,001.7,N,003.1,K,A*25
$GPGSV,3,1,09,02,37,093,38,04,19,047,43,09,31,147,,12,66,059,43*7C
$GPGSV,3,2,09,14,34,266,43,25,68,305,46,29,40,217,43,30,23,284,41*7E
$GPGSV,3,3,09,31,15,314,41,,,,,,,,,,,,*45
$GPGSA,M,3,04,12,14,25,29,30,,,,,,,2.5,1.6,1.9*3B
Trace #60 at position 14.750000
$GPGGA,082823.00,4611.973677,N,01258.218111,E,1,06,1.6,139.93,M,46.25,M,,*67
$GPGLL,4611.973677,N,01258.218111,E,082823.00,A,A*67
$GPVTG,164.0,T,164.2,M,001.7,N,003.1,K,A*25
$GPGSV,3,1,09,02,37,093,38,04,19,047,43,09,31,147,,12,66,059,43*7C
$GPGSV,3,2,09,14,34,266,43,25,68,305,46,29,40,217,43,30,23,284,41*7E
$GPGSV,3,3,09,31,15,314,41,,,,,,,,,,,,*45
$GPGSA,M,3,04,12,14,25,29,30,,,,,,,2.5,1.6,1.9*3B
Trace #61 at position 15.000000
$GPGGA,082823.00,4611.973677,N,01258.218111,E,1,06,1.6,139.93,M,46.25,M,,*67
$GPGLL,4611.973677,N,01258.218111,E,082823.00,A,A*67
$GPVTG,164.0,T,164.2,M,001.7,N,003.1,K,A*25
$GPGSV,3,1,09,02,37,093,38,04,19,047,43,09,31,147,,12,66,059,43*7C
$GPGSV,3,2,09,14,34,266,43,25,68,305,46,29,40,217,43,30,23,284,41*7E
$GPGSV,3,3,09,31,15,314,41,,,,,,,,,,,,*45
$GPGSA,M,3,04,12,14,25,29,30,,,,,,,2.5,1.6,1.9*3B
Trace #62 at position 15.250000
$GPZDA,082823.04,09,10,2011,00,00*6B
$GPRMC,082823.00,A,$GPGGA,082824.00,4611.973234,N,01258.218351,E,1,06,1.6,139.97,M,46.25,M,,*61
$GPGLL,4611.973234,N,01258.218351,E,082824.00,A,A*65
$GPVTG,151.4,T,151.5,M,002.0,N,003.7,K,A*24
$GPGSV,3,1,09,02,37,093,38,04,19,047,44,09,31,147,36,12,66,059,42*7F
$GPGSV,3,2,09,14,34,266,43,25,68,305,47,29,40,217,43,30,23,284,40*7E
$GPGSV,3,3,09,31,15,314,40,,,,,,,,,,,,*44
$GPGSA,M,3,04,12,14,25,29,30,,,,,,,2.5,1.6,1.9*3B
Trace #63 at position 15.500000
$GPZDA,082823.04,09,10,2011,00,00*6B
$GPRMC,082823.00,A,$GPGGA,082824.00,4611.973234,N,01258.218351,E,1,06,1.6,139.97,M,46.25,M,,*61
$GPGLL,4611.973234,N,01258.218351,E,082824.00,A,A*65
$GPVTG,151.4,T,151.5,M,002.0,N,003.7,K,A*24
$GPGSV,3,1,09,02,37,093,38,04,19,047,44,09,31,147,36,12,66,059,42*7F
$GPGSV,3,2,09,14,34,266,43,25,68,305,47,29,40,217,43,30,23,284,40*7E
$GPGSV,3,3,09,31,15,314,40,,,,,,,,,,,,*44
$GPGSA,M,3,04,12,14,25,29,30,,,,,,,2.5,1.6,1.9*3B
Trace #64 at position 15.750000
$GPZDA,082823.04,09,10,2011,00,00*6B
$GPRMC,082823.00,A,$GPGGA,082824.00,4611.973234,N,01258.218351,E,1,06,1.6,139.97,M,46.25,M,,*61
$GPGLL,4611.973234,N,01258.218351,E,082824.00,A,A*65
$GPVTG,151.4,T,151.5,M,002.0,N,003.7,K,A*24
$GPGSV,3,1,09,02,37,093,38,04,19,047,44,09,31,147,36,12,66,059,42*7F
$GPGSV,3,2,09,14,34,266,43,25,68,305,47,29,40,217,43,30,23,284,40*7E
$GPGSV,3,3,09,31,15,314,40,,,,,,,,,,,,*44
$GPGSA,M,3,04,12,14,25,29,30,,,,,,,2.5,1.6,1.9*3B
Trace #65 at position 16.000000
$GPZDA,082823.04,09,10,2011,00,00*6B
$GPRMC,082823.00,A,$GPGGA,082824.00,4611.973234,N,01258.218351,E,1,06,1.6,139.97,M,46.25,M,,*61
$GPGLL,4611.973234,N,01258.218351,E,082824.00,A,A*65
$GPVTG,151.4,T,151.5,M,002.0,N,003.7,K,A*24
$GPGSV,3,1,09,02,37,093,38,04,19,047,44,09,31,147,36,12,66,059,42*7F
$GPGSV,3,2,09,14,34,266,43,25,68,305,47,29,40,217,43,30,23,284,40*7E
$GPGSV,3,3,09,31,15,314,40,,,,,,,,,,,,*44
$GPGSA,M,3,04,12,14,25,29,30,,,,,,,2.5,1.6,1.9*3B
Trace #66 at position 16.250000
$GPZDA,082824.04,09,10,2011,00,00*6C
$GPRMC,082824.00,A,4611.973234,N,01258.218351,E,002.0,151.4,091$GPGGA,082825.00,4611.972779,N,01258.218628,E,1,06,1.6,139.97,M,46.25,M,,*66
$GPGLL,4611.972779,N,01258.218628,E,082825.00,A,A*62
$GPVTG,157.1,T,157.3,M,001.8,N,003.4,K,A*2F
$GPGSV,3,1,09,02,37,093,38,04,19,047,43,09,31,147,35,12,66,059,43*7A
$GPGSV,3,2,09,14,34,266,43,25,68,305,46,29,40,217,42,30,23,284,40*7E
$GPGSV,3,3,09,31,15,314,42,,,,,,,,,,,,*46
$GPGSA,M,3,04,12,14,25,29,30,,,,,,,2.5,1.6,1.9*3B
Trace #67 at position 16.500000
$GPZDA,082824.04,09,10,2011,00,00*6C
$GPRMC,082824.00,A,4611.973234,N,01258.218351,E,002.0,151.4,091$GPGGA,082825.00,4611.972779,N,01258.218628,E,1,06,1.6,139.97,M,46.25,M,,*66
$GPGLL,4611.972779,N,01258.218628,E,082825.00,A,A*62
$GPVTG,157.1,T,157.3,M,001.8,N,003.4,K,A*2F
$GPGSV,3,1,09,02,37,093,38,04,19,047,43,09,31,147,35,12,66,059,43*7A
$GPGSV,3,2,09,14,34,266,43,25,68,305,46,29,40,217,42,30,23,284,40*7E
$GPGSV,3,3,09,31,15,314,42,,,,,,,,,,,,*46
$GPGSA,M,3,04,12,14,25,29,30,,,,,,,2.5,1.6,1.9*3B
Trace #68 at position 16.750000
$GPZDA,082824.04,09,10,2011,00,00*6C
$GPRMC,082824.00,A,4611.973234,N,01258.218351,E,002.0,151.4,091$GPGGA,082825.00,4611.972779,N,01258.218628,E,1,06,1.6,139.97,M,46.25,M,,*66
$GPGLL,4611.972779,N,01258.218628,E,082825.00,A,A*62
$GPVTG,157.1,T,157.3,M,001.8,N,003.4,K,A*2F
$GPGSV,3,1,09,02,37,093,38,04,19,047,43,09,31,147,35,12,66,059,43*7A
$GPGSV,3,2,09,14,34,266,43,25,68,305,46,29,40,217,42,30,23,284,40*7E
$GPGSV,3,3,09,31,15,314,42,,,,,,,,,,,,*46
$GPGSA,M,3,04,12,14,25,29,30,,,,,,,2.5,1.6,1.9*3B
Trace #69 at position 17.000000
$GPZDA,082824.04,09,10,2011,00,00*6C
$GPRMC,082824.00,A,4611.973234,N,01258.218351,E,002.0,151.4,091$GPGGA,082825.00,4611.972779,N,01258.218628,E,1,06,1.6,139.97,M,46.25,M,,*66
$GPGLL,4611.972779,N,01258.218628,E,082825.00,A,A*62
$GPVTG,157.1,T,157.3,M,001.8,N,003.4,K,A*2F
$GPGSV,3,1,09,02,37,093,38,04,19,047,43,09,31,147,35,12,66,059,43*7A
$GPGSV,3,2,09,14,34,266,43,25,68,305,46,29,40,217,42,30,23,284,40*7E
$GPGSV,3,3,09,31,15,314,42,,,,,,,,,,,,*46
$GPGSA,M,3,04,12,14,25,29,30,,,,,,,2.5,1.6,1.9*3B
Trace #70 at position 17.250000
$GPZDA,082825.04,09,10,2011,00,00*6D
$GPRMC,082825.00,A,4611.972779,N,01258.218628,E,001.8,157.1,091$GPGGA,082826.00,4611.972390,N,01258.218812,E,1,06,1.6,140.08,M,46.25,M,,*69
$GPGLL,4611.972390,N,01258.218812,E,082826.00,A,A*65
$GPVTG,157.4,T,157.5,M,001.3,N,002.4,K,A*26
$GPGSV,3,1,09,02,37,093,37,04,19,047,43,09,31,147,35,12,66,059,43*75
$GPGSV,3,2,09,14,34,266,43,25,68,305,46,29,40,217,43,30,23,284,40*7F
$GPGSV,3,3,09,31,15,314,41,,,,,,,,,,,,*45
$GPGSA,M,3,04,12,14,25,29,30,,,,,,,2.5,1.6,1.9*3B
Trace #71 at position 17.500000
$GPZDA,082825.04,09,10,2011,00,00*6D
$GPRMC,082825.00,A,4611.972779,N,01258.218628,E,001.8,157.1,091$GPGGA,082826.00,4611.972390,N,01258.218812,E,1,06,1.6,140.08,M,46.25,M,,*69
$GPGLL,4611.972390,N,01258.218812,E,082826.00,A,A*65
$GPVTG,157.4,T,157.5,M,001.3,N,002.4,K,A*26
$GPGSV,3,1,09,02,37,093,37,04,19,047,43,09,31,147,35,12,66,059,43*75
$GPGSV,3,2,09,14,34,266,43,25,68,305,46,29,40,217,43,30,23,284,40*7F
$GPGSV,3,3,09,31,15,314,41,,,,,,,,,,,,*45
$GPGSA,M,3,04,12,14,25,29,30,,,,,,,2.5,1.6,1.9*3B
Trace #72 at position 17.750000
$GPZDA,082825.04,09,10,2011,00,00*6D
$GPRMC,082825.00,A,4611.972779,N,01258.218628,E,001.8,157.1,091$GPGGA,082826.00,4611.972390,N,01258.218812,E,1,06,1.6,140.08,M,46.25,M,,*69
$GPGLL,4611.972390,N,01258.218812,E,082826.00,A,A*65
$GPVTG,157.4,T,157.5,M,001.3,N,002.4,K,A*26
$GPGSV,3,1,09,02,37,093,37,04,19,047,43,09,31,147,35,12,66,059,43*75
$GPGSV,3,2,09,14,34,266,43,25,68,305,46,29,40,217,43,30,23,284,40*7F
$GPGSV,3,3,09,31,15,314,41,,,,,,,,,,,,*45
$GPGSA,M,3,04,12,14,25,29,30,,,,,,,2.5,1.6,1.9*3B
Trace #73 at position 18.000000
$GPZDA,082825.04,09,10,2011,00,00*6D
$GPRMC,082825.00,A,4611.972779,N,01258.218628,E,001.8,157.1,091$GPGGA,082826.00,4611.972390,N,01258.218812,E,1,06,1.6,140.08,M,46.25,M,,*69
$GPGLL,4611.972390,N,01258.218812,E,082826.00,A,A*65
$GPVTG,157.4,T,157.5,M,001.3,N,002.4,K,A*26
$GPGSV,3,1,09,02,37,093,37,04,19,047,43,09,31,147,35,12,66,059,43*75
$GPGSV,3,2,09,14,34,266,43,25,68,305,46,29,40,217,43,30,23,284,40*7F
$GPGSV,3,3,09,31,15,314,41,,,,,,,,,,,,*45
$GPGSA,M,3,04,12,14,25,29,30,,,,,,,2.5,1.6,1.9*3B
Trace #74 at position 18.250000
$GPZDA,082826.04,09,10,2011,00,00*6E
$GPRMC,082826.00,A,4611.972390,N,01258.218812,E,001.3,157.4,091$GPGGA,082827.00,4611.971972,N,01258.218842,E,1,06,1.6,140.17,M,46.25,M,,*66
$GPGLL,4611.971972,N,01258.218842,E,082827.00,A,A*64
$GPVTG,186.8,T,187.0,M,001.8,N,003.4,K,A*24
$GPGSV,3,1,09,02,37,093,38,04,19,047,43,09,31,147,36,12,66,059,42*78
$GPGSV,3,2,09,14,34,266,43,25,68,305,47,29,40,217,43,30,23,284,41*7F
$GPGSV,3,3,09,31,15,314,41,,,,,,,,,,,,*45
$GPGSA,M,3,04,12,14,25,29,30,,,,,,,2.5,1.6,1.9*3B
Trace #75 at position 18.500000
$GPZDA,082826.04,09,10,2011,00,00*6E
$GPRMC,082826.00,A,4611.972390,N,01258.218812,E,001.3,157.4,091$GPGGA,082827.00,4611.971972,N,01258.218842,E,1,06,1.6,140.17,M,46.25,M,,*66
$GPGLL,4611.971972,N,01258.218842,E,082827.00,A,A*64
$GPVTG,186.8,T,187.0,M,001.8,N,003.4,K,A*24
$GPGSV,3,1,09,02,37,093,38,04,19,047,43,09,31,147,36,12,66,059,42*78
$GPGSV,3,2,09,14,34,266,43,25,68,305,47,29,40,217,43,30,23,284,41*7F
$GPGSV,3,3,09,31,15,314,41,,,,,,,,,,,,*45
$GPGSA,M,3,04,12,14,25,29,30,,,,,,,2.5,1.6,1.9*3B
Trace #76 at position 18.750000
$GPZDA,082826.04,09,10,2011,00,00*6E
$GPRMC,082826.00,A,4611.972390,N,01258.218812,E,001.3,157.4,091$GPGGA,082827.00,4611.971972,N,01258.218842,E,1,06,1.6,140.17,M,46.25,M,,*66
$GPGLL,4611.971972,N,01258.218842,E,082827.00,A,A*64
$GPVTG,186.8,T,187.0,M,001.8,N,003.4,K,A*24
$GPGSV,3,1,09,02,37,093,38,04,19,047,43,09,31,147,36,12,66,059,42*78
$GPGSV,3,2,09,14,34,266,43,25,68,305,47,29,40,217,43,30,23,284,41*7F
$GPGSV,3,3,09,31,15,314,41,,,,,,,,,,,,*45
$GPGSA,M,3,04,12,14,25,29,30,,,,,,,2.5,1.6,1.9*3B
Trace #77 at position 19.000000
$GPZDA,082826.04,09,10,2011,00,00*6E
$GPRMC,082826.00,A,4611.972390,N,01258.218812,E,001.3,157.4,091$GPGGA,082827.00,4611.971972,N,01258.218842,E,1,06,1.6,140.17,M,46.25,M,,*66
$GPGLL,4611.971972,N,01258.218842,E,082827.00,A,A*64
$GPVTG,186.8,T,187.0,M,001.8,N,003.4,K,A*24
$GPGSV,3,1,09,02,37,093,38,04,19,047,43,09,31,147,36,12,66,059,42*78
$GPGSV,3,2,09,14,34,266,43,25,68,305,47,29,40,217,43,30,23,284,41*7F
$GPGSV,3,3,09,31,15,314,41,,,,,,,,,,,,*45
$GPGSA,M,3,04,12,14,25,29,30,,,,,,,2.5,1.6,1.9*3B
Trace #78 at position 19.250000
$GPZDA,082826.04,09,10,2011,00,00*6E
$GPRMC,082826.00,A,4611.972390,N,01258.218812,E,001.3,157.4,091$GPGGA,082827.00,4611.971972,N,01258.218842,E,1,06,1.6,140.17,M,46.25,M,,*66
$GPGLL,4611.971972,N,01258.218842,E,082827.00,A,A*64
$GPVTG,186.8,T,187.0,M,001.8,N,003.4,K,A*24
$GPGSV,3,1,09,02,37,093,38,04,19,047,43,09,31,147,36,12,66,059,42*78
$GPGSV,3,2,09,14,34,266,43,25,68,305,47,29,40,217,43,30,23,284,41*7F
$GPGSV,3,3,09,31,15,314,41,,,,,,,,,,,,*45
$GPGSA,M,3,04,12,14,25,29,30,,,,,,,2.5,1.6,1.9*3B
Trace #79 at position 19.500000
$GPZDA,082827.04,09,10,2011,00,00*6F
$GPRMC,082827.00,A,4611.971972,N,01258.218842,E,001.8,186.8,091$GPGGA,082828.00,4611.971516,N,01258.218911,E,1,06,1.6,140.16,M,46.25,M,,*61
$GPGLL,4611.971516,N,01258.218911,E,082828.00,A,A*62
$GPVTG,157.6,T,157.7,M,001.6,N,002.9,K,A*2E
$GPGSV,3,1,09,02,37,093,39,04,19,047,43,09,31,147,36,12,66,059,42*79
$GPGSV,3,2,09,14,34,266,44,25,68,305,47,29,40,217,43,30,23,284,41*78
$GPGSV,3,3,09,31,15,314,42,,,,,,,,,,,,*46
$GPGSA,M,3,04,12,14,25,29,30,,,,,,,2.5,1.6,1.9*3B
Trace #80 at position 19.750000
$GPZDA,082827.04,09,10,2011,00,00*6F
$GPRMC,082827.00,A,4611.971972,N,01258.218842,E,001.8,186.8,091$GPGGA,082828.00,4611.971516,N,01258.218911,E,1,06,1.6,140.16,M,46.25,M,,*61
$GPGLL,4611.971516,N,01258.218911,E,082828.00,A,A*62
$GPVTG,157.6,T,157.7,M,001.6,N,002.9,K,A*2E
$GPGSV,3,1,09,02,37,093,39,04,19,047,43,09,31,147,36,12,66,059,42*79
$GPGSV,3,2,09,14,34,266,44,25,68,305,47,29,40,217,43,30,23,284,41*78
$GPGSV,3,3,09,31,15,314,42,,,,,,,,,,,,*46
$GPGSA,M,3,04,12,14,25,29,30,,,,,,,2.5,1.6,1.9*3B
Trace #81 at position 20.000000
$GPZDA,082827.04,09,10,2011,00,00*6F
$GPRMC,082827.00,A,4611.971972,N,01258.218842,E,001.8,186.8,091$GPGGA,082828.00,4611.971516,N,01258.218911,E,1,06,1.6,140.16,M,46.25,M,,*61
$GPGLL,4611.971516,N,01258.218911,E,082828.00,A,A*62
$GPVTG,157.6,T,157.7,M,001.6,N,002.9,K,A*2E
$GPGSV,3,1,09,02,37,093,39,04,19,047,43,09,31,147,36,12,66,059,42*79
$GPGSV,3,2,09,14,34,266,44,25,68,305,47,29,40,217,43,30,23,284,41*78
$GPGSV,3,3,09,31,15,314,42,,,,,,,,,,,,*46
$GPGSA,M,3,04,12,14,25,29,30,,,,,,,2.5,1.6,1.9*3B
Trace #82 at position 20.250000
$GPZDA,082827.04,09,10,2011,00,00*6F
$GPRMC,082827.00,A,4611.971972,N,01258.218842,E,001.8,186.8,091$GPGGA,082828.00,4611.971516,N,01258.218911,E,1,06,1.6,140.16,M,46.25,M,,*61
$GPGLL,4611.971516,N,01258.218911,E,082828.00,A,A*62
$GPVTG,157.6,T,157.7,M,001.6,N,002.9,K,A*2E
$GPGSV,3,1,09,02,37,093,39,04,19,047,43,09,31,147,36,12,66,059,42*79
$GPGSV,3,2,09,14,34,266,44,25,68,305,47,29,40,217,43,30,23,284,41*78
$GPGSV,3,3,09,31,15,314,42,,,,,,,,,,,,*46
$GPGSA,M,3,04,12,14,25,29,30,,,,,,,2.5,1.6,1.9*3B
Trace #83 at position 20.500000
$GPZDA,082828.04,09,10,2011,00,00*60
$GPRMC,082828.00,A,4611.971516,N,01258.218911,E,001.6,157.6,091$GPGGA,082829.00,4611.971121,N,01258.219154,E,1,06,1.6,140.26,M,46.25,M,,*6B
$GPGLL,4611.971121,N,01258.219154,E,082829.00,A,A*6B
$GPVTG,152.2,T,152.4,M,001.5,N,002.7,K,A*24
$GPGSV,3,1,09,02,37,093,37,04,19,047,42,09,31,147,35,12,66,059,43*74
$GPGSV,3,2,09,14,34,266,42,25,68,305,45,29,40,217,44,30,23,284,41*7B
$GPGSV,3,3,09,31,15,314,41,,,,,,,,,,,,*45
$GPGSA,M,3,04,12,14,25,29,30,,,,,,,2.5,1.6,1.9*3B
Trace #84 at position 20.750000
$GPZDA,082828.04,09,10,2011,00,00*60
$GPRMC,082828.00,A,4611.971516,N,01258.218911,E,001.6,157.6,091$GPGGA,082829.00,4611.971121,N,01258.219154,E,1,06,1.6,140.26,M,46.25,M,,*6B
$GPGLL,4611.971121,N,01258.219154,E,082829.00,A,A*6B
$GPVTG,152.2,T,152.4,M,001.5,N,002.7,K,A*24
$GPGSV,3,1,09,02,37,093,37,04,19,047,42,09,31,147,35,12,66,059,43*74
$GPGSV,3,2,09,14,34,266,42,25,68,305,45,29,40,217,44,30,23,284,41*7B
$GPGSV,3,3,09,31,15,314,41,,,,,,,,,,,,*45
$GPGSA,M,3,04,12,14,25,29,30,,,,,,,2.5,1.6,1.9*3B
Trace #85 at position 21.000000
$GPZDA,082829.04,09,10,2011,00,00*61
$GPRMC,082829.00,A,4611.971121,N,01258.219154,E,001.5,152.2,09146.25,M,,*67
$GPGLL,4611.970604,N,01258.219374,E,082830.00,A,A*62
$GPVTG,168.6,T,168.8,M,002.4,N,004.4,K,A*2B
$GPGSV,3,1,09,02,37,093,37,04,19,047,43,09,31,147,38,12,66,059,43*78
$GPGSV,3,2,09,14,34,266,43,25,68,306,46,29,40,217,43,30,23,284,41*7D
$GPGSV,3,3,09,31,15,314,41,,,,,,,,,,,,*45
$GPGSA,M,3,04,12,14,25,29,30,,,,,,,2.5,1.6,1.9*3B
Trace #86 at position 21.250000
$GPZDA,082829.04,09,10,2011,00,00*61
$GPRMC,082829.00,A,4611.971121,N,01258.219154,E,001.5,152.2,09146.25,M,,*67
$GPGLL,4611.970604,N,01258.219374,E,082830.00,A,A*62
$GPVTG,168.6,T,168.8,M,002.4,N,004.4,K,A*2B
$GPGSV,3,1,09,02,37,093,37,04,19,047,43,09,31,147,38,12,66,059,43*78
$GPGSV,3,2,09,14,34,266,43,25,68,306,46,29,40,217,43,30,23,284,41*7D
$GPGSV,3,3,09,31,15,314,41,,,,,,,,,,,,*45
$GPGSA,M,3,04,12,14,25,29,30,,,,,,,2.5,1.6,1.9*3B
Trace #87 at position 21.500000
$GPZDA,082830.04,09,10,2011,00,00*69
$GPRMC,082830.00,A,4611.970604,N,01258.219374,E,002.4,168.6,091011,0.2,E,A*3B
$GPGGA,082831.00,4611.969980,N,01258.219585,E,1,60
$GPVTG,164.0,T,164.2,M,002.3,N,004.2,K,A*26
$GPGSV,3,1,09,02,37,093,38,04,19,047,43,09,31,147,38,12,66,059,43*77
$GPGSV,3,2,09,14,34,266,43,25,68,306,46,29,40,217,43,30,23,284,41*7D
$GPGSV,3,3,09,31,15,314,42,,,,,,,,,,,,*46
$GPGSA,M,3,04,12,14,25,29,30,,,,,,,2.5,1.6,1.9*3B
Trace #88 at position 21.750000
$GPZDA,082830.04,09,10,2011,00,00*69
$GPRMC,082830.00,A,4611.970604,N,01258.219374,E,002.4,168.6,091011,0.2,E,A*3B
$GPGGA,082831.00,4611.969980,N,01258.219585,E,1,60
$GPVTG,164.0,T,164.2,M,002.3,N,004.2,K,A*26
$GPGSV,3,1,09,02,37,093,38,04,19,047,43,09,31,147,38,12,66,059,43*77
$GPGSV,3,2,09,14,34,266,43,25,68,306,46,29,40,217,43,30,23,284,41*7D
$GPGSV,3,3,09,31,15,314,42,,,,,,,,,,,,*46
$GPGSA,M,3,04,12,14,25,29,30,,,,,,,2.5,1.6,1.9*3B
Trace #89 at position 22.000000
$GPZDA,082830.04,09,10,2011,00,00*69
$GPRMC,082830.00,A,4611.970604,N,01258.219374,E,002.4,168.6,091011,0.2,E,A*3B
$GPGGA,082831.00,4611.969980,N,01258.219585,E,1,60
$GPVTG,164.0,T,164.2,M,002.3,N,004.2,K,A*26
$GPGSV,3,1,09,02,37,093,38,04,19,047,43,09,31,147,38,12,66,059,43*77
$GPGSV,3,2,09,14,34,266,43,25,68,306,46,29,40,217,43,30,23,284,41*7D
$GPGSV,3,3,09,31,15,314,42,,,,,,,,,,,,*46
$GPGSA,M,3,04,12,14,25,29,30,,,,,,,2.5,1.6,1.9*3B
Trace #90 at position 22.250000
$GPZDA,082831.04,09,10,2011,00,00*68
$GPRMC,082831.00,A,4611.969980,N,01258.219585,E,002.3,164.0,091011,0.2,E,A*34
$GPGGA,082832.00,4611.969453,N,01258.219786,E,1,06,1.6,139.92,M,46.25,M,,*60
$GPGLL,4611.969453,N,01258.219786,9,047,43,09,31,147,36,12,66,059,43*79
$GPGSV,3,2,09,14,34,266,43,25,68,306,46,29,40,217,43,30,23,284,42*7E
$GPGSV,3,3,09,31,15,314,41,,,,,,,,,,,,*45
$GPGSA,M,3,04,12,14,25,29,30,,,,,,,2.5,1.6,1.9*3B
Trace #91 at position 22.500000
$GPZDA,082831.04,09,10,2011,00,00*68
$GPRMC,082831.00,A,4611.969980,N,01258.219585,E,002.3,164.0,091011,0.2,E,A*34
$GPGGA,082832.00,4611.969453,N,01258.219786,E,1,06,1.6,139.92,M,46.25,M,,*60
$GPGLL,4611.969453,N,01258.219786,9,047,43,09,31,147,36,12,66,059,43*79
$GPGSV,3,2,09,14,34,266,43,25,68,306,46,29,40,217,43,30,23,284,42*7E
$GPGSV,3,3,09,31,15,314,41,,,,,,,,,,,,*45
$GPGSA,M,3,04,12,14,25,29,30,,,,,,,2.5,1.6,1.9*3B
Trace #92 at position 22.750000
$GPZDA,082831.04,09,10,2011,00,00*68
$GPRMC,082831.00,A,4611.969980,N,01258.219585,E,002.3,164.0,091011,0.2,E,A*34
$GPGGA,082832.00,4611.969453,N,01258.219786,E,1,06,1.6,139.92,M,46.25,M,,*60
$GPGLL,4611.969453,N,01258.219786,9,047,43,09,31,147,36,12,66,059,43*79
$GPGSV,3,2,09,14,34,266,43,25,68,306,46,29,40,217,43,30,23,284,42*7E
$GPGSV,3,3,09,31,15,314,41,,,,,,,,,,,,*45
$GPGSA,M,3,04,12,14,25,29,30,,,,,,,2.5,1.6,1.9*3B
Trace #93 at position 23.000000
$GPZDA,082831.04,09,10,2011,00,00*68
$GPRMC,082831.00,A,4611.969980,N,01258.219585,E,002.3,164.0,091011,0.2,E,A*34
$GPGGA,082832.00,4611.969453,N,01258.219786,E,1,06,1.6,139.92,M,46.25,M,,*60
$GPGLL,4611.969453,N,01258.219786,9,047,43,09,31,147,36,12,66,059,43*79
$GPGSV,3,2,09,14,34,266,43,25,68,306,46,29,40,217,43,30,23,284,42*7E
$GPGSV,3,3,09,31,15,314,41,,,,,,,,,,,,*45
$GPGSA,M,3,04,12,14,25,29,30,,,,,,,2.5,1.6,1.9*3B
Trace #94 at position 23.250000
$GPZDA,082831.04,09,10,2011,00,00*68
$GPRMC,082831.00,A,4611.969980,N,01258.219585,E,002.3,164.0,091011,0.2,E,A*34
$GPGGA,082832.00,4611.969453,N,01258.219786,E,1,06,1.6,139.92,M,46.25,M,,*60
$GPGLL,4611.969453,N,01258.219786,9,047,43,09,31,147,36,12,66,059,43*79
$GPGSV,3,2,09,14,34,266,43,25,68,306,46,29,40,217,43,30,23,284,42*7E
$GPGSV,3,3,09,31,15,314,41,,,,,,,,,,,,*45
$GPGSA,M,3,04,12,14,25,29,30,,,,,,,2.5,1.6,1.9*3B
Trace #95 at position 23.500000
$GPZDA,082832.04,09,10,2011,00,00*6B
$GPRMC,082832.00,A,4611.969453,N,01258.219786,E,001.7,166.8,091011,0.2,E,A*38
$GPGGA,082833.00,4611.969106,N,01258.219974,E,1,06,1.6,140.13,M,46.25,M,,*60
$GPGLL,4611.969106,N,01258.219974,E,082833.00,A,A*66
$GPVTG,142.9,T,143.1,M,000.9,N,001.7,K,A*25
$GPGSV,3,1,09,0.6,1.9*3B
$GPZDA,082833.04,09,10,2011,00,00*6A
$GPRMC,082833.00,A,4611.969106,N,01258.219974,E,000.9,142.9,091011,0.2,E,A*37
$GPGGA,082834.00,4611.968659,N,01258.220253,E,1,06,1.6,140.25,M,46.25,M,,*6A
$GPGLL,4611.968659,N,01258.220253,E,082834.00,A,A*69
$GPVTG,159.7,T,159.9,M,002.5,N,004.6,K,A*28
$GPGSV,3,1,09,02,37,093,37,04,19,047,42,09,31,147,38,12,66,059,44*7E
$GPGSV,3,2,09,14,34,266,43,25,68,306,46,29,40,217,44,30,23,284,42*79
$GPGSV,3,3,09,31,15,314,42,,,,,,,,,,,,*46
$GPGSA,M,3,04,12,14,25,2N,01258.220253,E,002.5,159.7,091011,0.2,E,A*32
Trace #96 at position 23.750000
$GPZDA,082832.04,09,10,2011,00,00*6B
$GPRMC,082832.00,A,4611.969453,N,01258.219786,E,001.7,166.8,091011,0.2,E,A*38
$GPGGA,082833.00,4611.969106,N,01258.219974,E,1,06,1.6,140.13,M,46.25,M,,*60
$GPGLL,4611.969106,N,01258.219974,E,082833.00,A,A*66
$GPVTG,142.9,T,143.1,M,000.9,N,001.7,K,A*25
$GPGSV,3,1,09,0.6,1.9*3B
$GPZDA,082833.04,09,10,2011,00,00*6A
$GPRMC,082833.00,A,4611.969106,N,01258.219974,E,000.9,142.9,091011,0.2,E,A*37
$GPGGA,082834.00,4611.968659,N,01258.220253,E,1,06,1.6,140.25,M,46.25,M,,*6A
$GPGLL,4611.968659,N,01258.220253,E,082834.00,A,A*69
$GPVTG,159.7,T,159.9,M,002.5,N,004.6,K,A*28
$GPGSV,3,1,09,02,37,093,37,04,19,047,42,09,31,147,38,12,66,059,44*7E
$GPGSV,3,2,09,14,34,266,43,25,68,306,46,29,40,217,44,30,23,284,42*79
$GPGSV,3,3,09,31,15,314,42,,,,,,,,,,,,*46
$GPGSA,M,3,04,12,14,25,2N,01258.220253,E,002.5,159.7,091011,0.2,E,A*32
Trace #97 at position 24.000000
$GPZDA,082832.04,09,10,2011,00,00*6B
$GPRMC,082832.00,A,4611.969453,N,01258.219786,E,001.7,166.8,091011,0.2,E,A*38
$GPGGA,082833.00,4611.969106,N,01258.219974,E,1,06,1.6,140.13,M,46.25,M,,*60
$GPGLL,4611.969106,N,01258.219974,E,082833.00,A,A*66
$GPVTG,142.9,T,143.1,M,000.9,N,001.7,K,A*25
$GPGSV,3,1,09,0.6,1.9*3B
$GPZDA,082833.04,09,10,2011,00,00*6A
$GPRMC,082833.00,A,4611.969106,N,01258.219974,E,000.9,142.9,091011,0.2,E,A*37
$GPGGA,082834.00,4611.968659,N,01258.220253,E,1,06,1.6,140.25,M,46.25,M,,*6A
$GPGLL,4611.968659,N,01258.220253,E,082834.00,A,A*69
$GPVTG,159.7,T,159.9,M,002.5,N,004.6,K,A*28
$GPGSV,3,1,09,02,37,093,37,04,19,047,42,09,31,147,38,12,66,059,44*7E
$GPGSV,3,2,09,14,34,266,43,25,68,306,46,29,40,217,44,30,23,284,42*79
$GPGSV,3,3,09,31,15,314,42,,,,,,,,,,,,*46
$GPGSA,M,3,04,12,14,25,2N,01258.220253,E,002.5,159.7,091011,0.2,E,A*32
Trace #98 at position 24.250000
$GPGGA,082835.00,4611.968116,N,01258.220492,E,1,07,1.1,140.26,M,46.25,M,,*69
$GPGLL,4611.968116,N,01258.220492,E,082835.00,A,A*6F
$GPVTG,167.5,T,167.7,M,001.4,N,002.6,K,A*20
$GPGSV,3,1,09,02,37,093,38,04,19,047,42,09,31,147,40,12,66,059,44*7E
$GPGSV,3,2,09,14,34,266,43,25,68,306,46,29,40,217,43,30,23,284,42*7E
$GPGSV,3,3,09,31,15,314,41,,,,,,,,,,,,*45
$GPGSA,M,3,04,09,12,14,25,29,30,,,,,,2.0,1.1,1.7*3E
Trace #99 at position 24.500000
$GPZDA,082840.04,09,10,2011,00,00*6E
$GPRMC,082840.00,A,4611.966303,N,01258.221238,E,000.8,178.3,09146.25,M,,*67
$GPGLL,4611.965993,N,01258.221380,E,082841.00,A,A*61
$GPVTG,149.9,T,150.0,M,001.7,N,003.1,K,A*26
$GPGSV,3,1,09,02,37,093,39,04,19,047,42,09,31,147,,12,66,059,43*7C
$GPGSV,3,2,09,14,34,266,43,25,68,306,46,29,40,217,42,30,23,284,40*7D
$GPGSV,3,3,09,31,15,314,43,,,,,,,,,,,,*47
$GPGSA,M,3,02,04,12,14,25,29,30,,,,,,2.3,1.3,1.8*3B
Trace #100 at position 24.750000
$GPZDA,082840.04,09,10,2011,00,00*6E
$GPRMC,082840.00,A,4611.966303,N,01258.221238,E,000.8,178.3,09146.25,M,,*67
$GPGLL,4611.965993,N,01258.221380,E,082841.00,A,A*61
$GPVTG,149.9,T,150.0,M,001.7,N,003.1,K,A*26
$GPGSV,3,1,09,02,37,093,39,04,19,047,42,09,31,147,,12,66,059,43*7C
$GPGSV,3,2,09,14,34,266,43,25,68,306,46,29,40,217,42,30,23,284,40*7D
$GPGSV,3,3,09,31,15,314,43,,,,,,,,,,,,*47
$GPGSA,M,3,02,04,12,14,25,29,30,,,,,,2.3,1.3,1.8*3B
Trace #101 at position 25.000000
$GPZDA,082841.04,09,10,2011,00,00*6F
$GPRMC,082841.00,A,4611.965993,N,01258.221380,E,001.7,149.9,091011,0.2,E,A*34
$GPGGA,082842.00,4611.965780,N,01258.221525,E,1,,N,000.4,K,A*27
$GPGSV,3,1,09,02,37,093,39,04,19,047,41,09,31,147,,12,66,059,41*7D
$GPGSV,3,2,09,14,34,266,44,25,68,306,43,29,40,217,43,30,23,284,41*7F
$GPGSV,3,3,09,31,15,314,43,,,,,,,,,,,,*47
$GPGSA,M,3,02,04,12,14,25,29,30,,,,,,2.3,1.3,1.8*3B
Trace #102 at position 25.250000
$GPZDA,082841.04,09,10,2011,00,00*6F
$GPRMC,082841.00,A,4611.965993,N,01258.221380,E,001.7,149.9,091011,0.2,E,A*34
$GPGGA,082842.00,4611.965780,N,01258.221525,E,1,,N,000.4,K,A*27
$GPGSV,3,1,09,02,37,093,39,04,19,047,41,09,31,147,,12,66,059,41*7D
$GPGSV,3,2,09,14,34,266,44,25,68,306,43,29,40,217,43,30,23,284,41*7F
$GPGSV,3,3,09,31,15,314,43,,,,,,,,,,,,*47
$GPGSA,M,3,02,04,12,14,25,29,30,,,,,,2.3,1.3,1.8*3B
Trace #103 at position 25.500000
$GPZDA,082841.04,09,10,2011,00,00*6F
$GPRMC,082841.00,A,4611.965993,N,01258.221380,E,001.7,149.9,091011,0.2,E,A*34
$GPGGA,082842.00,4611.965780,N,01258.221525,E,1,,N,000.4,K,A*27
$GPGSV,3,1,09,02,37,093,39,04,19,047,41,09,31,147,,12,66,059,41*7D
$GPGSV,3,2,09,14,34,266,44,25,68,306,43,29,40,217,43,30,23,284,41*7F
$GPGSV,3,3,09,31,15,314,43,,,,,,,,,,,,*47
$GPGSA,M,3,02,04,12,14,25,29,30,,,,,,2.3,1.3,1.8*3B
Trace #104 at position 25.750000
$GPZDA,082841.04,09,10,2011,00,00*6F
$GPRMC,082841.00,A,4611.965993,N,01258.221380,E,001.7,149.9,091011,0.2,E,A*34
$GPGGA,082842.00,4611.965780,N,01258.221525,E,1,,N,000.4,K,A*27
$GPGSV,3,1,09,02,37,093,39,04,19,047,41,09,31,147,,12,66,059,41*7D
$GPGSV,3,2,09,14,34,266,44,25,68,306,43,29,40,217,43,30,23,284,41*7F
$GPGSV,3,3,09,31,15,314,43,,,,,,,,,,,,*47
$GPGSA,M,3,02,04,12,14,25,29,30,,,,,,2.3,1.3,1.8*3B
Trace #105 at position 26.000000
$GPZDA,082842.04,09,10,2011,00,00*6C
$GPRMC,082842.00,A,4611.965780,N,01258.221525,E,000.2,150.0,091011,0.2,E,A*37
$GPGGA,082843.00,4611.965757,N,01258.221539,E,1,07,1.3,140.16,M,46.25,M,,*66
$GPGLL,4611.965757,N,01258.221539,E,082843.00,A,A*61
$GPVTG,107.9V,3,3,09,31,15,314,40,,,,,,,,,,,,*44
$GPGSA,M,3,02,04,12,14,25,29,30,,,,,,2.3,1.3,1.8*3B
Trace #106 at position 26.250000
$GPZDA,082842.04,09,10,2011,00,00*6C
$GPRMC,082842.00,A,4611.965780,N,01258.221525,E,000.2,150.0,091011,0.2,E,A*37
$GPGGA,082843.00,4611.965757,N,01258.221539,E,1,07,1.3,140.16,M,46.25,M,,*66
$GPGLL,4611.965757,N,01258.221539,E,082843.00,A,A*61
$GPVTG,107.9V,3,3,09,31,15,314,40,,,,,,,,,,,,*44
$GPGSA,M,3,02,04,12,14,25,29,30,,,,,,2.3,1.3,1.8*3B
Trace #107 at position 26.500000
$GPZDA,082842.04,09,10,2011,00,00*6C
$GPRMC,082842.00,A,4611.965780,N,01258.221525,E,000.2,150.0,091011,0.2,E,A*37
$GPGGA,082843.00,4611.965757,N,01258.221539,E,1,07,1.3,140.16,M,46.25,M,,*66
$GPGLL,4611.965757,N,01258.221539,E,082843.00,A,A*61
$GPVTG,107.9V,3,3,09,31,15,314,40,,,,,,,,,,,,*44
$GPGSA,M,3,02,04,12,14,25,29,30,,,,,,2.3,1.3,1.8*3B
Trace #108 at position 26.750000
$GPZDA,082842.04,09,10,2011,00,00*6C
$GPRMC,082842.00,A,4611.965780,N,01258.221525,E,000.2,150.0,091011,0.2,E,A*37
$GPGGA,082843.00,4611.965757,N,01258.221539,E,1,07,1.3,140.16,M,46.25,M,,*66
$GPGLL,4611.965757,N,01258.221539,E,082843.00,A,A*61
$GPVTG,107.9V,3,3,09,31,15,314,40,,,,,,,,,,,,*44
$GPGSA,M,3,02,04,12,14,25,29,30,,,,,,2.3,1.3,1.8*3B
Trace #109 at position 27.000000
$GPZDA,082842.04,09,10,2011,00,00*6C
$GPRMC,082842.00,A,4611.965780,N,01258.221525,E,000.2,150.0,091011,0.2,E,A*37
$GPGGA,082843.00,4611.965757,N,01258.221539,E,1,07,1.3,140.16,M,46.25,M,,*66
$GPGLL,4611.965757,N,01258.221539,E,082843.00,A,A*61
$GPVTG,107.9V,3,3,09,31,15,314,40,,,,,,,,,,,,*44
$GPGSA,M,3,02,04,12,14,25,29,30,,,,,,2.3,1.3,1.8*3B
Trace #110 at position 27.250000
$GPZDA,082842.04,09,10,2011,00,00*6C
$GPRMC,082842.00,A,4611.965780,N,01258.221525,E,000.2,150.0,091011,0.2,E,A*37
