Trace #1 at position 0.000000
$GPZDA,131346.03,06,10,2011,00,00*62
$GPRMC,131346.00,A,4611.950748,N,01258.216713,E,000.1,89.9,061011,0.2,E,A*00
$GPGGA,131347.00,4611.950705,N,01258.216777,E,1,05,1.7,137.53,M,46.25,M,,*6A
$GPGLL,4611.950705,N,01258.216777,E,131347.00,A,A*6A
$GPVTG,180.3,T,180.5,M,000.1,N,000.1,K,A*25
$GPGSV,3,1,10,19,05,279,,16,54,298,32,31,06,208,,18,39,132,41*77
$GPGSV,3,2,10,29,22,092,38,30,25,161,40,21,71,066,38,22,16,170,*7B
$G,3.3,1.7,2.8*36
$GPZDA,131347.03,06,10,2011,00,00*63
$GPRMC,131347.00,A,4611.950705,N,01258.216777,E,000.1,180.3,061011,0.2,E,A*38
$GPGGA,131348.00,4611.950676,N,01258.216799,E,1,05,1.7,137.51,M,46.25,M,,*62
$GPGLL,4611.950676,N,01258.216799,E,131348.00,A,A*60
$GPVTG,319.4,T,319.6,M,000.1,N,000.1,K,A*21
$GPGSV,3,1,10,19,05,279,,16,54,298,31,31,06,208,,18,39,132,41*74
$GPGSV,3,2,10,29,22,092,36,30,25,161,38,21,71,066,36,22,16,170,*74
$GPGSV,3,3,10,03,33,291,,06,49,292,34,,,,,,,,*74
$GPGSA,M,3,18,29,0*6B
Trace #2 at position 0.250000
$GPZDA,131356.03,06,10,2011,00,00*63
$GPRMC,131356.00,A,4611.950665,N,01258.216567,E,000.1,89.6,061011,05,1.8,136.79,M,46.25,M,,*63
$GPGLL,4611.950729,N,01258.216412,E,131357.00,A,A*65
$GPVTG,304.9,T,305.1,M,000.3,N,000.5,K,A*2C
$GPGSV,3,1,10,19,05,279,,16,54,298,33,31,06,208,,18,39,132,42*75
$GPGSV,3,2,10,29,22,092,39,30,25,161,40,21,71,066,40,22,16,170,*75
$GPGSV,3,3,10,03,33,291,,06,49,292,31,,,,,,,,*71
$GPGSA,M,3,16,18,29,30,21,,,,,,,,3.5,1.8,3.0*37
Trace #3 at position 0.500000
$GPZDA,131358.03,06,10,2011,00,00*6D
$GPRMC,131358.00,A,4611.950788,N,01258.216231,E,000.1,283.4,061011,0.2,E,A*33
$GPGGA,131359.00,4611.950789,N,01258.216228,E,1,06,1.6,136.54,M,46.25,M,,*6A
$GPGLL,4611.950789,N05,279,,16,54,298,31,31,06,208,,18,39,132,42*77
$GPGSV,3,2,10,29,22,092,38,30,25,161,39,21,71,066,37,22,16,170,*7A
$GPGSV,3,3,10,03,33,291,,06,49,292,34,,,,,,,,*74
$GPGSA,M,3,16,18,29,30,21,06,,,,,,,3.3,1.6,2.8*30
Trace #4 at position 0.750000
$GPZDA,131359.04,06,10,2011,00,00*6B
$GPRMC,131359.00,A,4611.950789,N,01258.216228,E,000.1,324.5,061011,0.2,E,A*36
$GPGGA,131400.00,4611.950776,N,01258.216230,E,1,06,1.6,136.59,M,46.25,M,,*65
$GPGLL,4611.950776,N,01258.216230,E,131400.00,A,A*6C
$GPVTG,236.5,T,236.7,M,000.1,N,000.2,K,A*22
066,38,22,16,170,*7A
$GPGSV,3,3,10,03,33,291,,06,49,292,34,,,,,,,,*74
$GPGSA,M,3,16,18,29,30,21,06,,,,,,,3.3,1.6,2.8*30
Trace #5 at position 1.000000
$GPZDA,131400.03,06,10,2011,00,00*67
$GPRMC,131400.00,A,4611.950776,N,01258.216230,E,000.1,236.5,061011,0.2,E,A*36
$GPGGA,131401.00,4611.950765,N,01258.216238,E,1,06,1.6,136.63,M,46.25,M,,*67
$GPGLL,4611.950765,N,01258.216238,E,131401.00,A,A*67
$GPVTG,354.1,T,354.3,M,000.0,N,000.1,K,A*20
$GPGSV,3,1,10,19,05,279,,16,54,298,31,31,06,208,,18,39,132,42*77
$GPGSV,3,2,10,29,22,092,38,30,,,,*73
$GPGSA,M,3,16,18,29,30,21,06,,,,,,,3.2,1.6,2.8*31
Trace #6 at position 1.250000
$GPZDA,131400.03,06,10,2011,00,00*67
$GPRMC,131400.00,A,4611.950776,N,01258.216230,E,000.1,236.5,061011,0.2,E,A*36
$GPGGA,131401.00,4611.950765,N,01258.216238,E,1,06,1.6,136.63,M,46.25,M,,*67
$GPGLL,4611.950765,N,01258.216238,E,131401.00,A,A*67
$GPVTG,354.1,T,354.3,M,000.0,N,000.1,K,A*20
$GPGSV,3,1,10,19,05,279,,16,54,298,31,31,06,208,,18,39,132,42*77
$GPGSV,3,2,10,29,22,092,38,30,,,,*73
$GPGSA,M,3,16,18,29,30,21,06,,,,,,,3.2,1.6,2.8*31
Trace #7 at position 1.500000
$GPZDA,131401.03,06,10,2011,00,00*66
$GPRMC,131401.00,A,4611.950765,N,01258.216238,E,000.0,354.1,061011,0.2,E,A*3D
$GPGGA,131402.00,4611.950825,N,01258.216136,E,1,05,1.8,136.47,M,46.25,M,,*69
$GPGLL,4611.950825,N,01258.216136,E,131402.00,A,A*62
$GPVTG,352.5,T,352.6,M,000.1,N,000.3,K,A*22
$GPGSV,3,1,10,19,05,279,,16,54,298,36,31,06,208,,18,39,132,42*70
$GPGSV,3,2,10,29,22,092,38,30,25,161,38,21,71,066,36,22,16,170,*7A
$GPGSV,3,3,10,03,33,291,0,2011,00,00*62
$GPRMC,131402.00,A,4611.950825,N,01258.216136,E,000.1,352.5,061011,0.2,E,A*3B
$GPGGA,131403.00,4611.950901,N,01258.216042,E,1,05,1.8,136.31,M,46.25,M,,*6C
$GPGLL,4611.950901,N,01258.216042,E,131403.00,A,A*66
$GPVTG,345.6,T,345.8,M,000.2,N,000.4,K,A*2B
$GPGSV,3,1,10,19,05,279,,16,54,298,35,31,06,208,,18,39,132,41*70
$GPGSV,3,2,10,29,22,092,36,30,25,161,38,21,71,066,35,22,16,170,*77
$GPGSV,3,3,10,03,33,291,,06,49,292,31,,,,,,,,*71
$GPGSA,M,3,16,18,29,30,21,,,,,,,,3.5,1.8,3.0*37
Trace #8 at position 1.750000
$GPZDA,01258.216042,E,000.2,345.6,061011,0.2,E,A*39
$GPGGA,131404.00,4611.950944,N,01258.216072,E,1,06,1.6,136.41,M,46.25,M,,*63
$GPGLL,4611.950944,N,01258.216072,E,131404.00,A,A*63
$GPVTG,357.8,T,357.9,M,000.2,N,000.3,K,A*23
$GPGSV,3,1,10,19,05,279,,16,54,298,33,31,06,208,,18,39,132,40*77
$GPGSV,3,2,10,29,22,092,37,30,25,161,39,21,71,066,37,22,16,170,*75
$GPGSV,3,3,10,03,33,291,,06,49,292,34,,,,,,,,*74
$GPGSA,M,3,16,18,29,30,21,06,,,,,,,3.2,1.6,2.8*31
Trace #9 at position 2.000000
$GPZDA,131404.04,06,10,2011,00,00*64
$GPRMC,131404.0$GPGGA,131405.00,4611.950970,N,01258.216056,E,1,06,1.6,136.60,M,46.25,M,,*60
$GPGLL,4611.950970,N,01258.216056,E,131405.00,A,A*63
$GPVTG,283.2,T,283.4,M,000.3,N,000.5,K,A*23
$GPGSV,3,1,10,19,05,279,,16,54,298,36,31,06,208,,18,39,132,39*7C
$GPGSV,3,2,10,29,22,092,38,30,25,161,39,21,71,066,36,22,16,170,*7B
$GPGSV,3,3,10,03,33,291,,06,49,292,34,,,,,,,,*74
$GPGSA,M,3,16,18,29,30,21,06,,,,,,,3.2,1.6,2.8*31
Trace #10 at position 2.250000
$GPZDA,131405.03,06,10,2011,00,00*62
$GPRMC,131405.00,A,4611.950970,N,01258.216056,E,000.3,283.2,06$GPGGA,131406.00,4611.951053,N,01258.215976,E,1,06,1.6,136.66,M,46.25,M,,*64
$GPGLL,4611.951053,N,01258.215976,E,131406.00,A,A*61
$GPVTG,326.6,T,326.8,M,000.6,N,001.2,K,A*28
$GPGSV,3,1,10,19,05,279,,16,54,298,33,31,06,208,,18,39,132,41*76
$GPGSV,3,2,10,29,22,092,39,30,25,161,39,21,71,066,37,22,16,170,*7B
$GPGSV,3,3,10,03,33,291,,06,49,292,33,,,,,,,,*73
$GPGSA,M,3,16,18,29,30,21,06,,,,,,,3.2,1.6,2.8*31
Trace #11 at position 2.500000
$GPZDA,131405.03,06,10,2011,00,00*62
$GPRMC,131405.00,A,4611.950970,N,01258.216056,E,000.3,283.2,06$GPGGA,131406.00,4611.951053,N,01258.215976,E,1,06,1.6,136.66,M,46.25,M,,*64
$GPGLL,4611.951053,N,01258.215976,E,131406.00,A,A*61
$GPVTG,326.6,T,326.8,M,000.6,N,001.2,K,A*28
$GPGSV,3,1,10,19,05,279,,16,54,298,33,31,06,208,,18,39,132,41*76
$GPGSV,3,2,10,29,22,092,39,30,25,161,39,21,71,066,37,22,16,170,*7B
$GPGSV,3,3,10,03,33,291,,06,49,292,33,,,,,,,,*73
$GPGSA,M,3,16,18,29,30,21,06,,,,,,,3.2,1.6,2.8*31
Trace #12 at position 2.750000
$GPZDA,131406.03,06,10,2011,00,00*61
$GPRMC,131406.00,A,4611.951053,N,01258.215976,E,000.6,326.6,06$GPGGA,131407.00,4611.951210,N,01258.215905,E,1,06,1.6,136.64,M,46.25,M,,*66
$GPGLL,4611.951210,N,01258.215905,E,131407.00,A,A*61
$GPVTG,338.9,T,339.0,M,000.6,N,001.2,K,A*2E
$GPGSV,3,1,10,19,05,279,,16,54,298,35,31,06,208,,18,39,132,41*70
$GPGSV,3,2,10,29,22,092,39,30,25,161,39,21,71,066,36,22,16,170,*7A
$GPGSV,3,3,10,03,33,291,,06,49,292,32,,,,,,,,*72
$GPGSA,M,3,16,18,29,30,21,06,,,,,,,3.2,1.6,2.8*31
Trace #13 at position 3.000000
$GPZDA,131407.03,06,10,2011,00,00*60
$GPRMC,131407.00,A,4611.951210,N,01258.215905,E,000.6,338.9,06$GPGGA,131408.00,4611.951377,N,01258.215910,E,1,06,1.6,136.63,M,46.25,M,,*6A
$GPGLL,4611.951377,N,01258.215910,E,131408.00,A,A*6A
$GPVTG,4.2,T,4.4,M,000.6,N,001.2,K,A*20
$GPGSV,3,1,10,19,05,279,,16,54,298,33,31,06,208,,18,39,132,41*76
$GPGSV,3,2,10,29,22,092,39,30,25,161,39,21,71,066,36,22,16,170,*7A
$GPGSV,3,3,10,03,33,291,,06,49,292,31,,,,,,,,*71
$GPGSA,M,3,16,18,29,30,21,06,,,,,,,3.2,1.6,2.8*31
Trace #14 at position 3.250000
$GPZDA,131407.03,06,10,2011,00,00*60
$GPRMC,131407.00,A,4611.951210,N,01258.215905,E,000.6,338.9,06$GPGGA,131408.00,4611.951377,N,01258.215910,E,1,06,1.6,136.63,M,46.25,M,,*6A
$GPGLL,4611.951377,N,01258.215910,E,131408.00,A,A*6A
$GPVTG,4.2,T,4.4,M,000.6,N,001.2,K,A*20
$GPGSV,3,1,10,19,05,279,,16,54,298,33,31,06,208,,18,39,132,41*76
$GPGSV,3,2,10,29,22,092,39,30,25,161,39,21,71,066,36,22,16,170,*7A
$GPGSV,3,3,10,03,33,291,,06,49,292,31,,,,,,,,*71
$GPGSA,M,3,16,18,29,30,21,06,,,,,,,3.2,1.6,2.8*31
Trace #15 at position 3.500000
$GPZDA,131408.04,06,10,2011,00,00*68
$GPRMC,131408.00,A,4611.951377,N,01258.215910,E,000.6,4.2,061011,0$GPGGA,131409.00,4611.951528,N,01258.215827,E,1,06,1.6,136.58,M,46.25,M,,*6A
$GPGLL,4611.951528,N,01258.215827,E,131409.00,A,A*62
$GPVTG,307.3,T,307.5,M,000.8,N,001.6,K,A*2A
$GPGSV,3,1,10,19,05,279,,16,54,298,34,31,06,208,,18,39,132,41*71
$GPGSV,3,2,10,29,22,092,40,30,25,161,38,21,71,066,36,22,16,170,*75
$GPGSV,3,3,10,03,33,291,,06,49,292,32,,,,,,,,*72
$GPGSA,M,3,16,18,29,30,21,06,,,,,,,3.2,1.6,2.8*31
Trace #16 at position 3.750000
$GPZDA,131409.03,06,10,2011,00,00*6E
$GPRMC,131409.00,A,4611.951528,N,01258.215827,E,000.8,307.3,06,4611.951628,N,01258.215711,E,1,06,1.6,136.60,M,46.25,M,,*60
$GPGLL,4611.951628,N,01258.215711,E,131410.00,A,A*63
$GPVTG,328.4,T,328.5,M,000.3,N,000.6,K,A*27
$GPGSV,3,1,10,19,05,279,,16,54,298,33,31,06,208,,18,39,132,41*76
$GPGSV,3,2,10,29,22,092,40,30,25,161,39,21,71,066,35,22,16,170,*77
$GPGSV,3,3,10,03,33,291,,06,49,292,32,,,,,,,,*72
$GPGSA,M,3,16,18,29,30,21,06,,,,,,,3.2,1.6,2.8*31
Trace #17 at position 4.000000
$GPZDA,131410.03,06,10,2011,00,00*66
$GPRMC,131410.00,A,4611.951628,N,01258.215711,E,000.3,328.4,061011,0.2,E,A*3446.25,M,,*68
$GPGLL,4611.951696,N,01258.215679,E,131411.00,A,A*68
$GPVTG,316.5,T,316.7,M,000.3,N,000.6,K,A*24
$GPGSV,3,1,10,19,05,279,,16,54,298,34,31,06,208,,18,39,132,39*7E
$GPGSV,3,2,10,29,22,092,39,30,25,161,39,21,71,066,36,22,16,170,*7A
$GPGSV,3,3,10,03,33,291,,06,49,292,33,,,,,,,,*73
$GPGSA,M,3,16,18,29,30,21,06,,,,,,,3.2,1.6,2.8*31
Trace #18 at position 4.250000
$GPZDA,131411.03,06,10,2011,00,00*67
$GPRMC,131411.00,A,4611.951696,N,01258.215679,E,000.3,316.5,061011,0.2,E,A*33
$GPGGA,131412.00,4611.951945,N,01258.215387,E,10,N,001.8,K,A*2C
$GPGSV,3,1,10,19,05,279,,16,54,298,28,31,06,208,,18,39,132,40*7D
$GPGSV,3,2,10,29,22,092,39,30,25,161,39,21,71,066,35,22,16,170,*79
$GPGSV,3,3,10,03,33,291,,06,49,292,29,,,,,,,,*78
$GPGSA,M,3,18,29,30,21,,,,,,,,,7.1,4.8,5.2*31
Trace #19 at position 4.500000
$GPZDA,131412.03,06,10,2011,00,00*64
$GPRMC,131412.00,A,4611.951945,N,01258.215387,E,001.0,351.3,061011,0.2,E,A*32
$GPGGA,131413.00,4611.952217,N,01258.215091,E,1,04,4.8,135.81,M,46.25,M,,*62
$GPGLL,4611.952217,N,01258.215091,E,131413.00,A,A*64
$GPVTG,322.8,T*7A
$GPGSV,3,3,10,03,33,291,,06,49,292,31,,,,,,,,*71
$GPGSA,M,3,18,29,30,21,,,,,,,,,7.1,4.8,5.2*31
Trace #20 at position 4.750000
$GPZDA,131412.03,06,10,2011,00,00*64
$GPRMC,131412.00,A,4611.951945,N,01258.215387,E,001.0,351.3,061011,0.2,E,A*32
$GPGGA,131413.00,4611.952217,N,01258.215091,E,1,04,4.8,135.81,M,46.25,M,,*62
$GPGLL,4611.952217,N,01258.215091,E,131413.00,A,A*64
$GPVTG,322.8,T*7A
$GPGSV,3,3,10,03,33,291,,06,49,292,31,,,,,,,,*71
$GPGSA,M,3,18,29,30,21,,,,,,,,,7.1,4.8,5.2*31
Trace #21 at position 5.000000
$GPZDA,131412.03,06,10,2011,00,00*64
$GPRMC,131412.00,A,4611.951945,N,01258.215387,E,001.0,351.3,061011,0.2,E,A*32
$GPGGA,131413.00,4611.952217,N,01258.215091,E,1,04,4.8,135.81,M,46.25,M,,*62
$GPGLL,4611.952217,N,01258.215091,E,131413.00,A,A*64
$GPVTG,322.8,T*7A
$GPGSV,3,3,10,03,33,291,,06,49,292,31,,,,,,,,*71
$GPGSA,M,3,18,29,30,21,,,,,,,,,7.1,4.8,5.2*31
Trace #22 at position 5.250000
$GPZDA,131412.03,06,10,2011,00,00*64
$GPRMC,131412.00,A,4611.951945,N,01258.215387,E,001.0,351.3,061011,0.2,E,A*32
$GPGGA,131413.00,4611.952217,N,01258.215091,E,1,04,4.8,135.81,M,46.25,M,,*62
$GPGLL,4611.952217,N,01258.215091,E,131413.00,A,A*64
$GPVTG,322.8,T*7A
$GPGSV,3,3,10,03,33,291,,06,49,292,31,,,,,,,,*71
$GPGSA,M,3,18,29,30,21,,,,,,,,,7.1,4.8,5.2*31
Trace #23 at position 5.500000
$GPZDA,131413.04,06,10,2011,00,00*62
$GPRMC,131413.00,A,4611.952217,N,01258.215091,E,000.6,322.8,061011,0.2,E,A*30
$GPGGA,131414.00,4611.952400,N,01258.214845,E,1,04,4.8,135.69,M,46.25,M,,*63
$GPGLL,4611.952400,N,01258.214845,E,131414.00,A,A*63
$GPVTG,359.3,T,359.5,M,000.3,N,000.6,K,A*20
$GPGSV,3,1,10,19,05,279,,16,54,298,,31,06,208,,18,39,132,41*76
$GPGSV,3,2,10,29,22,092,39,30,25,161,39,21,71,066,3629,30,21,,,,,,,,,7.1,4.8,5.2*31
$GPZDA,131414.03,06,10,2011,00,00*62
$GPRMC,131414.00,A,4611.952400,N,01258.214845,E,000.3,359.3,061011,0.2,E,A*35
$GPGGA,131415.00,4611.952567,N,01258.214722,E,1,04,4.8,135.52,M,46.25,M,,*64
$GPGLL,4611.952567,N,01258.214722,E,131415.00,A,A*6C
$GPVTG,28.7,T,28.8,M,000.4,N,000.8,K,A*20
$GPGSV,3,1,10,19,05,279,,16,54,298,32,31,06,208,,18,39,132,40*76
$GPGSV,3,2,10,29,22,092,38,30,25,161,39,21,71,066,36,22,16,170,*7B
$GPGSV,3,3,10,03,33,291,,06,49,292,29,,,,,,,,*78
$GP00,A,4611.952567,N,01258.214722,E,000.4,28.7,061011,0.2,E,A*0C
$GPGGA,131416.00,4611.952757,N,01258.214598,E,1,04,4.8,135.31,M,46.25,M,,*60
$GPGLL,4611.952757,N,01258.214598,E,131416.00,A,A*6D
$GPVTG,351.3,T,351.5,M,000.5,N,001.0,K,A*21
$GPGSV,3,1,10,19,05,279,,16,54,298,32,31,06,208,,18,39,132,40*76
$GPGSV,3,2,10,29,22,092,40,30,25,161,38,21,71,066,36,22,16,170,*75
$GPGSV,3,3,10,03,33,291,,06,49,292,30,,,,,,,,*70
$GPGSA,M,3,18,29,30,21,,,,,,,,,7.1,4.8,5.2*31
Trace #24 at position 5.750000
$GPZDA,131413.04,06,10,2011,00,00*62
$GPRMC,131413.00,A,4611.952217,N,01258.215091,E,000.6,322.8,061011,0.2,E,A*30
$GPGGA,131414.00,4611.952400,N,01258.214845,E,1,04,4.8,135.69,M,46.25,M,,*63
$GPGLL,4611.952400,N,01258.214845,E,131414.00,A,A*63
$GPVTG,359.3,T,359.5,M,000.3,N,000.6,K,A*20
$GPGSV,3,1,10,19,05,279,,16,54,298,,31,06,208,,18,39,132,41*76
$GPGSV,3,2,10,29,22,092,39,30,25,161,39,21,71,066,3629,30,21,,,,,,,,,7.1,4.8,5.2*31
$GPZDA,131414.03,06,10,2011,00,00*62
$GPRMC,131414.00,A,4611.952400,N,01258.214845,E,000.3,359.3,061011,0.2,E,A*35
$GPGGA,131415.00,4611.952567,N,01258.214722,E,1,04,4.8,135.52,M,46.25,M,,*64
$GPGLL,4611.952567,N,01258.214722,E,131415.00,A,A*6C
$GPVTG,28.7,T,28.8,M,000.4,N,000.8,K,A*20
$GPGSV,3,1,10,19,05,279,,16,54,298,32,31,06,208,,18,39,132,40*76
$GPGSV,3,2,10,29,22,092,38,30,25,161,39,21,71,066,36,22,16,170,*7B
$GPGSV,3,3,10,03,33,291,,06,49,292,29,,,,,,,,*78
$GP00,A,4611.952567,N,01258.214722,E,000.4,28.7,061011,0.2,E,A*0C
$GPGGA,131416.00,4611.952757,N,01258.214598,E,1,04,4.8,135.31,M,46.25,M,,*60
$GPGLL,4611.952757,N,01258.214598,E,131416.00,A,A*6D
$GPVTG,351.3,T,351.5,M,000.5,N,001.0,K,A*21
$GPGSV,3,1,10,19,05,279,,16,54,298,32,31,06,208,,18,39,132,40*76
$GPGSV,3,2,10,29,22,092,40,30,25,161,38,21,71,066,36,22,16,170,*75
$GPGSV,3,3,10,03,33,291,,06,49,292,30,,,,,,,,*70
$GPGSA,M,3,18,29,30,21,,,,,,,,,7.1,4.8,5.2*31
Trace #25 at position 6.000000
$GPZDA,131416.03,06,10,2011,00,00*60
$G$GPGGA,131417.00,4611.952951,N,01258.214453,E,1,04,4.8,135.09,M,46.25,M,,*64
$GPGLL,4611.952951,N,01258.214453,E,131417.00,A,A*62
$GPVTG,4.6,T,4.7,M,000.5,N,000.9,K,A*2E
$GPGSV,3,1,10,19,05,279,,16,54,298,31,31,06,208,,18,39,132,41*74
$GPGSV,3,2,10,29,22,092,40,30,25,161,39,21,71,066,36,22,16,170,*74
$GPGSV,3,3,10,03,33,291,,06,49,292,32,,,,,,,,*72
$GPGSA,M,3,18,29,30,21,,,,,,,,,7.1,4.8,5.2*31
Trace #26 at position 6.250000
$GPZDA,131417.03,06,10,2011,00,00*61
$GPRMC,131417.00,A,4611.952951,N,01258.214453,E,000.5,4.6,061011,0.2,E$GPGGA,131418.00,4611.953058,N,01258.214344,E,1,04,4.8,134.96,M,46.25,M,,*6C
$GPGLL,4611.953058,N,01258.214344,E,131418.00,A,A*6D
$GPVTG,165.6,T,165.8,M,000.1,N,000.2,K,A*2E
$GPGSV,3,1,10,19,05,279,,16,54,298,32,31,06,208,,18,39,132,41*77
$GPGSV,3,2,10,29,22,092,40,30,25,161,39,21,71,066,36,22,16,170,*74
$GPGSV,3,3,10,03,33,291,,06,49,292,29,,,,,,,,*78
$GPGSA,M,3,18,29,30,21,,,,,,,,,7.1,4.8,5.2*31
Trace #27 at position 6.500000
$GPZDA,131417.03,06,10,2011,00,00*61
$GPRMC,131417.00,A,4611.952951,N,01258.214453,E,000.5,4.6,061011,0.2,E$GPGGA,131418.00,4611.953058,N,01258.214344,E,1,04,4.8,134.96,M,46.25,M,,*6C
$GPGLL,4611.953058,N,01258.214344,E,131418.00,A,A*6D
$GPVTG,165.6,T,165.8,M,000.1,N,000.2,K,A*2E
$GPGSV,3,1,10,19,05,279,,16,54,298,32,31,06,208,,18,39,132,41*77
$GPGSV,3,2,10,29,22,092,40,30,25,161,39,21,71,066,36,22,16,170,*74
$GPGSV,3,3,10,03,33,291,,06,49,292,29,,,,,,,,*78
$GPGSA,M,3,18,29,30,21,,,,,,,,,7.1,4.8,5.2*31
Trace #28 at position 6.750000
$GPZDA,131418.03,06,10,2011,00,00*6E
$GPRMC,131418.00,A,4611.953058,N,01258.214344,E,000.1,165.6,061011$GPGGA,131419.00,4611.953188,N,01258.214189,E,1,04,4.8,134.76,M,46.25,M,,*6C
$GPGLL,4611.953188,N,01258.214189,E,131419.00,A,A*63
$GPVTG,336.5,T,336.6,M,000.7,N,001.3,K,A*25
$GPGSV,3,1,10,19,05,279,,16,54,298,30,31,06,208,,18,39,132,41*75
$GPGSV,3,2,10,29,22,092,39,30,25,161,39,21,71,066,35,22,16,170,*79
$GPGSV,3,3,10,03,33,291,,06,49,292,31,,,,,,,,*71
$GPGSA,M,3,18,29,30,21,,,,,,,,,7.0,4.8,5.2*30
Trace #29 at position 7.000000
$GPZDA,131419.03,06,10,2011,00,00*6F
$GPRMC,131419.00,A,4611.953188,N,01258.214189,E,000.7,336.5,061011$GPGGA,131420.00,4611.953488,N,01258.213981,E,1,04,4.8,134.45,M,46.25,M,,*64
$GPGLL,4611.953488,N,01258.213981,E,131420.00,A,A*6B
$GPVTG,345.6,T,345.8,M,001.2,N,002.3,K,A*2F
$GPGSV,3,1,10,19,05,279,,16,54,298,31,31,06,208,,18,39,132,41*74
$GPGSV,3,2,10,29,22,092,39,30,25,161,38,21,71,066,36,22,16,170,*7B
$GPGSV,3,3,10,03,33,291,,06,49,292,29,,,,,,,,*78
$GPGSA,M,3,18,29,30,21,,,,,,,,,7.0,4.8,5.2*30
Trace #30 at position 7.250000
$GPZDA,131419.03,06,10,2011,00,00*6F
$GPRMC,131419.00,A,4611.953188,N,01258.214189,E,000.7,336.5,061011$GPGGA,131420.00,4611.953488,N,01258.213981,E,1,04,4.8,134.45,M,46.25,M,,*64
$GPGLL,4611.953488,N,01258.213981,E,131420.00,A,A*6B
$GPVTG,345.6,T,345.8,M,001.2,N,002.3,K,A*2F
$GPGSV,3,1,10,19,05,279,,16,54,298,31,31,06,208,,18,39,132,41*74
$GPGSV,3,2,10,29,22,092,39,30,25,161,38,21,71,066,36,22,16,170,*7B
$GPGSV,3,3,10,03,33,291,,06,49,292,29,,,,,,,,*78
$GPGSA,M,3,18,29,30,21,,,,,,,,,7.0,4.8,5.2*30
Trace #31 at position 7.500000
$GPZDA,131420.03,06,10,2011,00,00*65
$GPRMC,131420.00,A,4611.953488,N,01258.213981,E,001.2,345.6,061011$GPGGA,131421.00,4611.953733,N,01258.213777,E,1,04,4.8,134.35,M,46.25,M,,*66
$GPGLL,4611.953733,N,01258.213777,E,131421.00,A,A*6E
$GPVTG,308.4,T,308.5,M,000.5,N,000.8,K,A*2F
$GPGSV,3,1,10,19,05,279,,16,54,298,32,31,06,208,,18,39,132,40*76
$GPGSV,3,2,10,29,22,092,40,30,25,161,38,21,71,066,36,22,16,170,*75
$GPGSV,3,3,10,03,33,291,,06,49,292,31,,,,,,,,*71
$GPGSA,M,3,18,29,30,21,,,,,,,,,7.0,4.8,5.2*30
Trace #32 at position 7.750000
$GPZDA,131421.03,06,10,2011,00,00*64
$GPRMC,131421.00,A,4611.953733,N,01258.213777,E,000.5,308.4,061011$GPGGA,131422.00,4611.953953,N,01258.213569,E,1,04,4.8,134.21,M,46.25,M,,*65
$GPGLL,4611.953953,N,01258.213569,E,131422.00,A,A*68
$GPVTG,341.3,T,341.5,M,001.0,N,001.9,K,A*2C
$GPGSV,3,1,10,19,05,279,,16,54,298,32,31,06,208,,18,39,132,41*77
$GPGSV,3,2,10,29,22,092,40,30,25,161,39,21,71,066,33,22,16,170,*71
$GPGSV,3,3,10,03,33,291,,06,49,292,29,,,,,,,,*78
$GPGSA,M,3,18,29,30,21,,,,,,,,,7.0,4.8,5.2*30
Trace #33 at position 8.000000
$GPZDA,131422.03,06,10,2011,00,00*67
$GPRMC,131422.00,A,4611.953953,N,01258.213569,E,001.0,341.3,061011,4611.953699,N,01258.214369,E,1,04,4.8,133.87,M,46.25,M,,*67
$GPGLL,4611.953699,N,01258.214369,E,131423.00,A,A*61
$GPVTG,122.9,T,123.1,M,005.0,N,009.3,K,A*25
$GPGSV,3,1,10,19,05,279,,16,54,298,32,31,06,208,,18,39,132,40*76
$GPGSV,3,2,10,29,22,092,38,30,25,161,39,21,71,066,,22,16,170,*7E
$GPGSV,3,3,10,03,34,291,,06,49,292,30,,,,,,,,*77
$GPGSA,M,3,18,29,30,21,,,,,,,,,7.0,4.8,5.2*30
Trace #34 at position 8.250000
$GPZDA,131423.04,06,10,2011,00,00*61
$GPRMC,131423.00,A,4611.953699,N,01258.214369,E,005.0,122.9,061011,0.2,E,A*35
$GPGG,54,298,31,31,06,208,,18,39,132,40*75
$GPGSV,3,2,10,29,22,092,39,30,25,161,39,21,71,066,32,22,16,170,*7E
$GPGSV,3,3,10,03,34,291,,06,49,292,31,,,,,,,,*76
$GPGSA,M,1,,,,,,,,,,,,,7.0,4.8,5.2*30
Trace #35 at position 8.500000
$GPZDA,131424.02,06,10,2011,00,00*60
$GPRMC,131423.00,V,,,,,,,,,,N*7B
$GPGGA,,,,,,0,03,,,M,,M,,*65
$GPGLL,,,,,,V,N*64
$GPVTG,,T,,,,N,,K,N*61
$GPGSV,3,1,10,19,05,279,,16,55,298,32,31,06,208,,18,39,132,41*76
$GPGSV,3,2,10,29,22,092,39,30,25,161,40,21,71,066,33,22,16,170,*71
$GPGSV,3,3,10,03,34,291,,06,49,292,29,,,,,,,,*7F
$GPGSA,M,1,,,,,,,,,,,,,7.0,4.8,5.2*30
Trace #36 at position 8.750000
$GPZDA,131424.02,06,10,2011,00,00*60
$GPRMC,131423.00,V,,,,,,,,,,N*7B
$GPGGA,,,,,,0,03,,,M,,M,,*65
$GPGLL,,,,,,V,N*64
$GPVTG,,T,,,,N,,K,N*61
$GPGSV,3,1,10,19,05,279,,16,55,298,32,31,06,208,,18,39,132,41*76
$GPGSV,3,2,10,29,22,092,39,30,25,161,40,21,71,066,33,22,16,170,*71
$GPGSV,3,3,10,03,34,291,,06,49,292,29,,,,,,,,*7F
$GPGSA,M,1,,,,,,,,,,,,,7.0,4.8,5.2*30
Trace #37 at position 9.000000
$GPZDA,131425.02,06,10,2011,00,00*61
$GPRMC,131423.00,V,,,,,,,,,,N*7B
$GPGGA,131426.00,4611.953083,N,01258.216355,E,1,04,4.8,133.35,M,46.25,M,,*6B
$GPGLL,4611.953083,N,01258.216355,E,131426.00,A,A*64
$GPVTG,345.3,T,345.5,M,000.7,N,001.3,K,A*20
$GPGSV,3,1,10,19,05,279,,16,55,298,32,31,06,208,,18,39,132,40*77
$GPGSV,3,2,10,29,22,092,38,30,25,161,38,21,71,066,34,22,16,170,*78
$GPGSV,3,3,10,03,34,291,,06,49,292,27,,,,,,,,*71
$GPGSA,M,3,18,29,30,21,,,,,,,,,7.0,4.8,5.2*30
Trace #38 at position 9.250000
$GPZDA,131426.04,06,10,2011,00,00*64
$GPRMC,131426.00,A,4611.953083,N,01258.216355,E,000.7,345.3,061011,0.2,E,A*3B
$GPGGA,131427.00,4611.953416,N,01258.215913,E,1,04,4.8,133.31,M,46.25,M,,*6D
$GPGLL,4611.953416,N,01258.215913,E,131427.00,A,A*66
$GPVTG,337.7,T,337.9,M,000.3,N,000.5,K,A*2B
$GPGSV,3,1,10,19,05,279,,16,55,298,32,31,06,208,,18,39,132,41*76
$GPGSV,3,2,10,29,22,092,39,30,25,161,38,21,71,066,35,22,16,170,*78
$GPGSV,3,3,10,03,34,291,,06,49,292,31,,,,,,,,*76
$GPGSA,M,3,18,29,30,21,,,,,,,,,7.0,4.8,5.2*30
Trace #39 at position 9.500000
$GPZDA,131426.04,06,10,2011,00,00*64
$GPRMC,131426.00,A,4611.953083,N,01258.216355,E,000.7,345.3,061011,0.2,E,A*3B
$GPGGA,131427.00,4611.953416,N,01258.215913,E,1,04,4.8,133.31,M,46.25,M,,*6D
$GPGLL,4611.953416,N,01258.215913,E,131427.00,A,A*66
$GPVTG,337.7,T,337.9,M,000.3,N,000.5,K,A*2B
$GPGSV,3,1,10,19,05,279,,16,55,298,32,31,06,208,,18,39,132,41*76
$GPGSV,3,2,10,29,22,092,39,30,25,161,38,21,71,066,35,22,16,170,*78
$GPGSV,3,3,10,03,34,291,,06,49,292,31,,,,,,,,*76
$GPGSA,M,3,18,29,30,21,,,,,,,,,7.0,4.8,5.2*30
Trace #40 at position 9.750000
$GPZDA,131426.04,06,10,2011,00,00*64
$GPRMC,131426.00,A,4611.953083,N,01258.216355,E,000.7,345.3,061011,0.2,E,A*3B
$GPGGA,131427.00,4611.953416,N,01258.215913,E,1,04,4.8,133.31,M,46.25,M,,*6D
$GPGLL,4611.953416,N,01258.215913,E,131427.00,A,A*66
$GPVTG,337.7,T,337.9,M,000.3,N,000.5,K,A*2B
$GPGSV,3,1,10,19,05,279,,16,55,298,32,31,06,208,,18,39,132,41*76
$GPGSV,3,2,10,29,22,092,39,30,25,161,38,21,71,066,35,22,16,170,*78
$GPGSV,3,3,10,03,34,291,,06,49,292,31,,,,,,,,*76
$GPGSA,M,3,18,29,30,21,,,,,,,,,7.0,4.8,5.2*30
Trace #41 at position 10.000000
$GPZDA,131426.04,06,10,2011,00,00*64
$GPRMC,131426.00,A,4611.953083,N,01258.216355,E,000.7,345.3,061011,0.2,E,A*3B
$GPGGA,131427.00,4611.953416,N,01258.215913,E,1,04,4.8,133.31,M,46.25,M,,*6D
$GPGLL,4611.953416,N,01258.215913,E,131427.00,A,A*66
$GPVTG,337.7,T,337.9,M,000.3,N,000.5,K,A*2B
$GPGSV,3,1,10,19,05,279,,16,55,298,32,31,06,208,,18,39,132,41*76
$GPGSV,3,2,10,29,22,092,39,30,25,161,38,21,71,066,35,22,16,170,*78
$GPGSV,3,3,10,03,34,291,,06,49,292,31,,,,,,,,*76
$GPGSA,M,3,18,29,30,21,,,,,,,,,7.0,4.8,5.2*30
Trace #42 at position 10.250000
$GPZDA,131427.03,06,10,2011,00,00*62
$GPRMC,131427.00,A,4611.953416,N,01258.215913,E,000.3,337.7,061011,0.2,E,A*3C
$GPGGA,131428.00,4611.953739,N,01258.215595,E,1,04,4.8,133.32,M,46.25,M,,*6D
$GPGLL,4611.953739,N,01258.215595,E,131428.00,A,A*65
$GPVTG,20.3,T,20.5,M,000.9,N,001.6,K,A*2B
$GPGSV,3,1,10,19,05,279,,16,55,298,32,31,06,208,,18,39,132,40*77
$GPGSV,3,2,10,29,22,092,39,30,25,161,39,21,71,066,36,22,16,170,*7A
$GPGSV,3,3,10,03,34,291,,06,49,292,32,,,,,,,,*75
$G0,21,,,,,,,,,7.0,4.8,5.2*30
$GPZDA,131428.04,06,10,2011,00,00*6A
$GPRMC,131428.00,A,4611.953739,N,01258.215595,E,000.9,20.3,061011,0.2,E,A*04
$GPGGA,131429.00,4611.954093,N,01258.215383,E,1,04,4.8,133.34,M,46.25,M,,*6B
$GPGLL,4611.954093,N,01258.215383,E,131429.00,A,A*65
$GPVTG,34.9,T,35.1,M,000.7,N,001.3,K,A*2F
$GPGSV,3,1,10,19,05,279,,16,55,298,32,31,06,208,,18,39,132,40*77
$GPGSV,3,2,10,29,22,092,39,30,25,161,40,21,71,066,35,22,16,170,*77
$GPGSV,3,3,10,03,34,291,,06,49,292,27,,,,,,,,*71
$GPGSA,MRMC,131429.00,A,4611.954093,N,01258.215383,E,000.7,34.9,061011,0.2,E,A*05
Trace #43 at position 10.500000
$GPGGA,131430.00,4611.954439,N,01258.215107,E,1,04,4.8,133.38,M,46.25,M,,*65
$GPGLL,4611.954439,N,01258.215107,E,131430.00,A,A*67
$GPVTG,353.3,T,353.5,M,000.9,N,001.6,K,A*2B
$GPGSV,3,1,10,19,05,279,,16,55,298,31,31,06,208,,18,39,132,40*74
$GPGSV,3,2,10,29,22,092,38,30,25,161,40,21,71,066,35,22,16,170,*76
$GPGSV,3,3,10,03,34,291,,06,49,292,28,,,,,,,,*7E
$GPGSA,M,3,18,29,30,21,,,,,,,,,7.0,4.8,5.1*33
Trace #44 at position 10.750000
$GPZDA,131430.03,06,10,2011,053.3,061011,0.2,E,A*31
$GPGGA,131431.00,4611.954765,N,01258.214753,E,1,04,4.8,133.47,M,46.25,M,,*60
$GPGLL,4611.954765,N,01258.214753,E,131431.00,A,A*6A
$GPVTG,339.2,T,339.3,M,000.6,N,001.1,K,A*24
$GPGSV,3,1,10,19,05,279,,16,55,298,31,31,06,208,,18,39,132,41*75
$GPGSV,3,2,10,29,22,092,38,30,25,161,40,21,71,066,35,22,16,170,*76
$GPGSV,3,3,10,03,34,291,,06,49,292,29,,,,,,,,*7F
$GPGSA,M,3,18,29,30,21,,,,,,,,,7.0,4.8,5.1*33
Trace #45 at position 11.000000
$GPZDA,131431.03,06,10,2011,00,00*65
$GPRMC,131431.00,A,4611.954765,N,01258.214$GPGGA,131432.00,4611.955025,N,01258.214423,E,1,04,4.8,133.45,M,46.25,M,,*67
$GPGLL,4611.955025,N,01258.214423,E,131432.00,A,A*6F
$GPVTG,343.1,T,343.3,M,000.5,N,000.9,K,A*2D
$GPGSV,3,1,10,19,05,279,,16,55,298,31,31,06,208,,18,39,132,41*75
$GPGSV,3,2,10,29,22,092,39,30,25,161,40,21,71,066,37,22,16,170,*75
$GPGSV,3,3,10,03,34,291,,06,49,292,29,,,,,,,,*7F
$GPGSA,M,3,18,29,30,21,,,,,,,,,7.0,4.8,5.1*33
Trace #46 at position 11.250000
$GPZDA,131431.03,06,10,2011,00,00*65
$GPRMC,131431.00,A,4611.954765,N,01258.214$GPGGA,131432.00,4611.955025,N,01258.214423,E,1,04,4.8,133.45,M,46.25,M,,*67
$GPGLL,4611.955025,N,01258.214423,E,131432.00,A,A*6F
$GPVTG,343.1,T,343.3,M,000.5,N,000.9,K,A*2D
$GPGSV,3,1,10,19,05,279,,16,55,298,31,31,06,208,,18,39,132,41*75
$GPGSV,3,2,10,29,22,092,39,30,25,161,40,21,71,066,37,22,16,170,*75
$GPGSV,3,3,10,03,34,291,,06,49,292,29,,,,,,,,*7F
$GPGSA,M,3,18,29,30,21,,,,,,,,,7.0,4.8,5.1*33
Trace #47 at position 11.500000
$GPZDA,131432.03,06,10,2011,00,00*66
$GPRMC,131432.00,A,4611.955025,N,01258.214423,E,000.5,343.1,061011$GPGGA,131433.00,4611.955328,N,01258.214012,E,1,04,4.8,133.37,M,46.25,M,,*6B
$GPGLL,4611.955328,N,01258.214012,E,131433.00,A,A*66
$GPVTG,322.0,T,322.1,M,001.3,N,002.3,K,A*21
$GPGSV,3,1,10,19,05,279,,16,55,298,31,31,06,208,,18,39,132,40*74
$GPGSV,3,2,10,29,22,092,39,30,25,161,38,21,71,066,37,22,16,170,*7A
$GPGSV,3,3,10,03,34,291,,06,49,292,31,,,,,,,,*76
$GPGSA,M,3,18,29,30,21,,,,,,,,,7.0,4.8,5.1*33
Trace #48 at position 11.750000
$GPZDA,131433.03,06,10,2011,00,00*67
$GPRMC,131433.00,A,4611.955328,N,01258.214012,E,001.3,322.0,061011$GPGGA,131434.00,4611.955642,N,01258.213639,E,1,04,4.8,133.37,M,46.25,M,,*6D
$GPGLL,4611.955642,N,01258.213639,E,131434.00,A,A*60
$GPVTG,347.7,T,347.8,M,000.6,N,001.1,K,A*2A
$GPGSV,3,1,10,19,05,279,,16,55,298,32,31,06,208,,18,39,132,40*77
$GPGSV,3,2,10,29,22,092,39,30,25,161,39,21,71,066,36,22,16,170,*7A
$GPGSV,3,3,10,03,34,291,,06,49,292,,,,,,,,,*74
$GPGSA,M,3,18,29,30,21,,,,,,,,,7.0,4.8,5.1*33
Trace #49 at position 12.000000
$GPZDA,131433.03,06,10,2011,00,00*67
$GPRMC,131433.00,A,4611.955328,N,01258.214012,E,001.3,322.0,061011$GPGGA,131434.00,4611.955642,N,01258.213639,E,1,04,4.8,133.37,M,46.25,M,,*6D
$GPGLL,4611.955642,N,01258.213639,E,131434.00,A,A*60
$GPVTG,347.7,T,347.8,M,000.6,N,001.1,K,A*2A
$GPGSV,3,1,10,19,05,279,,16,55,298,32,31,06,208,,18,39,132,40*77
$GPGSV,3,2,10,29,22,092,39,30,25,161,39,21,71,066,36,22,16,170,*7A
$GPGSV,3,3,10,03,34,291,,06,49,292,,,,,,,,,*74
$GPGSA,M,3,18,29,30,21,,,,,,,,,7.0,4.8,5.1*33
Trace #50 at position 12.250000
$GPZDA,131434.03,06,10,2011,00,00*60
$GPRMC,131434.00,A,4611.955642,N,01258.213639,E,000.6,347.7,061011,0$GPGGA,131435.00,4611.955830,N,01258.213435,E,1,04,4.8,133.39,M,46.25,M,,*67
$GPGLL,4611.955830,N,01258.213435,E,131435.00,A,A*64
$GPVTG,341.8,T,341.9,M,000.1,N,000.2,K,A*21
$GPGSV,3,1,10,19,05,279,,16,55,298,32,31,06,208,,18,39,132,41*76
$GPGSV,3,2,10,29,22,092,37,30,25,161,39,21,71,066,34,22,16,170,*76
$GPGSV,3,3,10,03,34,291,,06,49,293,29,,,,,,,,*7E
$GPGSA,M,3,18,29,30,21,,,,,,,,,7.0,4.8,5.1*33
Trace #51 at position 12.500000
$GPZDA,131434.03,06,10,2011,00,00*60
$GPRMC,131434.00,A,4611.955642,N,01258.213639,E,000.6,347.7,061011,0$GPGGA,131435.00,4611.955830,N,01258.213435,E,1,04,4.8,133.39,M,46.25,M,,*67
$GPGLL,4611.955830,N,01258.213435,E,131435.00,A,A*64
$GPVTG,341.8,T,341.9,M,000.1,N,000.2,K,A*21
$GPGSV,3,1,10,19,05,279,,16,55,298,32,31,06,208,,18,39,132,41*76
$GPGSV,3,2,10,29,22,092,37,30,25,161,39,21,71,066,34,22,16,170,*76
$GPGSV,3,3,10,03,34,291,,06,49,293,29,,,,,,,,*7E
$GPGSA,M,3,18,29,30,21,,,,,,,,,7.0,4.8,5.1*33
Trace #52 at position 12.750000
$GPZDA,131435.03,06,10,2011,00,00*61
$GPRMC,131435.00,A,4611.955830,N,01258.213435,E,000.1,341.8,061011$GPGGA,131436.00,4611.956014,N,01258.213235,E,1,04,4.8,133.43,M,46.25,M,,*62
$GPGLL,4611.956014,N,01258.213235,E,131436.00,A,A*6C
$GPVTG,336.6,T,336.8,M,000.7,N,001.3,K,A*28
$GPGSV,3,1,10,19,05,279,,16,55,298,33,31,06,208,,18,39,132,41*77
$GPGSV,3,2,10,29,22,092,40,30,25,161,39,21,71,066,33,22,16,170,*71
$GPGSV,3,3,10,03,34,291,,06,49,293,32,,,,,,,,*74
$GPGSA,M,3,18,29,30,21,,,,,,,,,7.0,4.8,5.1*33
Trace #53 at position 13.000000
$GPZDA,131435.03,06,10,2011,00,00*61
$GPRMC,131435.00,A,4611.955830,N,01258.213435,E,000.1,341.8,061011$GPGGA,131436.00,4611.956014,N,01258.213235,E,1,04,4.8,133.43,M,46.25,M,,*62
$GPGLL,4611.956014,N,01258.213235,E,131436.00,A,A*6C
$GPVTG,336.6,T,336.8,M,000.7,N,001.3,K,A*28
$GPGSV,3,1,10,19,05,279,,16,55,298,33,31,06,208,,18,39,132,41*77
$GPGSV,3,2,10,29,22,092,40,30,25,161,39,21,71,066,33,22,16,170,*71
$GPGSV,3,3,10,03,34,291,,06,49,293,32,,,,,,,,*74
$GPGSA,M,3,18,29,30,21,,,,,,,,,7.0,4.8,5.1*33
Trace #54 at position 13.250000
$GPZDA,131436.03,06,10,2011,00,00*62
$GPRMC,131436.00,A,4611.956014,N,01258.213235,E,000.7,336.6,061011$GPGGA,131437.00,4611.956268,N,01258.212982,E,1,04,4.8,133.46,M,46.25,M,,*69
$GPGLL,4611.956268,N,01258.212982,E,131437.00,A,A*62
$GPVTG,329.3,T,329.5,M,000.9,N,001.6,K,A*2B
$GPGSV,3,1,10,19,05,279,,16,55,298,29,31,06,208,,18,39,132,41*7C
$GPGSV,3,2,10,29,22,092,40,30,25,161,39,21,71,066,32,22,16,170,*70
$GPGSV,3,3,10,03,34,291,,06,49,293,29,,,,,,,,*7E
$GPGSA,M,3,18,29,30,21,,,,,,,,,7.0,4.8,5.1*33
Trace #55 at position 13.500000
$GPZDA,131437.03,06,10,2011,00,00*63
$GPRMC,131437.00,A,4611.956268,N,01258.212982,E,000.9,329.3,0610111258.212830,E,1,04,4.8,133.48,M,46.25,M,,*6B
$GPGLL,4611.956546,N,01258.212830,E,131438.00,A,A*6E
$GPVTG,18.0,T,18.1,M,000.9,N,001.6,K,A*2C
$GPGSV,3,1,10,19,05,279,,16,55,298,31,31,06,208,,18,39,132,40*74
$GPGSV,3,2,10,29,22,092,38,30,25,161,39,21,71,066,,22,16,170,*7E
$GPGSV,3,3,10,03,34,291,,06,49,293,31,,,,,,,,*77
$GPGSA,M,3,18,29,30,21,,,,,,,,,7.0,4.8,5.1*33
Trace #56 at position 13.750000
$GPZDA,131438.04,06,10,2011,00,00*6B
$GPRMC,131438.00,A,4611.956546,N,01258.212830,E,000.9,18.0,061011,0.2,E,A*07
$GPGGA,,,,,,0,03,,,M,,M,0,29,22,092,39,30,25,161,40,21,71,066,,22,16,170,*71
$GPGSV,3,3,10,03,34,291,,06,49,293,,,,,,,,,*75
$GPGSA,M,1,,,,,,,,,,,,,7.0,4.8,5.1*33
Trace #57 at position 14.000000
$GPZDA,131438.04,06,10,2011,00,00*6B
$GPRMC,131438.00,A,4611.956546,N,01258.212830,E,000.9,18.0,061011,0.2,E,A*07
$GPGGA,,,,,,0,03,,,M,,M,0,29,22,092,39,30,25,161,40,21,71,066,,22,16,170,*71
$GPGSV,3,3,10,03,34,291,,06,49,293,,,,,,,,,*75
$GPGSA,M,1,,,,,,,,,,,,,7.0,4.8,5.1*33
Trace #58 at position 14.250000
$GPZDA,131439.02,06,10,2011,00,00*6C
$GPRMC,131438.00,V,,,,,,,,,,N*71
$GPGGA,,,,,,0,03,,,M,,M,,*65
$GPGLL,,,,,,V,N*64
$GPVTG,,T,,,,N,,K,N*61
$GPGSV,3,1,10,19,05,279,,16,55,298,30,31,06,208,,18,39,132,40*75
$GPGSV,3,2,10,29,22,092,38,30,25,161,40,21,71,066,32,22,16,170,*71
$GPGSV,3,3,10,03,34,291,,06,49,293,32,,,,,,,,*74
$GPGSA,M,1,,,,,,,,,,,,,7.0,4.8,5.1*33
Trace #59 at position 14.500000
$GPZDA,131440.02,06,10,2011,00,00*62
$GPRMC,131438.00,V,,,,,,,,,,N*71
$GPGGA,,,,,,0,03,,,M,,M,,*65
$GPGLL,,,,,,V,N*64
$GPVTG,,T,,,,N,,K,N*61
$GPGSV,3,1,10,19,05,279,,16,55,298,31,31,06,208,,18,39,132,41*75
$GPGSV,3,2,10,29,22,092,38,30,25,161,39,21,71,066,33,22,16,170,*7E
$GPGSV,3,3,10,03,34,291,,06,49,293,31,,,,,,,,*77
$GPGSA,M,1,,,,,,,,,,,,,7.0,4.8,5.1*33
Trace #60 at position 14.750000
$GPZDA,131441.02,06,10,2011,00,00*63
$GPRMC,131438.00,V,,,,,,,,,,N*71
$GPGGA,131442.00,4611.957168,N,01258.212886,E,1,04,4.7,134.17,M,46.25,M,,*60
$GPGLL,4611.957168,N,01258.212886,E,131442.00,A,A*67
$GPVTG,85.4,T,85.5,M,000.2,N,000.4,K,A*24
$GPGSV,3,1,10,19,05,279,,16,55,298,,31,06,208,,18,39,132,40*76
$GPGSV,3,2,10,29,22,092,38,30,25,161,37,21,71,066,33,22,16,170,*70
$GPGSV,3,3,10,03,34,291,31,06,49,293,31,,,,,,,,*75
$GPGSA,M,3,18,29,30,21,,,,,,,,,7.0,4.7,5.1*3C
Trace #61 at position 15.000000
$GPZDA,131441.02,06,10,2011,00,00*63
$GPRMC,131438.00,V,,,,,,,,,,N*71
$GPGGA,131442.00,4611.957168,N,01258.212886,E,1,04,4.7,134.17,M,46.25,M,,*60
$GPGLL,4611.957168,N,01258.212886,E,131442.00,A,A*67
$GPVTG,85.4,T,85.5,M,000.2,N,000.4,K,A*24
$GPGSV,3,1,10,19,05,279,,16,55,298,,31,06,208,,18,39,132,40*76
$GPGSV,3,2,10,29,22,092,38,30,25,161,37,21,71,066,33,22,16,170,*70
$GPGSV,3,3,10,03,34,291,31,06,49,293,31,,,,,,,,*75
$GPGSA,M,3,18,29,30,21,,,,,,,,,7.0,4.7,5.1*3C
Trace #62 at position 15.250000
$GPZDA,131442.03,06,10,2011,00,00*61
$GPRMC,131442.00,A,4611.957168,N,01258.212886,E,000.2,85.4,061011,0.2,E,A*05
$GPGGA,131443.00,4611.957448,N,01258.212525,E,1,04,4.7,134.19,M,46.25,M,,*6C
$GPGLL,4611.957448,N,01258.212525,E,131443.00,A,A*65
$GPVTG,326.3,T,326.5,M,001.2,N,002.1,K,A*25
$GPGSV,3,1,10,19,06,279,,16,55,298,32,31,06,208,,18,39,132,41*75
$GPGSV,3,2,10,29,22,092,37,30,25,161,38,21,71,066,34,22,16,170,*77
$GPGSV,3,3,10,03,34,291,,06,49,293,,,,,,,,,*75
$GPGSA,M,3,18,29,30,21,,,,,,,,,7.0,4.7,5.1*3C
Trace #63 at position 15.500000
$GPZDA,131442.03,06,10,2011,00,00*61
$GPRMC,131442.00,A,4611.957168,N,01258.212886,E,000.2,85.4,061011,0.2,E,A*05
$GPGGA,131443.00,4611.957448,N,01258.212525,E,1,04,4.7,134.19,M,46.25,M,,*6C
$GPGLL,4611.957448,N,01258.212525,E,131443.00,A,A*65
$GPVTG,326.3,T,326.5,M,001.2,N,002.1,K,A*25
$GPGSV,3,1,10,19,06,279,,16,55,298,32,31,06,208,,18,39,132,41*75
$GPGSV,3,2,10,29,22,092,37,30,25,161,38,21,71,066,34,22,16,170,*77
$GPGSV,3,3,10,03,34,291,,06,49,293,,,,,,,,,*75
$GPGSA,M,3,18,29,30,21,,,,,,,,,7.0,4.7,5.1*3C
Trace #64 at position 15.750000
$GPZDA,131443.04,06,10,2011,00,00*67
$GPRMC,131443.00,A,4611.957448,N,01258.212525,E,001.2,326.3,061011,0.2,E,A*3B
$GPGGA,131444.00,4611.957664,N,01258.212333,E,1,04,2.1,134.06,M,46.25,M,,*68
$GPGLL,4611.957664,N,01258.212333,E,131444.00,A,A*6F
$GPVTG,327.8,T,328.0,M,000.8,N,001.5,K,A*28
$GPGSV,3,1,10,19,06,279,,16,55,298,33,31,06,208,,18,39,132,41*74
$GPGSV,3,2,10,29,22,092,36,30,25,161,37,21,71,066,34,22,16,170,*79
$GPGSV,3,3,10,03,34,291,,06,49,293,29,,,,,,,,*7E
$GPGSA,M,3,16,18,29,30,,,,,,,,,5.7,2.1,5.3*3F
Trace #65 at position 16.000000
$GPZDA,131443.04,06,10,2011,00,00*67
$GPRMC,131443.00,A,4611.957448,N,01258.212525,E,001.2,326.3,061011,0.2,E,A*3B
$GPGGA,131444.00,4611.957664,N,01258.212333,E,1,04,2.1,134.06,M,46.25,M,,*68
$GPGLL,4611.957664,N,01258.212333,E,131444.00,A,A*6F
$GPVTG,327.8,T,328.0,M,000.8,N,001.5,K,A*28
$GPGSV,3,1,10,19,06,279,,16,55,298,33,31,06,208,,18,39,132,41*74
$GPGSV,3,2,10,29,22,092,36,30,25,161,37,21,71,066,34,22,16,170,*79
$GPGSV,3,3,10,03,34,291,,06,49,293,29,,,,,,,,*7E
$GPGSA,M,3,16,18,29,30,,,,,,,,,5.7,2.1,5.3*3F
Trace #66 at position 16.250000
$GPZDA,131443.04,06,10,2011,00,00*67
$GPRMC,131443.00,A,4611.957448,N,01258.212525,E,001.2,326.3,061011,0.2,E,A*3B
$GPGGA,131444.00,4611.957664,N,01258.212333,E,1,04,2.1,134.06,M,46.25,M,,*68
$GPGLL,4611.957664,N,01258.212333,E,131444.00,A,A*6F
$GPVTG,327.8,T,328.0,M,000.8,N,001.5,K,A*28
$GPGSV,3,1,10,19,06,279,,16,55,298,33,31,06,208,,18,39,132,41*74
$GPGSV,3,2,10,29,22,092,36,30,25,161,37,21,71,066,34,22,16,170,*79
$GPGSV,3,3,10,03,34,291,,06,49,293,29,,,,,,,,*7E
$GPGSA,M,3,16,18,29,30,,,,,,,,,5.7,2.1,5.3*3F
Trace #67 at position 16.500000
$GPZDA,131444.03,06,10,2011,00,00*67
$GPRMC,131444.00,A,4611.957664,N,01258.212333,E,000.8,327.8,061011,0.2,E,A*30
$GPGGA,131445.00,4611.958051,N,01258.212084,E,1,04,4.7,134.02,M,46.25,M,,*6D
$GPGLL,4611.958051,N,01258.212084,E,131445.00,A,A*6E
$GPVTG,10.0,T,10.2,M,001.4,N,002.6,K,A*20
$GPGSV,3,1,10,19,06,279,,16,55,298,32,31,06,208,,18,39,132,40*74
$GPGSV,3,2,10,29,22,092,36,30,25,161,36,21,71,066,35,22,16,170,*79
$GPGSV,3,3,10,03,34,291,32,06,49,293,33,,,,,,,,*74
$GPGSA,M,3,18,29,30,21,,,,,,,,,7.0,4.7,5.1*3C
Trace #68 at position 16.750000
$GPZDA,131445.03,06,10,2011,00,00*66
$GPRMC,131445.00,A,4611.958051,N,01258.212084,E,001.4,10.0,061011,0.2,E,A*03
$GPGGA,131446.00,4611.958300,N,01258.212308,E,1,05,1.8,134.57,M,46.25,M,,*65
$GPGLL,4611.958300,N,01258.212308,E,131446.00,A,A*6D
$GPVTG,14.1,T,14.3,M,000.8,N,001.4,K,A*2C
$GPGSV,3,1,10,19,06,279,,16,55,298,32,31,06,208,,18,39,132,41*75
$GPGSV,3,2,10,29,22,092,36,30,25,161,37,21,71,066,34,22,16,170,*79
$GPGSV,3,3,10,03,34,291,30,06,49,293,29,,,,,,,,*7D
$GPGSA,M,3,16,18,29,30,21,,,,,,,,3.5,1.8,3.0*37
Trace #69 at position 17.000000
$GPZDA,131445.03,06,10,2011,00,00*66
$GPRMC,131445.00,A,4611.958051,N,01258.212084,E,001.4,10.0,061011,0.2,E,A*03
$GPGGA,131446.00,4611.958300,N,01258.212308,E,1,05,1.8,134.57,M,46.25,M,,*65
$GPGLL,4611.958300,N,01258.212308,E,131446.00,A,A*6D
$GPVTG,14.1,T,14.3,M,000.8,N,001.4,K,A*2C
$GPGSV,3,1,10,19,06,279,,16,55,298,32,31,06,208,,18,39,132,41*75
$GPGSV,3,2,10,29,22,092,36,30,25,161,37,21,71,066,34,22,16,170,*79
$GPGSV,3,3,10,03,34,291,30,06,49,293,29,,,,,,,,*7D
$GPGSA,M,3,16,18,29,30,21,,,,,,,,3.5,1.8,3.0*37
Trace #70 at position 17.250000
$GPZDA,131446.04,06,10,2011,00,00*62
$GPRMC,131446.00,A,4611.958300,N,01258.212308,E,000.8,14.1,061011,0.2,E,A*08
$GPGGA,131447.00,4611.958454,N,01258.212395,E,1,06,1.5,135.08,M,46.25,M,,*63
$GPGLL,4611.958454,N,01258.212395,E,131447.00,A,A*6E
$GPVTG,336.0,T,336.1,M,000.6,N,001.2,K,A*27
$GPGSV,3,1,10,19,06,279,,16,55,298,34,31,06,208,,18,39,132,41*73
$GPGSV,3,2,10,29,22,092,38,30,25,161,39,21,71,066,34,22,16,170,*79
$GPGSV,3,3,10,03,34,291,31,06,49,293,27,,,,,,,,*72
$GPGSA,M,3,16,18,29,30,21,03,,,,,,,2.7,1.5,2.3*38
Trace #71 at position 17.500000
$GPZDA,131446.04,06,10,2011,00,00*62
$GPRMC,131446.00,A,4611.958300,N,01258.212308,E,000.8,14.1,061011,0.2,E,A*08
$GPGGA,131447.00,4611.958454,N,01258.212395,E,1,06,1.5,135.08,M,46.25,M,,*63
$GPGLL,4611.958454,N,01258.212395,E,131447.00,A,A*6E
$GPVTG,336.0,T,336.1,M,000.6,N,001.2,K,A*27
$GPGSV,3,1,10,19,06,279,,16,55,298,34,31,06,208,,18,39,132,41*73
$GPGSV,3,2,10,29,22,092,38,30,25,161,39,21,71,066,34,22,16,170,*79
$GPGSV,3,3,10,03,34,291,31,06,49,293,27,,,,,,,,*72
$GPGSA,M,3,16,18,29,30,21,03,,,,,,,2.7,1.5,2.3*38
Trace #72 at position 17.750000
$GPZDA,131446.04,06,10,2011,00,00*62
$GPRMC,131446.00,A,4611.958300,N,01258.212308,E,000.8,14.1,061011,0.2,E,A*08
$GPGGA,131447.00,4611.958454,N,01258.212395,E,1,06,1.5,135.08,M,46.25,M,,*63
$GPGLL,4611.958454,N,01258.212395,E,131447.00,A,A*6E
$GPVTG,336.0,T,336.1,M,000.6,N,001.2,K,A*27
$GPGSV,3,1,10,19,06,279,,16,55,298,34,31,06,208,,18,39,132,41*73
$GPGSV,3,2,10,29,22,092,38,30,25,161,39,21,71,066,34,22,16,170,*79
$GPGSV,3,3,10,03,34,291,31,06,49,293,27,,,,,,,,*72
$GPGSA,M,3,16,18,29,30,21,03,,,,,,,2.7,1.5,2.3*38
Trace #73 at position 18.000000
$GPZDA,131447.04,06,10,2011,00,00*63
$GPRMC,131447.00,A,4611.958454,N,01258.212395,E,000.6,336.0,061011,0.2,E,$GPGGA,131448.00,4611.958682,N,01258.212376,E,1,05,1.8,135.41,M,46.25,M,,*6B
$GPGLL,4611.958682,N,01258.212376,E,131448.00,A,A*65
$GPVTG,348.6,T,348.8,M,001.4,N,002.5,K,A*2F
$GPGSV,3,1,10,19,06,279,,16,55,298,31,31,06,208,,18,39,132,41*76
$GPGSV,3,2,10,29,22,092,38,30,25,161,39,21,71,066,33,22,16,170,*7E
$GPGSV,3,3,10,03,34,291,31,06,49,293,29,,,,,,,,*7C
$GPGSA,M,3,16,18,29,30,21,,,,,,,,3.5,1.8,3.0*37
Trace #74 at position 18.250000
$GPZDA,131448.04,06,10,2011,00,00*6C
$GPRMC,131448.00,A,4611.958682,N,01258.212376,E,001.4,348.6,0646.25,M,,*68
$GPGLL,4611.958994,N,01258.212412,E,131449.00,A,A*69
$GPVTG,8.3,T,8.4,M,001.2,N,002.3,K,A*26
$GPGSV,3,1,10,19,06,279,,16,55,298,31,31,06,208,,18,39,132,41*76
$GPGSV,3,2,10,29,22,092,38,30,25,161,39,21,71,066,34,22,16,170,*79
$GPGSV,3,3,10,03,34,291,32,06,49,293,30,,,,,,,,*77
$GPGSA,M,3,16,18,29,30,21,03,,,,,,,2.7,1.5,2.3*38
Trace #75 at position 18.500000
$GPZDA,131448.04,06,10,2011,00,00*6C
$GPRMC,131448.00,A,4611.958682,N,01258.212376,E,001.4,348.6,0646.25,M,,*68
$GPGLL,4611.958994,N,01258.212412,E,131449.00,A,A*69
$GPVTG,8.3,T,8.4,M,001.2,N,002.3,K,A*26
$GPGSV,3,1,10,19,06,279,,16,55,298,31,31,06,208,,18,39,132,41*76
$GPGSV,3,2,10,29,22,092,38,30,25,161,39,21,71,066,34,22,16,170,*79
$GPGSV,3,3,10,03,34,291,32,06,49,293,30,,,,,,,,*77
$GPGSA,M,3,16,18,29,30,21,03,,,,,,,2.7,1.5,2.3*38
Trace #76 at position 18.750000
$GPZDA,131449.04,06,10,2011,00,00*6D
$GPRMC,131449.00,A,4611.958994,N,01258.212412,E,001.2,8.3,061011,0.2,E,A*38
$GPGGA,131450.00,4611.959224,N,01258.212427,E,1,05,6,279,,16,55,298,31,31,06,208,,18,39,132,41*76
$GPGSV,3,2,10,29,22,092,38,30,25,161,38,21,71,066,34,22,16,170,*78
$GPGSV,3,3,10,03,34,291,30,06,49,293,,,,,,,,,*76
$GPGSA,M,3,16,18,29,30,21,,,,,,,,3.5,1.8,3.0*37
Trace #77 at position 19.000000
$GPZDA,131450.04,06,10,2011,00,00*65
$GPRMC,131450.00,A,4611.959224,N,01258.212427,E,000.9,332.6,061011,0.2,E,A*32
$GPGGA,131451.00,4611.959271,N,01258.212309,E,1,05,1.8,136.62,M,46.25,M,,*60
$GPGLL,4611.959271,N,01258.212309,E,131451.00,A,A*6C
$GPVTG,243.7,T,243.8,M,000.5,N,001.0,K,A*28
$GP,34,22,16,170,*79
$GPGSV,3,3,10,03,34,291,31,06,49,293,30,,,,,,,,*74
$GPGSA,M,3,16,18,29,30,21,,,,,,,,3.5,1.8,3.0*37
Trace #78 at position 19.250000
$GPZDA,131450.04,06,10,2011,00,00*65
$GPRMC,131450.00,A,4611.959224,N,01258.212427,E,000.9,332.6,061011,0.2,E,A*32
$GPGGA,131451.00,4611.959271,N,01258.212309,E,1,05,1.8,136.62,M,46.25,M,,*60
$GPGLL,4611.959271,N,01258.212309,E,131451.00,A,A*6C
$GPVTG,243.7,T,243.8,M,000.5,N,001.0,K,A*28
$GP,34,22,16,170,*79
$GPGSV,3,3,10,03,34,291,31,06,49,293,30,,,,,,,,*74
$GPGSA,M,3,16,18,29,30,21,,,,,,,,3.5,1.8,3.0*37
Trace #79 at position 19.500000
$GPZDA,131450.04,06,10,2011,00,00*65
$GPRMC,131450.00,A,4611.959224,N,01258.212427,E,000.9,332.6,061011,0.2,E,A*32
$GPGGA,131451.00,4611.959271,N,01258.212309,E,1,05,1.8,136.62,M,46.25,M,,*60
$GPGLL,4611.959271,N,01258.212309,E,131451.00,A,A*6C
$GPVTG,243.7,T,243.8,M,000.5,N,001.0,K,A*28
$GP,34,22,16,170,*79
$GPGSV,3,3,10,03,34,291,31,06,49,293,30,,,,,,,,*74
$GPGSA,M,3,16,18,29,30,21,,,,,,,,3.5,1.8,3.0*37
Trace #80 at position 19.750000
$GPZDA,131450.04,06,10,2011,00,00*65
$GPRMC,131450.00,A,4611.959224,N,01258.212427,E,000.9,332.6,061011,0.2,E,A*32
$GPGGA,131451.00,4611.959271,N,01258.212309,E,1,05,1.8,136.62,M,46.25,M,,*60
$GPGLL,4611.959271,N,01258.212309,E,131451.00,A,A*6C
$GPVTG,243.7,T,243.8,M,000.5,N,001.0,K,A*28
$GP,34,22,16,170,*79
$GPGSV,3,3,10,03,34,291,31,06,49,293,30,,,,,,,,*74
$GPGSA,M,3,16,18,29,30,21,,,,,,,,3.5,1.8,3.0*37
Trace #81 at position 20.000000
$GPZDA,131451.03,06,10,2011,00,00*63
$GPRMC,131451.00,A,4611.959271,N,01258.212309,E,000.5,243.7,061011,0.2,E,A*32
$GPGGA,131452.00,4611.959379,N,01258.212099,E,1,05,1.8,136.81,M,46.25,M,,*6D
$GPGLL,4611.959379,N,01258.212099,E,131452.00,A,A*6C
$GPVTG,319.2,T,319.3,M,001.5,N,002.7,K,A*23
$GPGSV,3,1,10,19,06,279,,16,55,298,32,31,06,208,,18,39,132,40*74
$GPGSV,3,2,10,29,22,092,37,30,251,,,,,,,,3.5,1.8,3.0*37
$GPZDA,131452.04,06,10,2011,00,00*67
$GPRMC,131452.00,A,4611.959379,N,01258.212099,E,001.5,319.2,061011,0.2,E,A*38
$GPGGA,131453.00,4611.959768,N,01258.211617,E,1,04,4.7,136.30,M,46.25,M,,*6A
$GPGLL,4611.959768,N,01258.211617,E,131453.00,A,A*6A
$GPVTG,349.6,T,349.8,M,000.9,N,001.7,K,A*22
$GPGSV,3,1,10,19,06,279,,16,55,298,,31,06,208,,18,39,132,41*74
$GPGSV,3,2,10,29,22,092,36,30,25,161,38,21,71,066,35,22,16,170,*77
$GPGSV,3,3,10,03,34,291,31,06,49,293,29,,,,,,,,*7C
$GPGSA,M,MC,131453.00,A,4611.959768,N,01258.211617,E,000.9,349.6,061011,0.2,E,A*32
Trace #82 at position 20.250000
$GPZDA,131451.03,06,10,2011,00,00*63
$GPRMC,131451.00,A,4611.959271,N,01258.212309,E,000.5,243.7,061011,0.2,E,A*32
$GPGGA,131452.00,4611.959379,N,01258.212099,E,1,05,1.8,136.81,M,46.25,M,,*6D
$GPGLL,4611.959379,N,01258.212099,E,131452.00,A,A*6C
$GPVTG,319.2,T,319.3,M,001.5,N,002.7,K,A*23
$GPGSV,3,1,10,19,06,279,,16,55,298,32,31,06,208,,18,39,132,40*74
$GPGSV,3,2,10,29,22,092,37,30,251,,,,,,,,3.5,1.8,3.0*37
$GPZDA,131452.04,06,10,2011,00,00*67
$GPRMC,131452.00,A,4611.959379,N,01258.212099,E,001.5,319.2,061011,0.2,E,A*38
$GPGGA,131453.00,4611.959768,N,01258.211617,E,1,04,4.7,136.30,M,46.25,M,,*6A
$GPGLL,4611.959768,N,01258.211617,E,131453.00,A,A*6A
$GPVTG,349.6,T,349.8,M,000.9,N,001.7,K,A*22
$GPGSV,3,1,10,19,06,279,,16,55,298,,31,06,208,,18,39,132,41*74
$GPGSV,3,2,10,29,22,092,36,30,25,161,38,21,71,066,35,22,16,170,*77
$GPGSV,3,3,10,03,34,291,31,06,49,293,29,,,,,,,,*7C
$GPGSA,M,MC,131453.00,A,4611.959768,N,01258.211617,E,000.9,349.6,061011,0.2,E,A*32
Trace #83 at position 20.500000
$GPGGA,131454.00,4611.960113,N,01258.211191,E,1,04,4.7,136.04,M,46.25,M,,*63
$GPGLL,4611.960113,N,01258.211191,E,131454.00,A,A*64
$GPVTG,315.0,T,315.1,M,001.3,N,002.4,K,A*26
$GPGSV,3,1,10,19,06,279,,16,55,298,,31,06,208,,18,39,132,41*74
$GPGSV,3,2,10,29,22,092,36,30,25,161,37,21,71,066,35,22,16,170,*78
$GPGSV,3,3,10,03,34,291,32,06,49,293,29,,,,,,,,*7F
$GPGSA,M,3,18,29,30,21,,,,,,,,,7.0,4.7,5.1*3C
Trace #84 at position 20.750000
$GPZDA,131454.03,06,10,2011,0$GPGGA,131455.00,4611.960378,N,01258.210971,E,1,05,1.5,136.01,M,46.25,M,,*69
$GPGLL,4611.960378,N,01258.210971,E,131455.00,A,A*6D
$GPVTG,323.4,T,323.5,M,001.5,N,002.8,K,A*2C
$GPGSV,3,1,10,19,06,279,,16,55,297,32,31,06,208,,18,39,132,41*7A
$GPGSV,3,2,10,29,22,092,37,30,25,161,38,21,71,066,33,22,16,170,*70
$GPGSV,3,3,10,03,34,291,33,06,49,293,29,,,,,,,,*7E
$GPGSA,M,3,18,29,30,21,03,,,,,,,,2.8,1.5,2.4*37
Trace #85 at position 21.000000
$GPZDA,131454.03,06,10,2011,0$GPGGA,131455.00,4611.960378,N,01258.210971,E,1,05,1.5,136.01,M,46.25,M,,*69
$GPGLL,4611.960378,N,01258.210971,E,131455.00,A,A*6D
$GPVTG,323.4,T,323.5,M,001.5,N,002.8,K,A*2C
$GPGSV,3,1,10,19,06,279,,16,55,297,32,31,06,208,,18,39,132,41*7A
$GPGSV,3,2,10,29,22,092,37,30,25,161,38,21,71,066,33,22,16,170,*70
$GPGSV,3,3,10,03,34,291,33,06,49,293,29,,,,,,,,*7E
$GPGSA,M,3,18,29,30,21,03,,,,,,,,2.8,1.5,2.4*37
Trace #86 at position 21.250000
$GPZDA,131455.04,06,10,2011,00,00*60
$GPRMC,131455.00,A,4611.960378,N,01258.210971,E,001.5,323.4,06$GPGGA,131456.00,4611.960689,N,01258.210948,E,1,06,1.5,135.79,M,46.25,M,,*64
$GPGLL,4611.960689,N,01258.210948,E,131456.00,A,A*6F
$GPVTG,353.1,T,353.3,M,001.4,N,002.5,K,A*23
$GPGSV,3,1,10,19,06,279,,16,55,297,30,31,06,208,,18,39,132,40*79
$GPGSV,3,2,10,29,22,092,36,30,25,161,40,21,71,066,33,22,16,170,*7E
$GPGSV,3,3,10,03,34,291,31,06,49,293,30,,,,,,,,*74
$GPGSA,M,3,16,18,29,30,21,03,,,,,,,2.7,1.5,2.3*38
Trace #87 at position 21.500000
$GPZDA,131455.04,06,10,2011,00,00*60
$GPRMC,131455.00,A,4611.960378,N,01258.210971,E,001.5,323.4,06$GPGGA,131456.00,4611.960689,N,01258.210948,E,1,06,1.5,135.79,M,46.25,M,,*64
$GPGLL,4611.960689,N,01258.210948,E,131456.00,A,A*6F
$GPVTG,353.1,T,353.3,M,001.4,N,002.5,K,A*23
$GPGSV,3,1,10,19,06,279,,16,55,297,30,31,06,208,,18,39,132,40*79
$GPGSV,3,2,10,29,22,092,36,30,25,161,40,21,71,066,33,22,16,170,*7E
$GPGSV,3,3,10,03,34,291,31,06,49,293,30,,,,,,,,*74
$GPGSA,M,3,16,18,29,30,21,03,,,,,,,2.7,1.5,2.3*38
Trace #88 at position 21.750000
$GPZDA,131456.04,06,10,2011,00,00*63
$GPRMC,131456.00,A,4611.960689,N,01258.210948,E,001.4,353.1,$GPGGA,131457.00,4611.961001,N,01258.210929,E,1,06,1.5,135.36,M,46.25,M,,*6E
$GPGLL,4611.961001,N,01258.210929,E,131457.00,A,A*6E
$GPVTG,328.6,T,328.8,M,001.5,N,002.8,K,A*23
$GPGSV,3,1,10,19,06,279,,16,55,297,32,31,05,208,,18,39,132,41*79
$GPGSV,3,2,10,29,22,092,37,30,25,161,38,21,71,066,33,22,16,170,*70
$GPGSV,3,3,10,03,34,291,,06,49,293,31,,,,,,,,*77
$GPGSA,M,3,16,18,29,30,21,03,,,,,,,2.7,1.5,2.3*38
Trace #89 at position 22.000000
$GPZDA,131457.03,06,10,2011,00,00*65
$GPRMC,131457.00,A,4611.961001,N,01258.210929,E,001.5,328.6,06$GPGGA,131458.00,4611.961207,N,01258.210883,E,1,05,1.8,135.45,M,46.25,M,,*6E
$GPGLL,4611.961207,N,01258.210883,E,131458.00,A,A*64
$GPVTG,330.6,T,330.7,M,000.9,N,001.8,K,A*22
$GPGSV,3,1,10,19,06,279,,16,55,297,33,31,05,208,,18,39,132,40*79
$GPGSV,3,2,10,29,22,092,37,30,25,161,38,21,71,066,32,22,16,170,*71
$GPGSV,3,3,10,03,34,291,33,06,49,293,29,,,,,,,,*7E
$GPGSA,M,3,16,18,29,30,21,,,,,,,,3.5,1.8,3.0*37
Trace #90 at position 22.250000
$GPZDA,131458.04,06,10,2011,00,00*6D
$GPRMC,131458.00,A,4611.961207,N,01258.210883,E,000.9,330.6,06$GPGGA,131459.00,4611.961389,N,01258.210873,E,1,06,1.5,135.52,M,46.25,M,,*6F
$GPGLL,4611.961389,N,01258.210873,E,131459.00,A,A*6D
$GPVTG,347.9,T,348.1,M,000.8,N,001.5,K,A*28
$GPGSV,3,1,10,19,06,279,,16,55,297,31,31,05,208,,18,39,132,40*7B
$GPGSV,3,2,10,29,22,092,38,30,25,161,38,21,71,066,32,22,16,170,*7E
$GPGSV,3,3,10,03,34,291,30,06,49,293,30,,,,,,,,*75
$GPGSA,M,3,16,18,29,30,21,03,,,,,,,2.7,1.5,2.3*38
Trace #91 at position 22.500000
$GPZDA,131459.04,06,10,2011,00,00*6C
$GPRMC,131459.00,A,4611.961389,N,01258.210873,E,000.8,347.9,$GPGGA,131500.00,4611.961715,N,01258.210517,E,1,04,4.7,135.29,M,46.25,M,,*65
$GPGLL,4611.961715,N,01258.210517,E,131500.00,A,A*6E
$GPVTG,329.5,T,329.7,M,001.5,N,002.7,K,A*20
$GPGSV,3,1,10,19,06,279,,16,55,297,32,31,05,208,,18,39,132,40*78
$GPGSV,3,2,10,29,22,092,37,30,25,161,38,21,71,066,33,22,16,170,*70
$GPGSV,3,3,10,03,34,291,32,06,49,293,30,,,,,,,,*77
$GPGSA,M,3,18,29,30,21,,,,,,,,,6.9,4.7,5.1*34
Trace #92 at position 22.750000
$GPZDA,131459.04,06,10,2011,00,00*6C
$GPRMC,131459.00,A,4611.961389,N,01258.210873,E,000.8,347.9,$GPGGA,131500.00,4611.961715,N,01258.210517,E,1,04,4.7,135.29,M,46.25,M,,*65
$GPGLL,4611.961715,N,01258.210517,E,131500.00,A,A*6E
$GPVTG,329.5,T,329.7,M,001.5,N,002.7,K,A*20
$GPGSV,3,1,10,19,06,279,,16,55,297,32,31,05,208,,18,39,132,40*78
$GPGSV,3,2,10,29,22,092,37,30,25,161,38,21,71,066,33,22,16,170,*70
$GPGSV,3,3,10,03,34,291,32,06,49,293,30,,,,,,,,*77
$GPGSA,M,3,18,29,30,21,,,,,,,,,6.9,4.7,5.1*34
Trace #93 at position 23.000000
$GPZDA,131500.03,06,10,2011,00,00*66
$GPRMC,131500.00,A,4611.961715,N,01258.210517,E,001.5,329.5,0610$GPGGA,131501.00,4611.961898,N,01258.210546,E,1,05,1.8,135.69,M,46.25,M,,*65
$GPGLL,4611.961898,N,01258.210546,E,131501.00,A,A*61
$GPVTG,0.7,T,0.9,M,000.6,N,001.2,K,A*28
$GPGSV,3,1,10,19,06,279,,16,55,297,32,31,05,208,,18,39,132,40*78
$GPGSV,3,2,10,29,22,092,36,30,25,161,38,21,71,066,33,22,16,170,*71
$GPGSV,3,3,10,03,34,291,32,06,49,293,29,,,,,,,,*7F
$GPGSA,M,3,16,18,29,30,21,,,,,,,,3.5,1.8,3.0*37
Trace #94 at position 23.250000
$GPZDA,131501.04,06,10,2011,00,00*60
$GPRMC,131501.00,A,4611.961898,N,01258.210546,E,000.6,0.7,061011,046.25,M,,*68
$GPGLL,4611.962031,N,01258.210567,E,131502.00,A,A*69
$GPVTG,321.4,T,321.5,M,001.1,N,002.1,K,A*21
$GPGSV,3,1,10,19,06,279,,16,55,297,31,31,05,208,,18,39,132,41*7A
$GPGSV,3,2,10,29,22,092,37,30,25,161,37,21,71,066,34,22,16,170,*78
$GPGSV,3,3,10,03,34,291,28,06,49,293,30,,,,,,,,*7C
$GPGSA,M,3,16,18,29,30,21,,,,,,,,3.5,1.8,3.0*37
Trace #95 at position 23.500000
$GPZDA,131501.04,06,10,2011,00,00*60
$GPRMC,131501.00,A,4611.961898,N,01258.210546,E,000.6,0.7,061011,046.25,M,,*68
$GPGLL,4611.962031,N,01258.210567,E,131502.00,A,A*69
$GPVTG,321.4,T,321.5,M,001.1,N,002.1,K,A*21
$GPGSV,3,1,10,19,06,279,,16,55,297,31,31,05,208,,18,39,132,41*7A
$GPGSV,3,2,10,29,22,092,37,30,25,161,37,21,71,066,34,22,16,170,*78
$GPGSV,3,3,10,03,34,291,28,06,49,293,30,,,,,,,,*7C
$GPGSA,M,3,16,18,29,30,21,,,,,,,,3.5,1.8,3.0*37
Trace #96 at position 23.750000
$GPZDA,131502.03,06,10,2011,00,00*64
$GPRMC,131502.00,A,4611.962031,N,01258.210567,E,001.1,321.4,061011,0.2,E,A*34
$GPGGA,131503.00,4611.962153,N,01258.210503,E,1
$GPGSV,3,1,10,19,06,279,,16,55,297,31,31,05,208,,18,39,132,41*7A
$GPGSV,3,2,10,29,22,092,38,30,25,161,37,21,71,066,33,22,16,170,*70
$GPGSV,3,3,10,03,34,291,29,06,49,293,29,,,,,,,,*75
$GPGSA,M,3,16,18,29,30,21,,,,,,,,3.5,1.8,3.0*37
Trace #97 at position 24.000000
$GPZDA,131503.04,06,10,2011,00,00*62
$GPRMC,131503.00,A,4611.962153,N,01258.210503,E,000.6,324.7,061011,0.2,E,A*32
$GPGGA,131504.00,4611.962191,N,01258.210634,E,1,05,1.8,136.73,M,46.25,M,,*6D
$GPGLL,4611.962191,N,01258.210634,E,131504.00,A,A*61
$GPVTG,60.1,T,60.2,M,000.406,49,293,28,,,,,,,,*75
$GPGSA,M,3,16,18,29,30,21,,,,,,,,3.5,1.8,3.0*37
Trace #98 at position 24.250000
$GPZDA,131503.04,06,10,2011,00,00*62
$GPRMC,131503.00,A,4611.962153,N,01258.210503,E,000.6,324.7,061011,0.2,E,A*32
$GPGGA,131504.00,4611.962191,N,01258.210634,E,1,05,1.8,136.73,M,46.25,M,,*6D
$GPGLL,4611.962191,N,01258.210634,E,131504.00,A,A*61
$GPVTG,60.1,T,60.2,M,000.406,49,293,28,,,,,,,,*75
$GPGSA,M,3,16,18,29,30,21,,,,,,,,3.5,1.8,3.0*37
Trace #99 at position 24.500000
$GPZDA,131503.04,06,10,2011,00,00*62
$GPRMC,131503.00,A,4611.962153,N,01258.210503,E,000.6,324.7,061011,0.2,E,A*32
$GPGGA,131504.00,4611.962191,N,01258.210634,E,1,05,1.8,136.73,M,46.25,M,,*6D
$GPGLL,4611.962191,N,01258.210634,E,131504.00,A,A*61
$GPVTG,60.1,T,60.2,M,000.406,49,293,28,,,,,,,,*75
$GPGSA,M,3,16,18,29,30,21,,,,,,,,3.5,1.8,3.0*37
Trace #100 at position 24.750000
$GPZDA,131503.04,06,10,2011,00,00*62
$GPRMC,131503.00,A,4611.962153,N,01258.210503,E,000.6,324.7,061011,0.2,E,A*32
$GPGGA,131504.00,4611.962191,N,01258.210634,E,1,05,1.8,136.73,M,46.25,M,,*6D
$GPGLL,4611.962191,N,01258.210634,E,131504.00,A,A*61
$GPVTG,60.1,T,60.2,M,000.406,49,293,28,,,,,,,,*75
$GPGSA,M,3,16,18,29,30,21,,,,,,,,3.5,1.8,3.0*37
Trace #101 at position 25.000000
$GPZDA,131504.03,06,10,2011,00,00*62
$GPRMC,131504.00,A,4611.962191,N,01258.210634,E,000.4,60.1,061011,0.2,E,A*0B
$GPGGA,131505.00,4611.962257,N,01258.210871,E,1,05,1.8,137.11,M,46.25,M,,*6F
$GPGLL,4611.962257,N,01258.210871,E,131505.00,A,A*66
$GPVTG,22.9,T,23.0,M,000.7,N,001.3,K,A*2E
$GPGSV,3,1,10,19,06,279,,16,55,297,30,31,05,208,,18,39,132,39*74
$GPGSV,3,2,10,29,22,092,37,30,25,161,39,21,71,066,33,22,16,170,*71
$GPGSV,3,3,10,,,,,,,,3.5,1.8,3.0*37
$GPZDA,131505.04,06,10,2011,00,00*64
$GPRMC,131505.00,A,4611.962257,N,01258.210871,E,000.7,22.9,061011,0.2,E,A*01
$GPGGA,131506.00,4611.962344,N,01258.210957,E,1,05,1.8,137.37,M,46.25,M,,*6E
$GPGLL,4611.962344,N,01258.210957,E,131506.00,A,A*63
$GPVTG,319.0,T,319.2,M,000.5,N,000.8,K,A*2C
$GPGSV,3,1,10,19,06,279,,16,55,297,,31,05,208,,18,39,132,41*78
$GPGSV,3,2,10,29,22,092,38,30,25,161,39,21,71,066,34,22,16,170,*79
$GPGSV,3,3,10,03,34,291,,06,49,293,29,,,,,,,,*7E
$GPGSA,M,3,16,131506.00,A,4611.962344,N,01258.210957,E,000.5,319.0,061011,0.2,E,A*34
Trace #102 at position 25.250000
$GPGGA,131507.00,4611.962441,N,01258.211013,E,1,05,1.8,137.66,M,46.25,M,,*61
$GPGLL,4611.962441,N,01258.211013,E,131507.00,A,A*68
$GPVTG,14.6,T,14.7,M,000.7,N,001.3,K,A*27
$GPGSV,3,1,10,19,06,279,,16,55,297,32,31,05,208,,18,39,132,40*78
$GPGSV,3,2,10,29,22,092,37,30,25,161,39,21,71,066,34,22,16,170,*76
$GPGSV,3,3,10,03,34,291,32,06,49,293,31,,,,,,,,*76
$GPGSA,M,3,16,18,29,30,21,,,,,,,,3.5,1.8,3.0*37
Trace #103 at position 25.500000
$GPZDA,131510.04,06,10,2011,00,00*60
$GPRMC,131510.00,A,4611.963121,N,01258.210582,E,000.9,355.7,$GPGGA,131511.00,4611.963289,N,01258.210541,E,1,06,1.5,137.86,M,46.25,M,,*66
$GPGLL,4611.963289,N,01258.210541,E,131511.00,A,A*6F
$GPVTG,322.7,T,322.8,M,000.4,N,000.7,K,A*2F
$GPGSV,3,1,10,19,06,279,,16,55,297,33,31,05,208,,18,39,132,41*78
$GPGSV,3,2,10,29,21,092,38,30,25,161,39,21,71,066,35,22,16,170,*7B
$GPGSV,3,3,10,03,34,291,30,06,49,293,30,,,,,,,,*75
$GPGSA,M,3,16,18,29,30,21,03,,,,,,,2.7,1.5,2.3*38
Trace #104 at position 25.750000
$GPZDA,131511.04,06,10,2011,00,00*61
$GPRMC,131511.00,A,4611.963289,N,01258.210541,E,000.4,322.7,$GPGGA,131512.00,4611.963519,N,01258.210344,E,1,06,1.5,137.51,M,46.25,M,,*62
$GPGLL,4611.963519,N,01258.210344,E,131512.00,A,A*61
$GPVTG,327.3,T,327.5,M,001.5,N,002.8,K,A*2B
$GPGSV,3,1,10,19,06,279,,16,55,297,31,31,05,208,,18,39,132,40*7B
$GPGSV,3,2,10,29,21,092,39,30,25,161,38,21,71,066,32,22,16,170,*7C
$GPGSV,3,3,10,03,34,291,,06,49,293,29,,,,,,,,*7E
$GPGSA,M,3,16,18,29,30,21,03,,,,,,,2.7,1.5,2.3*38
Trace #105 at position 26.000000
$GPZDA,131512.04,06,10,2011,00,00*62
$GPRMC,131512.00,A,4611.963519,N,01258.210344,E,001.5,327.3,06$GPGGA,131513.00,4611.963769,N,01258.210025,E,1,05,1.5,137.32,M,46.25,M,,*64
$GPGLL,4611.963769,N,01258.210025,E,131513.00,A,A*61
$GPVTG,306.2,T,306.3,M,000.7,N,001.2,K,A*26
$GPGSV,3,1,10,19,06,279,,16,55,297,29,31,05,208,,18,39,132,41*73
$GPGSV,3,2,10,29,21,092,39,30,25,161,38,21,71,066,32,22,16,170,*7C
$GPGSV,3,3,10,03,34,291,,06,49,293,28,,,,,,,,*7F
$GPGSA,M,3,18,29,30,21,03,,,,,,,,2.8,1.5,2.4*37
Trace #106 at position 26.250000
$GPZDA,131513.04,06,10,2011,00,00*63
$GPRMC,131513.00,A,4611.963769,N,01258.210025,E,000.7,306.2,0610PGLL,4611.963908,N,01258.209682,E,131514.00,A,A*6C
$GPVTG,192.4,T,192.5,M,000.0,N,000.1,K,A*23
$GPGSV,3,1,10,19,06,279,,16,55,297,27,31,05,208,,18,39,132,39*72
$GPGSV,3,2,10,29,21,092,37,30,25,161,38,21,71,066,37,22,16,170,*77
$GPGSV,3,3,10,03,34,291,,06,49,293,,,,,,,,,*75
$GPGSA,M,3,18,29,30,21,,,,,,,,,6.9,4.7,5.0*35
Trace #107 at position 26.500000
$GPZDA,131514.03,06,10,2011,00,00*63
$GPRMC,131514.00,A,4611.963908,N,01258.209682,E,000.0,192.4,061011,0.2,E,A*3B
$GPGGA,131515.00,4611.964000,N,01258.209434,E,1,04,4.7,136.59,M,46.250.6,M,000.2,N,000.4,K,A*26
$GPGSV,3,1,10,19,06,279,,16,55,297,28,31,05,208,,18,39,132,41*72
$GPGSV,3,2,10,29,21,092,38,30,25,161,38,21,71,066,35,22,16,170,*7A
$GPGSV,3,3,10,03,34,291,,06,49,293,,,,,,,,,*75
$GPGSA,M,3,18,29,30,21,,,,,,,,,6.9,4.7,5.0*35
Trace #108 at position 26.750000
$GPZDA,131515.03,06,10,2011,00,00*62
$GPRMC,131515.00,A,4611.964000,N,01258.209434,E,000.2,300.5,061011,0.2,E,A*39
$GPGGA,131516.00,4611.964070,N,01258.209241,E,1,04,4.7,136.29,M,46.25,M,,*6C
$GPGLL,4611.964070,N,01258.209241,E,131516.00,A,A*64
$GPVTG,291,,06,49,293,,,,,,,,,*75
$GPGSA,M,3,18,29,30,21,,,,,,,,,6.9,4.7,5.0*35
Trace #109 at position 27.000000
$GPZDA,131515.03,06,10,2011,00,00*62
$GPRMC,131515.00,A,4611.964000,N,01258.209434,E,000.2,300.5,061011,0.2,E,A*39
$GPGGA,131516.00,4611.964070,N,01258.209241,E,1,04,4.7,136.29,M,46.25,M,,*6C
$GPGLL,4611.964070,N,01258.209241,E,131516.00,A,A*64
$GPVTG,291,,06,49,293,,,,,,,,,*75
$GPGSA,M,3,18,29,30,21,,,,,,,,,6.9,4.7,5.0*35
Trace #110 at position 27.250000
$GPZDA,131515.03,06,10,2011,00,00*62
