Trace #1 at position 0.000000
$GPZDA,104052.02,08,10,2011,00,00*6D
$GPRMC,104050.00,V,,,,,,,,,,N*7D
$GPGGA,,,,,,0,03,,,M,,M,,*65
$GPGLL,,,,,,V,N*64
$GPVTG,,T,,,,N,,K,N*61
$GPGSV,2,1,07,21,34,185,36,05,15,076,46,25,52,114,45,29,78,029,42*7E
$GPGSV,2,2,07,30,79,305,36,31,53,269,35,12,19,115,35,,,,*47
$GPGSA,M,1,,,,,,,,,,,,,4.0,3.0,2.7*3E
Trace #2 at position 0.250000
$GPZDA,104055.02,08,10,2011,00,00*6A
$GPRMC,104050.00,V,,,,,,,,,,N*7D
$GPGGA,,,,,,0,03,,,M,,M,,*65
$GPGLL,,,,,,V,N*64
$GPVTG,,T,,,,N,,K,N*61
$GPGSV,2,1,07,21,34,185,38,05,15,076,45,25,52,114,46,29,78,029,42*70
$GPGSV,2,2,07,30,79,305,34,31,53,269,32,12,19,115,31,,,,*46
$GPGSA,M,1,,,,,,,,,,,,,4.0,3.0,2.7*3E
Trace #3 at position 0.500000
$GPZDA,104056.02,08,10,2011,00,00*69
$GPRMC,104050.00,V,,,,,,,,,,N*7D
$GPGGA,,,,,,0,03,,,M,,M,,*65
$GPGLL,,,,,,V,N*64
$GPVTG,,T,,,,N,,K,N*61
$GPGSV,2,1,07,21,34,185,38,05,15,076,47,25,52,114,46,29,78,029,42*72
$GPGSV,2,2,07,30,79,305,38,31,53,269,32,12,19,115,32,,,,*49
$GPGSA,M,1,,,,,,,,,,,,,4.0,3.0,2.7*3E
Trace #4 at position 0.750000
$GPZDA,104057.02,08,10,2011,00,00*68
$GPRMC,104050.00,V,,,,,,,,,,N*7D
$GPGGA,104058.00,4611.953611,N,01258.223639,E,1,04,3.0,138.86,M,46.25,M,,*68
$GPGLL,4611.953611,N,01258.223639,E,104058.00,A,A*6B
$GPVTG,0.0,T,0.2,M,000.8,N,001.5,K,A*2D
$GPGSV,2,1,07,21,34,185,40,05,15,075,48,25,52,114,47,29,78,030,41*7B
$GPGSV,2,2,07,30,80,305,33,31,53,269,36,12,19,115,33,,,,*41
$GPGSA,M,3,21,05,25,29,,,,,,,,,4.0,3.0,2.7*36
Trace #5 at position 1.000000
$GPZDA,104057.02,08,10,2011,00,00*68
$GPRMC,104050.00,V,,,,,,,,,,N*7D
$GPGGA,104058.00,4611.953611,N,01258.223639,E,1,04,3.0,138.86,M,46.25,M,,*68
$GPGLL,4611.953611,N,01258.223639,E,104058.00,A,A*6B
$GPVTG,0.0,T,0.2,M,000.8,N,001.5,K,A*2D
$GPGSV,2,1,07,21,34,185,40,05,15,075,48,25,52,114,47,29,78,030,41*7B
$GPGSV,2,2,07,30,80,305,33,31,53,269,36,12,19,115,33,,,,*41
$GPGSA,M,3,21,05,25,29,,,,,,,,,4.0,3.0,2.7*36
Trace #6 at position 1.250000
$GPZDA,104058.03,08,10,2011,00,00*66
$GPRMC,104058.00,A,4611.953611,N,01258.223639,E,000.8,0.0,081011,0.2,E,A*34
$GPGGA,104059.00,4611.953737,N,01258.223633,E,1,04,3.0,138.88,M,46.25,M,,*68
$GPGLL,4611.953737,N,01258.223633,E,104059.00,A,A*65
$GPVTG,101.2,T,101.4,M,000.4,N,000.7,K,A*26
$GPGSV,2,1,07,21,34,185,38,05,15,075,48,25,52,114,46,29,78,030,43*77
$GPGSV,2,2,07,30,80,305,36,31,53,269,32,12,19,115,30,,,,*43
$GPGSA,M,3,21,05,25,29,,,,,,,,,4.0,3.0,2.7*36
Trace #7 at position 1.500000
$GPZDA,104059.03,08,10,2011,00,00*67
$GPRMC,104059.00,A,4611.953737,N,01258.223633,E,000.4,101.2,081011,0.2,E,A*34
$GPGGA,104100.00,4611.953807,N,01258.223617,E,1,04,3.0,139.03,M,46.25,M,,*6D
$GPGLL,4611.953807,N,01258.223617,E,104100.00,A,A*62
$GPVTG,313.9,T,314.1,M,000.4,N,000.8,K,A*20
$GPGSV,2,1,07,21,34,185,37,05,15,075,50,25,52,114,46,29,78,030,41*73
$GPGSV,2,2,07,30,80,305,33,31,53,269,,12,19,115,25,,,,*43
$GPGSA,M,3,21,05,25,29,,,,,,,,,4.0,3.0,2.7*36
Trace #8 at position 1.750000
$GPZDA,104059.03,08,10,2011,00,00*67
$GPRMC,104059.00,A,4611.953737,N,01258.223633,E,000.4,101.2,081011,0.2,E,A*34
$GPGGA,104100.00,4611.953807,N,01258.223617,E,1,04,3.0,139.03,M,46.25,M,,*6D
$GPGLL,4611.953807,N,01258.223617,E,104100.00,A,A*62
$GPVTG,313.9,T,314.1,M,000.4,N,000.8,K,A*20
$GPGSV,2,1,07,21,34,185,37,05,15,075,50,25,52,114,46,29,78,030,41*73
$GPGSV,2,2,07,30,80,305,33,31,53,269,,12,19,115,25,,,,*43
$GPGSA,M,3,21,05,25,29,,,,,,,,,4.0,3.0,2.7*36
Trace #9 at position 2.000000
$GPZDA,104100.03,08,10,2011,00,00*6A
$GPRMC,104100.00,A,4611.953807,N,01258.223617,E,000.4,313.9,081011,0.2,E,A*39
$GPGGA,104101.00,4611.953996,N,01258.223597,E,1,04,3.0,139.11,M,46.25,M,,*6D
$GPGLL,4611.953996,N,01258.223597,E,104101.00,A,A*61
$GPVTG,15.8,T,16.0,M,001.0,N,001.8,K,A*20
$GPGSV,2,1,07,21,34,185,38,05,15,075,48,25,52,114,46,29,78,030,39*7A
$GPGSV,2,2,07,30,80,305,36,31,53,269,,12,19,115,,,,,*41
$GPGSA,M,3,21,05,25,29,,,,,,,,,4.0,3.0,2.7*36
Trace #10 at position 2.250000
$GPZDA,104100.03,08,10,2011,00,00*6A
$GPRMC,104100.00,A,4611.953807,N,01258.223617,E,000.4,313.9,081011,0.2,E,A*39
$GPGGA,104101.00,4611.953996,N,01258.223597,E,1,04,3.0,139.11,M,46.25,M,,*6D
$GPGLL,4611.953996,N,01258.223597,E,104101.00,A,A*61
$GPVTG,15.8,T,16.0,M,001.0,N,001.8,K,A*20
$GPGSV,2,1,07,21,34,185,38,05,15,075,48,25,52,114,46,29,78,030,39*7A
$GPGSV,2,2,07,30,80,305,36,31,53,269,,12,19,115,,,,,*41
$GPGSA,M,3,21,05,25,29,,,,,,,,,4.0,3.0,2.7*36
Trace #11 at position 2.500000
$GPZDA,104101.03,08,10,2011,00,00*6B
$GPRMC,104101.00,A,4611.953996,N,01258.223597,E,001.0,15.8,081011,0.2,E,A*0B
$GPGGA,104102.00,4611.954220,N,01258.223533,E,1,04,3.0,139.26,M,46.25,M,,*65
$GPGLL,4611.954220,N,01258.223533,E,104102.00,A,A*6D
$GPVTG,319.3,T,319.5,M,000.8,N,001.5,K,A*29
$GPGSV,2,1,07,21,34,185,39,05,15,075,51,25,52,114,45,29,78,030,39*70
$GPGSV,2,2,07,30,80,305,35,31,53,269,34,12,19,115,,,,,*45
$GPGSA,M,3,21,05,25,29,,,,,,,,,4.0,3.0,2.7*36
Trace #12 at position 2.750000
$GPZDA,104101.03,08,10,2011,00,00*6B
$GPRMC,104101.00,A,4611.953996,N,01258.223597,E,001.0,15.8,081011,0.2,E,A*0B
$GPGGA,104102.00,4611.954220,N,01258.223533,E,1,04,3.0,139.26,M,46.25,M,,*65
$GPGLL,4611.954220,N,01258.223533,E,104102.00,A,A*6D
$GPVTG,319.3,T,319.5,M,000.8,N,001.5,K,A*29
$GPGSV,2,1,07,21,34,185,39,05,15,075,51,25,52,114,45,29,78,030,39*70
$GPGSV,2,2,07,30,80,305,35,31,53,269,34,12,19,115,,,,,*45
$GPGSA,M,3,21,05,25,29,,,,,,,,,4.0,3.0,2.7*36
Trace #13 at position 3.000000
$GPZDA,104102.03,08,10,2011,00,00*68
$GPRMC,104102.00,A,4611.954220,N,01258.223533,E,000.8,319.3,081011,0.2,E,A*3A
$GPGGA,104103.00,4611.954419,N,01258.223356,E,1,04,3.0,139.41,M,46.25,M,,*6C
$GPGLL,4611.954419,N,01258.223356,E,104103.00,A,A*65
$GPVTG,334.1,T,334.2,M,000.8,N,001.4,K,A*2D
$GPGSV,2,1,07,21,34,185,43,05,15,075,52,25,52,114,47,29,78,030,40*72
$GPGSV,2,2,07,30,80,305,,31,53,269,34,12,19,115,,,,,*43
$GPGSA,M,3,21,05,25,29,,,,,,,,,4.0,3.0,2.7*36
Trace #14 at position 3.250000
$GPZDA,104102.03,08,10,2011,00,00*68
$GPRMC,104102.00,A,4611.954220,N,01258.223533,E,000.8,319.3,081011,0.2,E,A*3A
$GPGGA,104103.00,4611.954419,N,01258.223356,E,1,04,3.0,139.41,M,46.25,M,,*6C
$GPGLL,4611.954419,N,01258.223356,E,104103.00,A,A*65
$GPVTG,334.1,T,334.2,M,000.8,N,001.4,K,A*2D
$GPGSV,2,1,07,21,34,185,43,05,15,075,52,25,52,114,47,29,78,030,40*72
$GPGSV,2,2,07,30,80,305,,31,53,269,34,12,19,115,,,,,*43
$GPGSA,M,3,21,05,25,29,,,,,,,,,4.0,3.0,2.7*36
Trace #15 at position 3.500000
$GPZDA,104103.03,08,10,2011,00,00*69
$GPRMC,104103.00,A,4611.954419,N,01258.223356,E,000.8,334.1,081011,0.2,E,A*3F
$GPGGA,104104.00,4611.954649,N,01258.223293,E,1,04,3.0,139.44,M,46.25,M,,*61
$GPGLL,4611.954649,N,01258.223293,E,104104.00,A,A*6D
$GPVTG,5.6,T,5.7,M,000.8,N,001.5,K,A*2E
$GPGSV,2,1,07,21,34,185,40,05,15,075,52,25,52,114,48,29,78,030,39*70
$GPGSV,2,2,07,30,80,305,37,31,53,269,31,12,19,115,,,,,*42
$GPGSA,M,3,21,05,25,29,,,,,,,,,4.0,3.0,2.7*36
Trace #16 at position 3.750000
$GPZDA,104103.03,08,10,2011,00,00*69
$GPRMC,104103.00,A,4611.954419,N,01258.223356,E,000.8,334.1,081011,0.2,E,A*3F
$GPGGA,104104.00,4611.954649,N,01258.223293,E,1,04,3.0,139.44,M,46.25,M,,*61
$GPGLL,4611.954649,N,01258.223293,E,104104.00,A,A*6D
$GPVTG,5.6,T,5.7,M,000.8,N,001.5,K,A*2E
$GPGSV,2,1,07,21,34,185,40,05,15,075,52,25,52,114,48,29,78,030,39*70
$GPGSV,2,2,07,30,80,305,37,31,53,269,31,12,19,115,,,,,*42
$GPGSA,M,3,21,05,25,29,,,,,,,,,4.0,3.0,2.7*36
Trace #17 at position 4.000000
$GPZDA,104104.03,08,10,2011,00,00*6E
$GPRMC,104104.00,A,4611.954649,N,01258.223293,E,000.8,5.6,081011,0.2,E,A*31
$GPGGA,104105.00,4611.954930,N,01258.223222,E,1,04,3.0,139.36,M,46.25,M,,*6E
$GPGLL,4611.954930,N,01258.223222,E,104105.00,A,A*67
$GPVTG,342.2,T,342.3,M,001.2,N,002.2,K,A*21
$GPGSV,2,1,07,21,34,185,41,05,15,075,53,25,52,114,46,29,78,030,42*72
$GPGSV,2,2,07,30,80,305,35,31,53,269,26,12,19,115,36,,,,*43
$GPGSA,M,3,21,05,25,29,,,,,,,,,4.0,3.0,2.7*36
Trace #18 at position 4.250000
$GPZDA,104104.03,08,10,2011,00,00*6E
$GPRMC,104104.00,A,4611.954649,N,01258.223293,E,000.8,5.6,081011,0.2,E,A*31
$GPGGA,104105.00,4611.954930,N,01258.223222,E,1,04,3.0,139.36,M,46.25,M,,*6E
$GPGLL,4611.954930,N,01258.223222,E,104105.00,A,A*67
$GPVTG,342.2,T,342.3,M,001.2,N,002.2,K,A*21
$GPGSV,2,1,07,21,34,185,41,05,15,075,53,25,52,114,46,29,78,030,42*72
$GPGSV,2,2,07,30,80,305,35,31,53,269,26,12,19,115,36,,,,*43
$GPGSA,M,3,21,05,25,29,,,,,,,,,4.0,3.0,2.7*36
Trace #19 at position 4.500000
$GPZDA,104105.03,08,10,2011,00,00*6F
$GPRMC,104105.00,A,4611.954930,N,01258.223222,E,001.2,342.2,081011,0.2,E,A*34
$GPGGA,104106.00,4611.955214,N,01258.223006,E,1,04,3.0,139.26,M,46.25,M,,*64
$GPGLL,4611.955214,N,01258.223006,E,104106.00,A,A*6C
$GPVTG,320.6,T,320.8,M,001.1,N,002.1,K,A*2E
$GPGSV,2,1,07,21,34,185,43,05,15,075,53,25,52,114,47,29,78,030,39*7D
$GPGSV,2,2,07,30,80,305,32,31,53,268,30,12,19,115,36,,,,*42
$GPGSA,M,3,21,05,25,29,,,,,,,,,4.0,3.0,2.7*36
Trace #20 at position 4.750000
$GPZDA,104105.03,08,10,2011,00,00*6F
$GPRMC,104105.00,A,4611.954930,N,01258.223222,E,001.2,342.2,081011,0.2,E,A*34
$GPGGA,104106.00,4611.955214,N,01258.223006,E,1,04,3.0,139.26,M,46.25,M,,*64
$GPGLL,4611.955214,N,01258.223006,E,104106.00,A,A*6C
$GPVTG,320.6,T,320.8,M,001.1,N,002.1,K,A*2E
$GPGSV,2,1,07,21,34,185,43,05,15,075,53,25,52,114,47,29,78,030,39*7D
$GPGSV,2,2,07,30,80,305,32,31,53,268,30,12,19,115,36,,,,*42
$GPGSA,M,3,21,05,25,29,,,,,,,,,4.0,3.0,2.7*36
Trace #21 at position 5.000000
$GPZDA,104106.03,08,10,2011,00,00*6C
$GPRMC,104106.00,A,4611.955214,N,01258.223006,E,001.1,320.6,081011,0.2,E,A*3C
$GPGGA,104107.00,4611.955493,N,01258.222827,E,1,04,3.0,139.24,M,46.25,M,,*64
$GPGLL,4611.955493,N,01258.222827,E,104107.00,A,A*6E
$GPVTG,346.9,T,347.1,M,001.2,N,002.1,K,A*2A
$GPGSV,2,1,07,21,34,185,42,05,15,075,53,25,52,114,47,29,78,030,39*7C
$GPGSV,2,2,07,30,80,305,,31,53,268,29,12,19,115,38,,,,*45
$GPGSA,M,3,21,05,25,29,,,,,,,,,4.0,3.0,2.7*36
Trace #22 at position 5.250000
$GPZDA,104106.03,08,10,2011,00,00*6C
$GPRMC,104106.00,A,4611.955214,N,01258.223006,E,001.1,320.6,081011,0.2,E,A*3C
$GPGGA,104107.00,4611.955493,N,01258.222827,E,1,04,3.0,139.24,M,46.25,M,,*64
$GPGLL,4611.955493,N,01258.222827,E,104107.00,A,A*6E
$GPVTG,346.9,T,347.1,M,001.2,N,002.1,K,A*2A
$GPGSV,2,1,07,21,34,185,42,05,15,075,53,25,52,114,47,29,78,030,39*7C
$GPGSV,2,2,07,30,80,305,,31,53,268,29,12,19,115,38,,,,*45
$GPGSA,M,3,21,05,25,29,,,,,,,,,4.0,3.0,2.7*36
Trace #23 at position 5.500000
$GPZDA,104107.03,08,10,2011,00,00*6D
$GPRMC,104107.00,A,4611.955493,N,01258.222827,E,001.2,346.9,081011,0.2,E,A*32
$GPGGA,104108.00,4611.955715,N,01258.222620,E,1,05,2.5,139.28,M,46.25,M,,*66
$GPGLL,4611.955715,N,01258.222620,E,104108.00,A,A*65
$GPVTG,297.3,T,297.5,M,001.1,N,002.0,K,A*27
$GPGSV,2,1,07,21,34,185,42,05,15,075,53,25,52,114,47,29,78,030,39*7C
$GPGSV,2,2,07,30,80,305,31,31,53,268,30,12,19,115,40,,,,*40
$GPGSA,M,3,21,05,25,29,12,,,,,,,,3.7,2.5,2.7*31
Trace #24 at position 5.750000
$GPZDA,104107.03,08,10,2011,00,00*6D
$GPRMC,104107.00,A,4611.955493,N,01258.222827,E,001.2,346.9,081011,0.2,E,A*32
$GPGGA,104108.00,4611.955715,N,01258.222620,E,1,05,2.5,139.28,M,46.25,M,,*66
$GPGLL,4611.955715,N,01258.222620,E,104108.00,A,A*65
$GPVTG,297.3,T,297.5,M,001.1,N,002.0,K,A*27
$GPGSV,2,1,07,21,34,185,42,05,15,075,53,25,52,114,47,29,78,030,39*7C
$GPGSV,2,2,07,30,80,305,31,31,53,268,30,12,19,115,40,,,,*40
$GPGSA,M,3,21,05,25,29,12,,,,,,,,3.7,2.5,2.7*31
Trace #25 at position 6.000000
$GPZDA,104108.04,08,10,2011,00,00*65
$GPRMC,104108.00,A,4611.955715,N,01258.222620,E,001.1,297.3,081011,0.2,E,A*3D
$GPGGA,104109.00,4611.955920,N,01258.222407,E,1,05,2.5,139.34,M,46.25,M,,*65
$GPGLL,4611.955920,N,01258.222407,E,104109.00,A,A*6B
$GPVTG,336.8,T,337.0,M,001.0,N,001.8,K,A*22
$GPGSV,2,1,07,21,34,185,42,05,15,075,52,25,52,114,48,29,78,030,40*7C
$GPGSV,2,2,07,30,80,305,,31,53,268,,12,19,115,39,,,,*4F
$GPGSA,M,3,21,05,25,29,12,,,,,,,,3.7,2.5,2.7*31
Trace #26 at position 6.250000
$GPZDA,104108.04,08,10,2011,00,00*65
$GPRMC,104108.00,A,4611.955715,N,01258.222620,E,001.1,297.3,081011,0.2,E,A*3D
$GPGGA,104109.00,4611.955920,N,01258.222407,E,1,05,2.5,139.34,M,46.25,M,,*65
$GPGLL,4611.955920,N,01258.222407,E,104109.00,A,A*6B
$GPVTG,336.8,T,337.0,M,001.0,N,001.8,K,A*22
$GPGSV,2,1,07,21,34,185,42,05,15,075,52,25,52,114,48,29,78,030,40*7C
$GPGSV,2,2,07,30,80,305,,31,53,268,,12,19,115,39,,,,*4F
$GPGSA,M,3,21,05,25,29,12,,,,,,,,3.7,2.5,2.7*31
Trace #27 at position 6.500000
$GPZDA,104109.03,08,10,2011,00,00*63
$GPRMC,104109.00,A,4611.955920,N,01258.222407,E,001.0,336.8,081011,0.2,E,A*33
$GPGGA,104110.00,4611.956244,N,01258.222194,E,1,05,2.5,139.33,M,46.25,M,,*6F
$GPGLL,4611.956244,N,01258.222194,E,104110.00,A,A*66
$GPVTG,324.4,T,324.5,M,001.7,N,003.1,K,A*26
$GPGSV,2,1,07,21,34,185,43,05,15,075,51,25,52,114,49,29,78,030,39*71
$GPGSV,2,2,07,30,80,305,,31,53,268,26,12,19,115,39,,,,*4B
$GPGSA,M,3,21,05,25,29,12,,,,,,,,3.7,2.5,2.7*31
Trace #28 at position 6.750000
$GPZDA,104109.03,08,10,2011,00,00*63
$GPRMC,104109.00,A,4611.955920,N,01258.222407,E,001.0,336.8,081011,0.2,E,A*33
$GPGGA,104110.00,4611.956244,N,01258.222194,E,1,05,2.5,139.33,M,46.25,M,,*6F
$GPGLL,4611.956244,N,01258.222194,E,104110.00,A,A*66
$GPVTG,324.4,T,324.5,M,001.7,N,003.1,K,A*26
$GPGSV,2,1,07,21,34,185,43,05,15,075,51,25,52,114,49,29,78,030,39*71
$GPGSV,2,2,07,30,80,305,,31,53,268,26,12,19,115,39,,,,*4B
$GPGSA,M,3,21,05,25,29,12,,,,,,,,3.7,2.5,2.7*31
Trace #29 at position 7.000000
$GPZDA,104109.03,08,10,2011,00,00*63
$GPRMC,104109.00,A,4611.955920,N,01258.222407,E,001.0,336.8,081011,0.2,E,A*33
$GPGGA,104110.00,4611.956244,N,01258.222194,E,1,05,2.5,139.33,M,46.25,M,,*6F
$GPGLL,4611.956244,N,01258.222194,E,104110.00,A,A*66
$GPVTG,324.4,T,324.5,M,001.7,N,003.1,K,A*26
$GPGSV,2,1,07,21,34,185,43,05,15,075,51,25,52,114,49,29,78,030,39*71
$GPGSV,2,2,07,30,80,305,,31,53,268,26,12,19,115,39,,,,*4B
$GPGSA,M,3,21,05,25,29,12,,,,,,,,3.7,2.5,2.7*31
Trace #30 at position 7.250000
$GPZDA,104110.03,08,10,2011,00,00*6B
$GPRMC,104110.00,A,4611.956244,N,01258.222194,E,001.7,324.4,081011,0.2,E,A*36
$GPGGA,104111.00,4611.956438,N,01258.222093,E,1,05,2.5,139.40,M,46.25,M,,*61
$GPGLL,4611.956438,N,01258.222093,E,104111.00,A,A*6C
$GPVTG,91.4,T,91.6,M,000.1,N,000.2,K,A*22
$GPGSV,2,1,07,21,34,185,39,05,15,075,51,25,52,114,48,29,78,030,39*7D
$GPGSV,2,2,07,30,80,305,31,31,53,268,28,12,19,115,39,,,,*47
$GPGSA,M,3,21,05,25,29,12,,,,,,,,3.7,2.5,2.7*31
Trace #31 at position 7.500000
$GPZDA,104110.03,08,10,2011,00,00*6B
$GPRMC,104110.00,A,4611.956244,N,01258.222194,E,001.7,324.4,081011,0.2,E,A*36
$GPGGA,104111.00,4611.956438,N,01258.222093,E,1,05,2.5,139.40,M,46.25,M,,*61
$GPGLL,4611.956438,N,01258.222093,E,104111.00,A,A*6C
$GPVTG,91.4,T,91.6,M,000.1,N,000.2,K,A*22
$GPGSV,2,1,07,21,34,185,39,05,15,075,51,25,52,114,48,29,78,030,39*7D
$GPGSV,2,2,07,30,80,305,31,31,53,268,28,12,19,115,39,,,,*47
$GPGSA,M,3,21,05,25,29,12,,,,,,,,3.7,2.5,2.7*31
Trace #32 at position 7.750000
$GPZDA,104111.03,08,10,2011,00,00*6A
$GPRMC,104111.00,A,4611.956438,N,01258.222093,E,000.1,91.4,081011,0.2,E,A*06
$GPGGA,104112.00,4611.956628,N,01258.222130,E,1,05,2.5,139.45,M,46.25,M,,*6C
$GPGLL,4611.956628,N,01258.222130,E,104112.00,A,A*64
$GPVTG,352.2,T,352.4,M,001.2,N,002.3,K,A*27
$GPGSV,2,1,07,21,34,185,43,05,15,075,51,25,52,114,47,29,78,030,41*70
$GPGSV,2,2,07,30,80,305,34,31,53,268,,12,19,115,41,,,,*47
$GPGSA,M,3,21,05,25,29,12,,,,,,,,3.7,2.5,2.7*31
Trace #33 at position 8.000000
$GPZDA,104111.03,08,10,2011,00,00*6A
$GPRMC,104111.00,A,4611.956438,N,01258.222093,E,000.1,91.4,081011,0.2,E,A*06
$GPGGA,104112.00,4611.956628,N,01258.222130,E,1,05,2.5,139.45,M,46.25,M,,*6C
$GPGLL,4611.956628,N,01258.222130,E,104112.00,A,A*64
$GPVTG,352.2,T,352.4,M,001.2,N,002.3,K,A*27
$GPGSV,2,1,07,21,34,185,43,05,15,075,51,25,52,114,47,29,78,030,41*70
$GPGSV,2,2,07,30,80,305,34,31,53,268,,12,19,115,41,,,,*47
$GPGSA,M,3,21,05,25,29,12,,,,,,,,3.7,2.5,2.7*31
Trace #34 at position 8.250000
$GPZDA,104112.03,08,10,2011,00,00*69
$GPRMC,104112.00,A,4611.956628,N,01258.222130,E,001.2,352.2,081011,0.2,E,A*36
$GPGGA,104113.00,4611.956998,N,01258.222054,E,1,05,2.5,139.40,M,46.25,M,,*6F
$GPGLL,4611.956998,N,01258.222054,E,104113.00,A,A*62
$GPVTG,342.8,T,343.0,M,001.4,N,002.5,K,A*28
$GPGSV,2,1,07,21,34,185,42,05,15,075,52,25,52,114,47,29,78,030,40*73
$GPGSV,2,2,07,30,80,305,,31,53,268,31,12,19,115,40,,,,*43
$GPGSA,M,3,21,05,25,29,12,,,,,,,,3.7,2.5,2.7*31
Trace #35 at position 8.500000
$GPZDA,104112.03,08,10,2011,00,00*69
$GPRMC,104112.00,A,4611.956628,N,01258.222130,E,001.2,352.2,081011,0.2,E,A*36
$GPGGA,104113.00,4611.956998,N,01258.222054,E,1,05,2.5,139.40,M,46.25,M,,*6F
$GPGLL,4611.956998,N,01258.222054,E,104113.00,A,A*62
$GPVTG,342.8,T,343.0,M,001.4,N,002.5,K,A*28
$GPGSV,2,1,07,21,34,185,42,05,15,075,52,25,52,114,47,29,78,030,40*73
$GPGSV,2,2,07,30,80,305,,31,53,268,31,12,19,115,40,,,,*43
$GPGSA,M,3,21,05,25,29,12,,,,,,,,3.7,2.5,2.7*31
Trace #36 at position 8.750000
$GPZDA,104112.03,08,10,2011,00,00*69
$GPRMC,104112.00,A,4611.956628,N,01258.222130,E,001.2,352.2,081011,0.2,E,A*36
$GPGGA,104113.00,4611.956998,N,01258.222054,E,1,05,2.5,139.40,M,46.25,M,,*6F
$GPGLL,4611.956998,N,01258.222054,E,104113.00,A,A*62
$GPVTG,342.8,T,343.0,M,001.4,N,002.5,K,A*28
$GPGSV,2,1,07,21,34,185,42,05,15,075,52,25,52,114,47,29,78,030,40*73
$GPGSV,2,2,07,30,80,305,,31,53,268,31,12,19,115,40,,,,*43
$GPGSA,M,3,21,05,25,29,12,,,,,,,,3.7,2.5,2.7*31
Trace #37 at position 9.000000
$GPZDA,104113.03,08,10,2011,00,00*68
$GPRMC,104113.00,A,4611.956998,N,01258.222054,E,001.4,342.8,081011,0.2,E,A*3D
$GPGGA,104114.00,4611.957350,N,01258.222059,E,1,05,2.5,139.34,M,46.25,M,,*69
$GPGLL,4611.957350,N,01258.222059,E,104114.00,A,A*67
$GPVTG,16.1,T,16.3,M,001.2,N,002.3,K,A*23
$GPGSV,2,1,07,21,34,185,41,05,15,075,52,25,52,114,46,29,78,030,39*7F
$GPGSV,2,2,07,30,80,305,32,31,53,268,28,12,19,115,38,,,,*45
$GPGSA,M,3,21,05,25,29,12,,,,,,,,3.7,2.5,2.7*31
Trace #38 at position 9.250000
$GPZDA,104113.03,08,10,2011,00,00*68
$GPRMC,104113.00,A,4611.956998,N,01258.222054,E,001.4,342.8,081011,0.2,E,A*3D
$GPGGA,104114.00,4611.957350,N,01258.222059,E,1,05,2.5,139.34,M,46.25,M,,*69
$GPGLL,4611.957350,N,01258.222059,E,104114.00,A,A*67
$GPVTG,16.1,T,16.3,M,001.2,N,002.3,K,A*23
$GPGSV,2,1,07,21,34,185,41,05,15,075,52,25,52,114,46,29,78,030,39*7F
$GPGSV,2,2,07,30,80,305,32,31,53,268,28,12,19,115,38,,,,*45
$GPGSA,M,3,21,05,25,29,12,,,,,,,,3.7,2.5,2.7*31
Trace #39 at position 9.500000
$GPZDA,104113.03,08,10,2011,00,00*68
$GPRMC,104113.00,A,4611.956998,N,01258.222054,E,001.4,342.8,081011,0.2,E,A*3D
$GPGGA,104114.00,4611.957350,N,01258.222059,E,1,05,2.5,139.34,M,46.25,M,,*69
$GPGLL,4611.957350,N,01258.222059,E,104114.00,A,A*67
$GPVTG,16.1,T,16.3,M,001.2,N,002.3,K,A*23
$GPGSV,2,1,07,21,34,185,41,05,15,075,52,25,52,114,46,29,78,030,39*7F
$GPGSV,2,2,07,30,80,305,32,31,53,268,28,12,19,115,38,,,,*45
$GPGSA,M,3,21,05,25,29,12,,,,,,,,3.7,2.5,2.7*31
Trace #40 at position 9.750000
$GPZDA,104113.03,08,10,2011,00,00*68
$GPRMC,104113.00,A,4611.956998,N,01258.222054,E,001.4,342.8,081011,0.2,E,A*3D
$GPGGA,104114.00,4611.957350,N,01258.222059,E,1,05,2.5,139.34,M,46.25,M,,*69
$GPGLL,4611.957350,N,01258.222059,E,104114.00,A,A*67
$GPVTG,16.1,T,16.3,M,001.2,N,002.3,K,A*23
$GPGSV,2,1,07,21,34,185,41,05,15,075,52,25,52,114,46,29,78,030,39*7F
$GPGSV,2,2,07,30,80,305,32,31,53,268,28,12,19,115,38,,,,*45
$GPGSA,M,3,21,05,25,29,12,,,,,,,,3.7,2.5,2.7*31
Trace #41 at position 10.000000
$GPZDA,104114.03,08,10,2011,00,00*6F
$GPRMC,104114.00,A,4611.957350,N,01258.222059,E,001.2,16.1,081011,0.2,E,A*05
$GPGGA,104115.00,4611.957596,N,01258.222233,E,1,05,2.5,139.42,M,46.25,M,,*6B
$GPGLL,4611.957596,N,01258.222233,E,104115.00,A,A*64
$GPVTG,53.0,T,53.2,M,000.8,N,001.5,K,A*2D
$GPGSV,2,1,07,21,34,185,42,05,15,075,52,25,52,114,47,29,78,030,41*72
$GPGSV,2,2,07,30,80,305,34,31,53,268,32,12,19,115,42,,,,*45
$GPGSA,M,3,21,05,25,29,12,,,,,,,,3.7,2.5,2.7*31
Trace #42 at position 10.250000
$GPZDA,104114.03,08,10,2011,00,00*6F
$GPRMC,104114.00,A,4611.957350,N,01258.222059,E,001.2,16.1,081011,0.2,E,A*05
$GPGGA,104115.00,4611.957596,N,01258.222233,E,1,05,2.5,139.42,M,46.25,M,,*6B
$GPGLL,4611.957596,N,01258.222233,E,104115.00,A,A*64
$GPVTG,53.0,T,53.2,M,000.8,N,001.5,K,A*2D
$GPGSV,2,1,07,21,34,185,42,05,15,075,52,25,52,114,47,29,78,030,41*72
$GPGSV,2,2,07,30,80,305,34,31,53,268,32,12,19,115,42,,,,*45
$GPGSA,M,3,21,05,25,29,12,,,,,,,,3.7,2.5,2.7*31
Trace #43 at position 10.500000
$GPZDA,104114.03,08,10,2011,00,00*6F
$GPRMC,104114.00,A,4611.957350,N,01258.222059,E,001.2,16.1,081011,0.2,E,A*05
$GPGGA,104115.00,4611.957596,N,01258.222233,E,1,05,2.5,139.42,M,46.25,M,,*6B
$GPGLL,4611.957596,N,01258.222233,E,104115.00,A,A*64
$GPVTG,53.0,T,53.2,M,000.8,N,001.5,K,A*2D
$GPGSV,2,1,07,21,34,185,42,05,15,075,52,25,52,114,47,29,78,030,41*72
$GPGSV,2,2,07,30,80,305,34,31,53,268,32,12,19,115,42,,,,*45
$GPGSA,M,3,21,05,25,29,12,,,,,,,,3.7,2.5,2.7*31
Trace #44 at position 10.750000
$GPZDA,104115.03,08,10,2011,00,00*6E
$GPRMC,104115.00,A,4611.957596,N,01258.222233,E,000.8,53.0,081011,0.2,E,A*0D
$GPGGA,104116.00,4611.957939,N,01258.222320,E,1,05,2.5,139.54,M,46.25,M,,*65
$GPGLL,4611.957939,N,01258.222320,E,104116.00,A,A*6D
$GPVTG,2.1,T,2.2,M,001.8,N,003.3,K,A*29
$GPGSV,2,1,07,21,34,185,41,05,15,075,52,25,52,114,48,29,78,030,39*71
$GPGSV,2,2,07,30,80,305,31,31,53,268,33,12,19,115,40,,,,*43
$GPGSA,M,3,21,05,25,29,12,,,,,,,,3.7,2.5,2.7*31
Trace #45 at position 11.000000
$GPZDA,104115.03,08,10,2011,00,00*6E
$GPRMC,104115.00,A,4611.957596,N,01258.222233,E,000.8,53.0,081011,0.2,E,A*0D
$GPGGA,104116.00,4611.957939,N,01258.222320,E,1,05,2.5,139.54,M,46.25,M,,*65
$GPGLL,4611.957939,N,01258.222320,E,104116.00,A,A*6D
$GPVTG,2.1,T,2.2,M,001.8,N,003.3,K,A*29
$GPGSV,2,1,07,21,34,185,41,05,15,075,52,25,52,114,48,29,78,030,39*71
$GPGSV,2,2,07,30,80,305,31,31,53,268,33,12,19,115,40,,,,*43
$GPGSA,M,3,21,05,25,29,12,,,,,,,,3.7,2.5,2.7*31
Trace #46 at position 11.250000
$GPZDA,104115.03,08,10,2011,00,00*6E
$GPRMC,104115.00,A,4611.957596,N,01258.222233,E,000.8,53.0,081011,0.2,E,A*0D
$GPGGA,104116.00,4611.957939,N,01258.222320,E,1,05,2.5,139.54,M,46.25,M,,*65
$GPGLL,4611.957939,N,01258.222320,E,104116.00,A,A*6D
$GPVTG,2.1,T,2.2,M,001.8,N,003.3,K,A*29
$GPGSV,2,1,07,21,34,185,41,05,15,075,52,25,52,114,48,29,78,030,39*71
$GPGSV,2,2,07,30,80,305,31,31,53,268,33,12,19,115,40,,,,*43
$GPGSA,M,3,21,05,25,29,12,,,,,,,,3.7,2.5,2.7*31
Trace #47 at position 11.500000
$GPZDA,104116.03,08,10,2011,00,00*6D
$GPRMC,104116.00,A,4611.957939,N,01258.222320,E,001.8,2.1,081011,0.2,E,A*30
$GPGGA,104117.00,4611.958397,N,01258.222186,E,1,05,2.5,139.54,M,46.25,M,,*6B
$GPGLL,4611.958397,N,01258.222186,E,104117.00,A,A*63
$GPVTG,343.0,T,343.1,M,001.4,N,002.6,K,A*23
$GPGSV,2,1,07,21,34,185,42,05,15,075,51,25,52,114,48,29,78,030,38*70
$GPGSV,2,2,07,30,80,305,32,31,53,268,32,12,19,115,39,,,,*4F
$GPGSA,M,3,21,05,25,29,12,,,,,,,,3.7,2.5,2.7*31
Trace #48 at position 11.750000
$GPZDA,104116.03,08,10,2011,00,00*6D
$GPRMC,104116.00,A,4611.957939,N,01258.222320,E,001.8,2.1,081011,0.2,E,A*30
$GPGGA,104117.00,4611.958397,N,01258.222186,E,1,05,2.5,139.54,M,46.25,M,,*6B
$GPGLL,4611.958397,N,01258.222186,E,104117.00,A,A*63
$GPVTG,343.0,T,343.1,M,001.4,N,002.6,K,A*23
$GPGSV,2,1,07,21,34,185,42,05,15,075,51,25,52,114,48,29,78,030,38*70
$GPGSV,2,2,07,30,80,305,32,31,53,268,32,12,19,115,39,,,,*4F
$GPGSA,M,3,21,05,25,29,12,,,,,,,,3.7,2.5,2.7*31
Trace #49 at position 12.000000
$GPZDA,104116.03,08,10,2011,00,00*6D
$GPRMC,104116.00,A,4611.957939,N,01258.222320,E,001.8,2.1,081011,0.2,E,A*30
$GPGGA,104117.00,4611.958397,N,01258.222186,E,1,05,2.5,139.54,M,46.25,M,,*6B
$GPGLL,4611.958397,N,01258.222186,E,104117.00,A,A*63
$GPVTG,343.0,T,343.1,M,001.4,N,002.6,K,A*23
$GPGSV,2,1,07,21,34,185,42,05,15,075,51,25,52,114,48,29,78,030,38*70
$GPGSV,2,2,07,30,80,305,32,31,53,268,32,12,19,115,39,,,,*4F
$GPGSA,M,3,21,05,25,29,12,,,,,,,,3.7,2.5,2.7*31
Trace #50 at position 12.250000
$GPZDA,104117.03,08,10,2011,00,00*6C
$GPRMC,104117.00,A,4611.958397,N,01258.222186,E,001.4,343.0,081011,0.2,E,A*35
$GPGGA,104118.00,4611.958787,N,01258.221943,E,1,05,2.5,139.55,M,46.25,M,,*62
$GPGLL,4611.958787,N,01258.221943,E,104118.00,A,A*6B
$GPVTG,338.5,T,338.7,M,001.4,N,002.5,K,A*23
$GPGSV,2,1,07,21,34,185,41,05,15,075,52,25,52,114,47,29,78,030,38*7F
$GPGSV,2,2,07,30,80,305,32,31,53,268,31,12,19,115,39,,,,*4C
$GPGSA,M,3,21,05,25,29,12,,,,,,,,3.7,2.5,2.7*31
Trace #51 at position 12.500000
$GPZDA,104117.03,08,10,2011,00,00*6C
$GPRMC,104117.00,A,4611.958397,N,01258.222186,E,001.4,343.0,081011,0.2,E,A*35
$GPGGA,104118.00,4611.958787,N,01258.221943,E,1,05,2.5,139.55,M,46.25,M,,*62
$GPGLL,4611.958787,N,01258.221943,E,104118.00,A,A*6B
$GPVTG,338.5,T,338.7,M,001.4,N,002.5,K,A*23
$GPGSV,2,1,07,21,34,185,41,05,15,075,52,25,52,114,47,29,78,030,38*7F
$GPGSV,2,2,07,30,80,305,32,31,53,268,31,12,19,115,39,,,,*4C
$GPGSA,M,3,21,05,25,29,12,,,,,,,,3.7,2.5,2.7*31
Trace #52 at position 12.750000
$GPZDA,104117.03,08,10,2011,00,00*6C
$GPRMC,104117.00,A,4611.958397,N,01258.222186,E,001.4,343.0,081011,0.2,E,A*35
$GPGGA,104118.00,4611.958787,N,01258.221943,E,1,05,2.5,139.55,M,46.25,M,,*62
$GPGLL,4611.958787,N,01258.221943,E,104118.00,A,A*6B
$GPVTG,338.5,T,338.7,M,001.4,N,002.5,K,A*23
$GPGSV,2,1,07,21,34,185,41,05,15,075,52,25,52,114,47,29,78,030,38*7F
$GPGSV,2,2,07,30,80,305,32,31,53,268,31,12,19,115,39,,,,*4C
$GPGSA,M,3,21,05,25,29,12,,,,,,,,3.7,2.5,2.7*31
Trace #53 at position 13.000000
$GPZDA,104118.03,08,10,2011,00,00*63
$GPRMC,104118.00,A,4611.958787,N,01258.221943,E,001.4,338.5,081011,0.2,E,A*34
$GPGGA,104119.00,4611.959170,N,01258.221748,E,1,05,2.5,139.64,M,46.25,M,,*6B
$GPGLL,4611.959170,N,01258.221748,E,104119.00,A,A*60
$GPVTG,352.2,T,352.4,M,001.3,N,002.4,K,A*21
$GPGSV,2,1,07,21,34,185,43,05,15,075,52,25,52,114,47,29,78,030,38*7D
$GPGSV,2,2,07,30,80,305,,31,53,268,,12,19,115,39,,,,*4F
$GPGSA,M,3,21,05,25,29,12,,,,,,,,3.7,2.5,2.7*31
Trace #54 at position 13.250000
$GPZDA,104118.03,08,10,2011,00,00*63
$GPRMC,104118.00,A,4611.958787,N,01258.221943,E,001.4,338.5,081011,0.2,E,A*34
$GPGGA,104119.00,4611.959170,N,01258.221748,E,1,05,2.5,139.64,M,46.25,M,,*6B
$GPGLL,4611.959170,N,01258.221748,E,104119.00,A,A*60
$GPVTG,352.2,T,352.4,M,001.3,N,002.4,K,A*21
$GPGSV,2,1,07,21,34,185,43,05,15,075,52,25,52,114,47,29,78,030,38*7D
$GPGSV,2,2,07,30,80,305,,31,53,268,,12,19,115,39,,,,*4F
$GPGSA,M,3,21,05,25,29,12,,,,,,,,3.7,2.5,2.7*31
Trace #55 at position 13.500000
$GPZDA,104119.03,08,10,2011,00,00*62
$GPRMC,104119.00,A,4611.959170,N,01258.221748,E,001.3,352.2,081011,0.2,E,A*33
$GPGGA,104120.00,4611.959515,N,01258.221513,E,1,05,2.5,139.60,M,46.25,M,,*6E
$GPGLL,4611.959515,N,01258.221513,E,104120.00,A,A*61
$GPVTG,321.6,T,321.7,M,001.3,N,002.5,K,A*27
$GPGSV,2,1,07,21,34,185,43,05,15,075,52,25,52,114,47,29,78,030,39*7C
$GPGSV,2,2,07,30,80,305,,31,53,268,33,12,19,115,39,,,,*4F
$GPGSA,M,3,21,05,25,29,12,,,,,,,,3.7,2.5,2.7*31
Trace #56 at position 13.750000
$GPZDA,104119.03,08,10,2011,00,00*62
$GPRMC,104119.00,A,4611.959170,N,01258.221748,E,001.3,352.2,081011,0.2,E,A*33
$GPGGA,104120.00,4611.959515,N,01258.221513,E,1,05,2.5,139.60,M,46.25,M,,*6E
$GPGLL,4611.959515,N,01258.221513,E,104120.00,A,A*61
$GPVTG,321.6,T,321.7,M,001.3,N,002.5,K,A*27
$GPGSV,2,1,07,21,34,185,43,05,15,075,52,25,52,114,47,29,78,030,39*7C
$GPGSV,2,2,07,30,80,305,,31,53,268,33,12,19,115,39,,,,*4F
$GPGSA,M,3,21,05,25,29,12,,,,,,,,3.7,2.5,2.7*31
Trace #57 at position 14.000000
$GPZDA,104120.03,08,10,2011,00,00*68
$GPRMC,104120.00,A,4611.959515,N,01258.221513,E,001.3,321.6,081011,0.2,E,A*32
$GPGGA,104121.00,4611.959825,N,01258.221130,E,1,05,2.5,139.52,M,46.25,M,,*65
$GPGLL,4611.959825,N,01258.221130,E,104121.00,A,A*6B
$GPVTG,313.2,T,313.3,M,001.5,N,002.8,K,A*2C
$GPGSV,2,1,07,21,34,185,40,05,15,075,53,25,52,114,46,29,78,030,38*7E
$GPGSV,2,2,07,30,80,305,,31,53,268,36,12,19,115,42,,,,*46
$GPGSA,M,3,21,05,25,29,12,,,,,,,,3.7,2.5,2.7*31
Trace #58 at position 14.250000
$GPZDA,104120.03,08,10,2011,00,00*68
$GPRMC,104120.00,A,4611.959515,N,01258.221513,E,001.3,321.6,081011,0.2,E,A*32
$GPGGA,104121.00,4611.959825,N,01258.221130,E,1,05,2.5,139.52,M,46.25,M,,*65
$GPGLL,4611.959825,N,01258.221130,E,104121.00,A,A*6B
$GPVTG,313.2,T,313.3,M,001.5,N,002.8,K,A*2C
$GPGSV,2,1,07,21,34,185,40,05,15,075,53,25,52,114,46,29,78,030,38*7E
$GPGSV,2,2,07,30,80,305,,31,53,268,36,12,19,115,42,,,,*46
$GPGSA,M,3,21,05,25,29,12,,,,,,,,3.7,2.5,2.7*31
Trace #59 at position 14.500000
$GPZDA,104121.03,08,10,2011,00,00*69
$GPRMC,104121.00,A,4611.959825,N,01258.221130,E,001.5,313.2,081011,0.2,E,A*3B
$GPGGA,104122.00,4611.960136,N,01258.220909,E,1,05,2.5,139.46,M,46.25,M,,*61
$GPGLL,4611.960136,N,01258.220909,E,104122.00,A,A*6A
$GPVTG,356.5,T,356.6,M,001.1,N,002.0,K,A*22
$GPGSV,2,1,07,21,34,185,40,05,15,075,51,25,52,114,47,29,78,030,40*72
$GPGSV,2,2,07,30,80,305,33,31,53,268,,12,19,116,42,,,,*40
$GPGSA,M,3,21,05,25,29,12,,,,,,,,3.7,2.5,2.7*31
Trace #60 at position 14.750000
$GPZDA,104121.03,08,10,2011,00,00*69
$GPRMC,104121.00,A,4611.959825,N,01258.221130,E,001.5,313.2,081011,0.2,E,A*3B
$GPGGA,104122.00,4611.960136,N,01258.220909,E,1,05,2.5,139.46,M,46.25,M,,*61
$GPGLL,4611.960136,N,01258.220909,E,104122.00,A,A*6A
$GPVTG,356.5,T,356.6,M,001.1,N,002.0,K,A*22
$GPGSV,2,1,07,21,34,185,40,05,15,075,51,25,52,114,47,29,78,030,40*72
$GPGSV,2,2,07,30,80,305,33,31,53,268,,12,19,116,42,,,,*40
$GPGSA,M,3,21,05,25,29,12,,,,,,,,3.7,2.5,2.7*31
Trace #61 at position 15.000000
$GPZDA,104121.03,08,10,2011,00,00*69
$GPRMC,104121.00,A,4611.959825,N,01258.221130,E,001.5,313.2,081011,0.2,E,A*3B
$GPGGA,104122.00,4611.960136,N,01258.220909,E,1,05,2.5,139.46,M,46.25,M,,*61
$GPGLL,4611.960136,N,01258.220909,E,104122.00,A,A*6A
$GPVTG,356.5,T,356.6,M,001.1,N,002.0,K,A*22
$GPGSV,2,1,07,21,34,185,40,05,15,075,51,25,52,114,47,29,78,030,40*72
$GPGSV,2,2,07,30,80,305,33,31,53,268,,12,19,116,42,,,,*40
$GPGSA,M,3,21,05,25,29,12,,,,,,,,3.7,2.5,2.7*31
Trace #62 at position 15.250000
$GPZDA,104122.03,08,10,2011,00,00*6A
$GPRMC,104122.00,A,4611.960136,N,01258.220909,E,001.1,356.5,081011,0.2,E,A*38
$GPGGA,104123.00,4611.960433,N,01258.220839,E,1,05,2.5,139.40,M,46.25,M,,*64
$GPGLL,4611.960433,N,01258.220839,E,104123.00,A,A*69
$GPVTG,343.0,T,343.1,M,001.0,N,001.9,K,A*2B
$GPGSV,2,1,07,21,34,185,40,05,15,075,52,25,52,114,47,29,78,030,39*7F
$GPGSV,2,2,07,30,80,305,30,31,53,268,24,12,19,116,43,,,,*44
$GPGSA,M,3,21,05,25,29,12,,,,,,,,3.7,2.5,2.7*31
Trace #63 at position 15.500000
$GPZDA,104122.03,08,10,2011,00,00*6A
$GPRMC,104122.00,A,4611.960136,N,01258.220909,E,001.1,356.5,081011,0.2,E,A*38
$GPGGA,104123.00,4611.960433,N,01258.220839,E,1,05,2.5,139.40,M,46.25,M,,*64
$GPGLL,4611.960433,N,01258.220839,E,104123.00,A,A*69
$GPVTG,343.0,T,343.1,M,001.0,N,001.9,K,A*2B
$GPGSV,2,1,07,21,34,185,40,05,15,075,52,25,52,114,47,29,78,030,39*7F
$GPGSV,2,2,07,30,80,305,30,31,53,268,24,12,19,116,43,,,,*44
$GPGSA,M,3,21,05,25,29,12,,,,,,,,3.7,2.5,2.7*31
Trace #64 at position 15.750000
$GPZDA,104123.04,08,10,2011,00,00*6C
$GPRMC,104123.00,A,4611.960433,N,01258.220839,E,001.0,343.0,081011,0.2,E,A*3B
$GPGGA,104124.00,4611.960568,N,01258.220722,E,1,05,2.5,139.60,M,46.25,M,,*6B
$GPGLL,4611.960568,N,01258.220722,E,104124.00,A,A*64
$GPVTG,231.7,T,231.9,M,000.4,N,000.7,K,A*2E
$GPGSV,2,1,07,21,34,185,42,05,15,075,53,25,52,114,46,29,78,030,42*71
$GPGSV,2,2,07,30,80,305,35,31,53,268,,12,19,116,42,,,,*46
$GPGSA,M,3,21,05,25,29,12,,,,,,,,3.7,2.5,2.7*31
Trace #65 at position 16.000000
$GPZDA,104123.04,08,10,2011,00,00*6C
$GPRMC,104123.00,A,4611.960433,N,01258.220839,E,001.0,343.0,081011,0.2,E,A*3B
$GPGGA,104124.00,4611.960568,N,01258.220722,E,1,05,2.5,139.60,M,46.25,M,,*6B
$GPGLL,4611.960568,N,01258.220722,E,104124.00,A,A*64
$GPVTG,231.7,T,231.9,M,000.4,N,000.7,K,A*2E
$GPGSV,2,1,07,21,34,185,42,05,15,075,53,25,52,114,46,29,78,030,42*71
$GPGSV,2,2,07,30,80,305,35,31,53,268,,12,19,116,42,,,,*46
$GPGSA,M,3,21,05,25,29,12,,,,,,,,3.7,2.5,2.7*31
Trace #66 at position 16.250000
$GPZDA,104124.03,08,10,2011,00,00*6C
$GPRMC,104124.00,A,4611.960568,N,01258.220722,E,000.4,231.7,081011,0.2,E,A*30
$GPGGA,104125.00,4611.960780,N,01258.220572,E,1,05,2.5,139.74,M,46.25,M,,*6C
$GPGLL,4611.960780,N,01258.220572,E,104125.00,A,A*66
$GPVTG,341.5,T,341.7,M,001.5,N,002.8,K,A*2F
$GPGSV,2,1,07,21,34,185,41,05,15,075,52,25,52,114,48,29,78,030,39*71
$GPGSV,2,2,07,30,80,305,34,31,53,268,,12,19,116,40,,,,*45
$GPGSA,M,3,21,05,25,29,12,,,,,,,,3.7,2.5,2.7*31
Trace #67 at position 16.500000
$GPZDA,104124.03,08,10,2011,00,00*6C
$GPRMC,104124.00,A,4611.960568,N,01258.220722,E,000.4,231.7,081011,0.2,E,A*30
$GPGGA,104125.00,4611.960780,N,01258.220572,E,1,05,2.5,139.74,M,46.25,M,,*6C
$GPGLL,4611.960780,N,01258.220572,E,104125.00,A,A*66
$GPVTG,341.5,T,341.7,M,001.5,N,002.8,K,A*2F
$GPGSV,2,1,07,21,34,185,41,05,15,075,52,25,52,114,48,29,78,030,39*71
$GPGSV,2,2,07,30,80,305,34,31,53,268,,12,19,116,40,,,,*45
$GPGSA,M,3,21,05,25,29,12,,,,,,,,3.7,2.5,2.7*31
Trace #68 at position 16.750000
$GPZDA,104125.03,08,10,2011,00,00*6D
$GPRMC,104125.00,A,4611.960780,N,01258.220572,E,001.5,341.5,081011,0.2,E,A*36
$GPGGA,104126.00,4611.961149,N,01258.220416,E,1,05,2.5,139.69,M,46.25,M,,*62
$GPGLL,4611.961149,N,01258.220416,E,104126.00,A,A*64
$GPVTG,343.0,T,343.1,M,001.0,N,001.9,K,A*2B
$GPGSV,2,1,07,21,34,185,42,05,15,075,53,25,52,114,48,29,78,030,41*7C
$GPGSV,2,2,07,30,80,305,36,31,53,268,,12,19,116,41,,,,*46
$GPGSA,M,3,21,05,25,29,12,,,,,,,,3.7,2.5,2.7*31
Trace #69 at position 17.000000
$GPZDA,104125.03,08,10,2011,00,00*6D
$GPRMC,104125.00,A,4611.960780,N,01258.220572,E,001.5,341.5,081011,0.2,E,A*36
$GPGGA,104126.00,4611.961149,N,01258.220416,E,1,05,2.5,139.69,M,46.25,M,,*62
$GPGLL,4611.961149,N,01258.220416,E,104126.00,A,A*64
$GPVTG,343.0,T,343.1,M,001.0,N,001.9,K,A*2B
$GPGSV,2,1,07,21,34,185,42,05,15,075,53,25,52,114,48,29,78,030,41*7C
$GPGSV,2,2,07,30,80,305,36,31,53,268,,12,19,116,41,,,,*46
$GPGSA,M,3,21,05,25,29,12,,,,,,,,3.7,2.5,2.7*31
Trace #70 at position 17.250000
$GPZDA,104126.03,08,10,2011,00,00*6E
$GPRMC,104126.00,A,4611.961149,N,01258.220416,E,001.0,343.0,081011,0.2,E,A*36
$GPGGA,104127.00,4611.961431,N,01258.220319,E,1,05,2.5,139.78,M,46.25,M,,*61
$GPGLL,4611.961431,N,01258.220319,E,104127.00,A,A*67
$GPVTG,346.9,T,347.1,M,000.8,N,001.5,K,A*26
$GPGSV,2,1,07,21,34,185,43,05,15,075,52,25,52,114,47,29,78,030,40*72
$GPGSV,2,2,07,30,80,305,35,31,53,268,,12,19,116,40,,,,*44
$GPGSA,M,3,21,05,25,29,12,,,,,,,,3.7,2.5,2.7*31
Trace #71 at position 17.500000
$GPZDA,104126.03,08,10,2011,00,00*6E
$GPRMC,104126.00,A,4611.961149,N,01258.220416,E,001.0,343.0,081011,0.2,E,A*36
$GPGGA,104127.00,4611.961431,N,01258.220319,E,1,05,2.5,139.78,M,46.25,M,,*61
$GPGLL,4611.961431,N,01258.220319,E,104127.00,A,A*67
$GPVTG,346.9,T,347.1,M,000.8,N,001.5,K,A*26
$GPGSV,2,1,07,21,34,185,43,05,15,075,52,25,52,114,47,29,78,030,40*72
$GPGSV,2,2,07,30,80,305,35,31,53,268,,12,19,116,40,,,,*44
$GPGSA,M,3,21,05,25,29,12,,,,,,,,3.7,2.5,2.7*31
Trace #72 at position 17.750000
$GPZDA,104127.03,08,10,2011,00,00*6F
$GPRMC,104127.00,A,4611.961431,N,01258.220319,E,000.8,346.9,081011,0.2,E,A*30
$GPGGA,104128.00,4611.961730,N,01258.220188,E,1,05,2.5,139.83,M,46.25,M,,*62
$GPGLL,4611.961730,N,01258.220188,E,104128.00,A,A*60
$GPVTG,337.4,T,337.5,M,001.2,N,002.2,K,A*21
$GPGSV,2,1,07,21,34,185,42,05,15,075,53,25,52,114,48,29,78,030,41*7C
$GPGSV,2,2,07,30,80,305,37,31,53,268,,12,19,116,41,,,,*47
$GPGSA,M,3,21,05,25,29,12,,,,,,,,3.7,2.5,2.7*31
Trace #73 at position 18.000000
$GPZDA,104127.03,08,10,2011,00,00*6F
$GPRMC,104127.00,A,4611.961431,N,01258.220319,E,000.8,346.9,081011,0.2,E,A*30
$GPGGA,104128.00,4611.961730,N,01258.220188,E,1,05,2.5,139.83,M,46.25,M,,*62
$GPGLL,4611.961730,N,01258.220188,E,104128.00,A,A*60
$GPVTG,337.4,T,337.5,M,001.2,N,002.2,K,A*21
$GPGSV,2,1,07,21,34,185,42,05,15,075,53,25,52,114,48,29,78,030,41*7C
$GPGSV,2,2,07,30,80,305,37,31,53,268,,12,19,116,41,,,,*47
$GPGSA,M,3,21,05,25,29,12,,,,,,,,3.7,2.5,2.7*31
Trace #74 at position 18.250000
$GPZDA,104128.03,08,10,2011,00,00*60
$GPRMC,104128.00,A,4611.961730,N,01258.220188,E,001.2,337.4,081011,0.2,E,A*37
$GPGGA,104129.00,4611.962040,N,01258.220039,E,1,05,2.5,139.78,M,46.25,M,,*6F
$GPGLL,4611.962040,N,01258.220039,E,104129.00,A,A*69
$GPVTG,342.2,T,342.3,M,001.0,N,001.9,K,A*2B
$GPGSV,2,1,07,21,34,185,42,05,15,075,52,25,52,114,49,29,78,030,38*72
$GPGSV,2,2,07,30,80,305,35,31,53,268,,12,19,116,42,,,,*46
$GPGSA,M,3,21,05,25,29,12,,,,,,,,3.7,2.5,2.7*31
Trace #75 at position 18.500000
$GPZDA,104128.03,08,10,2011,00,00*60
$GPRMC,104128.00,A,4611.961730,N,01258.220188,E,001.2,337.4,081011,0.2,E,A*37
$GPGGA,104129.00,4611.962040,N,01258.220039,E,1,05,2.5,139.78,M,46.25,M,,*6F
$GPGLL,4611.962040,N,01258.220039,E,104129.00,A,A*69
$GPVTG,342.2,T,342.3,M,001.0,N,001.9,K,A*2B
$GPGSV,2,1,07,21,34,185,42,05,15,075,52,25,52,114,49,29,78,030,38*72
$GPGSV,2,2,07,30,80,305,35,31,53,268,,12,19,116,42,,,,*46
$GPGSA,M,3,21,05,25,29,12,,,,,,,,3.7,2.5,2.7*31
Trace #76 at position 18.750000
$GPZDA,104129.03,08,10,2011,00,00*61
$GPRMC,104129.00,A,4611.962040,N,01258.220039,E,001.0,342.2,081011,0.2,E,A*38
$GPGGA,104130.00,4611.962310,N,01258.219956,E,1,05,2.5,139.74,M,46.25,M,,*67
$GPGLL,4611.962310,N,01258.219956,E,104130.00,A,A*6D
$GPVTG,352.1,T,352.2,M,000.8,N,001.4,K,A*2D
$GPGSV,2,1,07,21,34,185,43,05,15,075,52,25,52,114,47,29,78,030,39*7C
$GPGSV,2,2,07,30,80,305,35,31,53,268,,12,19,116,42,,,,*46
$GPGSA,M,3,21,05,25,29,12,,,,,,,,3.7,2.5,2.7*31
Trace #77 at position 19.000000
$GPZDA,104130.03,08,10,2011,00,00*69
$GPRMC,104130.00,A,4611.962310,N,01258.219956,E,000.8,352.1,081011,0.2,E,A*37
$GPGGA,104131.00,4611.962395,N,01258.219873,E,1,05,2.5,139.80,M,46.25,M,,*66
$GPGLL,4611.962395,N,01258.219873,E,104131.00,A,A*67
$GPVTG,217.9,T,218.0,M,000.5,N,001.0,K,A*21
$GPGSV,2,1,07,21,34,185,42,05,15,075,53,25,52,114,47,29,78,030,39*7C
$GPGSV,2,2,07,30,80,305,35,31,53,268,,12,19,116,41,,,,*45
$GPGSA,M,3,21,05,25,29,12,,,,,,,,3.7,2.5,2.7*31
Trace #78 at position 19.250000
$GPZDA,104130.03,08,10,2011,00,00*69
$GPRMC,104130.00,A,4611.962310,N,01258.219956,E,000.8,352.1,081011,0.2,E,A*37
$GPGGA,104131.00,4611.962395,N,01258.219873,E,1,05,2.5,139.80,M,46.25,M,,*66
$GPGLL,4611.962395,N,01258.219873,E,104131.00,A,A*67
$GPVTG,217.9,T,218.0,M,000.5,N,001.0,K,A*21
$GPGSV,2,1,07,21,34,185,42,05,15,075,53,25,52,114,47,29,78,030,39*7C
$GPGSV,2,2,07,30,80,305,35,31,53,268,,12,19,116,41,,,,*45
$GPGSA,M,3,21,05,25,29,12,,,,,,,,3.7,2.5,2.7*31
Trace #79 at position 19.500000
$GPZDA,104131.03,08,10,2011,00,00*68
$GPRMC,104131.00,A,4611.962395,N,01258.219873,E,000.5,217.9,081011,0.2,E,A*38
$GPGGA,104132.00,4611.962505,N,01258.219647,E,1,05,2.5,139.85,M,46.25,M,,*66
$GPGLL,4611.962505,N,01258.219647,E,104132.00,A,A*62
$GPVTG,313.2,T,313.3,M,001.2,N,002.2,K,A*21
$GPGSV,2,1,07,21,34,185,40,05,15,075,53,25,52,114,47,29,78,030,40*70
$GPGSV,2,2,07,30,80,305,,31,53,268,,12,19,116,41,,,,*43
$GPGSA,M,3,21,05,25,29,12,,,,,,,,3.7,2.5,2.7*31
Trace #80 at position 19.750000
$GPZDA,104131.03,08,10,2011,00,00*68
$GPRMC,104131.00,A,4611.962395,N,01258.219873,E,000.5,217.9,081011,0.2,E,A*38
$GPGGA,104132.00,4611.962505,N,01258.219647,E,1,05,2.5,139.85,M,46.25,M,,*66
$GPGLL,4611.962505,N,01258.219647,E,104132.00,A,A*62
$GPVTG,313.2,T,313.3,M,001.2,N,002.2,K,A*21
$GPGSV,2,1,07,21,34,185,40,05,15,075,53,25,52,114,47,29,78,030,40*70
$GPGSV,2,2,07,30,80,305,,31,53,268,,12,19,116,41,,,,*43
$GPGSA,M,3,21,05,25,29,12,,,,,,,,3.7,2.5,2.7*31
Trace #81 at position 20.000000
$GPZDA,104132.03,08,10,2011,00,00*6B
$GPRMC,104132.00,A,4611.962505,N,01258.219647,E,001.2,313.2,081011,0.2,E,A*35
$GPGGA,104133.00,4611.962703,N,01258.219507,E,1,05,2.5,139.86,M,46.25,M,,*67
$GPGLL,4611.962703,N,01258.219507,E,104133.00,A,A*60
$GPVTG,25.8,T,25.9,M,000.2,N,000.3,K,A*23
$GPGSV,2,1,07,21,34,185,41,05,15,075,53,25,52,114,48,29,78,030,38*71
$GPGSV,2,2,07,30,80,305,34,31,53,268,,12,19,116,41,,,,*44
$GPGSA,M,3,21,05,25,29,12,,,,,,,,3.7,2.5,2.7*31
Trace #82 at position 20.250000
$GPZDA,104132.03,08,10,2011,00,00*6B
$GPRMC,104132.00,A,4611.962505,N,01258.219647,E,001.2,313.2,081011,0.2,E,A*35
$GPGGA,104133.00,4611.962703,N,01258.219507,E,1,05,2.5,139.86,M,46.25,M,,*67
$GPGLL,4611.962703,N,01258.219507,E,104133.00,A,A*60
$GPVTG,25.8,T,25.9,M,000.2,N,000.3,K,A*23
$GPGSV,2,1,07,21,34,185,41,05,15,075,53,25,52,114,48,29,78,030,38*71
$GPGSV,2,2,07,30,80,305,34,31,53,268,,12,19,116,41,,,,*44
$GPGSA,M,3,21,05,25,29,12,,,,,,,,3.7,2.5,2.7*31
Trace #83 at position 20.500000
$GPZDA,104133.03,08,10,2011,00,00*6A
$GPRMC,104133.00,A,4611.962703,N,01258.219507,E,000.2,25.8,081011,0.2,E,A*0A
$GPGGA,104134.00,4611.962915,N,01258.219368,E,1,05,2.5,139.90,M,46.25,M,,*61
$GPGLL,4611.962915,N,01258.219368,E,104134.00,A,A*61
$GPVTG,318.2,T,318.3,M,001.2,N,002.2,K,A*21
$GPGSV,2,1,07,21,34,185,41,05,15,075,53,25,52,114,47,29,78,030,39*7F
$GPGSV,2,2,07,30,80,305,34,31,53,268,,12,19,116,42,,,,*47
$GPGSA,M,3,21,05,25,29,12,,,,,,,,3.7,2.5,2.7*31
Trace #84 at position 20.750000
$GPZDA,104133.03,08,10,2011,00,00*6A
$GPRMC,104133.00,A,4611.962703,N,01258.219507,E,000.2,25.8,081011,0.2,E,A*0A
$GPGGA,104134.00,4611.962915,N,01258.219368,E,1,05,2.5,139.90,M,46.25,M,,*61
$GPGLL,4611.962915,N,01258.219368,E,104134.00,A,A*61
$GPVTG,318.2,T,318.3,M,001.2,N,002.2,K,A*21
$GPGSV,2,1,07,21,34,185,41,05,15,075,53,25,52,114,47,29,78,030,39*7F
$GPGSV,2,2,07,30,80,305,34,31,53,268,,12,19,116,42,,,,*47
$GPGSA,M,3,21,05,25,29,12,,,,,,,,3.7,2.5,2.7*31
Trace #85 at position 21.000000
$GPZDA,104134.03,08,10,2011,00,00*6D
$GPRMC,104134.00,A,4611.962915,N,01258.219368,E,001.2,318.2,081011,0.2,E,A*3D
$GPGGA,104135.00,4611.963246,N,01258.219134,E,1,05,2.5,139.89,M,46.25,M,,*6F
$GPGLL,4611.963246,N,01258.219134,E,104135.00,A,A*67
$GPVTG,334.3,T,334.5,M,001.2,N,002.1,K,A*25
$GPGSV,2,1,07,21,34,185,43,05,15,075,53,25,52,114,47,29,78,030,40*73
$GPGSV,2,2,07,30,80,305,37,31,53,268,,12,19,116,42,,,,*44
$GPGSA,M,3,21,05,25,29,12,,,,,,,,3.7,2.5,2.7*31
Trace #86 at position 21.250000
$GPZDA,104134.03,08,10,2011,00,00*6D
$GPRMC,104134.00,A,4611.962915,N,01258.219368,E,001.2,318.2,081011,0.2,E,A*3D
$GPGGA,104135.00,4611.963246,N,01258.219134,E,1,05,2.5,139.89,M,46.25,M,,*6F
$GPGLL,4611.963246,N,01258.219134,E,104135.00,A,A*67
$GPVTG,334.3,T,334.5,M,001.2,N,002.1,K,A*25
$GPGSV,2,1,07,21,34,185,43,05,15,075,53,25,52,114,47,29,78,030,40*73
$GPGSV,2,2,07,30,80,305,37,31,53,268,,12,19,116,42,,,,*44
$GPGSA,M,3,21,05,25,29,12,,,,,,,,3.7,2.5,2.7*31
Trace #87 at position 21.500000
$GPZDA,104135.03,08,10,2011,00,00*6C
$GPRMC,104135.00,A,4611.963246,N,01258.219134,E,001.2,334.3,081011,0.2,E,A*34
$GPGGA,104136.00,4611.963559,N,01258.219004,E,1,05,2.5,139.87,M,46.25,M,,*69
$GPGLL,4611.963559,N,01258.219004,E,104136.00,A,A*6F
$GPVTG,340.8,T,341.0,M,000.9,N,001.6,K,A*24
$GPGSV,2,1,07,21,34,185,42,05,15,075,52,25,52,114,47,29,78,030,40*73
$GPGSV,2,2,07,30,80,305,35,31,53,268,,12,19,116,42,,,,*46
$GPGSA,M,3,21,05,25,29,12,,,,,,,,3.7,2.5,2.7*31
Trace #88 at position 21.750000
$GPZDA,104135.03,08,10,2011,00,00*6C
$GPRMC,104135.00,A,4611.963246,N,01258.219134,E,001.2,334.3,081011,0.2,E,A*34
$GPGGA,104136.00,4611.963559,N,01258.219004,E,1,05,2.5,139.87,M,46.25,M,,*69
$GPGLL,4611.963559,N,01258.219004,E,104136.00,A,A*6F
$GPVTG,340.8,T,341.0,M,000.9,N,001.6,K,A*24
$GPGSV,2,1,07,21,34,185,42,05,15,075,52,25,52,114,47,29,78,030,40*73
$GPGSV,2,2,07,30,80,305,35,31,53,268,,12,19,116,42,,,,*46
$GPGSA,M,3,21,05,25,29,12,,,,,,,,3.7,2.5,2.7*31
Trace #89 at position 22.000000
$GPZDA,104136.03,08,10,2011,00,00*6F
$GPRMC,104136.00,A,4611.963559,N,01258.219004,E,000.9,340.8,081011,0.2,E,A*3E
$GPGGA,104137.00,4611.963880,N,01258.218960,E,1,05,2.5,139.80,M,46.25,M,,*6C
$GPGLL,4611.963880,N,01258.218960,E,104137.00,A,A*6D
$GPVTG,358.6,T,358.8,M,001.2,N,002.1,K,A*2D
$GPGSV,2,1,07,21,34,185,43,05,15,075,52,25,52,114,47,29,78,030,38*7D
$GPGSV,2,2,07,30,80,305,33,31,53,268,,12,19,116,41,,,,*43
$GPGSA,M,3,21,05,25,29,12,,,,,,,,3.7,2.5,2.7*31
Trace #90 at position 22.250000
$GPZDA,104136.03,08,10,2011,00,00*6F
$GPRMC,104136.00,A,4611.963559,N,01258.219004,E,000.9,340.8,081011,0.2,E,A*3E
$GPGGA,104137.00,4611.963880,N,01258.218960,E,1,05,2.5,139.80,M,46.25,M,,*6C
$GPGLL,4611.963880,N,01258.218960,E,104137.00,A,A*6D
$GPVTG,358.6,T,358.8,M,001.2,N,002.1,K,A*2D
$GPGSV,2,1,07,21,34,185,43,05,15,075,52,25,52,114,47,29,78,030,38*7D
$GPGSV,2,2,07,30,80,305,33,31,53,268,,12,19,116,41,,,,*43
$GPGSA,M,3,21,05,25,29,12,,,,,,,,3.7,2.5,2.7*31
Trace #91 at position 22.500000
$GPZDA,104137.03,08,10,2011,00,00*6E
$GPRMC,104137.00,A,4611.963880,N,01258.218960,E,001.2,358.6,081011,0.2,E,A*31
$GPGGA,104138.00,4611.964250,N,01258.218876,E,1,05,2.5,139.78,M,46.25,M,,*62
$GPGLL,4611.964250,N,01258.218876,E,104138.00,A,A*64
$GPVTG,341.3,T,341.5,M,001.3,N,002.4,K,A*21
$GPGSV,2,1,07,21,34,185,43,05,15,075,53,25,52,114,47,29,78,030,40*73
$GPGSV,2,2,07,30,80,305,36,31,53,268,,12,19,116,42,,,,*45
$GPGSA,M,3,21,05,25,29,12,,,,,,,,3.7,2.5,2.7*31
Trace #92 at position 22.750000
$GPZDA,104137.03,08,10,2011,00,00*6E
$GPRMC,104137.00,A,4611.963880,N,01258.218960,E,001.2,358.6,081011,0.2,E,A*31
$GPGGA,104138.00,4611.964250,N,01258.218876,E,1,05,2.5,139.78,M,46.25,M,,*62
$GPGLL,4611.964250,N,01258.218876,E,104138.00,A,A*64
$GPVTG,341.3,T,341.5,M,001.3,N,002.4,K,A*21
$GPGSV,2,1,07,21,34,185,43,05,15,075,53,25,52,114,47,29,78,030,40*73
$GPGSV,2,2,07,30,80,305,36,31,53,268,,12,19,116,42,,,,*45
$GPGSA,M,3,21,05,25,29,12,,,,,,,,3.7,2.5,2.7*31
Trace #93 at position 23.000000
$GPZDA,104138.03,08,10,2011,00,00*61
$GPRMC,104138.00,A,4611.964250,N,01258.218876,E,001.3,341.3,081011,0.2,E,A*34
$GPGGA,104139.00,4611.964551,N,01258.218759,E,1,05,2.5,139.89,M,46.25,M,,*69
$GPGLL,4611.964551,N,01258.218759,E,104139.00,A,A*61
$GPVTG,345.6,T,345.8,M,000.7,N,001.3,K,A*28
$GPGSV,2,1,07,21,34,185,41,05,15,075,52,25,52,114,46,29,78,030,40*71
$GPGSV,2,2,07,30,80,305,36,31,53,268,,12,19,116,41,,,,*46
$GPGSA,M,3,21,05,25,29,12,,,,,,,,3.7,2.5,2.7*31
Trace #94 at position 23.250000
$GPZDA,104138.03,08,10,2011,00,00*61
$GPRMC,104138.00,A,4611.964250,N,01258.218876,E,001.3,341.3,081011,0.2,E,A*34
$GPGGA,104139.00,4611.964551,N,01258.218759,E,1,05,2.5,139.89,M,46.25,M,,*69
$GPGLL,4611.964551,N,01258.218759,E,104139.00,A,A*61
$GPVTG,345.6,T,345.8,M,000.7,N,001.3,K,A*28
$GPGSV,2,1,07,21,34,185,41,05,15,075,52,25,52,114,46,29,78,030,40*71
$GPGSV,2,2,07,30,80,305,36,31,53,268,,12,19,116,41,,,,*46
$GPGSA,M,3,21,05,25,29,12,,,,,,,,3.7,2.5,2.7*31
Trace #95 at position 23.500000
$GPZDA,104138.03,08,10,2011,00,00*61
$GPRMC,104138.00,A,4611.964250,N,01258.218876,E,001.3,341.3,081011,0.2,E,A*34
$GPGGA,104139.00,4611.964551,N,01258.218759,E,1,05,2.5,139.89,M,46.25,M,,*69
$GPGLL,4611.964551,N,01258.218759,E,104139.00,A,A*61
$GPVTG,345.6,T,345.8,M,000.7,N,001.3,K,A*28
$GPGSV,2,1,07,21,34,185,41,05,15,075,52,25,52,114,46,29,78,030,40*71
$GPGSV,2,2,07,30,80,305,36,31,53,268,,12,19,116,41,,,,*46
$GPGSA,M,3,21,05,25,29,12,,,,,,,,3.7,2.5,2.7*31
Trace #96 at position 23.750000
$GPZDA,104139.03,08,10,2011,00,00*60
$GPRMC,104139.00,A,4611.964551,N,01258.218759,E,000.7,345.6,081011,0.2,E,A*35
$GPGGA,104140.00,4611.964817,N,01258.218558,E,1,05,2.5,139.98,M,46.25,M,,*6B
$GPGLL,4611.964817,N,01258.218558,E,104140.00,A,A*63
$GPVTG,317.8,T,318.0,M,001.3,N,002.4,K,A*20
$GPGSV,2,1,07,21,34,185,43,05,15,075,53,25,52,114,46,29,78,030,40*72
$GPGSV,2,2,07,30,80,305,35,31,53,268,,12,19,116,40,,,,*44
$GPGSA,M,3,21,05,25,29,12,,,,,,,,3.7,2.5,2.7*31
Trace #97 at position 24.000000
$GPZDA,104139.03,08,10,2011,00,00*60
$GPRMC,104139.00,A,4611.964551,N,01258.218759,E,000.7,345.6,081011,0.2,E,A*35
$GPGGA,104140.00,4611.964817,N,01258.218558,E,1,05,2.5,139.98,M,46.25,M,,*6B
$GPGLL,4611.964817,N,01258.218558,E,104140.00,A,A*63
$GPVTG,317.8,T,318.0,M,001.3,N,002.4,K,A*20
$GPGSV,2,1,07,21,34,185,43,05,15,075,53,25,52,114,46,29,78,030,40*72
$GPGSV,2,2,07,30,80,305,35,31,53,268,,12,19,116,40,,,,*44
$GPGSA,M,3,21,05,25,29,12,,,,,,,,3.7,2.5,2.7*31
Trace #98 at position 24.250000
$GPZDA,104140.03,08,10,2011,00,00*6E
$GPRMC,104140.00,A,4611.964817,N,01258.218558,E,001.3,317.8,081011,0.2,E,A*3B
$GPGGA,104141.00,4611.965089,N,01258.218292,E,1,05,2.5,140.02,M,46.25,M,,*68
$GPGLL,4611.965089,N,01258.218292,E,104141.00,A,A*6D
$GPVTG,320.2,T,320.3,M,001.0,N,001.8,K,A*2A
$GPGSV,2,1,07,21,34,185,41,05,15,075,52,25,52,114,46,29,78,030,41*70
$GPGSV,2,2,07,30,80,305,37,31,53,268,,12,19,116,39,,,,*48
$GPGSA,M,3,21,05,25,29,12,,,,,,,,3.7,2.5,2.7*31
Trace #99 at position 24.500000
$GPZDA,104140.03,08,10,2011,00,00*6E
$GPRMC,104140.00,A,4611.964817,N,01258.218558,E,001.3,317.8,081011,0.2,E,A*3B
$GPGGA,104141.00,4611.965089,N,01258.218292,E,1,05,2.5,140.02,M,46.25,M,,*68
$GPGLL,4611.965089,N,01258.218292,E,104141.00,A,A*6D
$GPVTG,320.2,T,320.3,M,001.0,N,001.8,K,A*2A
$GPGSV,2,1,07,21,34,185,41,05,15,075,52,25,52,114,46,29,78,030,41*70
$GPGSV,2,2,07,30,80,305,37,31,53,268,,12,19,116,39,,,,*48
$GPGSA,M,3,21,05,25,29,12,,,,,,,,3.7,2.5,2.7*31
Trace #100 at position 24.750000
$GPZDA,104141.03,08,10,2011,00,00*6F
$GPRMC,104141.00,A,4611.965089,N,01258.218292,E,001.0,320.2,081011,0.2,E,A*38
$GPGGA,104142.00,4611.965392,N,01258.218094,E,1,05,2.5,140.06,M,46.25,M,,*62
$GPGLL,4611.965392,N,01258.218094,E,104142.00,A,A*63
$GPVTG,335.0,T,335.1,M,001.3,N,002.4,K,A*26
$GPGSV,2,1,07,21,34,185,43,05,15,075,52,25,52,115,47,29,78,030,40*73
$GPGSV,2,2,07,30,80,305,36,31,53,268,,12,19,116,39,,,,*49
$GPGSA,M,3,21,05,25,29,12,,,,,,,,3.7,2.5,2.7*31
Trace #101 at position 25.000000
$GPZDA,104145.03,08,10,2011,00,00*6B
$GPRMC,104145.00,A,4611.965739,N,01258.217968,E,000.2,227.7,081011,0.2,E,A*31
$GPGGA,104146.00,4611.965763,N,01258.217985,E,1,05,2.5,140.20,M,46.25,M,,*6E
$GPGLL,4611.965763,N,01258.217985,E,104146.00,A,A*6B
$GPVTG,134.1,T,134.3,M,000.1,N,000.2,K,A*22
$GPGSV,2,1,07,21,34,185,42,05,15,075,53,25,52,115,48,29,78,030,39*72
$GPGSV,2,2,07,30,80,305,35,31,53,268,,12,19,116,42,,,,*46
$GPGSA,M,3,21,05,25,29,12,,,,,,,,3.7,2.5,2.7*31
Trace #102 at position 25.250000
$GPZDA,104146.03,08,10,2011,00,00*68
$GPRMC,104146.00,A,4611.965763,N,01258.217985,E,000.1,134.1,081011,0.2,E,A*3A
$GPGGA,104147.00,4611.965807,N,01258.218017,E,1,05,2.5,140.17,M,46.25,M,,*6B
$GPGLL,4611.965807,N,01258.218017,E,104147.00,A,A*6A
$GPVTG,336.8,T,337.0,M,000.1,N,000.1,K,A*2A
$GPGSV,2,1,07,21,34,185,42,05,15,075,53,25,52,115,48,29,78,030,39*72
$GPGSV,2,2,07,30,80,305,34,31,53,268,,12,19,116,42,,,,*47
$GPGSA,M,3,21,05,25,29,12,,,,,,,,3.7,2.5,2.7*31
Trace #103 at position 25.500000
$GPZDA,104146.03,08,10,2011,00,00*68
$GPRMC,104146.00,A,4611.965763,N,01258.217985,E,000.1,134.1,081011,0.2,E,A*3A
$GPGGA,104147.00,4611.965807,N,01258.218017,E,1,05,2.5,140.17,M,46.25,M,,*6B
$GPGLL,4611.965807,N,01258.218017,E,104147.00,A,A*6A
$GPVTG,336.8,T,337.0,M,000.1,N,000.1,K,A*2A
$GPGSV,2,1,07,21,34,185,42,05,15,075,53,25,52,115,48,29,78,030,39*72
$GPGSV,2,2,07,30,80,305,34,31,53,268,,12,19,116,42,,,,*47
$GPGSA,M,3,21,05,25,29,12,,,,,,,,3.7,2.5,2.7*31
Trace #104 at position 25.750000
$GPZDA,104147.03,08,10,2011,00,00*69
$GPRMC,104147.00,A,4611.965807,N,01258.218017,E,000.1,336.8,081011,0.2,E,A*32
$GPGGA,104148.00,4611.965942,N,01258.218066,E,1,04,3.4,140.13,M,46.25,M,,*67
$GPGLL,4611.965942,N,01258.218066,E,104148.00,A,A*63
$GPVTG,353.8,T,354.0,M,001.0,N,001.8,K,A*24
$GPGSV,2,1,07,21,34,185,43,05,15,075,52,25,52,115,47,29,78,030,35*71
$GPGSV,2,2,07,30,80,305,33,31,53,268,,12,19,116,40,,,,*42
$GPGSA,M,3,21,05,25,12,,,,,,,,,4.5,3.4,2.9*31
Trace #105 at position 26.000000
$GPZDA,104147.03,08,10,2011,00,00*69
$GPRMC,104147.00,A,4611.965807,N,01258.218017,E,000.1,336.8,081011,0.2,E,A*32
$GPGGA,104148.00,4611.965942,N,01258.218066,E,1,04,3.4,140.13,M,46.25,M,,*67
$GPGLL,4611.965942,N,01258.218066,E,104148.00,A,A*63
$GPVTG,353.8,T,354.0,M,001.0,N,001.8,K,A*24
$GPGSV,2,1,07,21,34,185,43,05,15,075,52,25,52,115,47,29,78,030,35*71
$GPGSV,2,2,07,30,80,305,33,31,53,268,,12,19,116,40,,,,*42
$GPGSA,M,3,21,05,25,12,,,,,,,,,4.5,3.4,2.9*31
Trace #106 at position 26.250000
$GPZDA,104148.03,08,10,2011,00,00*66
$GPRMC,104148.00,A,4611.965942,N,01258.218066,E,001.0,353.8,081011,0.2,E,A*38
$GPGGA,104149.00,4611.966230,N,01258.218000,E,1,04,3.4,140.12,M,46.25,M,,*6A
$GPGLL,4611.966230,N,01258.218000,E,104149.00,A,A*6F
$GPVTG,334.8,T,335.0,M,001.3,N,002.5,K,A*2F
$GPGSV,2,1,07,21,34,185,42,05,15,075,52,25,52,115,47,29,78,030,38*7D
$GPGSV,2,2,07,30,80,305,33,31,53,268,,12,19,116,41,,,,*43
$GPGSA,M,3,21,05,25,12,,,,,,,,,4.5,3.4,2.9*31
Trace #107 at position 26.500000
$GPZDA,104148.03,08,10,2011,00,00*66
$GPRMC,104148.00,A,4611.965942,N,01258.218066,E,001.0,353.8,081011,0.2,E,A*38
$GPGGA,104149.00,4611.966230,N,01258.218000,E,1,04,3.4,140.12,M,46.25,M,,*6A
$GPGLL,4611.966230,N,01258.218000,E,104149.00,A,A*6F
$GPVTG,334.8,T,335.0,M,001.3,N,002.5,K,A*2F
$GPGSV,2,1,07,21,34,185,42,05,15,075,52,25,52,115,47,29,78,030,38*7D
$GPGSV,2,2,07,30,80,305,33,31,53,268,,12,19,116,41,,,,*43
$GPGSA,M,3,21,05,25,12,,,,,,,,,4.5,3.4,2.9*31
Trace #108 at position 26.750000
$GPZDA,104148.03,08,10,2011,00,00*66
$GPRMC,104148.00,A,4611.965942,N,01258.218066,E,001.0,353.8,081011,0.2,E,A*38
$GPGGA,104149.00,4611.966230,N,01258.218000,E,1,04,3.4,140.12,M,46.25,M,,*6A
$GPGLL,4611.966230,N,01258.218000,E,104149.00,A,A*6F
$GPVTG,334.8,T,335.0,M,001.3,N,002.5,K,A*2F
$GPGSV,2,1,07,21,34,185,42,05,15,075,52,25,52,115,47,29,78,030,38*7D
$GPGSV,2,2,07,30,80,305,33,31,53,268,,12,19,116,41,,,,*43
$GPGSA,M,3,21,05,25,12,,,,,,,,,4.5,3.4,2.9*31
Trace #109 at position 27.000000
$GPZDA,104148.03,08,10,2011,00,00*66
$GPRMC,104148.00,A,4611.965942,N,01258.218066,E,001.0,353.8,081011,0.2,E,A*38
$GPGGA,104149.00,4611.966230,N,01258.218000,E,1,04,3.4,140.12,M,46.25,M,,*6A
$GPGLL,4611.966230,N,01258.218000,E,104149.00,A,A*6F
$GPVTG,334.8,T,335.0,M,001.3,N,002.5,K,A*2F
$GPGSV,2,1,07,21,34,185,42,05,15,075,52,25,52,115,47,29,78,030,38*7D
$GPGSV,2,2,07,30,80,305,33,31,53,268,,12,19,116,41,,,,*43
$GPGSA,M,3,21,05,25,12,,,,,,,,,4.5,3.4,2.9*31
Trace #110 at position 27.250000
$GPZDA,104149.03,08,10,2011,00,00*67
$GPRMC,104149.00,A,4611.966230,N,01258.218000,E,001.3,334.8,081011,0.2,E,A*36
$GPGGA,104150.00,4611.966559,N,01258.217880,E,1,05,2.5,140.14,M,46.25,M,,*62
$GPGLL,4611.966559,N,01258.217880,E,104150.00,A,A*60
$GPVTG,358.3,T,358.5,M,001.0,N,001.8,K,A*2D
$GPGSV,2,1,07,21,34,185,42,05,15,075,52,25,52,115,48,29,78,031,41*7D
$GPGSV,2,2,07,30,80,305,,31,53,268,,12,19,116,43,,,,*41
$GPGSA,M,3,21,05,25,29,12,,,,,,,,3.7,2.5,2.7*31
Trace #111 at position 27.500000
$GPZDA,104149.03,08,10,2011,00,00*67
$GPRMC,104149.00,A,4611.966230,N,01258.218000,E,001.3,334.8,081011,0.2,E,A*36
$GPGGA,104150.00,4611.966559,N,01258.217880,E,1,05,2.5,140.14,M,46.25,M,,*62
$GPGLL,4611.966559,N,01258.217880,E,104150.00,A,A*60
$GPVTG,358.3,T,358.5,M,001.0,N,001.8,K,A*2D
$GPGSV,2,1,07,21,34,185,42,05,15,075,52,25,52,115,48,29,78,031,41*7D
$GPGSV,2,2,07,30,80,305,,31,53,268,,12,19,116,43,,,,*41
$GPGSA,M,3,21,05,25,29,12,,,,,,,,3.7,2.5,2.7*31
Trace #112 at position 27.750000
$GPZDA,104150.03,08,10,2011,00,00*6F
$GPRMC,104150.00,A,4611.966559,N,01258.217880,E,001.0,358.3,081011,0.2,E,A*3B
$GPGGA,104151.00,4611.966928,N,01258.217761,E,1,05,2.5,140.16,M,46.25,M,,*6B
$GPGLL,4611.966928,N,01258.217761,E,104151.00,A,A*6B
$GPVTG,339.5,T,339.7,M,001.6,N,003.0,K,A*25
$GPGSV,2,1,07,21,34,185,42,05,15,075,53,25,52,115,47,29,78,031,39*7C
$GPGSV,2,2,07,30,80,305,31,31,53,268,,12,19,116,42,,,,*42
$GPGSA,M,3,21,05,25,29,12,,,,,,,,3.7,2.5,2.7*31
Trace #113 at position 28.000000
$GPZDA,104150.03,08,10,2011,00,00*6F
$GPRMC,104150.00,A,4611.966559,N,01258.217880,E,001.0,358.3,081011,0.2,E,A*3B
$GPGGA,104151.00,4611.966928,N,01258.217761,E,1,05,2.5,140.16,M,46.25,M,,*6B
$GPGLL,4611.966928,N,01258.217761,E,104151.00,A,A*6B
$GPVTG,339.5,T,339.7,M,001.6,N,003.0,K,A*25
$GPGSV,2,1,07,21,34,185,42,05,15,075,53,25,52,115,47,29,78,031,39*7C
$GPGSV,2,2,07,30,80,305,31,31,53,268,,12,19,116,42,,,,*42
$GPGSA,M,3,21,05,25,29,12,,,,,,,,3.7,2.5,2.7*31
Trace #114 at position 28.250000
$GPZDA,104150.03,08,10,2011,00,00*6F
$GPRMC,104150.00,A,4611.966559,N,01258.217880,E,001.0,358.3,081011,0.2,E,A*3B
$GPGGA,104151.00,4611.966928,N,01258.217761,E,1,05,2.5,140.16,M,46.25,M,,*6B
$GPGLL,4611.966928,N,01258.217761,E,104151.00,A,A*6B
$GPVTG,339.5,T,339.7,M,001.6,N,003.0,K,A*25
$GPGSV,2,1,07,21,34,185,42,05,15,075,53,25,52,115,47,29,78,031,39*7C
$GPGSV,2,2,07,30,80,305,31,31,53,268,,12,19,116,42,,,,*42
$GPGSA,M,3,21,05,25,29,12,,,,,,,,3.7,2.5,2.7*31
Trace #115 at position 28.500000
$GPZDA,104151.03,08,10,2011,00,00*6E
$GPRMC,104151.00,A,4611.966928,N,01258.217761,E,001.6,339.5,081011,0.2,E,A*37
$GPGGA,104152.00,4611.967281,N,01258.217594,E,1,05,2.5,140.23,M,46.25,M,,*6F
$GPGLL,4611.967281,N,01258.217594,E,104152.00,A,A*69
$GPVTG,341.7,T,341.9,M,001.0,N,001.8,K,A*25
$GPGSV,2,1,07,21,34,185,40,05,15,075,52,25,52,115,46,29,77,031,38*70
$GPGSV,2,2,07,30,80,305,,31,53,268,,12,19,116,41,,,,*43
$GPGSA,M,3,21,05,25,29,12,,,,,,,,3.7,2.5,2.7*31
Trace #116 at position 28.750000
$GPZDA,104151.03,08,10,2011,00,00*6E
$GPRMC,104151.00,A,4611.966928,N,01258.217761,E,001.6,339.5,081011,0.2,E,A*37
$GPGGA,104152.00,4611.967281,N,01258.217594,E,1,05,2.5,140.23,M,46.25,M,,*6F
$GPGLL,4611.967281,N,01258.217594,E,104152.00,A,A*69
$GPVTG,341.7,T,341.9,M,001.0,N,001.8,K,A*25
$GPGSV,2,1,07,21,34,185,40,05,15,075,52,25,52,115,46,29,77,031,38*70
$GPGSV,2,2,07,30,80,305,,31,53,268,,12,19,116,41,,,,*43
$GPGSA,M,3,21,05,25,29,12,,,,,,,,3.7,2.5,2.7*31
Trace #117 at position 29.000000
$GPZDA,104152.03,08,10,2011,00,00*6D
$GPRMC,104152.00,A,4611.967281,N,01258.217594,E,001.0,341.7,081011,0.2,E,A*3E
$GPGGA,104153.00,4611.967510,N,01258.217636,E,1,05,2.5,140.15,M,46.25,M,,*6F
$GPGLL,4611.967510,N,01258.217636,E,104153.00,A,A*6C
$GPVTG,49.5,T,49.6,M,000.8,N,001.5,K,A*2C
$GPGSV,2,1,07,21,34,185,42,05,15,075,51,25,52,115,46,29,77,031,39*70
$GPGSV,2,2,07,30,80,305,,31,53,268,,12,19,116,40,,,,*42
$GPGSA,M,3,21,05,25,29,12,,,,,,,,3.7,2.5,2.7*31
Trace #118 at position 29.250000
$GPZDA,104152.03,08,10,2011,00,00*6D
$GPRMC,104152.00,A,4611.967281,N,01258.217594,E,001.0,341.7,081011,0.2,E,A*3E
$GPGGA,104153.00,4611.967510,N,01258.217636,E,1,05,2.5,140.15,M,46.25,M,,*6F
$GPGLL,4611.967510,N,01258.217636,E,104153.00,A,A*6C
$GPVTG,49.5,T,49.6,M,000.8,N,001.5,K,A*2C
$GPGSV,2,1,07,21,34,185,42,05,15,075,51,25,52,115,46,29,77,031,39*70
$GPGSV,2,2,07,30,80,305,,31,53,268,,12,19,116,40,,,,*42
$GPGSA,M,3,21,05,25,29,12,,,,,,,,3.7,2.5,2.7*31
Trace #119 at position 29.500000
$GPZDA,104152.03,08,10,2011,00,00*6D
$GPRMC,104152.00,A,4611.967281,N,01258.217594,E,001.0,341.7,081011,0.2,E,A*3E
