Trace #1 at position 0.000000
$GPZDA,090149.03,08,10,2011,00,00*6B
$GPRMC,090149.00,A,4611.951585,N,01258.217909,E,000.1,351.7,081011,0.2,E,A*37
$GPGGA,090150.00,4611.951616,N,01258.217899,E,1,04,5.7,140.44,M,46.25,M,,*6B
$GPGLL,4611.951616,N,01258.217899,E,090150.00,A,A*68
$GPVTG,140.8,T,141.0,M,000.3,N,000.5,K,A*2C
$GPGSV,2,1,08,02,38,077,47,09,18,152,,12,56,078,48,14,27,252,34*7F
$GPGSV,2,2,08,25,77,341,39,29,53,224,46,30,35,291,,31,26,313,34*7E
$GPGSA,M,3,02,12,25,29,,,,,,,,,10.3,5.7,8.6*0D
Trace #2 at position 0.250000
$GPRMC,090154.00,A,4611.951721,N,01258.217804,E,000.2,144.3,081011,0.2,E,A*3A
$GPGGA,090155.00,4611.951747,N,01258.217789,E,1,04,5.7,139.93,M,46.25,M,,*61
$GPGLL,4611.951747,N,01258.217789,E,090155.00,A,A*66
$GPVTG,4.5,T,4.6,M,000.1,N,000.1,K,A*20
$GPGSV,2,1,08,02,38,077,48,09,18,152,,12,56,078,47,14,27,252,39*72
$GPGSV,2,2,08,25,77,341,44,29,53,224,45,30,35,291,,31,26,313,30*73
$GPGSA,M,3,02,12,25,29,,,,,,,,,10.3,5.7,8.6*0D
Trace #3 at position 0.500000
$GPZDA,090156.03,08,10,2011,00,00*65
$GPRMC,090156.00,A,4611.951782,N,01258.217758,E,000.0,220.9,081011,0.2,E,A*3E
$GPGGA,090157.00,4611.951829,N,01258.217699,E,1,04,5.7,139.71,M,46.25,M,,*68
$GPGLL,4611.951829,N,01258.217699,E,090157.00,A,A*63
$GPVTG,316.5,T,316.7,M,000.2,N,000.4,K,A*27
$GPGSV,2,1,08,02,38,077,47,09,18,152,,12,56,078,47,14,27,252,37*73
$GPGSV,2,2,08,25,77,341,44,29,53,224,45,30,35,291,,31,26,313,30*73
$GPGSA,M,3,02,12,25,29,,,,,,,,,10.3,5.7,8.5*0E
Trace #4 at position 0.750000
$GPZDA,090157.03,08,10,2011,00,00*64
$GPRMC,090157.00,A,4611.951829,N,01258.217699,E,000.2,316.5,081011,0.2,E,A*37
$GPGGA,090158.00,4611.951861,N,01258.217661,E,1,04,5.7,139.66,M,46.25,M,,*6A
$GPGLL,4611.951861,N,01258.217661,E,090158.00,A,A*67
$GPVTG,156.4,T,156.5,M,000.1,N,000.2,K,A*21
$GPGSV,2,1,08,02,38,077,47,09,18,152,,12,56,078,47,14,27,252,37*73
$GPGSV,2,2,08,25,77,342,43,29,53,224,45,30,35,291,,31,26,313,26*70
$GPGSA,M,3,02,12,25,29,,,,,,,,,10.3,5.7,8.5*0E
Trace #5 at position 1.000000
$GPZDA,090158.03,08,10,2011,00,00*6B
$GPRMC,090158.00,A,4611.951861,N,01258.217661,E,000.1,156.4,081011,0.2,E,A*37
$GPGGA,090159.00,4611.951884,N,01258.217656,E,1,04,5.7,139.65,M,46.25,M,,*67
$GPGLL,4611.951884,N,01258.217656,E,090159.00,A,A*69
$GPVTG,358.3,T,358.5,M,000.1,N,000.3,K,A*27
$GPGSV,2,1,08,02,38,077,47,09,18,152,,12,56,078,47,14,27,252,36*72
$GPGSV,2,2,08,25,77,342,45,29,53,224,45,30,35,291,,31,26,313,*72
$GPGSA,M,3,02,12,25,29,,,,,,,,,10.3,5.7,8.5*0E
Trace #6 at position 1.250000
$GPZDA,090159.03,08,10,2011,00,00*6A
$GPRMC,090159.00,A,4611.951884,N,01258.217656,E,000.1,358.3,081011,0.2,E,A*32
$GPGGA,090200.00,4611.951949,N,01258.217610,E,1,04,5.7,139.52,M,46.25,M,,*6E
$GPGLL,4611.951949,N,01258.217610,E,090200.00,A,A*64
$GPVTG,323.6,T,323.8,M,000.3,N,000.6,K,A*28
$GPGSV,2,1,08,02,38,077,47,09,18,152,,12,56,078,48,14,27,252,38*73
$GPGSV,2,2,08,25,77,342,46,29,53,224,44,30,35,291,,31,26,313,*70
$GPGSA,M,3,02,12,25,29,,,,,,,,,10.2,5.7,8.5*0F
Trace #7 at position 1.500000
$GPZDA,090200.03,08,10,2011,00,00*65
$GPRMC,090200.00,A,4611.951949,N,01258.217610,E,000.3,323.6,081011,0.2,E,A*34
$GPGGA,090201.00,4611.951991,N,01258.217594,E,1,04,5.7,139.51,M,46.25,M,,*66
$GPGLL,4611.951991,N,01258.217594,E,090201.00,A,A*6F
$GPVTG,111.5,T,111.7,M,000.2,N,000.3,K,A*20
$GPGSV,2,1,08,02,38,077,48,09,18,152,,12,56,078,48,14,27,252,38*7C
$GPGSV,2,2,08,25,77,342,47,29,53,224,46,30,35,291,,31,26,313,*73
$GPGSA,M,3,02,12,25,29,,,,,,,,,10.2,5.7,8.5*0F
Trace #8 at position 1.750000
$GPZDA,090201.03,08,10,2011,00,00*64
$GPRMC,090201.00,A,4611.951991,N,01258.217594,E,000.2,111.5,081011,0.2,E,A*3E
$GPGGA,090202.00,4611.952032,N,01258.217571,E,1,04,5.7,139.54,M,46.25,M,,*68
$GPGLL,4611.952032,N,01258.217571,E,090202.00,A,A*64
$GPVTG,317.0,T,317.1,M,000.3,N,000.5,K,A*24
$GPGSV,2,1,08,02,38,077,48,09,18,152,,12,56,078,49,14,27,252,39*7C
$GPGSV,2,2,08,25,77,342,46,29,53,224,45,30,35,291,,31,26,313,*71
$GPGSA,M,3,02,12,25,29,,,,,,,,,10.2,5.7,8.5*0F
Trace #9 at position 2.000000
$GPZDA,090202.03,08,10,2011,00,00*67
$GPRMC,090202.00,A,4611.952032,N,01258.217571,E,000.3,317.0,081011,0.2,E,A*35
$GPGGA,090203.00,4611.952149,N,01258.217515,E,1,04,5.7,139.47,M,46.25,M,,*64
$GPGLL,4611.952149,N,01258.217515,E,090203.00,A,A*6A
$GPVTG,358.6,T,358.7,M,000.5,N,000.9,K,A*2E
$GPGSV,2,1,08,02,38,077,49,09,18,152,,12,56,078,49,14,27,252,38*7C
$GPGSV,2,2,08,25,77,342,48,29,53,224,46,30,35,291,,31,26,313,*7C
$GPGSA,M,3,02,12,25,29,,,,,,,,,10.2,5.7,8.5*0F
Trace #10 at position 2.250000
$GPZDA,090203.03,08,10,2011,00,00*66
$GPRMC,090203.00,A,4611.952149,N,01258.217515,E,000.5,358.6,081011,0.2,E,A*30
$GPGGA,090204.00,4611.952338,N,01258.217424,E,1,04,5.7,139.33,M,46.25,M,,*67
$GPGLL,4611.952338,N,01258.217424,E,090204.00,A,A*6A
$GPVTG,333.4,T,333.6,M,000.9,N,001.7,K,A*2E
$GPGSV,2,1,08,02,38,077,49,09,18,152,,12,56,078,48,14,27,252,35*70
$GPGSV,2,2,08,25,77,342,47,29,53,224,44,30,35,291,,31,26,313,*71
$GPGSA,M,3,02,12,25,29,,,,,,,,,10.2,5.7,8.5*0F
Trace #11 at position 2.500000
$GPZDA,090203.03,08,10,2011,00,00*66
$GPRMC,090203.00,A,4611.952149,N,01258.217515,E,000.5,358.6,081011,0.2,E,A*30
$GPGGA,090204.00,4611.952338,N,01258.217424,E,1,04,5.7,139.33,M,46.25,M,,*67
$GPGLL,4611.952338,N,01258.217424,E,090204.00,A,A*6A
$GPVTG,333.4,T,333.6,M,000.9,N,001.7,K,A*2E
$GPGSV,2,1,08,02,38,077,49,09,18,152,,12,56,078,48,14,27,252,35*70
$GPGSV,2,2,08,25,77,342,47,29,53,224,44,30,35,291,,31,26,313,*71
$GPGSA,M,3,02,12,25,29,,,,,,,,,10.2,5.7,8.5*0F
Trace #12 at position 2.750000
$GPZDA,090205.03,08,10,2011,00,00*60
$GPRMC,090205.00,A,4611.952483,N,01258.217323,E,000.3,336.3,081011,0.2,E,A*3D
$GPGGA,090206.00,4611.952530,N,01258.217339,E,1,04,5.7,139.43,M,46.25,M,,*67
$GPGLL,4611.952530,N,01258.217339,E,090206.00,A,A*6D
$GPVTG,77.3,T,77.4,M,000.2,N,000.4,K,A*22
$GPGSV,2,1,08,02,38,077,49,09,18,152,,12,56,078,47,14,27,252,38*72
$GPGSV,2,2,08,25,77,342,48,29,53,224,45,30,35,291,,31,26,313,31*7D
$GPGSA,M,3,02,12,25,29,,,,,,,,,10.2,5.7,8.5*0F
Trace #13 at position 3.000000
$GPZDA,090205.03,08,10,2011,00,00*60
$GPRMC,090205.00,A,4611.952483,N,01258.217323,E,000.3,336.3,081011,0.2,E,A*3D
$GPGGA,090206.00,4611.952530,N,01258.217339,E,1,04,5.7,139.43,M,46.25,M,,*67
$GPGLL,4611.952530,N,01258.217339,E,090206.00,A,A*6D
$GPVTG,77.3,T,77.4,M,000.2,N,000.4,K,A*22
$GPGSV,2,1,08,02,38,077,49,09,18,152,,12,56,078,47,14,27,252,38*72
$GPGSV,2,2,08,25,77,342,48,29,53,224,45,30,35,291,,31,26,313,31*7D
$GPGSA,M,3,02,12,25,29,,,,,,,,,10.2,5.7,8.5*0F
Trace #14 at position 3.250000
$GPZDA,090206.03,08,10,2011,00,00*63
$GPRMC,090206.00,A,4611.952530,N,01258.217339,E,000.2,77.3,081011,0.2,E,A*0B
$GPGGA,090207.00,4611.952654,N,01258.217389,E,1,04,5.7,139.53,M,46.25,M,,*6D
$GPGLL,4611.952654,N,01258.217389,E,090207.00,A,A*66
$GPVTG,12.8,T,12.9,M,000.7,N,001.4,K,A*20
$GPGSV,2,1,08,02,38,077,49,09,18,152,,12,56,078,48,14,27,252,37*72
$GPGSV,2,2,08,25,77,342,47,29,53,224,45,30,35,291,,31,26,313,*70
$GPGSA,M,3,02,12,25,29,,,,,,,,,10.2,5.7,8.5*0F
Trace #15 at position 3.500000
$GPZDA,090207.03,08,10,2011,00,00*62
$GPRMC,090207.00,A,4611.952654,N,01258.217389,E,000.7,12.8,081011,0.2,E,A*0D
$GPGGA,090208.00,4611.952789,N,01258.217360,E,1,04,5.7,139.55,M,46.25,M,,*62
$GPGLL,4611.952789,N,01258.217360,E,090208.00,A,A*6F
$GPVTG,312.3,T,312.4,M,000.2,N,000.4,K,A*22
$GPGSV,2,1,08,02,38,077,49,09,17,152,,12,56,078,48,14,27,252,32*78
$GPGSV,2,2,08,25,77,342,46,29,53,224,45,30,35,291,,31,26,313,28*7B
$GPGSA,M,3,02,12,25,29,,,,,,,,,10.2,5.7,8.5*0F
Trace #16 at position 3.750000
$GPZDA,090208.03,08,10,2011,00,00*6D
$GPRMC,090208.00,A,4611.952789,N,01258.217360,E,000.2,312.3,081011,0.2,E,A*39
$GPGGA,090209.00,4611.952917,N,01258.217247,E,1,04,5.7,139.59,M,46.25,M,,*62
$GPGLL,4611.952917,N,01258.217247,E,090209.00,A,A*63
$GPVTG,335.7,T,335.9,M,000.7,N,001.3,K,A*28
$GPGSV,2,1,08,02,38,077,50,09,17,152,,12,56,078,48,14,27,252,33*71
$GPGSV,2,2,08,25,77,342,47,29,53,224,46,30,35,291,37,31,26,313,26*73
$GPGSA,M,3,02,12,25,29,,,,,,,,,10.2,5.7,8.5*0F
Trace #17 at position 4.000000
$GPZDA,090209.03,08,10,2011,00,00*6C
$GPRMC,090209.00,A,4611.952917,,000.7,335.7,081011,0.2,E,A*31
$GPGGA,090210.00,4611.953146,N,01258.217109,E,1,04,5.7,139.47,M,46.25,M,,*61
$GPGLL,4611.953146,N,01258.217109,E,090210.00,A,A*6F
$GPVTG,341.8,T,341.9,M,001.0,N,001.8,K,A*2A
$GPGSV,2,1,08,02,38,077,48,09,17,152,,12,56,078,48,14,27,252,38*73
$GPGSV,2,2,08,25,77,342,47,29,53,224,46,30,35,291,40,31,26,313,*77
$GPGSA,M,3,02,12,25,29,,,,,,,,,10.2,5.7,8.5*0F
Trace #18 at position 4.250000
$GPZDA,090210.03,08,10,2011,00,00*64
$GPRMC,090210.00,A,4611.953146,N,01258.217109,E,001.0,341.8,081011,0.2,E,A*37
$GPGGA,090211.00,4611.953345,N,01258.216956,E,1,05,3.0,139.31,M,46.25,M,,*63
$GPGLL,4611.953345,N,01258.216956,E,090211.00,A,A*6C
$GPVTG,316.8,T,317.0,M,000.6,N,001.1,K,A*2C
$GPGSV,2,1,08,02,38,077,49,09,17,152,,12,56,078,48,14,27,252,39*73
$GPGSV,2,2,08,25,77,342,48,29,53,224,46,30,35,291,38,31,26,313,*77
$GPGSA,M,3,02,12,14,25,29,,,,,,,,4.1,3.0,2.7*35
Trace #19 at position 4.500000
$GPZDA,090211.03,08,10,2011,00,00*65
$GPRMC,090211.00,A,4611.953345,N,01258.216956,E,000.6,316.8,081011,0.2,E,A*31
$GPGGA,090212.00,4611.953516,N,01258.216844,E,1,05,3.0,139.23,M,46.25,M,,*61
$GPGLL,4611.953516,N,01258.216844,E,090212.00,A,A*6D
$GPVTG,349.9,T,350.1,M,000.8,N,001.6,K,A*2C
$GPGSV,2,1,08,02,38,077,49,09,17,152,,12,56,078,47,14,27,252,40*72
$GPGSV,2,2,08,25,77,342,47,29,53,224,44,30,35,291,39,31,26,313,*7B
$GPGSA,M,3,02,12,14,25,29,,,,,,,,4.1,3.0,2.7*35
Trace #20 at position 4.750000
$GPZDA,090212.03,08,10,2011,00,00*66
$GPRMC,090212.00,A,4611.953516,N,01258.216844,E,000.8,349.9,081011,0.2,E,A*35
$GPGGA,090213.00,4611.953662,N,01258.216746,E,1,05,3.0,139.25,M,46.25,M,,*6B
$GPGLL,4611.953662,N,01258.216746,E,090213.00,A,A*61
$GPVTG,299.7,T,299.9,M,000.4,N,000.8,K,A*21
$GPGSV,2,1,08,02,38,077,49,09,17,152,,12,56,078,47,14,27,252,39*7C
$GPGSV,2,2,08,25,77,342,47,29,53,224,45,30,35,291,36,31,26,313,*75
$GPGSA,M,3,02,12,14,25,29,,,,,,,,4.1,3.0,2.7*35
Trace #21 at position 5.000000
$GPZDA,090212.03,08,10,2011,00,00*66
$GPRMC,090212.00,A,4611.953516,N,01258.216844,E,000.8,349.9,081011,0.2,E,A*35
$GPGGA,090213.00,4611.953662,N,01258.216746,E,1,05,3.0,139.25,M,46.25,M,,*6B
$GPGLL,4611.953662,N,01258.216746,E,090213.00,A,A*61
$GPVTG,299.7,T,299.9,M,000.4,N,000.8,K,A*21
$GPGSV,2,1,08,02,38,077,49,09,17,152,,12,56,078,47,14,27,252,39*7C
$GPGSV,2,2,08,25,77,342,47,29,53,224,45,30,35,291,36,31,26,313,*75
$GPGSA,M,3,02,12,14,25,29,,,,,,,,4.1,3.0,2.7*35
Trace #22 at position 5.250000
$GPZDA,090213.03,08,10,2011,00,00*67
$GPRMC,090213.00,A,4611.953662,N,01258.216746,E,000.4,299.7,081011,0.2,E,A*37
$GPGGA,090214.00,4611.953754,N,01258.216626,E,1,05,3.0,139.30,M,46.25,M,,*6B
$GPGLL,4611.953754,N,01258.216626,E,090214.00,A,A*65
$GPVTG,320.9,T,321.1,M,000.5,N,000.8,K,A*27
$GPGSV,2,1,08,02,38,077,48,09,17,152,,12,56,079,47,14,27,252,39*7C
$GPGSV,2,2,08,25,77,342,47,29,53,224,44,30,35,291,38,31,26,313,24*7C
$GPGSA,M,3,02,12,14,25,29,,,,,,,,4.1,3.0,2.7*35
Trace #23 at position 5.500000
$GPZDA,090214.03,08,10,2011,00,00*60
$GPRMC,090214.00,A,4611.953754,N,01258.216626,E,000.5,320.9,081011,0.2,E,A*3F
$GPGGA,090215.00,4611.953888,N,01258.216438,E,1,05,3.0,139.32,M,46.25,M,,*6B
$GPGLL,4611.953888,N,01258.216438,E,090215.00,A,A*67
$GPVTG,301.6,T,301.8,M,000.9,N,001.7,K,A*22
$GPGSV,2,1,08,02,38,077,47,09,17,152,,12,56,079,48,14,27,252,40*72
$GPGSV,2,2,08,25,77,342,48,29,53,224,45,30,35,291,37,31,26,313,*7B
$GPGSA,M,3,02,12,14,25,29,,,,,,,,4.1,3.0,2.7*35
Trace #24 at position 5.750000
$GPZDA,090215.03,08,10,2011,00,00*61
$GPRMC,090215.00,A,4611.953888,N,01258.216438,E,000.9,301.6,081011,0.2,E,A*3D
$GPGGA,090216.00,4611.954097,N,01258.216351,E,1,05,3.0,139.34,M,46.25,M,,*67
$GPGLL,4611.954097,N,01258.216351,E,090216.00,A,A*6D
$GPVTG,11.6,T,11.8,M,001.0,N,001.8,K,A*25
$GPGSV,2,1,08,02,38,077,47,09,17,152,,12,56,079,47,14,27,252,40*7D
$GPGSV,2,2,08,25,77,342,48,29,53,224,44,30,35,291,36,31,26,313,*7B
$GPGSA,M,3,02,12,14,25,29,,,,,,,,4.1,3.0,2.7*35
Trace #25 at position 6.000000
$GPZDA,090215.03,08,10,2011,00,00*61
$GPRMC,090215.00,A,4611.953888,N,01258.216438,E,000.9,301.6,081011,0.2,E,A*3D
$GPGGA,090216.00,4611.954097,N,01258.216351,E,1,05,3.0,139.34,M,46.25,M,,*67
$GPGLL,4611.954097,N,01258.216351,E,090216.00,A,A*6D
$GPVTG,11.6,T,11.8,M,001.0,N,001.8,K,A*25
$GPGSV,2,1,08,02,38,077,47,09,17,152,,12,56,079,47,14,27,252,40*7D
$GPGSV,2,2,08,25,77,342,48,29,53,224,44,30,35,291,36,31,26,313,*7B
$GPGSA,M,3,02,12,14,25,29,,,,,,,,4.1,3.0,2.7*35
Trace #26 at position 6.250000
$GPZDA,090216.03,08,10,2011,00,00*62
$GPRMC,090216.00,A,4611.954097,N,01258.216351,E,001.0,11.6,081011,0.2,E,A*0D
$GPGGA,090217.00,4611.954213,N,01258.216437,E,1,05,3.0,139.27,M,46.25,M,,*6D
$GPGLL,4611.954213,N,01258.216437,E,090217.00,A,A*65
$GPVTG,139.3,T,139.4,M,000.2,N,000.4,K,A*22
$GPGSV,2,1,08,02,38,077,45,09,17,152,,12,56,079,47,14,27,252,40*7F
$GPGSV,2,2,08,25,77,342,48,29,53,224,44,30,35,291,37,31,26,313,29*71
$GPGSA,M,3,02,12,14,25,29,,,,,,,,4.1,3.0,2.7*35
Trace #27 at position 6.500000
$GPZDA,090217.03,08,10,2011,00,00*63
$GPRMC,090217.00,A,4611.954213,N,01258.216437,E,000.2,139.3,081011,0.2,E,A*38
$GPGGA,090218.00,4611.954253,N,01258.216297,E,1,05,3.0,139.30,M,46.25,M,,*6C
$GPGLL,4611.954253,N,01258.216297,E,090218.00,A,A*62
$GPVTG,290.5,T,290.7,M,001.0,N,001.9,K,A*28
$GPGSV,2,1,08,02,38,077,47,09,17,152,,12,56,079,48,14,27,252,39*7C
$GPGSV,2,2,08,25,77,342,49,29,53,224,44,30,35,291,30,31,26,313,33*7C
$GPGSA,M,3,02,12,14,25,29,,,,,,,,4.1,3.0,2.7*35
Trace #28 at position 6.750000
$GPZDA,090217.03,08,10,2011,00,00*63
$GPRMC,090217.00,A,4611.954213,N,01258.216437,E,000.2,139.3,081011,0.2,E,A*38
$GPGGA,090218.00,4611.954253,N,01258.216297,E,1,05,3.0,139.30,M,46.25,M,,*6C
$GPGLL,4611.954253,N,01258.216297,E,090218.00,A,A*62
$GPVTG,290.5,T,290.7,M,001.0,N,001.9,K,A*28
$GPGSV,2,1,08,02,38,077,47,09,17,152,,12,56,079,48,14,27,252,39*7C
$GPGSV,2,2,08,25,77,342,49,29,53,224,44,30,35,291,30,31,26,313,33*7C
$GPGSA,M,3,02,12,14,25,29,,,,,,,,4.1,3.0,2.7*35
Trace #29 at position 7.000000
$GPZDA,090218.03,08,10,2011,00,00*6C
$GPRMC,090218.00,A,4611.954253,N,01258.216297,E,001.0,290.5,081011,0.2,E,A*3A
$GPGGA,090219.00,4611.954414,N,01258.216079,E,1,05,3.0,139.37,M,46.25,M,,*6D
$GPGLL,4611.954414,N,01258.216079,E,090219.00,A,A*64
$GPVTG,332.4,T,332.5,M,000.7,N,001.4,K,A*20
$GPGSV,2,1,08,02,38,077,47,09,17,152,,12,56,079,48,14,27,252,39*7C
$GPGSV,2,2,08,25,7,00,00*6D
$GPRMC,090219.00,A,4611.954414,N,01258.216079,E,000.7,332.4,081011,0.2,E,A*32
$GPGGA,090220.00,4611.954632,N,01258.216010,E,1,05,3.0,139.35,M,46.25,M,,*6C
$GPGLL,4611.954632,N,01258.216010,E,090220.00,A,A*67
$GPVTG,345.6,T,345.8,M,000.9,N,001.6,K,A*23
$GPGSV,2,1,08,02,38,077,48,09,17,152,,12,56,079,48,14,27,252,39*73
$GPGSV,2,2,08,25,77,342,48,29,53,224,43,30,35,291,29,31,26,313,31*70
$GPGSA,M,3,02,12,14,25,29,,,,,,,,4.1,3.0,2.7*35
Trace #30 at position 7.250000
$GPZDA,090218.03,08,10,2011,00,00*6C
$GPRMC,090218.00,A,4611.954253,N,01258.216297,E,001.0,290.5,081011,0.2,E,A*3A
$GPGGA,090219.00,4611.954414,N,01258.216079,E,1,05,3.0,139.37,M,46.25,M,,*6D
$GPGLL,4611.954414,N,01258.216079,E,090219.00,A,A*64
$GPVTG,332.4,T,332.5,M,000.7,N,001.4,K,A*20
$GPGSV,2,1,08,02,38,077,47,09,17,152,,12,56,079,48,14,27,252,39*7C
$GPGSV,2,2,08,25,7,00,00*6D
$GPRMC,090219.00,A,4611.954414,N,01258.216079,E,000.7,332.4,081011,0.2,E,A*32
$GPGGA,090220.00,4611.954632,N,01258.216010,E,1,05,3.0,139.35,M,46.25,M,,*6C
$GPGLL,4611.954632,N,01258.216010,E,090220.00,A,A*67
$GPVTG,345.6,T,345.8,M,000.9,N,001.6,K,A*23
$GPGSV,2,1,08,02,38,077,48,09,17,152,,12,56,079,48,14,27,252,39*73
$GPGSV,2,2,08,25,77,342,48,29,53,224,43,30,35,291,29,31,26,313,31*70
$GPGSA,M,3,02,12,14,25,29,,,,,,,,4.1,3.0,2.7*35
Trace #31 at position 7.500000
$GPZDA,090220.03,08,10,2011,00,00*67
$GPRMC,090220.00,A,4$GPGGA,090221.00,4611.954807,N,01258.216029,E,1,05,3.0,139.24,M,46.25,M,,*6F
$GPGLL,4611.954807,N,01258.216029,E,090221.00,A,A*64
$GPVTG,19.6,T,19.7,M,000.4,N,000.8,K,A*2E
$GPGSV,2,1,08,02,38,077,47,09,17,152,,12,56,079,48,14,27,252,38*7D
$GPGSV,2,2,08,25,77,342,48,29,53,224,43,30,35,291,34,31,26,313,31*7C
$GPGSA,M,3,02,12,14,25,29,,,,,,,,4.1,3.0,2.7*35
Trace #32 at position 7.750000
$GPZDA,090221.03,08,10,2011,00,00*66
$GPRMC,090221.00,A,4611.954807,N,01258.216029,E,000.4,19.6,081011,0.2,E,A*09
$GPGGA,090222.00,4611.954977,N,01258.216025,E,1,05,3.0,139.16,M,46.25,M,,*67
$GPGLL,4611.954977,N,01258.216025,E,090222.00,A,A*6D
$GPVTG,339.2,T,339.4,M,000.8,N,001.5,K,A*29
$GPGSV,2,1,08,02,38,077,47,09,17,152,,12,56,079,48,14,27,252,39*7C
$GPGSV,2,2,08,25,77,342,48,29,54,224,44,30,35,291,35,31,26,313,*7F
$GPGSA,M,3,02,12,14,25,29,,,,,,,,4.1,3.0,2.7*35
Trace #33 at position 8.000000
$GPZDA,090221.03,08,10,2011,00,00*66
$GPRMC,090221.00,A,4611.954807,N,01258.216029,E,000.4,19.6,081011,0.2,E,A*09
$GPGGA,090222.00,4611.954977,N,01258.216025,E,1,05,3.0,139.16,M,46.25,M,,*67
$GPGLL,4611.954977,N,01258.216025,E,090222.00,A,A*6D
$GPVTG,339.2,T,339.4,M,000.8,N,001.5,K,A*29
$GPGSV,2,1,08,02,38,077,47,09,17,152,,12,56,079,48,14,27,252,39*7C
$GPGSV,2,2,08,25,77,342,48,29,54,224,44,30,35,291,35,31,26,313,*7F
$GPGSA,M,3,02,12,14,25,29,,,,,,,,4.1,3.0,2.7*35
Trace #34 at position 8.250000
$GPZDA,090222.03,08,10,2011,00,00*65
$GPRMC,090222.00,A,4611.954977,N,01258.216025,E,000.8,339.2,081011,0.2,E,A*39
$GPGGA,090223.00,4611.955183,N,01258.216058,E,1,05,3.0,139.13,M,46.25,M,,*6B
$GPGLL,4611.955183,N,01258.216058,E,090223.00,A,A*64
$GPVTG,28.4,T,28.5,M,000.8,N,001.5,K,A*2E
$GPGSV,2,1,08,02,38,077,47,09,17,152,,12,56,079,48,14,27,252,38*7D
$GPGSV,2,2,08,25,77,342,47,29,54,224,44,30,35,291,34,31,26,313,32*70
$GPGSA,M,3,02,12,14,25,29,,,,,,,,4.1,3.0,2.7*35
Trace #35 at position 8.500000
$GPZDA,090222.03,08,10,2011,00,00*65
$GPRMC,090222.00,A,4611.954977,N,01258.216025,E,000.8,339.2,081011,0.2,E,A*39
$GPGGA,090223.00,4611.955183,N,01258.216058,E,1,05,3.0,139.13,M,46.25,M,,*6B
$GPGLL,4611.955183,N,01258.216058,E,090223.00,A,A*64
$GPVTG,28.4,T,28.5,M,000.8,N,001.5,K,A*2E
$GPGSV,2,1,08,02,38,077,47,09,17,152,,12,56,079,48,14,27,252,38*7D
$GPGSV,2,2,08,25,77,342,47,29,54,224,44,30,35,291,34,31,26,313,32*70
$GPGSA,M,3,02,12,14,25,29,,,,,,,,4.1,3.0,2.7*35
Trace #36 at position 8.750000
$GPZDA,090223.04,08,10,2011,00,00*63
$GPRMC,090223.00,A,4611.955183,N,01258.216058,E,000.8,28.4,081011,0.2,E,A*05
$GPGGA,090224.00,4611.955372,N,01258.216065,E,1,05,3.0,139.13,M,46.25,M,,*6E
$GPGLL,4611.955372,N,01258.216065,E,090224.00,A,A*61
$GPVTG,331.9,T,332.0,M,000.8,N,001.4,K,A*24
$GPGSV,2,1,08,02,38,077,48,09,17,152,,12,56,079,49,14,27,252,38*73
$GPGSV,2,2,08,25,77,342,48,29,54,224,43,30,35,291,29,31,26,313,32*74
$GPGSA,M,3,02,12,14,25,29,,,,,,,,4.1,3.0,2.7*35
Trace #37 at position 9.000000
$GPZDA,090224.03,08,10,2011,00,00*63
$GPRMC,090224.00,A,4611.955372,N,01258.216065,E,000.8,331.9,081011,0.2,E,A*36
$GPGGA,090225.00,4611.955509,N,01258.215972,E,1,05,3.0,139.13,M,46.25,M,,*69
$GPGLL,4611.955509,N,01258.215972,E,090225.00,A,A*66
$GPVTG,338.2,T,338.4,M,000.3,N,000.6,K,A*20
$GPGSV,2,1,08,02,38,077,47,09,17,152,,12,56,079,48,14,27,252,39*7C
$GPGSV,2,2,08,25,77,342,48,29,54,224,43,30,35,291,27,31,26,313,*7B
$GPGSA,M,3,02,12,14,25,29,,,,,,,,4.1,3.0,2.7*35
Trace #38 at position 9.250000
$GPZDA,090225.03,08,10,2011,00,00*62
$GPRMC,090225.00,A,4611.955509,N,01258.215972,E,000.3,338.2,081011,0.2,E,A*38
$GPGGA,090226.00,4611.955650,N,01258.215960,E,1,05,3.0,139.04,M,46.25,M,,*60
$GPGLL,4611.955650,N,01258.215960,E,090226.00,A,A*69
$GPVTG,7.9,T,8.1,M,000.7,N,001.2,K,A*20
$GPGSV,2,1,08,02,38,077,47,09,17,152,,12,56,079,48,14,27,251,37*71
$GPGSV,2,2,08,25,77,342,47,29,54,224,45,30,35,291,,31,26,313,*77
$GPGSA,M,3,02,12,14,25,29,,,,,,,,4.1,3.0,2.7*35
Trace #39 at position 9.500000
$GPZDA,090226.03,08,10,2011,00,00*61
$GPRMC,090226.00,A,4611.955650,N,01258.215960,E,000.7,7.9,081011,0.2,E,A*37
$GPGGA,090227.00,4611.955833,N,01258.215948,E,1,05,3.0,138.97,M,46.25,M,,*6B
$GPGLL,4611.955833,N,01258.215948,E,090227.00,A,A*69
$GPVTG,352.7,T,352.8,M,000.6,N,001.1,K,A*2A
$GPGSV,2,1,08,02,38,077,48,09,17,152,,12,56,079,49,14,27,251,36*7E
$GPGSV,2,2,08,25,77,342,48,29,54,224,44,30,35,291,,31,26,313,32*78
$GPGSA,M,3,02,12,14,25,29,,,,,,,,4.1,3.0,2.7*35
Trace #40 at position 9.750000
$GPZDA,090227.03,08,10,2011,00,00*60
$GPRMC,090227.00,A,4611.955833,N,01258.215948,E,000.6,352.7,081011,0.2,E,A*3B
$GPGGA,090228.00,4611.956017,N,01258.215855,E,1,05,3.0,139.01,M,46.25,M,,*6A
$GPGLL,4611.956017,N,01258.215855,E,090228.00,A,A*66
$GPVTG,336.1,T,336.2,M,000.7,N,001.4,K,A*22
$GPGSV,2,1,08,02,38,077,48,09,17,152,,12,56,079,49,14,27,251,38*70
$GPGSV,2,2,08,25,77,342,47,29,54,224,44,30,35,291,,31,26,313,31*74
$GPGSA,M,3,02,12,14,25,29,,,,,,,,4.1,3.0,2.7*35
Trace #41 at position 10.000000
$GPZDA,090227.03,08,10,2011,00,00*60
$GPRMC,090227.00,A,4611.955833,N,01258.215948,E,000.6,352.7,081011,0.2,E,A*3B
$GPGGA,090228.00,4611.956017,N,01258.215855,E,1,05,3.0,139.01,M,46.25,M,,*6A
$GPGLL,4611.956017,N,01258.215855,E,090228.00,A,A*66
$GPVTG,336.1,T,336.2,M,000.7,N,001.4,K,A*22
$GPGSV,2,1,08,02,38,077,48,09,17,152,,12,56,079,49,14,27,251,38*70
$GPGSV,2,2,08,25,77,342,47,29,54,224,44,30,35,291,,31,26,313,31*74
$GPGSA,M,3,02,12,14,25,29,,,,,,,,4.1,3.0,2.7*35
Trace #42 at position 10.250000
$GPZDA,090228.03,08,10,2011,00,00*6F
$GPRMC,090228.00,A,4611.956017,N,01258.215855,E,000.7,336.1,081011,0.2,E,A*31
$GPGGA,090229.00,4611.956194,N,01258.215736,E,1,05,3.0,139.04,M,46.25,M,,*6E
$GPGLL,4611.956194,N,01258.215736,E,090229.00,A,A*67
$GPVTG,337.0,T,337.1,M,000.6,N,001.1,K,A*24
$GPGSV,2,1,08,02,38,077,47,09,17,152,,12,56,079,48,14,27,251,38*7E
$GPGSV,2,2,08,25,77,342,47,90229.03,08,10,2011,00,00*6E
$GPRMC,090229.00,A,4611.956194,N,01258.215736,E,000.6,337.0,081011,0.2,E,A*31
$GPGGA,090230.00,4611.956391,N,01258.215609,E,1,05,3.0,139.03,M,46.25,M,,*6B
$GPGLL,4611.956391,N,01258.215609,E,090230.00,A,A*65
$GPVTG,335.7,T,335.8,M,000.9,N,001.7,K,A*23
$GPGSV,2,1,08,02,38,077,47,09,17,152,,12,56,079,48,14,27,251,39*7F
$GPGSV,2,2,08,25,77,343,48,29,54,224,44,30,35,291,,31,26,313,*78
$GPGSA,M,3,02,12,14,25,29,,,,,,,,4.1,3.0,2.7*35
Trace #43 at position 10.500000
$GPZDA,090228.03,08,10,2011,00,00*6F
$GPRMC,090228.00,A,4611.956017,N,01258.215855,E,000.7,336.1,081011,0.2,E,A*31
$GPGGA,090229.00,4611.956194,N,01258.215736,E,1,05,3.0,139.04,M,46.25,M,,*6E
$GPGLL,4611.956194,N,01258.215736,E,090229.00,A,A*67
$GPVTG,337.0,T,337.1,M,000.6,N,001.1,K,A*24
$GPGSV,2,1,08,02,38,077,47,09,17,152,,12,56,079,48,14,27,251,38*7E
$GPGSV,2,2,08,25,77,342,47,90229.03,08,10,2011,00,00*6E
$GPRMC,090229.00,A,4611.956194,N,01258.215736,E,000.6,337.0,081011,0.2,E,A*31
$GPGGA,090230.00,4611.956391,N,01258.215609,E,1,05,3.0,139.03,M,46.25,M,,*6B
$GPGLL,4611.956391,N,01258.215609,E,090230.00,A,A*65
$GPVTG,335.7,T,335.8,M,000.9,N,001.7,K,A*23
$GPGSV,2,1,08,02,38,077,47,09,17,152,,12,56,079,48,14,27,251,39*7F
$GPGSV,2,2,08,25,77,343,48,29,54,224,44,30,35,291,,31,26,313,*78
$GPGSA,M,3,02,12,14,25,29,,,,,,,,4.1,3.0,2.7*35
Trace #44 at position 10.750000
$GPZDA,090231.03,08,10,2011,00,00*67
$GPRMC,090231.00,A,4611.956530,N,01258.215517,E,000.1,$GPGGA,090232.00,4611.956577,N,01258.215527,E,1,05,3.0,139.05,M,46.25,M,,*6E
$GPGLL,4611.956577,N,01258.215527,E,090232.00,A,A*66
$GPVTG,64.9,T,65.0,M,000.2,N,000.3,K,A*2A
$GPGSV,2,1,08,02,38,077,46,09,17,152,,12,56,079,48,14,27,251,38*7F
$GPGSV,2,2,08,25,77,343,47,29,54,224,43,30,35,291,34,31,27,313,28*7C
$GPGSA,M,3,02,12,14,25,29,,,,,,,,4.1,3.0,2.7*35
Trace #45 at position 11.000000
$GPZDA,090232.03,08,10,2011,00,00*64
$GPRMC,090232.00,A,4611.956577,N,01258.215527,E,000.2,64.9,081011,0.2,E,A*08
$GPGGA,090233.00,4611.956667,N,01258.215476,E,1,05,3.0,139.04,M,46.25,M,,*69
$GPGLL,4611.956667,N,01258.215476,E,090233.00,A,A*60
$GPVTG,316.3,T,316.4,M,000.5,N,001.0,K,A*20
$GPGSV,2,1,08,02,38,077,48,09,17,152,,12,56,079,48,14,27,251,40*7E
$GPGSV,2,2,08,25,77,343,48,29,54,224,43,30,35,291,,31,27,313,*7E
$GPGSA,M,3,02,12,14,25,29,,,,,,,,4.1,3.0,2.7*35
Trace #46 at position 11.250000
$GPZDA,090233.03,08,10,2011,00,00*65
$GPRMC,090233.00,A,4611.956667,N,01258.215476,E,000.5,316.3,081011,0.2,E,A*35
$GPGGA,090234.00,4611.956814,N,01258.215413,E,1,05,3.0,139.04,M,46.25,M,,*67
$GPGLL,4611.956814,N,01258.215413,E,090234.00,A,A*6E
$GPVTG,12.8,T,12.9,M,000.5,N,000.9,K,A*2E
$GPGSV,2,1,08,02,38,076,47,09,17,152,,12,56,079,48,14,27,251,39*7E
$GPGSV,2,2,08,25,77,343,48,29,54,224,43,30,35,291,,31,27,313,*7E
$GPGSA,M,3,02,12,14,25,29,,,,,,,,4.1,3.0,2.7*35
Trace #47 at position 11.500000
$GPZDA,090234.03,08,10,2011,00,00*62
$GPRMC,090234.00,A,4611.956814,N,01258.215413,E,000.5,12.8,081011,0.2,E,A*07
$GPGGA,090235.00,4611.956996,N,01258.215407,E,1,05,3.0,139.03,M,46.25,M,,*6F
$GPGLL,4611.956996,N,01258.215407,E,090235.00,A,A*61
$GPVTG,354.3,T,354.4,M,000.6,N,001.2,K,A*21
$GPGSV,2,1,08,02,38,076,48,09,17,152,,12,56,079,48,14,27,251,37*7F
$GPGSV,2,2,08,25,77,343,48,29,54,224,43,30,35,291,,31,27,313,*7E
$GPGSA,M,3,02,12,14,25,29,,,,,,,,4.1,3.0,2.7*35
Trace #48 at position 11.750000
$GPZDA,090234.03,08,10,2011,00,00*62
$GPRMC,090234.00,A,4611.956814,N,01258.215413,E,000.5,12.8,081011,0.2,E,A*07
$GPGGA,090235.00,4611.956996,N,01258.215407,E,1,05,3.0,139.03,M,46.25,M,,*6F
$GPGLL,4611.956996,N,01258.215407,E,090235.00,A,A*61
$GPVTG,354.3,T,354.4,M,000.6,N,001.2,K,A*21
$GPGSV,2,1,08,02,38,076,48,09,17,152,,12,56,079,48,14,27,251,37*7F
$GPGSV,2,2,08,25,77,343,48,29,54,224,43,30,35,291,,31,27,313,*7E
$GPGSA,M,3,02,12,14,25,29,,,,,,,,4.1,3.0,2.7*35
Trace #49 at position 12.000000
$GPZDA,090235.03,08,10,2011,00,00*63
$GPRMC,090235.00,A,4611.956996,N,01258.215407,E,000.6,354.3,081011,0.2,E,A*31
$GPGGA,090236.00,4611.957161,N,01258.215341,E,1,05,3.1,139.00,M,46.25,M,,*6A
$GPGLL,4611.957161,N,01258.215341,E,090236.00,A,A*66
$GPVTG,334.9,T,335.1,M,000.4,N,000.8,K,A*26
$GPGSV,2,1,08,02,38,076,47,09,17,152,,12,56,079,48,14,27,251,37*70
$GPGSV,2,2,08,25,77,343,48,29,54,224,45,30,35,291,,31,27,313,*78
$GPGSA,M,3,02,12,14,25,29,,,,,,,,4.1,3.1,2.7*34
Trace #50 at position 12.250000
$GPZDA,090236.03,08,10,2011,00,00*60
$GPRMC,090236.00,A,4611.957161,N,01258.215341,E,000.4,334.9,081011,0.2,E,A*38
$GPGGA,090237.00,4611.957309,N,01258.215308,E,1,05,3.1,139.00,M,46.25,M,,*6A
$GPGLL,4611.957309,N,01258.215308,E,090237.00,A,A*66
$GPVTG,10.9,T,11.0,M,000.5,N,001.0,K,A*2F
$GPGSV,2,1,08,02,38,076,48,09,17,152,,12,56,079,48,14,27,251,38*70
$GPGSV,2,2,08,25,77,343,47,29,54,224,45,30,35,291,,31,27,313,*77
$GPGSA,M,3,02,12,14,25,29,,,,,,,,4.1,3.1,2.7*34
Trace #51 at position 12.500000
$GPZDA,090237.03,08,10,2011,00,00*61
$GPRMC,090237.00,A,4611.957309,N,01258.215308,E,000.5,10.9,081011,0.2,E,A*0C
$GPGGA,090238.00,4611.957443,N,01258.215218,E,1,05,3.1,138.99,M,46.25,M,,*6D
$GPGLL,4611.957443,N,01258.215218,E,090238.00,A,A*60
$GPVTG,305.3,T,305.5,M,000.6,N,001.1,K,A*23
$GPGSV,2,1,08,02,38,076,48,09,17,152,,12,56,079,48,14,27,251,38*70
$GPGSV,2,2,08,25,77,343,48,29,54,224,45,30,35,291,,31,27,313,*78
$GPGSA,M,3,02,12,14,25,29,,,,,,,,4.1,3.1,2.7*34
Trace #52 at position 12.750000
$GPZDA,090238.03,08,10,2011,00,00*6E
$GPRMC,090238.00,A,4611.957443,N,01258.215218,E,000.6,305.3,081011,0.2,E,A*34
$GPGGA,090239.00,4611.957532,N,01258.215088,E,1,05,3.1,139.04,M,46.25,M,,*65
$GPGLL,4611.957532,N,01258.215088,E,090239.00,A,A*6D
$GPVTG,314.5,T,314.6,M,000.2,N,000.4,K,A*26
$GPGSV,2,1,08,02,38,076,48,09,17,152,,12,56,079,48,14,27,251,38*70
$GPGSV,2,2,08,25,77,343,48,29,54,224,43,30,35,291,,31,27,313,*7E
$GPGSA,M,3,02,12,14,25,29,,,,,,,,4.1,3.1,2.7*34
Trace #53 at position 13.000000
$GPZDA,090239.03,08,10,2011,00,00*6F
$GPRMC,090239.00,A,4611.957532,N,01258.215088,E,000.2,314.5,081011,0.2,E,A*3B
$GPGGA,090240.00,4611.957599,N,01258.215020,E,1,05,3.1,139.10,M,46.25,M,,*6D
$GPGLL,4611.957599,N,01258.215020,E,090240.00,A,A*60
$GPVTG,307.3,T,307.5,M,000.2,N,000.4,K,A*23
$GPGSV,2,1,08,02,38,076,47,09,17,152,,12,56,079,48,14,27,251,38*7F
$GPGSV,2,2,08,25,77,343,48,29,54,224,43,30,35,291,,31,27,313,35*78
$GPGSA,M,3,02,12,14,25,29,,,,,,,,4.1,3.1,2.7*34
Trace #54 at position 13.250000
$GPZDA,090239.03,08,10,2011,00,00*6F
$GPRMC,090239.00,A,4611.957532,N,01258.215088,E,000.2,314.5,081011,0.2,E,A*3B
$GPGGA,090240.00,4611.957599,N,01258.215020,E,1,05,3.1,139.10,M,46.25,M,,*6D
$GPGLL,4611.957599,N,01258.215020,E,090240.00,A,A*60
$GPVTG,307.3,T,307.5,M,000.2,N,000.4,K,A*23
$GPGSV,2,1,08,02,38,076,47,09,17,152,,12,56,079,48,14,27,251,38*7F
$GPGSV,2,2,08,25,77,343,48,29,54,224,43,30,35,291,,31,27,313,35*78
$GPGSA,M,3,02,12,14,25,29,,,,,,,,4.1,3.1,2.7*34
Trace #55 at position 13.500000
$GPZDA,090240.03,08,10,2011,00,00*61
$GPRMC,090240.00,A,4611.957599,N,01258.215020,E,000.2,307.3,081011,0.2,E,A*32
$GPGGA,090241.00,4611.957662,N,01258.214952,E,1,05,3.1,139.17,M,46.25,M,,*61
$GPGLL,4611.957662,N,01258.214952,E,090241.00,A,A*6B
$GPVTG,287.5,T,287.6,M,000.2,N,000.3,K,A*21
$GPGSV,2,1,08,02,38,076,48,09,17,152,,12,56,079,48,14,27,251,37*7F
$GPGSV,2,2,08,25,77,343,47,29,54,224,43,30,35,291,,31,27,313,32*70
$GPGSA,M,3,02,12,14,25,29,,,,,,,,4.1,3.1,2.7*34
Trace #56 at position 13.750000
$GPZDA,090241.03,08,10,2011,00,00*60
$GPRMC,090241.00,A,4611.957662,N,01258.214952,E,000.2,287.5,081011,0.2,E,A*36
$GPGGA,090242.00,4611.957803,N,01258.214965,E,1,05,3.1,139.16,M,46.25,M,,*6E
$GPGLL,4611.957803,N,01258.214965,E,090242.00,A,A*65
$GPVTG,23.4,T,23.5,M,000.7,N,001.3,K,A*27
$GPGSV,2,1,08,02,38,076,47,09,17,152,,12,56,079,47,14,27,251,39*71
$GPGSV,2,2,08,25,77,343,45,29,54,224,45,30,35,291,,31,27,313,28*7F
$GPGSA,M,3,02,12,14,25,29,,,,,,,,4.1,3.1090242.03,08,10,2011,00,00*63
Trace #57 at position 14.000000
$GPRMC,090242.00,A,4611.957803,N,01258.214965,E,000.7,23.4,081011,0.2,E,A*00
$GPGGA,090243.00,4611.957986,N,01258.215000,E,1,05,3.1,139.10,M,46.25,M,,*6E
$GPGLL,4611.957986,N,01258.215000,E,090243.00,A,A*63
$GPVTG,357.9,T,358.0,M,000.4,N,000.8,K,A*29
$GPGSV,2,1,08,02,38,076,48,09,17,152,,12,56,079,49,14,27,251,38*71
$GPGSV,2,2,08,25,77,343,46,29,54,224,43,30,35,291,,31,27,313,27*75
$GPGSA,M,3,02,12,14,25,29,,,,,,,,4.1,3.1,2.7*34
Trace #58 at position 14.250000
$GPZDA,090243.03,08,10,2011,00,00*62
$GP.4,357.9,081011,0.2,E,A*38
$GPGGA,090244.00,4611.958143,N,01258.214873,E,1,05,3.1,139.15,M,46.25,M,,*6F
$GPGLL,4611.958143,N,01258.214873,E,090244.00,A,A*67
$GPVTG,311.6,T,311.8,M,000.7,N,001.3,K,A*28
$GPGSV,2,1,08,02,38,076,48,09,17,152,,12,56,079,49,14,27,251,37*7E
$GPGSV,2,2,08,25,77,343,47,29,54,224,42,30,35,291,,31,27,313,*70
$GPGSA,M,3,02,12,14,25,29,,,,,,,,4.1,3.1,2.7*34
Trace #59 at position 14.500000
$GPZDA,090245.03,08,10,2011,00,00*64
$GPRMC,090245.00,A,4611.958301,N,01258.214685,E,000.6,313.6,081011,0.2,E,A*33
$GPGGA,090246.00,4611.958428,N,01258.214538,E,1,05,3.1,139.39,M,46.25,M,,*69
$GPGLL,4611.958428,N,01258.214538,E,090246.00,A,A*6F
$GPVTG,304.4,T,304.5,M,000.5,N,000.9,K,A*2E
$GPGSV,2,1,08,02,38,076,47,09,17,152,,12,56,079,48,14,27,251,37*70
$GPGSV,2,2,08,25,77,343,48,29,54,224,41,30,35,291,,31,27,313,*7C
$GPGSA,M,3,02,12,14,25,29,,,,,,,,4.1,3.1,2.7*34
Trace #60 at position 14.750000
$GPZDA,090245.03,08,10,2011,00,00*64
$GPRMC,090245.00,A,4611.958301,N,01258.214685,E,000.6,313.6,081011,0.2,E,A*33
$GPGGA,090246.00,4611.958428,N,01258.214538,E,1,05,3.1,139.39,M,46.25,M,,*69
$GPGLL,4611.958428,N,01258.214538,E,090246.00,A,A*6F
$GPVTG,304.4,T,304.5,M,000.5,N,000.9,K,A*2E
$GPGSV,2,1,08,02,38,076,47,09,17,152,,12,56,079,48,14,27,251,37*70
$GPGSV,2,2,08,25,77,343,48,29,54,224,41,30,35,291,,31,27,313,*7C
$GPGSA,M,3,02,12,14,25,29,,,,,,,,4.1,3.1,2.7*34
Trace #61 at position 15.000000
$GPZDA,090246.03,08,10,2011,00,00*67
$GPRMC,090246.00,A,4611.958428,N,01258.214538,E,000.5,304.4,081011,0.2,E,A*3E
$GPGGA,090247.00,4611.958629,N,01258.214411,E,1,05,3.1,139.42,M,46.25,M,,*6D
$GPGLL,4611.958629,N,01258.214411,E,090247.00,A,A*67
$GPVTG,338.7,T,338.9,M,001.1,N,002.0,K,A*2F
$GPGSV,2,1,08,02,38,076,47,09,17,152,,12,56,079,47,14,27,251,38*70
$GPGSV,2,2,08,25,77,343,49,29,54,224,43,30,35,291,,31,27,313,*7F
$GPGSA,M,3,02,12,14,25,29,,,,,,,,4.1,3.1,2.7*34
Trace #62 at position 15.250000
$GPZDA,090246.03,08,10,2011,00,00*67
$GPRMC,090246.00,A,4611.958428,N,01258.214538,E,000.5,304.4,081011,0.2,E,A*3E
$GPGGA,090247.00,4611.958629,N,01258.214411,E,1,05,3.1,139.42,M,46.25,M,,*6D
$GPGLL,4611.958629,N,01258.214411,E,090247.00,A,A*67
$GPVTG,338.7,T,338.9,M,001.1,N,002.0,K,A*2F
$GPGSV,2,1,08,02,38,076,47,09,17,152,,12,56,079,47,14,27,251,38*70
$GPGSV,2,2,08,25,77,343,49,29,54,224,43,30,35,291,,31,27,313,*7F
$GPGSA,M,3,02,12,14,25,29,,,,,,,,4.1,3.1,2.7*34
Trace #63 at position 15.500000
$GPZDA,090247.03,08,10,2011,00,00*66
$GPRMC,090247.00,A,4611.958629,N,01258.214411,E,001.1,338.7,081011,0.2,E,A*3F
$GPGGA,090248.00,4611.958874,N,01258.214257,E,1,05,3.1,139.40,M,46.25,M,,*62
$GPGLL,4611.958874,N,01258.214257,E,090248.00,A,A*6A
$GPVTG,318.9,T,319.1,M,000.9,N,001.6,K,A*24
$GPGSV,2,1,08,02,38,076,47,09,17,152,,12,56,079,47,14,27,251,39*71
$GPGSV,2,2,08,25,77,343,48,29,54,224,42,30,35,291,,31,27,313,*7F
$GPGSA,M,3,02,12,14,25,29,,,,,,,,4.1,3.1,2.7*34
Trace #64 at position 15.750000
$GPZDA,090248.03,08,10,2011,00,00*69
$GPRMC,090248.00,A,4611.958874,N,01258.214257,E,000.9,318.9,081011,0.2,E,A*37
$GPGGA,090249.00,4611.959005,N,01258.214156,E,1,05,3.1,139.41,M,46.25,M,,*6F
$GPGLL,4611.959005,N,01258.214156,E,090249.00,A,A*66
$GPVTG,325.1,T,325.2,M,000.3,N,000.5,K,A*26
$GPGSV,2,1,08,02,38,076,48,09,17,152,,12,56,079,48,14,27,251,38*70
$GPGSV,2,2,08,25,77,343,48,29,54,224,40,30,35,291,,31,27,313,*7D
$GPGSA,M,3,02,12,14,25,29,,,,,,,,4.1,3.1,2.7*34
Trace #65 at position 16.000000
$GPZDA,090249.03,08,10,2011,00,00*68
$GPRMC,090249.00,A,4611.959005,N,01258.214156,E,000.3,325.1,081011,0.2,E,A*37
$GPGGA,090250.00,4611.959124,N,01258.214191,E,1,05,3.1,139.46,M,46.25,M,,*69
$GPGLL,4611.959124,N,01258.214191,E,090250.00,A,A*67
$GPVTG,16.4,T,16.6,M,000.6,N,001.0,K,A*26
$GPGSV,2,1,08,02,38,076,47,09,17,152,,12,56,079,48,14,27,251,39*7E
$GPGSV,2,2,08,25,77,343,48,29,54,224,42,30,35,291,,31,27,313,27*7A
$GPGSA,M,3,02,12,14,25,29,,,,,,,,4.1,3.1,2.7*34
Trace #66 at position 16.250000
$GPZDA,090250.03,08,10,2011,00,00*60
$GPRMC,090250.00,A,4611.959124,N,01258.214191,E,000.6,16.4,081011,0.2,E,A*05
$GPGGA,090251.00,4611.959231,N,01258.214242,E,1,05,3.1,139.49,M,46.25,M,,*6D
$GPGLL,4611.959231,N,01258.214242,E,090251.00,A,A*6C
$GPVTG,353.7,T,353.9,M,000.2,N,000.3,K,A*2C
$GPGSV,2,1,08,02,38,076,47,09,17,152,,12,56,079,48,14,27,251,38*7F
$GPGSV,2,2,08,25,77,343,48,29,54,224,43,30,35,291,,31,27,313,*7E
$GPGSA,M,3,02,12,14,25,29,,,,,,,,4.1,3.1,2.7*34
Trace #67 at position 16.500000
$GPZDA,090250.03,08,10,2011,00,00*60
$GPRMC,090250.00,A,4611.959124,N,01258.214191,E,000.6,16.4,081011,0.2,E,A*05
$GPGGA,090251.00,4611.959231,N,01258.214242,E,1,05,3.1,139.49,M,46.25,M,,*6D
$GPGLL,4611.959231,N,01258.214242,E,090251.00,A,A*6C
$GPVTG,353.7,T,353.9,M,000.2,N,000.3,K,A*2C
$GPGSV,2,1,08,02,38,076,47,09,17,152,,12,56,079,48,14,27,251,38*7F
$GPGSV,2,2,08,25,77,343,48,29,54,224,43,30,35,291,,31,27,313,*7E
$GPGSA,M,3,02,12,14,25,29,,,,,,,,4.1,3.1,2.7*34
Trace #68 at position 16.750000
$GPZDA,090250.03,08,10,2011,00,00*60
$GPRMC,090250.00,A,4611.959124,N,01258.214191,E,000.6,16.4,081011,0.2,E,A*05
$GPGGA,090251.00,4611.959231,N,01258.214242,E,1,05,3.1,139.49,M,46.25,M,,*6D
$GPGLL,4611.959231,N,01258.214242,E,090251.00,A,A*6C
$GPVTG,353.7,T,353.9,M,000.2,N,000.3,K,A*2C
$GPGSV,2,1,08,02,38,076,47,09,17,152,,12,56,079,48,14,27,251,38*7F
$GPGSV,2,2,08,25,77,343,48,29,54,224,43,30,35,291,,31,27,313,*7E
$GPGSA,M,3,02,12,14,25,29,,,,,,,,4.1,3.1,2.7*34
Trace #69 at position 17.000000
$GPZDA,090250.03,08,10,2011,00,00*60
$GPRMC,090250.00,A,4611.959124,N,01258.214191,E,000.6,16.4,081011,0.2,E,A*05
$GPGGA,090251.00,4611.959231,N,01258.214242,E,1,05,3.1,139.49,M,46.25,M,,*6D
$GPGLL,4611.959231,N,01258.214242,E,090251.00,A,A*6C
$GPVTG,353.7,T,353.9,M,000.2,N,000.3,K,A*2C
$GPGSV,2,1,08,02,38,076,47,09,17,152,,12,56,079,48,14,27,251,38*7F
$GPGSV,2,2,08,25,77,343,48,29,54,224,43,30,35,291,,31,27,313,*7E
$GPGSA,M,3,02,12,14,25,29,,,,,,,,4.1,3.1,2.7*34
Trace #70 at position 17.250000
$GPZDA,090251.03,08,10,2011,00,00*61
$GPRMC,090251.00,A,4611.959231,N,01258.214242,E,000.2,353.7,081011,0.2,E,A*3B
$GPGGA,090252.00,4611.959402,N,01258.214158,E,1,05,3.1,139.40,M,46.25,M,,*69
$GPGLL,4611.959402,N,01258.214158,E,090252.00,A,A*61
$GPVTG,332.0,T,332.1,M,001.1,N,002.1,K,A*21
$GPGSV,2,1,08,02,38,076,47,09,17,152,,12,56,079,48,14,27,251,38*7F
$GPGSV,2SA,M,3,02,12,14,25,29,,,,,,,,4.1,3.1,2.7*34
$GPZDA,090252.03,08,10,2011,00,00*62
$GPRMC,090252.00,A,4611.959402,N,01258.214158,E,001.1,332.0,081011,0.2,E,A*34
$GPGGA,090253.00,4611.959605,N,01258.214024,E,1,05,3.1,139.38,M,46.25,M,,*68
$GPGLL,4611.959605,N,01258.214024,E,090253.00,A,A*6F
$GPVTG,325.3,T,325.5,M,000.5,N,001.0,K,A*21
$GPGSV,2,1,08,02,38,076,49,09,17,152,,12,56,079,48,14,27,251,39*70
$GPGSV,2,2,08,25,77,343,48,29,54,224,42,30,35,291,,31,27,313,*7F
$GPGSA,M,3,02,12,14,25,29,,,,,,,,4.1,3.,A,4611.959605,N,01258.214024,E,000.5,325.3,081011,0.2,E,A*3A
Trace #71 at position 17.500000
$GPZDA,090254.03,08,10,2011,00,00*64
$GPRMC,090254.00,A,4611.959783,N,01258.213995,E,000.8,0$GPGGA,090255.00,4611.959965,N,01258.214010,E,1,05,3.1,139.43,M,46.25,M,,*6C
$GPGLL,4611.959965,N,01258.214010,E,090255.00,A,A*67
$GPVTG,0.3,T,0.5,M,000.5,N,001.0,K,A*21
$GPGSV,2,1,08,02,38,076,47,09,17,152,,12,56,079,47,14,27,251,41*7E
$GPGSV,2,2,08,25,77,343,47,29,54,224,42,30,35,291,,31,27,313,*70
$GPGSA,M,3,02,12,14,25,29,,,,,,,,4.1,3.1,2.7*34
Trace #72 at position 17.750000
$GPZDA,090255.03,08,10,2011,00,00*65
$GPRMC,090255.00,A,4611.959965,N,01258.214010,E,000.5,0.3,081011,0.2,E,A*36
$GPGGA,090256.00,4611.960154,N,01258.214098,E,1,05,3.1,139.37,M,46.25,M,,*6C
$GPGLL,4611.960154,N,01258.214098,E,090256.00,A,A*64
$GPVTG,27.5,T,27.6,M,001.0,N,001.8,K,A*28
$GPGSV,2,1,08,02,38,076,47,09,17,152,,12,56,079,47,14,27,251,39*71
$GPGSV,2,2,08,25,77,343,48,29,54,224,42,30,35,291,,31,27,313,26*7B
$GPGSA,M,3,02,12,14,25,29,,,,,,,,4.1,3.1,2.7*34
Trace #73 at position 18.000000
$GPZDA,090255.03,08,10,2011,00,00*65
$GPRMC,090255.00,A,4611.959965,N,01258.214010,E,000.5,0.3,081011,0.2,E,A*36
$GPGGA,090256.00,4611.960154,N,01258.214098,E,1,05,3.1,139.37,M,46.25,M,,*6C
$GPGLL,4611.960154,N,01258.214098,E,090256.00,A,A*64
$GPVTG,27.5,T,27.6,M,001.0,N,001.8,K,A*28
$GPGSV,2,1,08,02,38,076,47,09,17,152,,12,56,079,47,14,27,251,39*71
$GPGSV,2,2,08,25,77,343,48,29,54,224,42,30,35,291,,31,27,313,26*7B
$GPGSA,M,3,02,12,14,25,29,,,,,,,,4.1,3.1,2.7*34
Trace #74 at position 18.250000
$GPZDA,090256.03,08,10,2011,00,00*66
$GPRMC,090256.00,A,4611.960154,N,01258.214098,E,001.0,27.5,081011,0.2,E,A*02
$GPGGA,090257.00,4611.960374,N,01258.214190,E,1,05,3.1,139.28,M,46.25,M,,*6A
$GPGLL,4611.960374,N,01258.214190,E,090257.00,A,A*6C
$GPVTG,6.9,T,7.1,M,000.8,N,001.5,K,A*26
$GPGSV,2,1,08,02,38,076,48,09,17,152,,12,56,079,48,14,27,251,36*7E
$GPGSV,2,2,08,25,77,343,48,29,54,224,42,30,35,291,,31,27,313,31*7D
$GPGSA,M,3,02,12,14,25,29,,,,,,,,4.1,3.1,2.7*34
Trace #75 at position 18.500000
$GPZDA,090257.03,08,10,2011,00,00*67
$GPRMC,090257.00,A,4611.960374,N,01258.214190,E,000.8,6.9,081011,0.2,E,A*3C
$GPGGA,090258.00,4611.960627,N,01258.214161,E,1,05,3.1,139.21,M,46.25,M,,*61
$GPGLL,4611.960627,N,01258.214161,E,090258.00,A,A*6E
$GPVTG,357.5,T,357.7,M,001.2,N,002.1,K,A*21
$GPGSV,2,1,08,02,38,076,48,09,17,152,,12,55,079,48,14,27,251,39*72
$GPGSV,2,2,08,25,77,343,48,29,54,224,43,30,35,292,,31,27,313,*7D
$GPGSA,M,3,02,12,14,25,29,,,,,,,,4.1,3.1,2.7*34
Trace #76 at position 18.750000
$GPZDA,090258.03,08,10,2011,00,00*68
$GPRMC,090258.00,A,4611.960627,N,01258.214161,E,001.2,357.5,081011,0.2,E,A*3E
$GPGGA,090259.00,4611.960895,N,01258.214105,E,1,05,3.1,139.11,M,46.25,M,,*66
$GPGLL,4611.960895,N,01258.214105,E,090259.00,A,A*6A
$GPVTG,358.7,T,358.9,M,001.0,N,001.8,K,A*25
$GPGSV,2,1,08,02,38,076,48,09,17,152,,12,55,079,48,14,27,251,37*7C
$GPGSV,2,2,08,25,77,343,48,29,54,224,43,30,35,292,,31,27,313,31*7F
$GPGSA,M,3,02,12,14,25,29,,,,,,,,4.1,3.1,2.7*34
Trace #77 at position 19.000000
$GPZDA,090259.03,08,10,2011,00,00*69
$GPRMC,090259.00,A,4611.960895,N,01258.214105,E,001.0,358.7,081011,0.2,E,A*35
$GPGGA,090300.00,4611.961019,N,01258.214052,E,1,05,3.1,139.15,M,46.25,M,,*61
$GPGLL,4611.961019,N,01258.214052,E,090300.00,A,A*69
$GPVTG,349.7,T,349.9,M,000.1,N,000.2,K,A*2E
$GPGSV,2,1,08,02,38,076,48,09,17,152,,12,55,079,48,14,27,251,37*7C
$GPGSV,2,2,08,25,77,343,48,29,54,224,43,30,36,292,,31,27,313,32*7F
$GPGSA,M,3,02,12,14,25,29,,,,,,,,4.1,3.1,2.7*34
Trace #78 at position 19.250000
$GPZDA,090259.03,08,10,2011,00,00*69
$GPRMC,090259.00,A,4611.960895,N,01258.214105,E,001.0,358.7,081011,0.2,E,A*35
$GPGGA,090300.00,4611.961019,N,01258.214052,E,1,05,3.1,139.15,M,46.25,M,,*61
$GPGLL,4611.961019,N,01258.214052,E,090300.00,A,A*69
$GPVTG,349.7,T,349.9,M,000.1,N,000.2,K,A*2E
$GPGSV,2,1,08,02,38,076,48,09,17,152,,12,55,079,48,14,27,251,37*7C
$GPGSV,2,2,08,25,77,343,48,29,54,224,43,30,36,292,,31,27,313,32*7F
$GPGSA,M,3,02,12,14,25,29,,,,,,,,4.1,3.1,2.7*34
Trace #79 at position 19.500000
$GPZDA,090300.03,08,10,2011,00,00*64
$GPRMC,090300.00,A,4611.961019,N,01258.214052,E,000.1,349.7,081011,0.2,E,A*36
$GPGGA,090301.00,4611.960993,N,01258.213968,E,1,05,3.1,139.37,M,46.25,M,,*6D
$GPGLL,4611.960993,N,01258.213968,E,090301.00,A,A*65
$GPVTG,218.1,T,218.3,M,000.3,N,000.6,K,A*24
$GPGSV,2,1,08,02,38,076,48,09,17,152,,12,55,079,47,14,27,251,37*73
$GPGSV,2,2,08,25,77,343,49,29,54,224,42,30,36,292,,31,27,313,31*7C
$GPGSA,M,3,02,12,14,25,29,,,,,,,,4.1,3.1,2.7*34
Trace #80 at position 19.750000
$GPZDA,090301.03,08,10,2011,00,00*65
$GPRMC,090301.00,A,4611.960993,N,01258.213968,E,000.3,218.1,081011,0.2,E,A*3B
$GPGGA,090302.00,4611.961094,N,01258.213868,E,1,05,3.1,139.44,M,46.25,M,,*64
$GPGLL,4611.961094,N,01258.213868,E,090302.00,A,A*68
$GPVTG,352.2,T,352.4,M,001.0,N,001.9,K,A*2C
$GPGSV,2,1,08,02,38,076,47,09,17,152,,12,55,079,48,14,27,251,39*7D
$GPGSV,2,2,08,25,77,344,48,29,54,224,43,30,36,292,,31,27,313,33*79
$GPGSA,M,3,02,12,14,25,29,,,,,,,,4.1,3.1,2.7*34
Trace #81 at position 20.000000
$GPZDA,090302.03,08,10,2011,00,00*66
$GPRMC,090302.00,A,4611.961094,N,01258.213868,E,001.0,352.2,081011,0.2,E,A*38
$GPGGA,090303.00,4611.961265,N,01258.213894,E,1,05,3.1,139.41,M,46.25,M,,*6F
$GPGLL,4611.961265,N,01258.213894,E,090303.00,A,A*66
$GPVTG,65.9,T,66.0,M,000.5,N,001.0,K,A*2D
$GPGSV,2,1,08,02,38,076,48,09,17,152,,12,55,079,48,14,27,251,39*72
$GPGSV,2,2,08,25,77,344,49,29,54,224,42,30,36,292,,31,27,313,30*7A
$GPGSA,M,3,02,12,14,25,29,,,,,,,,4.1,3.1,2.7*34
Trace #82 at position 20.250000
$GPZDA,090303.03,08,10,2011,00,00*67
$GPRMC,090303.00,A,4611.961265,N,01258.213894,E,000.5,65.9,081011,0.2,E,A*0E
$GPGGA,090304.00,4611.961409,N,01258.213927,E,1,05,3.1,139.45,M,46.25,M,,*69
$GPGLL,4611.961409,N,01258.213927,E,090304.00,A,A*64
$GPVTG,358.0,T,358.2,M,000.8,N,001.4,K,A*2C
$GPGSV,2,1,08,02,38,076,46,09,17,152,,12,55,079,48,14,27,251,40*72
$GPGSV,2,2,08,25,77,344,48,29,54,224,43,30,36,292,,31,27,313,*79
$GPGSA,M,3,02,12,14,25,29,,,,,,,,4.1,3.1,2.7*34
Trace #83 at position 20.500000
$GPZDA,090303.03,08,10,2011,00,00*67
$GPRMC,090303.00,A,4611.961265,N,01258.213894,E,000.5,65.9,081011,0.2,E,A*0E
$GPGGA,090304.00,4611.961409,N,01258.213927,E,1,05,3.1,139.45,M,46.25,M,,*69
$GPGLL,4611.961409,N,01258.213927,E,090304.00,A,A*64
$GPVTG,358.0,T,358.2,M,000.8,N,001.4,K,A*2C
$GPGSV,2,1,08,02,38,076,46,09,17,152,,12,55,079,48,14,27,251,40*72
$GPGSV,2,2,08,25,77,344,48,29,54,224,43,30,36,292,,31,27,313,*79
$GPGSA,M,3,02,12,14,25,29,,,,,,,,4.1,3.1,2.7*34
Trace #84 at position 20.750000
$GPZDA,090304.03,08,10,2011,00,00*60
$GPRMC,090304.00,A,4611.961409,N,01258.213927,E,000.8,358.0,081011,0.2,E,A*35
$GPGGA,090305.00,4611.961600,N,01258.213732,E,1,05,3.1,139.52,M,46.25,M,,*6F
$GPGLL,4611.961600,N,01258.213732,E,090305.00,A,A*64
$GPVTG,309.1,T,309.2,M,000.9,N,001.7,K,A*2F
$GPGSV,2,1,08,02,38,076,47,09,17,152,,12,55,079,48,14,27,251,39*7D
$GPGSV,2,2,08,25,77,344,47,29,54,224,43,30,36,292,37,31,27,313,*72
$GPGSA,M,3,02,12,14,25,29,,,,,,,,4.1,3.1,2.7*34
Trace #85 at position 21.000000
$GPZDA,090305.04,08,10,2011,00,00*66
$GPRMC,090305.00,A,4611.961600,N,01258.213732,E,000.9,309.1,081011,0.2,E,A*31
$GPGGA,090306.00,4611.961738,N,01258.213603,E,1,05,3.1,139.57,M,46.25,M,,*60
$GPGLL,4611.961738,N,01258.213603,E,090306.00,A,A*6E
$GPVTG,26.5,T,26.6,M,000.5,N,000.9,K,A*2C
$GPGSV,2,1,08,02,38,076,47,09,17,152,,12,55,079,48,14,27,251,37*73
$GPGSV,2,2,08,25,77,344,47,29,54,224,43,30,36,292,34,31,27,313,*71
$GPGSA,M,3,02,12,14,25,29,,,,,,,,4.1,3.1,2.7*34
Trace #86 at position 21.250000
$GPZDA,090306.03,08,10,2011,00,00*62
$GPRMC,090306.00,A,4611.961738,N,01258.213603,E,000.5,26.5,081011,0.2,E,A*0D
$GPGGA,090307.00,4611.961866,N,01258.213560,E,1,05,3.1,139.61,M,46.25,M,,*66
$GPGLL,4611.961866,N,01258.213560,E,090307.00,A,A*6D
$GPVTG,331.8,T,332.0,M,000.5,N,001.0,K,A*2C
$GPGSV,2,1,08,02,38,076,47,09,17,152,,12,55,079,47,14,27,251,38*73
$GPGSV,2,2,08,25,77,344,48,29,54,224,42,30,36,292,35,31,27,313,*7E
$GPGSA,M,3,02,12,14,25,29,,,,,,,,4.1,3.1,2.7*34
Trace #87 at position 21.500000
$GPZDA,090306.03,08,10,2011,00,00*62
$GPRMC,090306.00,A,4611.961738,N,01258.213603,E,000.5,26.5,081011,0.2,E,A*0D
$GPGGA,090307.00,4611.961866,N,01258.213560,E,1,05,3.1,139.61,M,46.25,M,,*66
$GPGLL,4611.961866,N,01258.213560,E,090307.00,A,A*6D
$GPVTG,331.8,T,332.0,M,000.5,N,001.0,K,A*2C
$GPGSV,2,1,08,02,38,076,47,09,17,152,,12,55,079,47,14,27,251,38*73
$GPGSV,2,2,08,25,77,344,48,29,54,224,42,30,36,292,35,31,27,313,*7E
$GPGSA,M,3,02,12,14,25,29,,,,,,,,4.1,3.1,2.7*34
Trace #88 at position 21.750000
$GPZDA,090307.03,08,10,2011,00,00*63
$GPRMC,090307.00,A,4611.961866,N,01258.213560,E,000.5,331.8,081011,0.2,E,A*36
$GPGGA,090308.00,4611.962030,N,01258.213406,E,1,05,3.1,139.66,M,46.25,M,,*67
$GPGLL,4611.962030,N,01258.213406,E,090308.00,A,A*6B
$GPVTG,330.6,T,330.7,M,000.8,N,001.5,K,A*2E
$GPGSV,2,1,08,02,38,076,47,09,17,152,,12,55,079,47,14,27,251,38*73
$GPGSV,2,2,08,25,77,344,48,29,54,224,42,30,36,292,27,31,27,313,*7D
$GPGSA,M,3,02,12,14,25,29,,,,,,,,4.1,3.1,2.7*34
Trace #89 at position 22.000000
$GPZDA,090308.04,08,10,2011,00,00*6B
$GPRMC,090308.00,A,4611.962030,N,01258.213406,E,000.8,33$GPGGA,090309.00,4611.962209,N,01258.213285,E,1,05,3.1,139.70,M,46.25,M,,*64
$GPGLL,4611.962209,N,01258.213285,E,090309.00,A,A*6F
$GPVTG,349.7,T,349.8,M,000.6,N,001.2,K,A*29
$GPGSV,2,1,08,02,38,076,48,09,17,152,,12,55,079,48,14,27,251,38*73
$GPGSV,2,2,08,25,77,344,48,29,54,224,42,30,36,292,25,31,27,313,*7F
$GPGSA,M,3,02,12,14,25,29,,,,,,,,4.1,3.1,2.7*34
Trace #90 at position 22.250000
$GPZDA,090309.03,08,10,2011,00,00*6D
$GPRMC,090309.00,A,4611.962209,N,01258.213285,E,000.6,349.7,081011,0.2,E,A*37
$GPGGA,090310.00,4611.962380,N,01258.213187,E,1,05,3.1,139.77,M,46.25,M,,*6A
$GPGLL,4611.962380,N,01258.213187,E,090310.00,A,A*66
$GPVTG,335.0,T,335.1,M,000.7,N,001.3,K,A*27
$GPGSV,2,1,08,02,38,076,46,09,17,152,,12,55,079,48,14,27,251,39*7C
$GPGSV,2,2,08,25,77,344,49,29,54,224,43,30,36,292,28,31,27,313,*72
$GPGSA,M,3,02,12,14,25,29,,,,,,,,4.1,3.1,2.7*34
Trace #91 at position 22.500000
$GPZDA,090309.03,08,10,2011,00,00*6D
$GPRMC,090309.00,A,4611.962209,N,01258.213285,E,000.6,349.7,081011,0.2,E,A*37
$GPGGA,090310.00,4611.962380,N,01258.213187,E,1,05,3.1,139.77,M,46.25,M,,*6A
$GPGLL,4611.962380,N,01258.213187,E,090310.00,A,A*66
$GPVTG,335.0,T,335.1,M,000.7,N,001.3,K,A*27
$GPGSV,2,1,08,02,38,076,46,09,17,152,,12,55,079,48,14,27,251,39*7C
$GPGSV,2,2,08,25,77,344,49,29,54,224,43,30,36,292,28,31,27,313,*72
$GPGSA,M,3,02,12,14,25,29,,,,,,,,4.1,3.1,2.7*34
Trace #92 at position 22.750000
$GPZDA,090310.03,08,10,2011,00,00*65
$GPRMC,090310.00,A,4611.962380,N,01258.213187,E,000.7,335.0,081011,0.2,E,A*33
$GPGGA,090311.00,4611.962607,N,01258.213119,E,1,05,3.1,139.74,M,46.25,M,,*65
$GPGLL,4611.962607,N,01258.213119,E,090311.00,A,A*6A
$GPVTG,2.2,T,2.3,M,001.1,N,002.0,K,A*20
$GPGSV,2,1,08,02,38,076,47,09,17,152,,12,55,079,47,14,27,251,38*73
$GPGSV,2,2,08,25,77,344,48,29,54,224,43,30,36,292,,31,27,313,28*73
$GPGSA,M,3,02,12,14,25,29,,,,,,,,4.1,3.1,2.7*34
Trace #93 at position 23.000000
$GPZDA,090311.03,08,10,2011,00,00*64
$GPRMC,090311.00,A,4611.962607,N,01258.213119,E,001.1,2.2,081011,0.2,E,A*3D
$GPGGA,090312.00,4611.962785,N,01258.213071,E,1,05,3.1,139.71,M,46.25,M,,*67
$GPGLL,4611.962785,N,01258.213071,E,090312.00,A,A*6D
$GPVTG,331.7,T,331.9,M,000.4,N,000.7,K,A*2E
$GPGSV,2,1,08,02,38,076,48,09,17,152,,12,55,079,48,14,27,251,38*73
$GPGSV,2,2,08,25,77,344,48,29,54,224,42,30,36,292,,31,27,313,29*73
$GPGSA,M,3,02,12,14,25,29,,,,,,,,4.1,3.1,2.7*34
Trace #94 at position 23.250000
$GPZDA,090312.03,08,10,2011,00,00*67
$GPRMC,090312.00,A,4611.962785,N,01258.213071,E,000.4,331.7,081011,0.2,E,A*38
$GPGGA,090313.00,4611.962946,N,01258.212894,E,1,05,3.1,139.78,M,46.25,M,,*6C
$GPGLL,4611.962946,N,01258.212894,E,090313.00,A,A*6F
$GPVTG,324.2,T,324.4,M,001.2,N,002.2,K,A*26
$GPGSV,2,1,08,02,38,076,48,09,17,152,,12,55,079,48,14,27,251,37*7C
$GPGSV,2,2,08,25,77,344,48,29,54,224,43,30,36,292,,31,27,313,25*7E
$GPGSA,M,3,02,12,14,25,29,,,,,,,,4.1,3.1,2.7*34
Trace #95 at position 23.500000
$GPZDA,090312.03,08,10,2011,00,00*67
$GPRMC,090312.00,A,4611.962785,N,01258.213071,E,000.4,331.7,081011,0.2,E,A*38
$GPGGA,090313.00,4611.962946,N,01258.212894,E,1,05,3.1,139.78,M,46.25,M,,*6C
$GPGLL,4611.962946,N,01258.212894,E,090313.00,A,A*6F
$GPVTG,324.2,T,324.4,M,001.2,N,002.2,K,A*26
$GPGSV,2,1,08,02,38,076,48,09,17,152,,12,55,079,48,14,27,251,37*7C
$GPGSV,2,2,08,25,77,344,48,29,54,224,43,30,36,292,,31,27,313,25*7E
$GPGSA,M,3,02,12,14,25,29,,,,,,,,4.1,3.1,2.7*34
Trace #96 at position 23.750000
$GPZDA,090313.03,08,10,2011,00,00*66
$GPRMC,090313.00,A,4611.962946,N,01258.212894,E,001.2,324.2,081011,0.2,E,A*3C
$GPGGA,090314.00,4611.963162,N,01258.212727,E,1,05,3.1,139.86,M,46.25,M,,*62
$GPGLL,4611.963162,N,01258.212727,E,090314.00,A,A*60
$GPVTG,346.4,T,346.5,M,000.7,N,001.4,K,A*20
$GPGSV,2,1,08,02,38,076,48,09,17,152,,12,55,079,48,14,27,251,39*72
$GPGSV,2,2,08,25,77,344,48,29,54,224,43,30,36,292,,31,27,313,*79
$GPGSA,M,3,02,12,14,25,29,,,,,,,,4.1,3.1,2.7*34
Trace #97 at position 24.000000
$GPZDA,090313.03,08,10,2011,00,00*66
$GPRMC,090313.00,A,4611.962946,N,01258.212894,E,001.2,324.2,081011,0.2,E,A*3C
$GPGGA,090314.00,4611.963162,N,01258.212727,E,1,05,3.1,139.86,M,46.25,M,,*62
$GPGLL,4611.963162,N,01258.212727,E,090314.00,A,A*60
$GPVTG,346.4,T,346.5,M,000.7,N,001.4,K,A*20
$GPGSV,2,1,08,02,38,076,48,09,17,152,,12,55,079,48,14,27,251,39*72
$GPGSV,2,2,08,25,77,344,48,29,54,224,43,30,36,292,,31,27,313,*79
$GPGSA,M,3,02,12,14,25,29,,,,,,,,4.1,3.1,2.7*34
Trace #98 at position 24.250000
$GPZDA,090314.03,08,10,2011,00,00*61
$GPRMC,090314.00,A,4611.963162,N,01258.212727,E,000.7,346.4,081011,0.2,E,A*35
$GPGGA,090315.00,4611.963372,N,01258.212646,E,1,05,3.1,139.89,M,46.25,M,,*69
$GPGLL,4611.963372,N,01258.212646,E,090315.00,A,A*64
$GPVTG,343.9,T,344.1,M,001.0,N,001.8,K,A*24
$GPGSV,2,1,08,02,38,076,47,09,17,152,,12,55,079,47,14,27,251,37*7C
$GPGSV,2,2,08,25,77,344,48,29,54,224,42,30,36,292,,31,27,313,*78
$GPGSA,M,3,02,12,14,25,29,,,,,,,,4.1,3.1,2.7*34
Trace #99 at position 24.500000
$GPZDA,090315.03,08,10,2011,00,00*60
$GPRMC,090315.00,A,4611.963372,N,01258.212646,E,001.0,343.9,081011,0.2,E,A*3F
$GPGGA,090316.00,4611.963572,N,01258.212591,E,1,05,3.1,139.86,M,46.25,M,,*6A
$GPGLL,4611.963572,N,01258.212591,E,090316.00,A,A*68
$GPVTG,354.3,T,354.5,M,000.7,N,001.3,K,A*20
$GPGSV,2,1,08,02,38,076,47,09,17,152,,12,55,079,48,14,27,251,37*73
$GPGSV,2,2,08,25,77,344,47,29,54,224,44,30,36,292,,31,27,313,*71
$GPGSA,M,3,02,12,14,25,29,,,,,,,,4.1,3.1,2.7*34
Trace #100 at position 24.750000
$GPZDA,090316.03,08,10,2011,00,00*63
$GPRMC,090316.00,A,4611.963572,N,01258.212591,E,000.7,354.3,081011,0.2,E,A*39
$GPGGA,090317.00,4611.963649,N,01258.212591,E,1,05,3.1,139.86,M,46.25,M,,*60
$GPGLL,4611.963649,N,01258.212591,E,090317.00,A,A*62
$GPVTG,82.2,T,82.4,M,000.1,N,000.1,K,A*25
$GPGSV,2,1,08,02,38,076,46,09,17,152,,12,55,079,47,14,27,251,38*72
$GPGSV,2,2,08,25,77,344,48,29,54,,,31,27,313,*78
$GPGSA,M,3,02,12,14,25,29,,,,,,,,4.1,3.1,2.7*34
Trace #101 at position 25.000000
$GPZDA,090322.03,08,10,2011,00,00*64
$GPRMC,090322.00,A,4611.964577,N,01258.212143,E,001.0,6.0,081011,0.2,E,A*36
$GPGGA,090323.00,4611.964769,N,01258.212085,E,1,05,3.1,139.79,M,46.25,M,,*63
$GPGLL,4611.964769,N,01258.212085,E,090323.00,A,A*61
$GPVTG,326.5,T,326.6,M,000.7,N,001.4,K,A*22
$GPGSV,2,1,08,02,38,076,48,09,17,152,,12,55,079,48,14,27,251,36*7D
$GPGSV,2,2,08,25,77,344,48,29,54,224,43,30,36,292,,31,27,313,*79
$GPGSA,M,3,02,12,14,25,29,,,,,,,,4.1,3.1,2.7*34
Trace #102 at position 25.250000
$GPZDA,090322.03,08,10,2011,00,00*64
$GPRMC,090322.00,A,4611.964577,N,01258.212143,E,001.0,6.0,081011,0.2,E,A*36
$GPGGA,090323.00,4611.964769,N,01258.212085,E,1,05,3.1,139.79,M,46.25,M,,*63
$GPGLL,4611.964769,N,01258.212085,E,090323.00,A,A*61
$GPVTG,326.5,T,326.6,M,000.7,N,001.4,K,A*22
$GPGSV,2,1,08,02,38,076,48,09,17,152,,12,55,079,48,14,27,251,36*7D
$GPGSV,2,2,08,25,77,344,48,29,54,224,43,30,36,292,,31,27,313,*79
$GPGSA,M,3,02,12,14,25,29,,,,,,,,4.1,3.1,2.7*34
Trace #103 at position 25.500000
$GPZDA,090323.04,08,10,2011,00,00*62
$GPRMC,090323.00,A,4611.964769,N,01258.212085,E,000.7,326.5,081011,0.2,E,A*33
$GPGGA,090324.00,4611.964793,N,01258.212031,E,1,05,3.1,139.80,M,46.25,M,,*68
$GPGLL,4611.964793,N,01258.212031,E,090324.00,A,A*6C
$GPVTG,160.3,T,160.4,M,000.3,N,000.6,K,A*21
$GPGSV,2,1,08,02,38,076,48,09,17,152,,12,55,079,47,14,27,251,37*73
$GPGSV,2,2,08,25,77,344,48,29,54,224,44,30,36,292,28,31,27,313,*74
$GPGSA,M,3,02,12,14,25,29,,,,,,,,4.1,3.1,2.7*34
Trace #104 at position 25.750000
$GPZDA,090324.03,08,10,2011,00,00*62
$GPRMC,090324.00,A,4611.964793,N,01258.212031,E,000.3,160.3,081011,0.2,E,A*3C
$GPGGA,090325.00,4611.964741,N,01258.212054,E,1,05,3.1,139.77,M,46.25,M,,*6D
$GPGLL,4611.964741,N,01258.212054,E,090325.00,A,A*61
$GPVTG,326.1,T,326.3,M,000.0,N,000.1,K,A*20
$GPGSV,2,1,08,02,38,076,47,09,17,152,,12,55,079,48,14,27,251,38*7C
$GPGSV,2,2,08,25,77,344,45,29,54,224,44,30,36,292,30,31,27,313,*70
$GPGSA,M,3,02,12,14,25,29,,,,,,,,4.1,3.1,2.7*34
Trace #105 at position 26.000000
$GPZDA,090325.03,08,10,2011,00,00*63
$GPRMC,090325.00,A,4611.964741,N,01258.212054,E,000.0,326.1,081011,0.2,E,A*30
$GPGGA,090326.00,4611.964727,N,01258.212055,E,1,05,3.1,139.73,M,46.25,M,,*6B
$GPGLL,4611.964727,N,01258.212055,E,090326.00,A,A*63
$GPVTG,183.9,T,184.0,M,000.0,N,000.1,K,A*2C
$GPGSV,2,1,08,02,38,076,47,09,17,152,,12,55,079,48,14,27,251,38*7C
$GPGSV,2,2,08,25,77,344,44,29,54,224,44,30,36,292,29,31,27,313,*79
$GPGSA,M,3,02,12,14,25,29,,,,,,,,4.1,3.1,2.7*34
Trace #106 at position 26.250000
$GPZDA,090326.03,08,10,2011,00,00*60
$GPRMC,090326.00,A,4611.964727,N,01258.212055,E,000.0,183.9,081011,0.2,E,A*37
$GPGGA,090327.00,4611.964716,N,01258.212056,E,1,05,3.1,139.69,M,46.25,M,,*60
$GPGLL,4611.964716,N,01258.212056,E,090327.00,A,A*63
$GPVTG,329.8,T,329.9,M,000.1,N,000.1,K,A*22
$GPGSV,2,1,08,02,38,076,47,09,17,152,,12,55,079,48,14,27,251,38*7C
$GPGSV,2,2,08,25,77,344,45,29,54,224,44,30,36,292,33,31,27,313,*73
$GPGSA,M,3,02,12,14,25,29,,,,,,,,4.1,3.1,2.7*34
Trace #107 at position 26.500000
$GPZDA,090327.03,08,10,2011,00,00*61
$GPRMC,090327.00,A,4611.964716,N,01258.212056,E,000.1,329.8,081011,0.2,E,A*35
$GPGGA,090328.00,4611.964757,N,01258.212041,E,1,05,3.1,139.69,M,46.25,M,,*6C
$GPGLL,4611.964757,N,01258.212041,E,090328.00,A,A*6F
$GPVTG,346.3,T,346.5,M,000.4,N,000.7,K,A*26
$GPGSV,2,1,08,02,38,076,47,09,17,152,,12,55,079,48,14,27,251,37*73
$GPGSV,2,2,08,25,77,344,47,29,54,224,44,30,36,292,33,31,27,313,*71
$GPGSA,M,3,02,12,14,25,29,,,,,,,,4.1,3.1,2.7*34
Trace #108 at position 26.750000
$GPZDA,090327.03,08,10,2011,00,00*61
$GPRMC,090327.00,A,4611.964716,N,01258.212056,E,000.1,329.8,081011,0.2,E,A*35
$GPGGA,090328.00,4611.964757,N,01258.212041,E,1,05,3.1,139.69,M,46.25,M,,*6C
$GPGLL,4611.964757,N,01258.212041,E,090328.00,A,A*6F
$GPVTG,346.3,T,346.5,M,000.4,N,000.7,K,A*26
$GPGSV,2,1,08,02,38,076,47,09,17,152,,12,55,079,48,14,27,251,37*73
$GPGSV,2,2,08,25,77,344,47,29,54,224,44,30,36,292,33,31,27,313,*71
$GPGSA,M,3,02,12,14,25,29,,,,,,,,4.1,3.1,2.7*34
Trace #109 at position 27.000000
$GPZDA,090328.03,08,10,2011,00,00*6E
$GPRMC,090328.00,A,4611.964757,N,01258.212041,E,000.4,346.3,081011,0.2,E,A*3E
$GPGGA,090329.00,4611.964923,N,01258.211978,E,1,05,3.1,139.68,M,46.25,M,,*61
$GPGLL,4611.964923,N,01258.211978,E,090329.00,A,A*63
$GPVTG,343.8,T,343.9,M,001.0,N,001.9,K,A*2B
$GPGSV,2,1,08,02,38,076,48,09,17,152,,12,55,079,48,14,27,251,37*7C
$GPGSV,2,2,08,25,77,344,47,29,54,224,44,30,36,292,30,31,27,313,*72
$GPGSA,M,3,02,12,14,25,29,,,,,,,,4.1,3.1,2.7*34
Trace #110 at position 27.250000
$GPZDA,090329.03,08,10,2011,00,00*6F
$GPRMC,090329.00,A,4611.964923,N,01258.211978,E,001.0,343.8,081011,0.2,E,A*39
$GPGGA,090330.00,4611.965097,N,01258.211981,E,1,05,3.1,139.69,M,46.25,M,,*69
$GPGLL,4611.965097,N,01258.211981,E,090330.00,A,A*6A
$GPVTG,34.7,T,34.8,M,000.5,N,001.0,K,A*28
$GPGSV,2,1,08,02,38,076,48,09,17,152,,12,55,079,48,14,27,251,38*73
$GPGSV,2,2,08,25,77,345,48,29,54,224,43,30,36,292,27,31,27,313,*7D
$GPGSA,M,3,02,12,14,25,29,,,,,,,,4.1,3.1,2.7*34
Trace #111 at position 27.500000
$GPZDA,090329.03,08,10,2011,00,00*6F
$GPRMC,090329.00,A,4611.964923,N,01258.211978,E,001.0,343.8,081011,0.2,E,A*39
$GPGGA,090330.00,4611.965097,N,01258.211981,E,1,05,3.1,139.69,M,46.25,M,,*69
$GPGLL,4611.965097,N,01258.211981,E,090330.00,A,A*6A
$GPVTG,34.7,T,34.8,M,000.5,N,001.0,K,A*28
$GPGSV,2,1,08,02,38,076,48,09,17,152,,12,55,079,48,14,27,251,38*73
$GPGSV,2,2,08,25,77,345,48,29,54,224,43,30,36,292,27,31,27,313,*7D
$GPGSA,M,3,02,12,14,25,29,,,,,,,,4.1,3.1,2.7*34
Trace #112 at position 27.750000
$GPZDA,090330.03,08,10,2011,00,00*67
$GPRMC,090330.00,A,4611.965097,N,01258.211981,E,000.5,34.7,081011,0.2,E,A*08
$GPGGA,090331.00,4611.965128,N,01258.211995,E,1,05,3.1,139.77,M,46.25,M,,*67
$GPGLL,4611.965128,N,01258.211995,E,090331.00,A,A*6B
$GPVTG,218.8,T,218.9,M,000.2,N,000.4,K,A*24
$GPGSV,2,1,08,02,38,076,49,09,17,152,,12,55,079,47,14,27,251,37*72
$GPGSV,2,2,08,25,77,345,48,29,54,224,44,30,36,292,33,31,27,313,*7F
$GPGSA,M,3,02,12,14,25,29,,,*34
Trace #113 at position 28.000000
$GPZDA,090331.03,08,10,2011,00,00*66
$GPRMC,090331.00,A,4611.965128,N,01258.211995,E,000.2,218.8,081011,0.2,E,A*3D
$GPGGA,090332.00,4611.965218,N,01258.211994,E,1,05,3.1,139.76,M,46.25,M,,*64
$GPGLL,4611.965218,N,01258.211994,E,090332.00,A,A*69
