Trace #1 at position 0.000000
$GPZDA,095824.03,08,10,2011,00,00*6C
$GPRMC,095824.00,A,4611.952432,N,01258.220679,E,000.0,37.4,081011,0.2,E,A*03
$GPGGA,095825.00,4611.952433,N,01258.220716,E,1,04,3.9,139.27,M,46.25,M,,*6C
$GPGLL,4611.952433,N,01258.220716,E,095825.00,A,A*6C
$GPVTG,57.2,T,57.3,M,000.2,N,000.4,K,A*24
$GPGSV,2,1,07,21,15,186,,02,28,051,38,12,35,102,42,25,69,089,45*7A
$GPGSV,2,2,07,29,79,257,42,30,59,304,,31,47,298,,,,,*47
$GPGSA,M,3,02,12,25,29,,,,,,,,,7.1,3.9,6.0*39
Trace #2 at position 0.250000
$GPZDA,095826.03,08,10,2011,00,00*6E
$GPRMC,095826.00,A,4611.952432,N,01258.220737,E,000.1,312.8,081011,0.2,E,A*33
$GPGGA,095827.00,4611.952402,N,01258.220722,E,1,04,3.9,139.27,M,46.25,M,,*6B
$GPGLL,4611.952402,N,01258.220722,E,095827.00,A,A*6B
$GPVTG,188.3,T,188.5,M,000.1,N,000.2,K,A*26
$GPGSV,2,1,07,21,15,186,,02,28,051,40,12,35,102,43,25,69,089,46*77
$GPGSV,2,2,07,29,79,257,42,30,59,304,,31,47,298,,,,,*47
$GPGSA,M,3,02,12,25,29,,,,,,,,,7.1,3.9,6.0*39
Trace #3 at position 0.500000
$GPZDA,095827.03,08,10,2011,00,00*6F
$GPRMC,095827.00,A,4611.952402,N,01258.220722,E,000.1,188.3,081011,0.2,E,A*3F
$GPGGA,095828.00,4611.952525,N,01258.220716,E,1,04,3.9,139.40,M,46.25,M,,*66
$GPGLL,4611.952525,N,01258.220716,E,095828.00,A,A*67
$GPVTG,1.4,T,1.6,M,001.2,N,002.2,K,A*22
$GPGSV,2,1,07,21,15,186,,02,28,051,40,12,35,102,42,25,69,089,46*76
$GPGSV,2,2,07,29,79,257,42,30,59,304,,31,47,298,,,,,*47
$GPGSA,M,3,02,12,25,29,,,,,,,,,7.1,3.9,6.0*39
Trace #4 at position 0.750000
$GPZDA,095827.03,08,10,2011,00,00*6F
$GPRMC,095827.00,A,4611.952402,N,01258.220722,E,000.1,188.3,081011,0.2,E,A*3F
$GPGGA,095828.00,4611.952525,N,01258.220716,E,1,04,3.9,139.40,M,46.25,M,,*66
$GPGLL,4611.952525,N,01258.220716,E,095828.00,A,A*67
$GPVTG,1.4,T,1.6,M,001.2,N,002.2,K,A*22
$GPGSV,2,1,07,21,15,186,,02,28,051,40,12,35,102,42,25,69,089,46*76
$GPGSV,2,2,07,29,79,257,42,30,59,304,,31,47,298,,,,,*47
$GPGSA,M,3,02,12,25,29,,,,,,,,,7.1,3.9,6.0*39
Trace #5 at position 1.000000
$GPZDA,095828.03,08,10,2011,00,00*60
$GPRMC,095828.00,A,4611.952525,N,01258.220716,E,001.2,1.4,081011,0.2,E,A*36
$GPGGA,095829.00,4611.952825,N,01258.220796,E,1,04,3.9,139.51,M,46.25,M,,*62
$GPGLL,4611.952825,N,01258.220796,E,095829.00,A,A*63
$GPVTG,20.7,T,20.9,M,001.4,N,002.6,K,A*2C
$GPGSV,2,1,07,21,15,186,,02,28,051,39,12,35,102,42,25,69,089,45*7B
$GPGSV,2,2,07,29,79,257,42,30,59,304,,31,47,298,,,,,*47
$GPGSA,M,3,02,12,25,29,,,,,,,,,7.1,3.9,6.0*39
Trace #6 at position 1.250000
$GPZDA,095828.03,08,10,2011,00,00*60
$GPRMC,095828.00,A,4611.952525,N,01258.220716,E,001.2,1.4,081011,0.2,E,A*36
$GPGGA,095829.00,4611.952825,N,01258.220796,E,1,04,3.9,139.51,M,46.25,M,,*62
$GPGLL,4611.952825,N,01258.220796,E,095829.00,A,A*63
$GPVTG,20.7,T,20.9,M,001.4,N,002.6,K,A*2C
$GPGSV,2,1,07,21,15,186,,02,28,051,39,12,35,102,42,25,69,089,45*7B
$GPGSV,2,2,07,29,79,257,42,30,59,304,,31,47,298,,,,,*47
$GPGSA,M,3,02,12,25,29,,,,,,,,,7.1,3.9,6.0*39
Trace #7 at position 1.500000
$GPZDA,095829.03,08,10,2011,00,00*61
$GPRMC,095829.00,A,4611.952825,N,01258.220796,E,001.4,20.7,081011,0.2,E,A*04
$GPGGA,095830.00,4611.953140,N,01258.220868,E,1,04,3.9,139.41,M,46.25,M,,*6E
$GPGLL,4611.953140,N,01258.220868,E,095830.00,A,A*6E
$GPVTG,5.9,T,6.1,M,001.4,N,002.6,K,A*29
$GPGSV,2,1,07,21,15,186,,02,28,051,40,12,35,102,42,25,69,089,46*76
$GPGSV,2,2,07,29,79,257,41,30,59,304,,31,47,298,,,,,*44
$GPGSA,M,3,02,12,25,29,,,,,,,,,7.1,3.9,6.0*39
Trace #8 at position 1.750000
$GPZDA,095829.03,08,10,2011,00,00*61
$GPRMC,095829.00,A,4611.952825,N,01258.220796,E,001.4,20.7,081011,0.2,E,A*04
$GPGGA,095830.00,4611.953140,N,01258.220868,E,1,04,3.9,139.41,M,46.25,M,,*6E
$GPGLL,4611.953140,N,01258.220868,E,095830.00,A,A*6E
$GPVTG,5.9,T,6.1,M,001.4,N,002.6,K,A*29
$GPGSV,2,1,07,21,15,186,,02,28,051,40,12,35,102,42,25,69,089,46*76
$GPGSV,2,2,07,29,79,257,41,30,59,304,,31,47,298,,,,,*44
$GPGSA,M,3,02,12,25,29,,,,,,,,,7.1,3.9,6.0*39
Trace #9 at position 2.000000
$GPZDA,095830.03,08,10,2011,00,00*69
$GPRMC,095830.00,A,4611.953140,N,01258.220868,E,001.4,5.9,081011,0.2,E,A*30
$GPGGA,095831.00,4611.953409,N,01258.220722,E,1,04,3.9,139.37,M,46.25,M,,*67
$GPGLL,4611.953409,N,01258.220722,E,095831.00,A,A*66
$GPVTG,330.6,T,330.7,M,001.1,N,002.1,K,A*21
$GPGSV,2,1,07,21,15,186,,02,28,051,38,12,35,102,41,25,69,089,43*7F
$GPGSV,2,2,07,29,79,257,39,30,59,304,35,31,47,298,,,,,*4D
$GPGSA,M,3,02,12,25,29,,,,,,,,,7.1,3.9,6.0*39
Trace #10 at position 2.250000
$GPZDA,095830.03,08,10,2011,00,00*69
$GPRMC,095830.00,A,4611.953140,N,01258.220868,E,001.4,5.9,081011,0.2,E,A*30
$GPGGA,095831.00,4611.953409,N,01258.220722,E,1,04,3.9,139.37,M,46.25,M,,*67
$GPGLL,4611.953409,N,01258.220722,E,095831.00,A,A*66
$GPVTG,330.6,T,330.7,M,001.1,N,002.1,K,A*21
$GPGSV,2,1,07,21,15,186,,02,28,051,38,12,35,102,41,25,69,089,43*7F
$GPGSV,2,2,07,29,79,257,39,30,59,304,35,31,47,298,,,,,*4D
$GPGSA,M,3,02,12,25,29,,,,,,,,,7.1,3.9,6.0*39
Trace #11 at position 2.500000
$GPZDA,095830.03,08,10,2011,00,00*69
$GPRMC,095830.00,A,4611.953140,N,01258.220868,E,001.4,5.9,081011,0.2,E,A*30
$GPGGA,095831.00,4611.953409,N,01258.220722,E,1,04,3.9,139.37,M,46.25,M,,*67
$GPGLL,4611.953409,N,01258.220722,E,095831.00,A,A*66
$GPVTG,330.6,T,330.7,M,001.1,N,002.1,K,A*21
$GPGSV,2,1,07,21,15,186,,02,28,051,38,12,35,102,41,25,69,089,43*7F
$GPGSV,2,2,07,29,79,257,39,30,59,304,35,31,47,298,,,,,*4D
$GPGSA,M,3,02,12,25,29,,,,,,,,,7.1,3.9,6.0*39
Trace #12 at position 2.750000
$GPZDA,095831.03,08,10,2011,00,00*68
$GPRMC,095831.00,A,4611.953409,N,01258.220722,E,001.1,330.6,081011,0.2,E,A*37
$GPGGA,095832.00,4611.953693,N,01258.220391,E,1,04,3.9,139.33,M,46.25,M,,*6D
$GPGLL,4611.953693,N,01258.220391,E,095832.00,A,A*68
$GPVTG,328.7,T,328.9,M,001.8,N,003.3,K,A*24
$GPGSV,2,1,07,21,15,186,,02,28,051,38,12,35,102,41,25,69,089,43*7F
$GPGSV,2,2,07,29,79,257,39,30,59,304,35,31,47,298,,,,,*4D
$GPGSA,M,3,02,12,25,29,,,,,,,,,7.1,3.9,6.0*39
Trace #13 at position 3.000000
$GPZDA,095831.03,08,10,2011,00,00*68
$GPRMC,095831.00,A,4611.953409,N,01258.220722,E,001.1,330.6,081011,0.2,E,A*37
$GPGGA,095832.00,4611.953693,N,01258.220391,E,1,04,3.9,139.33,M,46.25,M,,*6D
$GPGLL,4611.953693,N,01258.220391,E,095832.00,A,A*68
$GPVTG,328.7,T,328.9,M,001.8,N,003.3,K,A*24
$GPGSV,2,1,07,21,15,186,,02,28,051,38,12,35,102,41,25,69,089,43*7F
$GPGSV,2,2,07,29,79,257,39,30,59,304,35,31,47,298,,,,,*4D
$GPGSA,M,3,02,12,25,29,,,,,,,,,7.1,3.9,6.0*39
Trace #14 at position 3.250000
$GPZDA,095831.03,08,10,2011,00,00*68
$GPRMC,095831.00,A,4611.953409,N,01258.220722,E,001.1,330.6,081011,0.2,E,A*37
$GPGGA,095832.00,4611.953693,N,01258.220391,E,1,04,3.9,139.33,M,46.25,M,,*6D
$GPGLL,4611.953693,N,01258.220391,E,095832.00,A,A*68
$GPVTG,328.7,T,328.9,M,001.8,N,003.3,K,A*24
$GPGSV,2,1,07,21,15,186,,02,28,051,38,12,35,102,41,25,69,089,43*7F
$GPGSV,2,2,07,29,79,257,39,30,59,304,35,31,47,298,,,,,*4D
$GPGSA,M,3,02,12,25,29,,,,,,,,,7.1,3.9,6.0*39
Trace #15 at position 3.500000
$GPZDA,095832.03,08,10,2011,00,00*6B
$GPRMC,095832.00,A,4611.953693,N,01258.220391,E,001.8,328.7,081011,0.2,E,A*38
$GPGGA,095833.00,4611.954058,N,01258.220048,E,1,04,3.9,139.01,M,46.25,M,,*6C
$GPGLL,4611.954058,N,01258.220048,E,095833.00,A,A*68
$GPVTG,334.9,T,335.1,M,001.7,N,003.2,K,A*2D
$GPGSV,2,1,07,21,15,186,,02,28,051,38,12,35,102,43,25,69,089,41*7F
$GPGSV,2,2,07,29,79,257,40,30,59,304,33,31,47,298,,,,,*45
$GPGSA,M,3,02,12,25,29,,,,,,,,,7.1,3.9,6.0*39
Trace #16 at position 3.750000
$GPZDA,095832.03,08,10,2011,00,00*6B
$GPRMC,095832.00,A,4611.953693,N,01258.220391,E,001.8,328.7,081011,0.2,E,A*38
$GPGGA,095833.00,4611.954058,N,01258.220048,E,1,04,3.9,139.01,M,46.25,M,,*6C
$GPGLL,4611.954058,N,01258.220048,E,095833.00,A,A*68
$GPVTG,334.9,T,335.1,M,001.7,N,003.2,K,A*2D
$GPGSV,2,1,07,21,15,186,,02,28,051,38,12,35,102,43,25,69,089,41*7F
$GPGSV,2,2,07,29,79,257,40,30,59,304,33,31,47,298,,,,,*45
$GPGSA,M,3,02,12,25,29,,,,,,,,,7.1,3.9,6.0*39
Trace #17 at position 4.000000
$GPZDA,095833.03,08,10,2011,00,00*6A
$GPRMC,095833.00,A,4611.954058,N,01258.220048,E,001.7,334.9,081011,0.2,E,A*34
$GPGGA,095834.00,4611.954316,N,01258.219940,E,1,04,3.9,139.18,M,46.25,M,,*61
$GPGLL,4611.954316,N,01258.219940,E,095834.00,A,A*6D
$GPVTG,17.1,T,17.3,M,000.7,N,001.4,K,A*23
$GPGSV,2,1,07,21,15,186,,02,28,051,38,12,35,102,40,25,69,089,39*73
$GPGSV,2,2,07,29,79,257,39,30,59,304,32,31,47,298,,,,,*4A
$GPGSA,M,3,02,12,25,29,,,,,,,,,7.1,3.9,6.0*39
Trace #18 at position 4.250000
$GPZDA,095833.03,08,10,2011,00,00*6A
$GPRMC,095833.00,A,4611.954058,N,01258.220048,E,001.7,334.9,081011,0.2,E,A*34
$GPGGA,095834.00,4611.954316,N,01258.219940,E,1,04,3.9,139.18,M,46.25,M,,*61
$GPGLL,4611.954316,N,01258.219940,E,095834.00,A,A*6D
$GPVTG,17.1,T,17.3,M,000.7,N,001.4,K,A*23
$GPGSV,2,1,07,21,15,186,,02,28,051,38,12,35,102,40,25,69,089,39*73
$GPGSV,2,2,07,29,79,257,39,30,59,304,32,31,47,298,,,,,*4A
$GPGSA,M,3,02,12,25,29,,,,,,,,,7.1,3.9,6.0*39
Trace #19 at position 4.500000
$GPZDA,095833.03,08,10,2011,00,00*6A
$GPRMC,095833.00,A,4611.954058,N,01258.220048,E,001.7,334.9,081011,0.2,E,A*34
$GPGGA,095834.00,4611.954316,N,01258.219940,E,1,04,3.9,139.18,M,46.25,M,,*61
$GPGLL,4611.954316,N,01258.219940,E,095834.00,A,A*6D
$GPVTG,17.1,T,17.3,M,000.7,N,001.4,K,A*23
$GPGSV,2,1,07,21,15,186,,02,28,051,38,12,35,102,40,25,69,089,39*73
$GPGSV,2,2,07,29,79,257,39,30,59,304,32,31,47,298,,,,,*4A
$GPGSA,M,3,02,12,25,29,,,,,,,,,7.1,3.9,6.0*39
Trace #20 at position 4.750000
$GPZDA,095834.03,08,10,2011,00,00*6D
$GPRMC,095834.00,A,4611.954316,N,01258.219940,E,000.7,17.1,081011,0.2,E,A*0A
$GPGGA,095835.00,4611.954543,N,01258.219885,E,1,04,3.9,139.60,M,46.25,M,,*61
$GPGLL,4611.954543,N,01258.219885,E,095835.00,A,A*62
$GPVTG,342.5,T,342.7,M,001.2,N,002.3,K,A*23
$GPGSV,2,1,07,21,15,186,,02,28,051,38,12,35,102,40,25,69,089,38*72
$GPGSV,2,2,07,29,79,257,41,30,59,304,33,31,47,298,,,,,*44
$GPGSA,M,3,02,12,25,29,,,,,,,,,7.1,3.9,6.0*39
Trace #21 at position 5.000000
$GPZDA,095834.03,08,10,2011,00,00*6D
$GPRMC,095834.00,A,4611.954316,N,01258.219940,E,000.7,17.1,081011,0.2,E,A*0A
$GPGGA,095835.00,4611.954543,N,01258.219885,E,1,04,3.9,139.60,M,46.25,M,,*61
$GPGLL,4611.954543,N,01258.219885,E,095835.00,A,A*62
$GPVTG,342.5,T,342.7,M,001.2,N,002.3,K,A*23
$GPGSV,2,1,07,21,15,186,,02,28,051,38,12,35,102,40,25,69,089,38*72
$GPGSV,2,2,07,29,79,257,41,30,59,304,33,31,47,298,,,,,*44
$GPGSA,M,3,02,12,25,29,,,,,,,,,7.1,3.9,6.0*39
Trace #22 at position 5.250000
$GPZDA,095834.03,08,10,2011,00,00*6D
$GPRMC,095834.00,A,4611.954316,N,01258.219940,E,000.7,17.1,081011,0.2,E,A*0A
$GPGGA,095835.00,4611.954543,N,01258.219885,E,1,04,3.9,139.60,M,46.25,M,,*61
$GPGLL,4611.954543,N,01258.219885,E,095835.00,A,A*62
$GPVTG,342.5,T,342.7,M,001.2,N,002.3,K,A*23
$GPGSV,2,1,07,21,15,186,,02,28,051,38,12,35,102,40,25,69,089,38*72
$GPGSV,2,2,07,29,79,257,41,30,59,304,33,31,47,298,,,,,*44
$GPGSA,M,3,02,12,25,29,,,,,,,,,7.1,3.9,6.0*39
Trace #23 at position 5.500000
$GPZDA,095835.03,08,10,2011,00,00*6C
$GPRMC,095835.00,A,4611.954543,N,01258.219885,E,001.2,342.5,081011,0.2,E,A*36
$GPGGA,095836.00,4611.954947,N,01258.219684,E,1,04,3.9,139.36,M,46.25,M,,*66
$GPGLL,4611.954947,N,01258.219684,E,095836.00,A,A*66
$GPVTG,344.4,T,344.6,M,002.0,N,003.7,K,A*27
$GPGSV,2,1,07,21,15,186,,02,28,051,39,12,35,102,41,25,69,089,41*7C
$GPGSV,2,2,07,29,79,257,41,30,59,304,34,31,47,298,,,,,*43
$GPGSA,M,3,02,12,25,29,,,,,,,,,7.1,3.9,6.0*39
Trace #24 at position 5.750000
$GPZDA,095835.03,08,10,2011,00,00*6C
$GPRMC,095835.00,A,4611.954543,N,01258.219885,E,001.2,342.5,081011,0.2,E,A*36
$GPGGA,095836.00,4611.954947,N,01258.219684,E,1,04,3.9,139.36,M,46.25,M,,*66
$GPGLL,4611.954947,N,01258.219684,E,095836.00,A,A*66
$GPVTG,344.4,T,344.6,M,002.0,N,003.7,K,A*27
$GPGSV,2,1,07,21,15,186,,02,28,051,39,12,35,102,41,25,69,089,41*7C
$GPGSV,2,2,07,29,79,257,41,30,59,304,34,31,47,298,,,,,*43
$GPGSA,M,3,02,12,25,29,,,,,,,,,7.1,3.9,6.0*39
Trace #25 at position 6.000000
$GPZDA,095835.03,08,10,2011,00,00*6C
$GPRMC,095835.00,A,4611.954543,N,01258.219885,E,001.2,342.5,081011,0.2,E,A*36
$GPGGA,095836.00,4611.954947,N,01258.219684,E,1,04,3.9,139.36,M,46.25,M,,*66
$GPGLL,4611.954947,N,01258.219684,E,095836.00,A,A*66
$GPVTG,344.4,T,344.6,M,002.0,N,003.7,K,A*27
$GPGSV,2,1,07,21,15,186,,02,28,051,39,12,35,102,41,25,69,089,41*7C
$GPGSV,2,2,07,29,79,257,41,30,59,304,34,31,47,298,,,,,*43
$GPGSA,M,3,02,12,25,29,,,,,,,,,7.1,3.9,6.0*39
Trace #26 at position 6.250000
$GPZDA,095835.03,08,10,2011,00,00*6C
$GPRMC,095835.00,A,4611.954543,N,01258.219885,E,001.2,342.5,081011,0.2,E,A*36
$GPGGA,095836.00,4611.954947,N,01258.219684,E,1,04,3.9,139.36,M,46.25,M,,*66
$GPGLL,4611.954947,N,01258.219684,E,095836.00,A,A*66
$GPVTG,344.4,T,344.6,M,002.0,N,003.7,K,A*27
$GPGSV,2,1,07,21,15,186,,02,28,051,39,12,35,102,41,25,69,089,41*7C
$GPGSV,2,2,07,29,79,257,41,30,59,304,34,31,47,298,,,,,*43
$GPGSA,M,3,02,12,25,29,,,,,,,,,7.1,3.9,6.0*39
Trace #27 at position 6.500000
$GPZDA,095836.03,08,10,2011,00,00*6F
$GPRMC,095836.00,A,4611.954947,N,01258.219684,E,002.0,344.4,081011,0.2,E,A*34
$GPGGA,095837.00,4611.955389,N,01258.219619,E,1,04,3.9,139.46,M,46.25,M,,*6D
$GPGLL,4611.955389,N,01258.219619,E,095837.00,A,A*6A
$GPVTG,14.4,T,14.6,M,001.5,N,002.9,K,A*2E
$GPGSV,2,1,07,21,15,186,,02,28,051,39,12,35,102,41,25,69,089,42*7F
$GPGSV,2,2,07,29,79,257,40,30,59,304,33,31,47,298,28,,,,*4F
$GPGSA,M,3,02,12,25,29,,,,,,,,,7.1,3.9,6.0*39
Trace #28 at position 6.750000
$GPZDA,095836.03,08,10,2011,00,00*6F
$GPRMC,095836.00,A,4611.954947,N,01258.219684,E,002.0,344.4,081011,0.2,E,A*34
$GPGGA,095837.00,4611.955389,N,01258.219619,E,1,04,3.9,139.46,M,46.25,M,,*6D
$GPGLL,4611.955389,N,01258.219619,E,095837.00,A,A*6A
$GPVTG,14.4,T,14.6,M,001.5,N,002.9,K,A*2E
$GPGSV,2,1,07,21,15,186,,02,28,051,39,12,35,102,41,25,69,089,42*7F
$GPGSV,2,2,07,29,79,257,40,30,59,304,33,31,47,298,28,,,,*4F
$GPGSA,M,3,02,12,25,29,,,,,,,,,7.1,3.9,6.0*39
Trace #29 at position 7.000000
$GPZDA,095836.03,08,10,2011,00,00*6F
$GPRMC,095836.00,A,4611.954947,N,01258.219684,E,002.0,344.4,081011,0.2,E,A*34
$GPGGA,095837.00,4611.955389,N,01258.219619,E,1,04,3.9,139.46,M,46.25,M,,*6D
$GPGLL,4611.955389,N,01258.219619,E,095837.00,A,A*6A
$GPVTG,14.4,T,14.6,M,001.5,N,002.9,K,A*2E
$GPGSV,2,1,07,21,15,186,,02,28,051,39,12,35,102,41,25,69,089,42*7F
$GPGSV,2,2,07,29,79,257,40,30,59,304,33,31,47,298,28,,,,*4F
$GPGSA,M,3,02,12,25,29,,,,,,,,,7.1,3.9,6.0*39
Trace #30 at position 7.250000
$GPZDA,095837.03,08,10,2011,00,00*6E
$GPRMC,095837.00,A,4611.955389,N,01258.219619,E,001.5,14.4,081011,0.2,E,A*08
$GPGGA,095838.00,4611.955752,N,01258.219556,E,1,04,3.9,139.58,M,46.25,M,,*67
$GPGLL,4611.955752,N,01258.219556,E,095838.00,A,A*6F
$GPVTG,345.1,T,345.3,M,001.4,N,002.6,K,A*20
$GPGSV,2,1,07,21,15,186,,02,28,051,39,12,35,102,42,25,69,089,43*7D
$GPGSV,2,2,07,29,79,257,40,30,59,304,31,31,47,298,28,,,,*4D
$GPGSA,M,3,02,12,25,29,,,,,,,,,7.1,3.9,6.0*39
Trace #31 at position 7.500000
$GPZDA,095837.03,08,10,2011,00,00*6E
$GPRMC,095837.00,A,4611.955389,N,01258.219619,E,001.5,14.4,081011,0.2,E,A*08
$GPGGA,095838.00,4611.955752,N,01258.219556,E,1,04,3.9,139.58,M,46.25,M,,*67
$GPGLL,4611.955752,N,01258.219556,E,095838.00,A,A*6F
$GPVTG,345.1,T,345.3,M,001.4,N,002.6,K,A*20
$GPGSV,2,1,07,21,15,186,,02,28,051,39,12,35,102,42,25,69,089,43*7D
$GPGSV,2,2,07,29,79,257,40,30,59,304,31,31,47,298,28,,,,*4D
$GPGSA,M,3,02,12,25,29,,,,,,,,,7.1,3.9,6.0*39
Trace #32 at position 7.750000
$GPZDA,095837.03,08,10,2011,00,00*6E
$GPRMC,095837.00,A,4611.955389,N,01258.219619,E,001.5,14.4,081011,0.2,E,A*08
$GPGGA,095838.00,4611.955752,N,01258.219556,E,1,04,3.9,139.58,M,46.25,M,,*67
$GPGLL,4611.955752,N,01258.219556,E,095838.00,A,A*6F
$GPVTG,345.1,T,345.3,M,001.4,N,002.6,K,A*20
$GPGSV,2,1,07,21,15,186,,02,28,051,39,12,35,102,42,25,69,089,43*7D
$GPGSV,2,2,07,29,79,257,40,30,59,304,31,31,47,298,28,,,,*4D
$GPGSA,M,3,02,12,25,29,,,,,,,,,7.1,3.9,6.0*39
Trace #33 at position 8.000000
$GPZDA,095838.03,08,10,2011,00,00*61
$GPRMC,095838.00,A,4611.955752,N,01258.219556,E,001.4,345.1,081011,0.2,E,A*3E
$GPGGA,095839.00,4611.956188,N,01258.219309,E,1,04,3.9,139.40,M,46.25,M,,*61
$GPGLL,4611.956188,N,01258.219309,E,095839.00,A,A*60
$GPVTG,344.6,T,344.8,M,002.1,N,003.9,K,A*24
$GPGSV,2,1,07,21,15,186,,02,28,051,39,12,35,102,43,25,69,089,41*7E
$GPGSV,2,2,07,29,79,257,41,30,59,304,,31,47,298,28,,,,*4E
$GPGSA,M,3,02,12,25,29,,,,,,,,,7.1,3.9,6.0*39
Trace #34 at position 8.250000
$GPZDA,095838.03,08,10,2011,00,00*61
$GPRMC,095838.00,A,4611.955752,N,01258.219556,E,001.4,345.1,081011,0.2,E,A*3E
$GPGGA,095839.00,4611.956188,N,01258.219309,E,1,04,3.9,139.40,M,46.25,M,,*61
$GPGLL,4611.956188,N,01258.219309,E,095839.00,A,A*60
$GPVTG,344.6,T,344.8,M,002.1,N,003.9,K,A*24
$GPGSV,2,1,07,21,15,186,,02,28,051,39,12,35,102,43,25,69,089,41*7E
$GPGSV,2,2,07,29,79,257,41,30,59,304,,31,47,298,28,,,,*4E
$GPGSA,M,3,02,12,25,29,,,,,,,,,7.1,3.9,6.0*39
Trace #35 at position 8.500000
$GPZDA,095838.03,08,10,2011,00,00*61
$GPRMC,095838.00,A,4611.955752,N,01258.219556,E,001.4,345.1,081011,0.2,E,A*3E
$GPGGA,095839.00,4611.956188,N,01258.219309,E,1,04,3.9,139.40,M,46.25,M,,*61
$GPGLL,4611.956188,N,01258.219309,E,095839.00,A,A*60
$GPVTG,344.6,T,344.8,M,002.1,N,003.9,K,A*24
$GPGSV,2,1,07,21,15,186,,02,28,051,39,12,35,102,43,25,69,089,41*7E
$GPGSV,2,2,07,29,79,257,41,30,59,304,,31,47,298,28,,,,*4E
$GPGSA,M,3,02,12,25,29,,,,,,,,,7.1,3.9,6.0*39
Trace #36 at position 8.750000
$GPZDA,095838.03,08,10,2011,00,00*61
$GPRMC,095838.00,A,4611.955752,N,01258.219556,E,001.4,345.1,081011,0.2,E,A*3E
$GPGGA,095839.00,4611.956188,N,01258.219309,E,1,04,3.9,139.40,M,46.25,M,,*61
$GPGLL,4611.956188,N,01258.219309,E,095839.00,A,A*60
$GPVTG,344.6,T,344.8,M,002.1,N,003.9,K,A*24
$GPGSV,2,1,07,21,15,186,,02,28,051,39,12,35,102,43,25,69,089,41*7E
$GPGSV,2,2,07,29,79,257,41,30,59,304,,31,47,298,28,,,,*4E
$GPGSA,M,3,02,12,25,29,,,,,,,,,7.1,3.9,6.0*39
Trace #37 at position 9.000000
$GPZDA,095839.03,08,10,2011,00,00*60
$GPRMC,095839.00,A,4611.956188,N,01258.219309,E,002.1,344.6,081011,0.2,E,A*31
$GPGGA,095840.00,4611.956630,N,01258.219159,E,1,04,3.9,139.75,M,46.25,M,,*6A
$GPGLL,4611.956630,N,01258.219159,E,095840.00,A,A*6D
$GPVTG,4.6,T,4.8,M,001.5,N,002.7,K,A*2C
$GPGSV,2,1,07,21,15,186,,02,28,051,38,12,35,102,40,25,69,089,38*72
$GPGSV,2,2,07,29,79,257,40,30,59,304,31,31,47,298,30,,,,*44
$GPGSA,M,3,02,12,25,29,,,,,,,,,7.1,3.9,6.0*39
Trace #38 at position 9.250000
$GPZDA,095839.03,08,10,2011,00,00*60
$GPRMC,095839.00,A,4611.956188,N,01258.219309,E,002.1,344.6,081011,0.2,E,A*31
$GPGGA,095840.00,4611.956630,N,01258.219159,E,1,04,3.9,139.75,M,46.25,M,,*6A
$GPGLL,4611.956630,N,01258.219159,E,095840.00,A,A*6D
$GPVTG,4.6,T,4.8,M,001.5,N,002.7,K,A*2C
$GPGSV,2,1,07,21,15,186,,02,28,051,38,12,35,102,40,25,69,089,38*72
$GPGSV,2,2,07,29,79,257,40,30,59,304,31,31,47,298,30,,,,*44
$GPGSA,M,3,02,12,25,29,,,,,,,,,7.1,3.9,6.0*39
Trace #39 at position 9.500000
$GPZDA,095839.03,08,10,2011,00,00*60
$GPRMC,095839.00,A,4611.956188,N,01258.219309,E,002.1,344.6,081011,0.2,E,A*31
$GPGGA,095840.00,4611.956630,N,01258.219159,E,1,04,3.9,139.75,M,46.25,M,,*6A
$GPGLL,4611.956630,N,01258.219159,E,095840.00,A,A*6D
$GPVTG,4.6,T,4.8,M,001.5,N,002.7,K,A*2C
$GPGSV,2,1,07,21,15,186,,02,28,051,38,12,35,102,40,25,69,089,38*72
$GPGSV,2,2,07,29,79,257,40,30,59,304,31,31,47,298,30,,,,*44
$GPGSA,M,3,02,12,25,29,,,,,,,,,7.1,3.9,6.0*39
Trace #40 at position 9.750000
$GPZDA,095840.03,08,10,2011,00,00*6E
$GPRMC,095840.00,A,4611.956630,N,01258.219159,E,001.5,4.6,081011,0.2,E,A*3C
$GPGGA,095841.00,4611.957100,N,01258.219125,E,1,04,3.9,140.19,M,46.25,M,,*61
$GPGLL,4611.957100,N,01258.219125,E,095841.00,A,A*62
$GPVTG,3.0,T,3.2,M,002.3,N,004.2,K,A*26
$GPGSV,2,1,07,21,15,186,,02,28,051,39,12,35,102,40,25,69,089,38*73
$GPGSV,2,2,07,29,79,257,40,30,59,304,32,31,47,298,,,,,*44
$GPGSA,M,3,02,12,25,29,,,,,,,,,7.1,3.9,6.0*39
Trace #41 at position 10.000000
$GPZDA,095840.03,08,10,2011,00,00*6E
$GPRMC,095840.00,A,4611.956630,N,01258.219159,E,001.5,4.6,081011,0.2,E,A*3C
$GPGGA,095841.00,4611.957100,N,01258.219125,E,1,04,3.9,140.19,M,46.25,M,,*61
$GPGLL,4611.957100,N,01258.219125,E,095841.00,A,A*62
$GPVTG,3.0,T,3.2,M,002.3,N,004.2,K,A*26
$GPGSV,2,1,07,21,15,186,,02,28,051,39,12,35,102,40,25,69,089,38*73
$GPGSV,2,2,07,29,79,257,40,30,59,304,32,31,47,298,,,,,*44
$GPGSA,M,3,02,12,25,29,,,,,,,,,7.1,3.9,6.0*39
Trace #42 at position 10.250000
$GPZDA,095840.03,08,10,2011,00,00*6E
$GPRMC,095840.00,A,4611.956630,N,01258.219159,E,001.5,4.6,081011,0.2,E,A*3C
$GPGGA,095841.00,4611.957100,N,01258.219125,E,1,04,3.9,140.19,M,46.25,M,,*61
$GPGLL,4611.957100,N,01258.219125,E,095841.00,A,A*62
$GPVTG,3.0,T,3.2,M,002.3,N,004.2,K,A*26
$GPGSV,2,1,07,21,15,186,,02,28,051,39,12,35,102,40,25,69,089,38*73
$GPGSV,2,2,07,29,79,257,40,30,59,304,32,31,47,298,,,,,*44
$GPGSA,M,3,02,12,25,29,,,,,,,,,7.1,3.9,6.0*39
Trace #43 at position 10.500000
$GPZDA,095841.03,08,10,2011,00,00*6F
$GPRMC,095841.00,A,4611.957100,N,01258.219125,E,002.3,3.0,081011,0.2,E,A*37
$GPGGA,095842.00,4611.957613,N,01258.218964,E,1,04,3.9,140.09,M,46.25,M,,*6A
$GPGLL,4611.957613,N,01258.218964,E,095842.00,A,A*68
$GPVTG,345.8,T,345.9,M,001.9,N,003.5,K,A*2C
$GPGSV,2,1,07,21,15,186,,02,28,051,37,12,35,102,41,25,69,089,41*72
$GPGSV,2,2,07,29,79,257,40,30,59,304,31,31,47,297,29,,,,*43
$GPGSA,M,3,02,12,25,29,,,,,,,,,7.1,3.9,6.0*39
Trace #44 at position 10.750000
$GPZDA,095841.03,08,10,2011,00,00*6F
$GPRMC,095841.00,A,4611.957100,N,01258.219125,E,002.3,3.0,081011,0.2,E,A*37
$GPGGA,095842.00,4611.957613,N,01258.218964,E,1,04,3.9,140.09,M,46.25,M,,*6A
$GPGLL,4611.957613,N,01258.218964,E,095842.00,A,A*68
$GPVTG,345.8,T,345.9,M,001.9,N,003.5,K,A*2C
$GPGSV,2,1,07,21,15,186,,02,28,051,37,12,35,102,41,25,69,089,41*72
$GPGSV,2,2,07,29,79,257,40,30,59,304,31,31,47,297,29,,,,*43
$GPGSA,M,3,02,12,25,29,,,,,,,,,7.1,3.9,6.0*39
Trace #45 at position 11.000000
$GPZDA,095842.03,08,10,2011,00,00*6C
$GPRMC,095842.00,A,4611.957613,N,01258.218964,E,001.9,345.8,081011,0.2,E,A*3D
$GPGGA,095843.00,4611.957995,N,01258.218585,E,1,04,3.9,139.65,M,46.25,M,,*6D
$GPGLL,4611.957995,N,01258.218585,E,095843.00,A,A*6B
$GPVTG,320.7,T,320.9,M,001.7,N,003.2,K,A*2A
$GPGSV,2,1,07,21,15,186,,02,28,051,40,12,35,102,43,25,69,089,43*72
$GPGSV,2,2,07,29,79,257,41,30,59,304,,31,47,297,26,,,,*4F
$GPGSA,M,3,02,12,25,29,,,,,,,,,7.1,3.9,6.0*39
Trace #46 at position 11.250000
$GPZDA,095854.03,08,10,2011,00,00*6B
$GPRMC,095854.00,A,4611.958032,N,01258.218039,E,000.0,282.1,081011,0.2,E,A*3A
$GPGGA,095855.00,4611.958033,N,01258.218007,E,1,04,3.9,139.14,M,46.25,M,,*69
$GPGLL,4611.958033,N,01258.218007,E,095855.00,A,A*69
$GPVTG,343.1,T,343.3,M,000.1,N,000.2,K,A*22
$GPGSV,2,1,07,21,15,186,31,02,28,051,36,12,35,102,39,25,69,090,42*75
$GPGSV,2,2,07,29,79,258,40,30,59,304,37,31,47,297,33,,,,*41
$GPGSA,M,3,02,12,25,29,,,,,,,,,7.1,3.9,6.0*39
Trace #47 at position 11.500000
$GPZDA,095855.03,08,10,2011,00,00*6A
$GPRMC,095855.00,A,4611.958033,N,01258.218007,E,000.1,343.1,081011,0.2,E,A*3A
$GPGGA,095856.00,4611.958013,N,01258.217981,E,1,04,3.9,139.09,M,46.25,M,,*6C
$GPGLL,4611.958013,N,01258.217981,E,095856.00,A,A*60
$GPVTG,188.5,T,188.7,M,000.2,N,000.3,K,A*20
$GPGSV,2,1,07,21,15,186,32,02,28,051,36,12,35,102,39,25,69,090,42*76
$GPGSV,2,2,07,29,79,258,40,30,59,304,37,31,47,297,34,,,,*46
$GPGSA,M,3,02,12,25,29,,,,,,,,,7.1,3.9,6.0*39
Trace #48 at position 11.750000
$GPZDA,095900.02,08,10,2011,00,00*6A
$GPRMC,095857.00,V,,,,,,,,,,N*7B
$GPGGA,,,,,,0,03,,,M,,M,,*65
$GPGLL,,,,,,V,N*64
$GPVTG,,T,,,,N,,K,N*61
$GPGSV,2,1,07,21,15,186,30,02,28,051,35,12,35,102,43,25,69,090,42*7A
$GPGSV,2,2,07,29,79,258,39,30,59,304,34,31,47,297,29,,,,*47
$GPGSA,M,1,,,,,,,,,,,,,7.1,3.9,6.0*36
Trace #49 at position 12.000000
$GPZDA,095900.02,08,10,2011,00,00*6A
$GPRMC,095857.00,V,,,,,,,,,,N*7B
$GPGGA,,,,,,0,03,,,M,,M,,*65
$GPGLL,,,,,,V,N*64
$GPVTG,,T,,,,N,,K,N*61
$GPGSV,2,1,07,21,15,186,30,02,28,051,35,12,35,102,43,25,69,090,42*7A
$GPGSV,2,2,07,29,79,258,39,30,59,304,34,31,47,297,29,,,,*47
$GPGSA,M,1,,,,,,,,,,,,,7.1,3.9,6.0*36
Trace #50 at position 12.250000
$GPZDA,095901.02,08,10,2011,00,00*6B
$GPRMC,095857.00,V,,,,,,,,,,N*7B
$GPGGA,,,,,,0,03,,,M,,M,,*65
$GPGLL,,,,,,V,N*64
$GPVTG,,T,,,,N,,K,N*61
$GPGSV,2,1,07,21,15,186,31,02,28,051,36,12,35,102,40,25,69,090,42*7B
$GPGSV,2,2,07,29,79,258,40,30,60,304,38,31,47,297,32,,,,*45
$GPGSA,M,1,,,,,,,,,,,,,7.1,3.9,6.0*36
Trace #51 at position 12.500000
$GPZDA,095901.02,08,10,2011,00,00*6B
$GPRMC,095857.00,V,,,,,,,,,,N*7B
$GPGGA,,,,,,0,03,,,M,,M,,*65
$GPGLL,,,,,,V,N*64
$GPVTG,,T,,,,N,,K,N*61
$GPGSV,2,1,07,21,15,186,31,02,28,051,36,12,35,102,40,25,69,090,42*7B
$GPGSV,2,2,07,29,79,258,40,30,60,304,38,31,47,297,32,,,,*45
$GPGSA,M,1,,,,,,,,,,,,,7.1,3.9,6.0*36
Trace #52 at position 12.750000
$GPZDA,095902.02,08,10,2011,00,00*68
$GPRMC,095857.00,V,,,,,,,,,,N*7B
$GPGGA,,,,,,0,03,,,M,,M,,*65
$GPGLL,,,,,,V,N*64
$GPVTG,,T,,,,N,,K,N*61
$GPGSV,2,1,07,21,15,186,32,02,28,051,37,12,35,102,41,25,69,090,41*7B
$GPGSV,2,2,07,29,79,258,40,30,60,304,37,31,47,297,26,,,,*4F
$GPGSA,M,1,,,,,,,,,,,,,7.1,3.9,6.0*36
Trace #53 at position 13.000000
$GPZDA,095914.03,08,10,2011,00,00*6E
$GPRMC,095914.00,A,4611.958824,N,01258.217653,E,000.1,168.6,081011,0.2,E,A*34
$GPGGA,095915.00,4611.958818,N,01258.217673,E,1,04,3.9,139.31,M,46.25,M,,*60
$GPGLL,4611.958818,N,01258.217673,E,095915.00,A,A*67
$GPVTG,59.8,T,60.0,M,000.2,N,000.3,K,A*20
$GPGSV,2,1,07,21,15,186,38,02,28,051,39,12,35,102,41,25,69,090,40*7E
$GPGSV,2,2,07,29,79,258,41,30,60,304,36,31,47,297,38,,,,*40
$GPGSA,M,3,02,12,25,29,,,,,,,,,7.2,3.9,6.0*3A
Trace #54 at position 13.250000
$GPZDA,095914.03,08,10,2011,00,00*6E
$GPRMC,095914.00,A,4611.958824,N,01258.217653,E,000.1,168.6,081011,0.2,E,A*34
$GPGGA,095915.00,4611.958818,N,01258.217673,E,1,04,3.9,139.31,M,46.25,M,,*60
$GPGLL,4611.958818,N,01258.217673,E,095915.00,A,A*67
$GPVTG,59.8,T,60.0,M,000.2,N,000.3,K,A*20
$GPGSV,2,1,07,21,15,186,38,02,28,051,39,12,35,102,41,25,69,090,40*7E
$GPGSV,2,2,07,29,79,258,41,30,60,304,36,31,47,297,38,,,,*40
$GPGSA,M,3,02,12,25,29,,,,,,,,,7.2,3.9,6.0*3A
Trace #55 at position 13.500000
$GPZDA,095914.03,08,10,2011,00,00*6E
$GPRMC,095914.00,A,4611.958824,N,01258.217653,E,000.1,168.6,081011,0.2,E,A*34
$GPGGA,095915.00,4611.958818,N,01258.217673,E,1,04,3.9,139.31,M,46.25,M,,*60
$GPGLL,4611.958818,N,01258.217673,E,095915.00,A,A*67
$GPVTG,59.8,T,60.0,M,000.2,N,000.3,K,A*20
$GPGSV,2,1,07,21,15,186,38,02,28,051,39,12,35,102,41,25,69,090,40*7E
$GPGSV,2,2,07,29,79,258,41,30,60,304,36,31,47,297,38,,,,*40
$GPGSA,M,3,02,12,25,29,,,,,,,,,7.2,3.9,6.0*3A
Trace #56 at position 13.750000
$GPZDA,095915.03,08,10,2011,00,00*6F
$GPRMC,095915.00,A,4611.958818,N,01258.217673,E,000.2,59.8,081011,0.2,E,A*06
$GPGGA,095916.00,4611.958844,N,01258.217955,E,1,05,3.0,139.84,M,46.25,M,,*67
$GPGLL,4611.958844,N,01258.217955,E,095916.00,A,A*66
$GPVTG,4.6,T,4.8,M,000.3,N,000.5,K,A*2B
$GPGSV,2,1,07,21,15,186,39,02,28,051,36,12,35,102,41,25,69,090,42*72
$GPGSV,2,2,07,29,79,258,41,30,60,304,39,31,47,297,35,,,,*42
$GPGSA,M,3,02,12,25,29,30,,,,,,,,5.7,3.0,4.8*3D
Trace #57 at position 14.000000
$GPZDA,095915.03,08,10,2011,00,00*6F
$GPRMC,095915.00,A,4611.958818,N,01258.217673,E,000.2,59.8,081011,0.2,E,A*06
$GPGGA,095916.00,4611.958844,N,01258.217955,E,1,05,3.0,139.84,M,46.25,M,,*67
$GPGLL,4611.958844,N,01258.217955,E,095916.00,A,A*66
$GPVTG,4.6,T,4.8,M,000.3,N,000.5,K,A*2B
$GPGSV,2,1,07,21,15,186,39,02,28,051,36,12,35,102,41,25,69,090,42*72
$GPGSV,2,2,07,29,79,258,41,30,60,304,39,31,47,297,35,,,,*42
$GPGSA,M,3,02,12,25,29,30,,,,,,,,5.7,3.0,4.8*3D
Trace #58 at position 14.250000
$GPZDA,095916.04,08,10,2011,00,00*6B
$GPRMC,095916.00,A,4611.958844,N,01258.217955,E,000.3,4.6,081011,0.2,E,A*30
$GPGGA,095917.00,4611.958988,N,01258.218126,E,1,05,3.0,140.37,M,46.25,M,,*62
$GPGLL,4611.958988,N,01258.218126,E,095917.00,A,A*65
$GPVTG,345.7,T,345.9,M,000.9,N,001.6,K,A*23
$GPGSV,2,1,07,21,15,186,39,02,28,051,37,12,35,102,41,25,69,090,41*70
$GPGSV,2,2,07,29,79,258,40,30,60,304,38,31,47,297,37,,,,*40
$GPGSA,M,3,02,12,25,29,30,,,,,,,,5.7,3.0,4.8*3D
Trace #59 at position 14.500000
$GPZDA,095916.04,08,10,2011,00,00*6B
$GPRMC,095916.00,A,4611.958844,N,01258.217955,E,000.3,4.6,081011,0.2,E,A*30
$GPGGA,095917.00,4611.958988,N,01258.218126,E,1,05,3.0,140.37,M,46.25,M,,*62
$GPGLL,4611.958988,N,01258.218126,E,095917.00,A,A*65
$GPVTG,345.7,T,345.9,M,000.9,N,001.6,K,A*23
$GPGSV,2,1,07,21,15,186,39,02,28,051,37,12,35,102,41,25,69,090,41*70
$GPGSV,2,2,07,29,79,258,40,30,60,304,38,31,47,297,37,,,,*40
$GPGSA,M,3,02,12,25,29,30,,,,,,,,5.7,3.0,4.8*3D
Trace #60 at position 14.750000
$GPZDA,095916.04,08,10,2011,00,00*6B
$GPRMC,095916.00,A,4611.958844,N,01258.217955,E,000.3,4.6,081011,0.2,E,A*30
$GPGGA,095917.00,4611.958988,N,01258.218126,E,1,05,3.0,140.37,M,46.25,M,,*62
$GPGLL,4611.958988,N,01258.218126,E,095917.00,A,A*65
$GPVTG,345.7,T,345.9,M,000.9,N,001.6,K,A*23
$GPGSV,2,1,07,21,15,186,39,02,28,051,37,12,35,102,41,25,69,090,41*70
$GPGSV,2,2,07,29,79,258,40,30,60,304,38,31,47,297,37,,,,*40
$GPGSA,M,3,02,12,25,29,30,,,,,,,,5.7,3.0,4.8*3D
Trace #61 at position 15.000000
$GPZDA,095917.03,08,10,2011,00,00*6D
$GPRMC,095917.00,A,4611.958988,N,01258.218126,E,000.9,345.7,081011,0.2,E,A*3E
$GPGGA,095918.00,4611.959262,N,01258.218129,E,1,05,3.0,140.85,M,46.25,M,,*65
$GPGLL,4611.959262,N,01258.218129,E,095918.00,A,A*6B
$GPVTG,329.5,T,329.7,M,001.3,N,002.5,K,A*24
$GPGSV,2,1,07,21,15,186,37,02,28,051,37,12,34,103,40,25,69,090,41*7F
$GPGSV,2,2,07,29,79,258,40,30,60,304,38,31,47,297,35,,,,*42
$GPGSA,M,3,02,12,25,29,30,,,,,,,,5.7,3.0,4.8*3D
Trace #62 at position 15.250000
$GPZDA,095917.03,08,10,2011,00,00*6D
$GPRMC,095917.00,A,4611.958988,N,01258.218126,E,000.9,345.7,081011,0.2,E,A*3E
$GPGGA,095918.00,4611.959262,N,01258.218129,E,1,05,3.0,140.85,M,46.25,M,,*65
$GPGLL,4611.959262,N,01258.218129,E,095918.00,A,A*6B
$GPVTG,329.5,T,329.7,M,001.3,N,002.5,K,A*24
$GPGSV,2,1,07,21,15,186,37,02,28,051,37,12,34,103,40,25,69,090,41*7F
$GPGSV,2,2,07,29,79,258,40,30,60,304,38,31,47,297,35,,,,*42
$GPGSA,M,3,02,12,25,29,30,,,,,,,,5.7,3.0,4.8*3D
Trace #63 at position 15.500000
$GPZDA,095917.03,08,10,2011,00,00*6D
$GPRMC,095917.00,A,4611.958988,N,01258.218126,E,000.9,345.7,081011,0.2,E,A*3E
$GPGGA,095918.00,4611.959262,N,01258.218129,E,1,05,3.0,140.85,M,46.25,M,,*65
$GPGLL,4611.959262,N,01258.218129,E,095918.00,A,A*6B
$GPVTG,329.5,T,329.7,M,001.3,N,002.5,K,A*24
$GPGSV,2,1,07,21,15,186,37,02,28,051,37,12,34,103,40,25,69,090,41*7F
$GPGSV,2,2,07,29,79,258,40,30,60,304,38,31,47,297,35,,,,*42
$GPGSA,M,3,02,12,25,29,30,,,,,,,,5.7,3.0,4.8*3D
Trace #64 at position 15.750000
$GPZDA,095918.03,08,10,2011,00,00*62
$GPRMC,095918.00,A,4611.959262,N,01258.218129,E,001.3,329.5,081011,0.2,E,A*33
$GPGGA,095919.00,4611.959613,N,01258.217967,E,1,05,3.0,141.10,M,46.25,M,,*66
$GPGLL,4611.959613,N,01258.217967,E,095919.00,A,A*65
$GPVTG,323.4,T,323.6,M,001.8,N,003.2,K,A*29
$GPGSV,2,1,07,21,15,186,39,02,28,051,38,12,34,103,42,25,69,090,41*7C
$GPGSV,2,2,07,29,79,258,41,30,60,304,36,31,47,297,36,,,,*4E
$GPGSA,M,3,02,12,25,29,30,,,,,,,,5.7,3.0,4.8*3D
Trace #65 at position 16.000000
$GPZDA,095918.03,08,10,2011,00,00*62
$GPRMC,095918.00,A,4611.959262,N,01258.218129,E,001.3,329.5,081011,0.2,E,A*33
$GPGGA,095919.00,4611.959613,N,01258.217967,E,1,05,3.0,141.10,M,46.25,M,,*66
$GPGLL,4611.959613,N,01258.217967,E,095919.00,A,A*65
$GPVTG,323.4,T,323.6,M,001.8,N,003.2,K,A*29
$GPGSV,2,1,07,21,15,186,39,02,28,051,38,12,34,103,42,25,69,090,41*7C
$GPGSV,2,2,07,29,79,258,41,30,60,304,36,31,47,297,36,,,,*4E
$GPGSA,M,3,02,12,25,29,30,,,,,,,,5.7,3.0,4.8*3D
Trace #66 at position 16.250000
$GPZDA,095918.03,08,10,2011,00,00*62
$GPRMC,095918.00,A,4611.959262,N,01258.218129,E,001.3,329.5,081011,0.2,E,A*33
$GPGGA,095919.00,4611.959613,N,01258.217967,E,1,05,3.0,141.10,M,46.25,M,,*66
$GPGLL,4611.959613,N,01258.217967,E,095919.00,A,A*65
$GPVTG,323.4,T,323.6,M,001.8,N,003.2,K,A*29
$GPGSV,2,1,07,21,15,186,39,02,28,051,38,12,34,103,42,25,69,090,41*7C
$GPGSV,2,2,07,29,79,258,41,30,60,304,36,31,47,297,36,,,,*4E
$GPGSA,M,3,02,12,25,29,30,,,,,,,,5.7,3.0,4.8*3D
Trace #67 at position 16.500000
$GPZDA,095918.03,08,10,2011,00,00*62
$GPRMC,095918.00,A,4611.959262,N,01258.218129,E,001.3,329.5,081011,0.2,E,A*33
$GPGGA,095919.00,4611.959613,N,01258.217967,E,1,05,3.0,141.10,M,46.25,M,,*66
$GPGLL,4611.959613,N,01258.217967,E,095919.00,A,A*65
$GPVTG,323.4,T,323.6,M,001.8,N,003.2,K,A*29
$GPGSV,2,1,07,21,15,186,39,02,28,051,38,12,34,103,42,25,69,090,41*7C
$GPGSV,2,2,07,29,79,258,41,30,60,304,36,31,47,297,36,,,,*4E
$GPGSA,M,3,02,12,25,29,30,,,,,,,,5.7,3.0,4.8*3D
Trace #68 at position 16.750000
$GPZDA,095919.03,08,10,2011,00,00*63
$GPRMC,095919.00,A,4611.959613,N,01258.217967,E,001.8,323.4,081011,0.2,E,A*3D
$GPGGA,095920.00,4611.960075,N,01258.217619,E,1,04,3.9,140.74,M,46.25,M,,*6D
$GPGLL,4611.960075,N,01258.217619,E,095920.00,A,A*65
$GPVTG,353.8,T,354.0,M,001.9,N,003.5,K,A*22
$GPGSV,2,1,07,21,15,186,39,02,28,051,37,12,34,103,39,25,69,090,40*7E
$GPGSV,2,2,07,29,79,258,40,30,60,304,36,31,47,297,35,,,,*4C
$GPGSA,M,3,02,12,25,29,,,,,,,,,7.2,3.9,6.0*3A
Trace #69 at position 17.000000
$GPZDA,095919.03,08,10,2011,00,00*63
$GPRMC,095919.00,A,4611.959613,N,01258.217967,E,001.8,323.4,081011,0.2,E,A*3D
$GPGGA,095920.00,4611.960075,N,01258.217619,E,1,04,3.9,140.74,M,46.25,M,,*6D
$GPGLL,4611.960075,N,01258.217619,E,095920.00,A,A*65
$GPVTG,353.8,T,354.0,M,001.9,N,003.5,K,A*22
$GPGSV,2,1,07,21,15,186,39,02,28,051,37,12,34,103,39,25,69,090,40*7E
$GPGSV,2,2,07,29,79,258,40,30,60,304,36,31,47,297,35,,,,*4C
$GPGSA,M,3,02,12,25,29,,,,,,,,,7.2,3.9,6.0*3A
Trace #70 at position 17.250000
$GPZDA,095919.03,08,10,2011,00,00*63
$GPRMC,095919.00,A,4611.959613,N,01258.217967,E,001.8,323.4,081011,0.2,E,A*3D
$GPGGA,095920.00,4611.960075,N,01258.217619,E,1,04,3.9,140.74,M,46.25,M,,*6D
$GPGLL,4611.960075,N,01258.217619,E,095920.00,A,A*65
$GPVTG,353.8,T,354.0,M,001.9,N,003.5,K,A*22
$GPGSV,2,1,07,21,15,186,39,02,28,051,37,12,34,103,39,25,69,090,40*7E
$GPGSV,2,2,07,29,79,258,40,30,60,304,36,31,47,297,35,,,,*4C
$GPGSA,M,3,02,12,25,29,,,,,,,,,7.2,3.9,6.0*3A
Trace #71 at position 17.500000
$GPZDA,095920.03,08,10,2011,00,00*69
$GPRMC,095920.00,A,4611.960075,N,01258.217619,E,001.9,353.8,081011,0.2,E,A*37
$GPGGA,095921.00,4611.960611,N,01258.217386,E,1,04,3.9,140.60,M,46.25,M,,*6E
$GPGLL,4611.960611,N,01258.217386,E,095921.00,A,A*63
$GPVTG,345.6,T,345.7,M,002.1,N,003.8,K,A*2A
$GPGSV,2,1,07,21,15,186,36,02,28,051,36,12,34,103,40,25,69,090,40*7E
$GPGSV,2,2,07,29,79,258,40,30,60,304,35,31,47,297,31,,,,*4B
$GPGSA,M,3,02,12,25,29,,,,,,,,,7.2,3.9,6.0*3A
Trace #72 at position 17.750000
$GPZDA,095920.03,08,10,2011,00,00*69
$GPRMC,095920.00,A,4611.960075,N,01258.217619,E,001.9,353.8,081011,0.2,E,A*37
$GPGGA,095921.00,4611.960611,N,01258.217386,E,1,04,3.9,140.60,M,46.25,M,,*6E
$GPGLL,4611.960611,N,01258.217386,E,095921.00,A,A*63
$GPVTG,345.6,T,345.7,M,002.1,N,003.8,K,A*2A
$GPGSV,2,1,07,21,15,186,36,02,28,051,36,12,34,103,40,25,69,090,40*7E
$GPGSV,2,2,07,29,79,258,40,30,60,304,35,31,47,297,31,,,,*4B
$GPGSA,M,3,02,12,25,29,,,,,,,,,7.2,3.9,6.0*3A
Trace #73 at position 18.000000
$GPZDA,095920.03,08,10,2011,00,00*69
$GPRMC,095920.00,A,4611.960075,N,01258.217619,E,001.9,353.8,081011,0.2,E,A*37
$GPGGA,095921.00,4611.960611,N,01258.217386,E,1,04,3.9,140.60,M,46.25,M,,*6E
$GPGLL,4611.960611,N,01258.217386,E,095921.00,A,A*63
$GPVTG,345.6,T,345.7,M,002.1,N,003.8,K,A*2A
$GPGSV,2,1,07,21,15,186,36,02,28,051,36,12,34,103,40,25,69,090,40*7E
$GPGSV,2,2,07,29,79,258,40,30,60,304,35,31,47,297,31,,,,*4B
$GPGSA,M,3,02,12,25,29,,,,,,,,,7.2,3.9,6.0*3A
Trace #74 at position 18.250000
$GPZDA,095921.03,08,10,2011,00,00*68
$GPRMC,095921.00,A,4611.960611,N,01258.217386,E,002.1,345.6,081011,0.2,E,A*33
$GPGGA,095922.00,4611.961059,N,01258.217169,E,1,04,3.9,140.81,M,46.25,M,,*6A
$GPGLL,4611.961059,N,01258.217169,E,095922.00,A,A*68
$GPVTG,353.4,T,353.6,M,001.3,N,002.3,K,A*22
$GPGSV,2,1,07,21,15,186,38,02,28,051,36,12,34,103,40,25,69,090,39*7E
$GPGSV,2,2,07,29,79,259,40,30,60,304,37,31,47,297,31,,,,*48
$GPGSA,M,3,02,12,25,29,,,,,,,,,7.2,3.9,6.0*3A
Trace #75 at position 18.500000
$GPZDA,095921.03,08,10,2011,00,00*68
$GPRMC,095921.00,A,4611.960611,N,01258.217386,E,002.1,345.6,081011,0.2,E,A*33
$GPGGA,095922.00,4611.961059,N,01258.217169,E,1,04,3.9,140.81,M,46.25,M,,*6A
$GPGLL,4611.961059,N,01258.217169,E,095922.00,A,A*68
$GPVTG,353.4,T,353.6,M,001.3,N,002.3,K,A*22
$GPGSV,2,1,07,21,15,186,38,02,28,051,36,12,34,103,40,25,69,090,39*7E
$GPGSV,2,2,07,29,79,259,40,30,60,304,37,31,47,297,31,,,,*48
$GPGSA,M,3,02,12,25,29,,,,,,,,,7.2,3.9,6.0*3A
Trace #76 at position 18.750000
$GPZDA,095921.03,08,10,2011,00,00*68
$GPRMC,095921.00,A,4611.960611,N,01258.217386,E,002.1,345.6,081011,0.2,E,A*33
$GPGGA,095922.00,4611.961059,N,01258.217169,E,1,04,3.9,140.81,M,46.25,M,,*6A
$GPGLL,4611.961059,N,01258.217169,E,095922.00,A,A*68
$GPVTG,353.4,T,353.6,M,001.3,N,002.3,K,A*22
$GPGSV,2,1,07,21,15,186,38,02,28,051,36,12,34,103,40,25,69,090,39*7E
$GPGSV,2,2,07,29,79,259,40,30,60,304,37,31,47,297,31,,,,*48
$GPGSA,M,3,02,12,25,29,,,,,,,,,7.2,3.9,6.0*3A
Trace #77 at position 19.000000
$GPZDA,095921.03,08,10,2011,00,00*68
$GPRMC,095921.00,A,4611.960611,N,01258.217386,E,002.1,345.6,081011,0.2,E,A*33
$GPGGA,095922.00,4611.961059,N,01258.217169,E,1,04,3.9,140.81,M,46.25,M,,*6A
$GPGLL,4611.961059,N,01258.217169,E,095922.00,A,A*68
$GPVTG,353.4,T,353.6,M,001.3,N,002.3,K,A*22
$GPGSV,2,1,07,21,15,186,38,02,28,051,36,12,34,103,40,25,69,090,39*7E
$GPGSV,2,2,07,29,79,259,40,30,60,304,37,31,47,297,31,,,,*48
$GPGSA,M,3,02,12,25,29,,,,,,,,,7.2,3.9,6.0*3A
Trace #78 at position 19.250000
$GPZDA,095922.03,08,10,2011,00,00*6B
$GPRMC,095922.00,A,4611.961059,N,01258.217169,E,001.3,353.4,081011,0.2,E,A*3C
$GPGGA,095923.00,4611.961410,N,01258.216886,E,1,04,3.9,140.91,M,46.25,M,,*6A
$GPGLL,4611.961410,N,01258.216886,E,095923.00,A,A*69
$GPVTG,322.9,T,323.1,M,001.6,N,002.9,K,A*26
$GPGSV,2,1,07,21,15,186,40,02,28,051,36,12,34,103,39,25,69,090,39*7F
$GPGSV,2,2,07,29,79,259,40,30,60,304,35,31,47,297,,,,,*48
$GPGSA,M,3,02,12,25,29,,,,,,,,,7.2,3.9,6.0*3A
Trace #79 at position 19.500000
$GPZDA,095922.03,08,10,2011,00,00*6B
$GPRMC,095922.00,A,4611.961059,N,01258.217169,E,001.3,353.4,081011,0.2,E,A*3C
$GPGGA,095923.00,4611.961410,N,01258.216886,E,1,04,3.9,140.91,M,46.25,M,,*6A
$GPGLL,4611.961410,N,01258.216886,E,095923.00,A,A*69
$GPVTG,322.9,T,323.1,M,001.6,N,002.9,K,A*26
$GPGSV,2,1,07,21,15,186,40,02,28,051,36,12,34,103,39,25,69,090,39*7F
$GPGSV,2,2,07,29,79,259,40,30,60,304,35,31,47,297,,,,,*48
$GPGSA,M,3,02,12,25,29,,,,,,,,,7.2,3.9,6.0*3A
Trace #80 at position 19.750000
$GPZDA,095923.03,08,10,2011,00,00*6A
$GPRMC,095923.00,A,4611.961410,N,01258.216886,E,001.6,322.9,081011,0.2,E,A*33
$GPGGA,,,,,,0,03,,,M,,M,,*65
$GPGLL,,,,,,V,N*64
$GPVTG,,T,,,,N,,K,N*61
$GPGSV,2,1,07,21,15,186,38,02,28,051,35,12,34,103,40,25,69,090,39*7D
$GPGSV,2,2,07,29,79,259,40,30,60,304,36,31,47,297,31,,,,*49
$GPGSA,M,1,,,,,,,,,,,,,7.2,3.9,6.0*35
Trace #81 at position 20.000000
$GPZDA,095923.03,08,10,2011,00,00*6A
$GPRMC,095923.00,A,4611.961410,N,01258.216886,E,001.6,322.9,081011,0.2,E,A*33
$GPGGA,,,,,,0,03,,,M,,M,,*65
$GPGLL,,,,,,V,N*64
$GPVTG,,T,,,,N,,K,N*61
$GPGSV,2,1,07,21,15,186,38,02,28,051,35,12,34,103,40,25,69,090,39*7D
$GPGSV,2,2,07,29,79,259,40,30,60,304,36,31,47,297,31,,,,*49
$GPGSA,M,1,,,,,,,,,,,,,7.2,3.9,6.0*35
Trace #82 at position 20.250000
$GPZDA,095924.02,08,10,2011,00,00*6C
$GPRMC,095923.00,V,,,,,,,,,,N*79
$GPGGA,,,,,,0,03,,,M,,M,,*65
$GPGLL,,,,,,V,N*64
$GPVTG,,T,,,,N,,K,N*61
$GPGSV,2,1,07,21,15,186,38,02,28,051,36,12,34,103,41,25,69,090,41*70
$GPGSV,2,2,07,29,79,259,40,30,60,304,36,31,47,297,,,,,*4B
$GPGSA,M,1,,,,,,,,,,,,,7.2,3.9,6.0*35
Trace #83 at position 20.500000
$GPZDA,095924.02,08,10,2011,00,00*6C
$GPRMC,095923.00,V,,,,,,,,,,N*79
$GPGGA,,,,,,0,03,,,M,,M,,*65
$GPGLL,,,,,,V,N*64
$GPVTG,,T,,,,N,,K,N*61
$GPGSV,2,1,07,21,15,186,38,02,28,051,36,12,34,103,41,25,69,090,41*70
$GPGSV,2,2,07,29,79,259,40,30,60,304,36,31,47,297,,,,,*4B
$GPGSA,M,1,,,,,,,,,,,,,7.2,3.9,6.0*35
Trace #84 at position 20.750000
$GPZDA,095925.02,08,10,2011,00,00*6D
$GPRMC,095923.00,V,,,,,,,,,,N*79
$GPGGA,,,,,,0,03,,,M,,M,,*65
$GPGLL,,,,,,V,N*64
$GPVTG,,T,,,,N,,K,N*61
$GPGSV,2,1,07,21,15,186,37,02,28,051,38,12,34,103,41,25,69,090,40*70
$GPGSV,2,2,07,29,79,259,41,30,60,304,33,31,47,297,36,,,,*4A
$GPGSA,M,1,,,,,,,,,,,,,7.2,3.9,6.0*35
Trace #85 at position 21.000000
$GPZDA,095925.02,08,10,2011,00,00*6D
$GPRMC,095923.00,V,,,,,,,,,,N*79
$GPGGA,,,,,,0,03,,,M,,M,,*65
$GPGLL,,,,,,V,N*64
$GPVTG,,T,,,,N,,K,N*61
$GPGSV,2,1,07,21,15,186,37,02,28,051,38,12,34,103,41,25,69,090,40*70
$GPGSV,2,2,07,29,79,259,41,30,60,304,33,31,47,297,36,,,,*4A
$GPGSA,M,1,,,,,,,,,,,,,7.2,3.9,6.0*35
Trace #86 at position 21.250000
$GPZDA,095925.02,08,10,2011,00,00*6D
$GPRMC,095923.00,V,,,,,,,,,,N*79
$GPGGA,,,,,,0,03,,,M,,M,,*65
$GPGLL,,,,,,V,N*64
$GPVTG,,T,,,,N,,K,N*61
$GPGSV,2,1,07,21,15,186,37,02,28,051,38,12,34,103,41,25,69,090,40*70
$GPGSV,2,2,07,29,79,259,41,30,60,304,33,31,47,297,36,,,,*4A
$GPGSA,M,1,,,,,,,,,,,,,7.2,3.9,6.0*35
Trace #87 at position 21.500000
$GPZDA,095926.02,08,10,2011,00,00*6E
$GPRMC,095923.00,V,,,,,,,,,,N*79
$GPGGA,,,,,,0,03,,,M,,M,,*65
$GPGLL,,,,,,V,N*64
$GPVTG,,T,,,,N,,K,N*61
$GPGSV,2,1,07,21,15,186,40,02,28,051,38,12,34,103,40,25,69,090,41*70
$GPGSV,2,2,07,29,79,259,40,30,60,304,33,31,47,297,32,,,,*4F
$GPGSA,M,1,,,,,,,,,,,,,7.2,3.9,6.0*35
Trace #88 at position 21.750000
$GPZDA,095926.02,08,10,2011,00,00*6E
$GPRMC,095923.00,V,,,,,,,,,,N*79
$GPGGA,,,,,,0,03,,,M,,M,,*65
$GPGLL,,,,,,V,N*64
$GPVTG,,T,,,,N,,K,N*61
$GPGSV,2,1,07,21,15,186,40,02,28,051,38,12,34,103,40,25,69,090,41*70
$GPGSV,2,2,07,29,79,259,40,30,60,304,33,31,47,297,32,,,,*4F
$GPGSA,M,1,,,,,,,,,,,,,7.2,3.9,6.0*35
Trace #89 at position 22.000000
$GPZDA,095926.02,08,10,2011,00,00*6E
$GPRMC,095923.00,V,,,,,,,,,,N*79
$GPGGA,,,,,,0,03,,,M,,M,,*65
$GPGLL,,,,,,V,N*64
$GPVTG,,T,,,,N,,K,N*61
$GPGSV,2,1,07,21,15,186,40,02,28,051,38,12,34,103,40,25,69,090,41*70
$GPGSV,2,2,07,29,79,259,40,30,60,304,33,31,47,297,32,,,,*4F
$GPGSA,M,1,,,,,,,,,,,,,7.2,3.9,6.0*35
Trace #90 at position 22.250000
$GPZDA,095927.02,08,10,2011,00,00*6F
$GPRMC,095923.00,V,,,,,,,,,,N*79
$GPGGA,,,,,,0,03,,,M,,M,,*65
$GPGLL,,,,,,V,N*64
$GPVTG,,T,,,,N,,K,N*61
$GPGSV,2,1,07,21,15,186,40,02,28,051,38,12,34,103,39,25,69,090,41*7E
$GPGSV,2,2,07,29,79,259,39,30,60,304,32,31,47,297,34,,,,*46
$GPGSA,M,1,,,,,,,,,,,,,7.2,3.9,6.0*35
Trace #91 at position 22.500000
$GPZDA,095927.02,08,10,2011,00,00*6F
$GPRMC,095923.00,V,,,,,,,,,,N*79
$GPGGA,,,,,,0,03,,,M,,M,,*65
$GPGLL,,,,,,V,N*64
$GPVTG,,T,,,,N,,K,N*61
$GPGSV,2,1,07,21,15,186,40,02,28,051,38,12,34,103,39,25,69,090,41*7E
$GPGSV,2,2,07,29,79,259,39,30,60,304,32,31,47,297,34,,,,*46
$GPGSA,M,1,,,,,,,,,,,,,7.2,3.9,6.0*35
Trace #92 at position 22.750000
$GPZDA,095927.02,08,10,2011,00,00*6F
$GPRMC,095923.00,V,,,,,,,,,,N*79
$GPGGA,,,,,,0,03,,,M,,M,,*65
$GPGLL,,,,,,V,N*64
$GPVTG,,T,,,,N,,K,N*61
$GPGSV,2,1,07,21,15,186,40,02,28,051,38,12,34,103,39,25,69,090,41*7E
$GPGSV,2,2,07,29,79,259,39,30,60,304,32,31,47,297,34,,,,*46
$GPGSA,M,1,,,,,,,,,,,,,7.2,3.9,6.0*35
Trace #93 at position 23.000000
$GPZDA,095927.02,08,10,2011,00,00*6F
$GPRMC,095923.00,V,,,,,,,,,,N*79
$GPGGA,,,,,,0,03,,,M,,M,,*65
$GPGLL,,,,,,V,N*64
$GPVTG,,T,,,,N,,K,N*61
$GPGSV,2,1,07,21,15,186,40,02,28,051,38,12,34,103,39,25,69,090,41*7E
$GPGSV,2,2,07,29,79,259,39,30,60,304,32,31,47,297,34,,,,*46
$GPGSA,M,1,,,,,,,,,,,,,7.2,3.9,6.0*35
Trace #94 at position 23.250000
$GPZDA,095928.02,08,10,2011,00,00*60
$GPRMC,095923.00,V,,,,,,,,,,N*79
$GPGGA,,,,,,0,03,,,M,,M,,*65
$GPGLL,,,,,,V,N*64
$GPVTG,,T,,,,N,,K,N*61
$GPGSV,2,1,07,21,15,186,41,02,28,051,38,12,34,103,40,25,69,090,40*70
$GPGSV,2,2,07,29,79,259,40,30,60,304,34,31,47,297,31,,,,*4B
$GPGSA,M,1,,,,,,,,,,,,,7.2,3.9,6.0*35
Trace #95 at position 23.500000
$GPZDA,095928.02,08,10,2011,00,00*60
$GPRMC,095923.00,V,,,,,,,,,,N*79
$GPGGA,,,,,,0,03,,,M,,M,,*65
$GPGLL,,,,,,V,N*64
$GPVTG,,T,,,,N,,K,N*61
$GPGSV,2,1,07,21,15,186,41,02,28,051,38,12,34,103,40,25,69,090,40*70
$GPGSV,2,2,07,29,79,259,40,30,60,304,34,31,47,297,31,,,,*4B
$GPGSA,M,1,,,,,,,,,,,,,7.2,3.9,6.0*35
Trace #96 at position 23.750000
$GPZDA,095928.02,08,10,2011,00,00*60
$GPRMC,095923.00,V,,,,,,,,,,N*79
$GPGGA,,,,,,0,03,,,M,,M,,*65
$GPGLL,,,,,,V,N*64
$GPVTG,,T,,,,N,,K,N*61
$GPGSV,2,1,07,21,15,186,41,02,28,051,38,12,34,103,40,25,69,090,40*70
$GPGSV,2,2,07,29,79,259,40,30,60,304,34,31,47,297,31,,,,*4B
$GPGSA,M,1,,,,,,,,,,,,,7.2,3.9,6.0*35
Trace #97 at position 24.000000
$GPZDA,095929.02,08,10,2011,00,00*61
$GPRMC,095923.00,V,,,,,,,,,,N*79
$GPGGA,,,,,,0,03,,,M,,M,,*65
$GPGLL,,,,,,V,N*64
$GPVTG,,T,,,,N,,K,N*61
$GPGSV,2,1,07,21,15,186,42,02,28,051,38,12,34,103,40,25,69,090,41*72
$GPGSV,2,2,07,29,79,259,40,30,60,304,34,31,47,297,32,,,,*48
$GPGSA,M,1,,,,,,,,,,,,,7.2,3.9,6.0*35
Trace #98 at position 24.250000
$GPZDA,095929.02,08,10,2011,00,00*61
$GPRMC,095923.00,V,,,,,,,,,,N*79
$GPGGA,,,,,,0,03,,,M,,M,,*65
$GPGLL,,,,,,V,N*64
$GPVTG,,T,,,,N,,K,N*61
$GPGSV,2,1,07,21,15,186,42,02,28,051,38,12,34,103,40,25,69,090,41*72
$GPGSV,2,2,07,29,79,259,40,30,60,304,34,31,47,297,32,,,,*48
$GPGSA,M,1,,,,,,,,,,,,,7.2,3.9,6.0*35
Trace #99 at position 24.500000
$GPZDA,095929.02,08,10,2011,00,00*61
$GPRMC,095923.00,V,,,,,,,,,,N*79
$GPGGA,,,,,,0,03,,,M,,M,,*65
$GPGLL,,,,,,V,N*64
$GPVTG,,T,,,,N,,K,N*61
$GPGSV,2,1,07,21,15,186,42,02,28,051,38,12,34,103,40,25,69,090,41*72
$GPGSV,2,2,07,29,79,259,40,30,60,304,34,31,47,297,32,,,,*48
$GPGSA,M,1,,,,,,,,,,,,,7.2,3.9,6.0*35
Trace #100 at position 24.750000
$GPZDA,095930.02,08,10,2011,00,00*69
$GPRMC,095923.00,V,,,,,,,,,,N*79
$GPGGA,,,,,,0,03,,,M,,M,,*65
$GPGLL,,,,,,V,N*64
$GPVTG,,T,,,,N,,K,N*61
$GPGSV,2,1,07,21,15,186,40,02,28,051,37,12,34,103,40,25,69,090,40*7E
$GPGSV,2,2,07,29,79,259,39,30,60,304,32,31,47,297,33,,,,*41
$GPGSA,M,1,,,,,,,,,,,,,7.2,3.9,6.0*35
Trace #101 at position 25.000000
$GPZDA,095933.02,08,10,2011,00,00*6A
$GPRMC,095923.00,V,,,,,,,,,,N*79
$GPGGA,,,,,,0,03,,,M,,M,,*65
$GPGLL,,,,,,V,N*64
$GPVTG,,T,,,,N,,K,N*61
$GPGSV,2,1,07,21,15,186,39,02,28,051,36,12,34,103,40,25,69,090,44*75
$GPGSV,2,2,07,29,79,259,38,30,60,304,29,31,47,297,28,,,,*40
$GPGSA,M,1,,,,,,,,,,,,,7.2,3.9,6.0*35
Trace #102 at position 25.250000
$GPZDA,095933.02,08,10,2011,00,00*6A
$GPRMC,095923.00,V,,,,,,,,,,N*79
$GPGGA,,,,,,0,03,,,M,,M,,*65
$GPGLL,,,,,,V,N*64
$GPVTG,,T,,,,N,,K,N*61
$GPGSV,2,1,07,21,15,186,39,02,28,051,36,12,34,103,40,25,69,090,44*75
$GPGSV,2,2,07,29,79,259,38,30,60,304,29,31,47,297,28,,,,*40
$GPGSA,M,1,,,,,,,,,,,,,7.2,3.9,6.0*35
Trace #103 at position 25.500000
$GPZDA,095933.02,08,10,2011,00,00*6A
$GPRMC,095923.00,V,,,,,,,,,,N*79
$GPGGA,,,,,,0,03,,,M,,M,,*65
$GPGLL,,,,,,V,N*64
$GPVTG,,T,,,,N,,K,N*61
$GPGSV,2,1,07,21,15,186,39,02,28,051,36,12,34,103,40,25,69,090,44*75
$GPGSV,2,2,07,29,79,259,38,30,60,304,29,31,47,297,28,,,,*40
$GPGSA,M,1,,,,,,,,,,,,,7.2,3.9,6.0*35
Trace #104 at position 25.750000
$GPZDA,095934.02,08,10,2011,00,00*6D
$GPRMC,095923.00,V,,,,,,,,,,N*79
$GPGGA,,,,,,0,03,,,M,,M,,*65
$GPGLL,,,,,,V,N*64
$GPVTG,,T,,,,N,,K,N*61
$GPGSV,2,1,07,21,15,186,37,02,28,051,35,12,34,103,41,25,69,090,43*7E
$GPGSV,2,2,07,29,79,259,41,30,60,304,38,31,47,297,35,,,,*42
$GPGSA,M,1,,,,,,,,,,,,,7.2,3.9,6.0*35
Trace #105 at position 26.000000
$GPZDA,095934.02,08,10,2011,00,00*6D
$GPRMC,095923.00,V,,,,,,,,,,N*79
$GPGGA,,,,,,0,03,,,M,,M,,*65
$GPGLL,,,,,,V,N*64
$GPVTG,,T,,,,N,,K,N*61
$GPGSV,2,1,07,21,15,186,37,02,28,051,35,12,34,103,41,25,69,090,43*7E
$GPGSV,2,2,07,29,79,259,41,30,60,304,38,31,47,297,35,,,,*42
$GPGSA,M,1,,,,,,,,,,,,,7.2,3.9,6.0*35
Trace #106 at position 26.250000
$GPZDA,095934.02,08,10,2011,00,00*6D
$GPRMC,095923.00,V,,,,,,,,,,N*79
$GPGGA,,,,,,0,03,,,M,,M,,*65
$GPGLL,,,,,,V,N*64
$GPVTG,,T,,,,N,,K,N*61
$GPGSV,2,1,07,21,15,186,37,02,28,051,35,12,34,103,41,25,69,090,43*7E
$GPGSV,2,2,07,29,79,259,41,30,60,304,38,31,47,297,35,,,,*42
$GPGSA,M,1,,,,,,,,,,,,,7.2,3.9,6.0*35
Trace #107 at position 26.500000
$GPZDA,095935.02,08,10,2011,00,00*6C
$GPRMC,095923.00,V,,,,,,,,,,N*79
$GPGGA,,,,,,0,03,,,M,,M,,*65
$GPGLL,,,,,,V,N*64
$GPVTG,,T,,,,N,,K,N*61
$GPGSV,2,1,07,21,15,186,39,02,28,051,33,12,34,103,40,25,69,090,42*76
$GPGSV,2,2,07,29,79,259,40,30,60,304,35,31,47,297,33,,,,*48
$GPGSA,M,1,,,,,,,,,,,,,7.2,3.9,6.0*35
Trace #108 at position 26.750000
$GPZDA,095935.02,08,10,2011,00,00*6C
$GPRMC,095923.00,V,,,,,,,,,,N*79
$GPGGA,,,,,,0,03,,,M,,M,,*65
$GPGLL,,,,,,V,N*64
$GPVTG,,T,,,,N,,K,N*61
$GPGSV,2,1,07,21,15,186,39,02,28,051,33,12,34,103,40,25,69,090,42*76
$GPGSV,2,2,07,29,79,259,40,30,60,304,35,31,47,297,33,,,,*48
$GPGSA,M,1,,,,,,,,,,,,,7.2,3.9,6.0*35
Trace #109 at position 27.000000
$GPZDA,095935.02,08,10,2011,00,00*6C
$GPRMC,095923.00,V,,,,,,,,,,N*79
$GPGGA,,,,,,0,03,,,M,,M,,*65
$GPGLL,,,,,,V,N*64
$GPVTG,,T,,,,N,,K,N*61
$GPGSV,2,1,07,21,15,186,39,02,28,051,33,12,34,103,40,25,69,090,42*76
$GPGSV,2,2,07,29,79,259,40,30,60,304,35,31,47,297,33,,,,*48
$GPGSA,M,1,,,,,,,,,,,,,7.2,3.9,6.0*35
Trace #110 at position 27.250000
$GPZDA,095936.02,08,10,2011,00,00*6F
$GPRMC,095923.00,V,,,,,,,,,,N*79
$GPGGA,,,,,,0,03,,,M,,M,,*65
$GPGLL,,,,,,V,N*64
$GPVTG,,T,,,,N,,K,N*61
$GPGSV,2,1,07,21,15,186,40,02,28,051,34,12,34,103,42,25,69,090,42*7D
$GPGSV,2,2,07,29,79,259,40,30,60,304,36,31,47,297,31,,,,*49
$GPGSA,M,1,,,,,,,,,,,,,7.2,3.9,6.0*35
Trace #111 at position 27.500000
$GPZDA,095936.02,08,10,2011,00,00*6F
$GPRMC,095923.00,V,,,,,,,,,,N*79
$GPGGA,,,,,,0,03,,,M,,M,,*65
$GPGLL,,,,,,V,N*64
$GPVTG,,T,,,,N,,K,N*61
$GPGSV,2,1,07,21,15,186,40,02,28,051,34,12,34,103,42,25,69,090,42*7D
$GPGSV,2,2,07,29,79,259,40,30,60,304,36,31,47,297,31,,,,*49
$GPGSA,M,1,,,,,,,,,,,,,7.2,3.9,6.0*35
Trace #112 at position 27.750000
$GPZDA,095936.02,08,10,2011,00,00*6F
$GPRMC,095923.00,V,,,,,,,,,,N*79
$GPGGA,,,,,,0,03,,,M,,M,,*65
$GPGLL,,,,,,V,N*64
$GPVTG,,T,,,,N,,K,N*61
$GPGSV,2,1,07,21,15,186,40,02,28,051,34,12,34,103,42,25,69,090,42*7D
$GPGSV,2,2,07,29,79,259,40,30,60,304,36,31,47,297,31,,,,*49
$GPGSA,M,1,,,,,,,,,,,,,7.2,3.9,6.0*35
Trace #113 at position 28.000000
$GPZDA,095936.02,08,10,2011,00,00*6F
$GPRMC,095923.00,V,,,,,,,,,,N*79
$GPGGA,,,,,,0,03,,,M,,M,,*65
$GPGLL,,,,,,V,N*64
$GPVTG,,T,,,,N,,K,N*61
$GPGSV,2,1,07,21,15,186,40,02,28,051,34,12,34,103,42,25,69,090,42*7D
$GPGSV,2,2,07,29,79,259,40,30,60,304,36,31,47,297,31,,,,*49
$GPGSA,M,1,,,,,,,,,,,,,7.2,3.9,6.0*35
Trace #114 at position 28.250000
$GPZDA,095937.02,08,10,2011,00,00*6E
$GPRMC,095923.00,V,,,,,,,,,,N*79
$GPGGA,,,,,,0,03,,,M,,M,,*65
$GPGLL,,,,,,V,N*64
$GPVTG,,T,,,,N,,K,N*61
$GPGSV,2,1,07,21,16,186,39,02,28,051,35,12,34,103,40,25,69,090,40*71
$GPGSV,2,2,07,29,79,259,40,30,60,304,32,31,47,297,,,,,*4F
$GPGSA,M,1,,,,,,,,,,,,,7.2,3.9,6.0*35
Trace #115 at position 28.500000
$GPZDA,095937.02,08,10,2011,00,00*6E
$GPRMC,095923.00,V,,,,,,,,,,N*79
$GPGGA,,,,,,0,03,,,M,,M,,*65
$GPGLL,,,,,,V,N*64
$GPVTG,,T,,,,N,,K,N*61
$GPGSV,2,1,07,21,16,186,39,02,28,051,35,12,34,103,40,25,69,090,40*71
$GPGSV,2,2,07,29,79,259,40,30,60,304,32,31,47,297,,,,,*4F
$GPGSA,M,1,,,,,,,,,,,,,7.2,3.9,6.0*35
Trace #116 at position 28.750000
$GPZDA,095937.02,08,10,2011,00,00*6E
$GPRMC,095923.00,V,,,,,,,,,,N*79
$GPGGA,,,,,,0,03,,,M,,M,,*65
$GPGLL,,,,,,V,N*64
$GPVTG,,T,,,,N,,K,N*61
$GPGSV,2,1,07,21,16,186,39,02,28,051,35,12,34,103,40,25,69,090,40*71
$GPGSV,2,2,07,29,79,259,40,30,60,304,32,31,47,297,,,,,*4F
$GPGSA,M,1,,,,,,,,,,,,,7.2,3.9,6.0*35
Trace #117 at position 29.000000
$GPZDA,095938.02,08,10,2011,00,00*61
$GPRMC,095923.00,V,,,,,,,,,,N*79
$GPGGA,,,,,,0,03,,,M,,M,,*65
$GPGLL,,,,,,V,N*64
$GPVTG,,T,,,,N,,K,N*61
$GPGSV,2,1,07,21,16,186,41,02,28,051,36,12,34,103,40,25,69,090,41*7C
$GPGSV,2,2,07,29,79,259,40,30,60,304,33,31,47,297,29,,,,*45
$GPGSA,M,1,,,,,,,,,,,,,7.2,3.9,6.0*35
Trace #118 at position 29.250000
$GPZDA,095938.02,08,10,2011,00,00*61
$GPRMC,095923.00,V,,,,,,,,,,N*79
$GPGGA,,,,,,0,03,,,M,,M,,*65
$GPGLL,,,,,,V,N*64
$GPVTG,,T,,,,N,,K,N*61
$GPGSV,2,1,07,21,16,186,41,02,28,051,36,12,34,103,40,25,69,090,41*7C
$GPGSV,2,2,07,29,79,259,40,30,60,304,33,31,47,297,29,,,,*45
$GPGSA,M,1,,,,,,,,,,,,,7.2,3.9,6.0*35
Trace #119 at position 29.500000
$GPZDA,095938.02,08,10,2011,00,00*61
$GPRMC,095923.00,V,,,,,,,,,,N*79
$GPGGA,,,,,,0,03,,,M,,M,,*65
$GPGLL,,,,,,V,N*64
$GPVTG,,T,,,,N,,K,N*61
$GPGSV,2,1,07,21,16,186,41,02,28,051,36,12,34,103,40,25,69,090,41*7C
$GPGSV,2,2,07,29,79,259,40,30,60,304,33,31,47,297,29,,,,*45
$GPGSA,M,1,,,,,,,,,,,,,7.2,3.9,6.0*35
Trace #120 at position 29.750000
$GPZDA,095938.02,08,10,2011,00,00*61
$GPRMC,095923.00,V,,,,,,,,,,N*79
$GPGGA,,,,,,0,03,,,M,,M,,*65
$GPGLL,,,,,,V,N*64
$GPVTG,,T,,,,N,,K,N*61
$GPGSV,2,1,07,21,16,186,41,02,28,051,36,12,34,103,40,25,69,090,41*7C
$GPGSV,2,2,07,29,79,259,40,30,60,304,33,31,47,297,29,,,,*45
$GPGSA,M,1,,,,,,,,,,,,,7.2,3.9,6.0*35
Trace #121 at position 30.000000
$GPZDA,095939.02,08,10,2011,00,00*60
$GPRMC,095923.00,V,,,,,,,,,,N*79
$GPGGA,,,,,,0,03,,,M,,M,,*65
$GPGLL,,,,,,V,N*64
$GPVTG,,T,,,,N,,K,N*61
$GPGSV,2,1,07,21,16,186,39,02,28,051,36,12,34,103,40,25,69,090,41*73
$GPGSV,2,2,07,29,79,259,41,30,60,304,34,31,47,297,32,,,,*49
$GPGSA,M,1,,,,,,,,,,,,,7.2,3.9,6.0*35
Trace #122 at position 30.250000
$GPZDA,095939.02,08,10,2011,00,00*60
$GPRMC,095923.00,V,,,,,,,,,,N*79
$GPGGA,,,,,,0,03,,,M,,M,,*65
$GPGLL,,,,,,V,N*64
$GPVTG,,T,,,,N,,K,N*61
$GPGSV,2,1,07,21,16,186,39,02,28,051,36,12,34,103,40,25,69,090,41*73
$GPGSV,2,2,07,29,79,259,41,30,60,304,34,31,47,297,32,,,,*49
$GPGSA,M,1,,,,,,,,,,,,,7.2,3.9,6.0*35
Trace #123 at position 30.500000
$GPZDA,095940.02,08,10,2011,00,00*6E
$GPRMC,095923.00,V,,,,,,,,,,N*79
$GPGGA,,,,,,0,03,,,M,,M,,*65
$GPGLL,,,,,,V,N*64
$GPVTG,,T,,,,N,,K,N*61
$GPGSV,2,1,07,21,16,186,39,02,28,051,36,12,34,103,41,25,69,090,41*72
$GPGSV,2,2,07,29,79,259,40,30,60,304,33,31,47,297,30,,,,*4D
$GPGSA,M,1,,,,,,,,,,,,,7.2,3.9,6.0*35
Trace #124 at position 30.750000
$GPZDA,095940.02,08,10,2011,00,00*6E
$GPRMC,095923.00,V,,,,,,,,,,N*79
$GPGGA,,,,,,0,03,,,M,,M,,*65
$GPGLL,,,,,,V,N*64
$GPVTG,,T,,,,N,,K,N*61
$GPGSV,2,1,07,21,16,186,39,02,28,051,36,12,34,103,41,25,69,090,41*72
$GPGSV,2,2,07,29,79,259,40,30,60,304,33,31,47,297,30,,,,*4D
$GPGSA,M,1,,,,,,,,,,,,,7.2,3.9,6.0*35
Trace #125 at position 31.000000
$GPZDA,095940.02,08,10,2011,00,00*6E
$GPRMC,095923.00,V,,,,,,,,,,N*79
$GPGGA,,,,,,0,03,,,M,,M,,*65
$GPGLL,,,,,,V,N*64
$GPVTG,,T,,,,N,,K,N*61
$GPGSV,2,1,07,21,16,186,39,02,28,051,36,12,34,103,41,25,69,090,41*72
$GPGSV,2,2,07,29,79,259,40,30,60,304,33,31,47,297,30,,,,*4D
$GPGSA,M,1,,,,,,,,,,,,,7.2,3.9,6.0*35
Trace #126 at position 31.250000
$GPZDA,095941.02,08,10,2011,00,00*6F
$GPRMC,095923.00,V,,,,,,,,,,N*79
$GPGGA,,,,,,0,03,,,M,,M,,*65
$GPGLL,,,,,,V,N*64
$GPVTG,,T,,,,N,,K,N*61
$GPGSV,2,1,07,21,16,186,39,02,28,051,36,12,34,103,40,25,69,090,41*73
$GPGSV,2,2,07,29,79,259,39,30,60,304,34,31,47,297,31,,,,*45
$GPGSA,M,1,,,,,,,,,,,,,7.2,3.9,6.0*35
Trace #127 at position 31.500000
$GPZDA,095941.02,08,10,2011,00,00*6F
$GPRMC,095923.00,V,,,,,,,,,,N*79
$GPGGA,,,,,,0,03,,,M,,M,,*65
$GPGLL,,,,,,V,N*64
$GPVTG,,T,,,,N,,K,N*61
$GPGSV,2,1,07,21,16,186,39,02,28,051,36,12,34,103,40,25,69,090,41*73
$GPGSV,2,2,07,29,79,259,39,30,60,304,34,31,47,297,31,,,,*45
$GPGSA,M,1,,,,,,,,,,,,,7.2,3.9,6.0*35
Trace #128 at position 31.750000
$GPZDA,095941.02,08,10,2011,00,00*6F
$GPRMC,095923.00,V,,,,,,,,,,N*79
$GPGGA,,,,,,0,03,,,M,,M,,*65
$GPGLL,,,,,,V,N*64
$GPVTG,,T,,,,N,,K,N*61
$GPGSV,2,1,07,21,16,186,39,02,28,051,36,12,34,103,40,25,69,090,41*73
$GPGSV,2,2,07,29,79,259,39,30,60,304,34,31,47,297,31,,,,*45
$GPGSA,M,1,,,,,,,,,,,,,7.2,3.9,6.0*35
Trace #129 at position 32.000000
$GPZDA,095942.02,08,10,2011,00,00*6C
$GPRMC,095923.00,V,,,,,,,,,,N*79
$GPGGA,,,,,,0,03,,,M,,M,,*65
$GPGLL,,,,,,V,N*64
$GPVTG,,T,,,,N,,K,N*61
$GPGSV,2,1,07,21,16,186,36,02,28,051,37,12,34,103,39,25,69,090,43*71
$GPGSV,2,2,07,29,79,259,41,30,60,304,36,31,47,297,33,,,,*4A
$GPGSA,M,1,,,,,,,,,,,,,7.2,3.9,6.0*35
Trace #130 at position 32.250000
$GPZDA,095942.02,08,10,2011,00,00*6C
$GPRMC,095923.00,V,,,,,,,,,,N*79
$GPGGA,,,,,,0,03,,,M,,M,,*65
$GPGLL,,,,,,V,N*64
$GPVTG,,T,,,,N,,K,N*61
$GPGSV,2,1,07,21,16,186,36,02,28,051,37,12,34,103,39,25,69,090,43*71
$GPGSV,2,2,07,29,79,259,41,30,60,304,36,31,47,297,33,,,,*4A
$GPGSA,M,1,,,,,,,,,,,,,7.2,3.9,6.0*35
Trace #131 at position 32.500000
$GPZDA,095942.02,08,10,2011,00,00*6C
$GPRMC,095923.00,V,,,,,,,,,,N*79
$GPGGA,,,,,,0,03,,,M,,M,,*65
$GPGLL,,,,,,V,N*64
$GPVTG,,T,,,,N,,K,N*61
$GPGSV,2,1,07,21,16,186,36,02,28,051,37,12,34,103,39,25,69,090,43*71
$GPGSV,2,2,07,29,79,259,41,30,60,304,36,31,47,297,33,,,,*4A
$GPGSA,M,1,,,,,,,,,,,,,7.2,3.9,6.0*35
Trace #132 at position 32.750000
$GPZDA,095943.02,08,10,2011,00,00*6D
$GPRMC,095923.00,V,,,,,,,,,,N*79
$GPGGA,,,,,,0,03,,,M,,M,,*65
$GPGLL,,,,,,V,N*64
$GPVTG,,T,,,,N,,K,N*61
$GPGSV,2,1,07,21,16,186,34,02,28,051,37,12,34,103,41,25,69,090,41*7E
$GPGSV,2,2,07,29,80,259,40,30,60,304,35,31,47,297,,,,,*4E
$GPGSA,M,1,,,,,,,,,,,,,7.2,3.9,6.0*35
Trace #133 at position 33.000000
$GPZDA,095943.02,08,10,2011,00,00*6D
$GPRMC,095923.00,V,,,,,,,,,,N*79
$GPGGA,,,,,,0,03,,,M,,M,,*65
$GPGLL,,,,,,V,N*64
$GPVTG,,T,,,,N,,K,N*61
$GPGSV,2,1,07,21,16,186,34,02,28,051,37,12,34,103,41,25,69,090,41*7E
$GPGSV,2,2,07,29,80,259,40,30,60,304,35,31,47,297,,,,,*4E
$GPGSA,M,1,,,,,,,,,,,,,7.2,3.9,6.0*35
Trace #134 at position 33.250000
$GPZDA,095943.02,08,10,2011,00,00*6D
$GPRMC,095923.00,V,,,,,,,,,,N*79
$GPGGA,,,,,,0,03,,,M,,M,,*65
$GPGLL,,,,,,V,N*64
$GPVTG,,T,,,,N,,K,N*61
$GPGSV,2,1,07,21,16,186,34,02,28,051,37,12,34,103,41,25,69,090,41*7E
$GPGSV,2,2,07,29,80,259,40,30,60,304,35,31,47,297,,,,,*4E
$GPGSA,M,1,,,,,,,,,,,,,7.2,3.9,6.0*35
Trace #135 at position 33.500000
$GPZDA,095943.02,08,10,2011,00,00*6D
$GPRMC,095923.00,V,,,,,,,,,,N*79
$GPGGA,,,,,,0,03,,,M,,M,,*65
$GPGLL,,,,,,V,N*64
$GPVTG,,T,,,,N,,K,N*61
$GPGSV,2,1,07,21,16,186,34,02,28,051,37,12,34,103,41,25,69,090,41*7E
$GPGSV,2,2,07,29,80,259,40,30,60,304,35,31,47,297,,,,,*4E
$GPGSA,M,1,,,,,,,,,,,,,7.2,3.9,6.0*35
Trace #136 at position 33.750000
$GPZDA,095944.02,08,10,2011,00,00*6A
$GPRMC,095923.00,V,,,,,,,,,,N*79
$GPGGA,,,,,,0,03,,,M,,M,,*65
$GPGLL,,,,,,V,N*64
$GPVTG,,T,,,,N,,K,N*61
$GPGSV,2,1,07,21,16,186,36,02,28,051,38,12,34,103,39,25,69,090,39*73
$GPGSV,2,2,07,29,80,259,39,30,60,304,34,31,47,297,29,,,,*4A
$GPGSA,M,1,,,,,,,,,,,,,7.2,3.9,6.0*35
Trace #137 at position 34.000000
$GPZDA,095944.02,08,10,2011,00,00*6A
