Trace #1 at position 0.000000
$GPZDA,130605.03,06,10,2011,00,00*61
$GPRMC,130605.00,A,4611.950982,N,01258.215703,E,000.1,50.5,061011,0.2,E,A*01
$GPGGA,130606.00,4611.950983,N,01258.215727,E,1,05,1.7,135.2229
$GPGSV,3,1,09,16,51,301,32,31,09,210,,18,36,135,37,29,25,089,34*7F
$GPGSV,3,2,09,30,29,160,38,21,74,072,36,22,13,171,,03,30,289,*73
$GPGSV,3,3,09,06,46,290,,,,,,,,,,,,,*4F
$GPGSA,M,3,16,18,29,30,21,,,,,,,,3.5,1.7,3.1*39
Trace #2 at position 0.250000
$GPZDA,130613.03,06,10,2011,00,00*66
$GPRMC,130613.00,A,4611.950978,N,01258.215537,E,000.0,239.0,061011,0.2,E,$GPGGA,130614.00,4611.950965,N,01258.215614,E,1,05,1.7,135.15,M,46.25,M,,*67
$GPGLL,4611.950965,N,01258.215614,E,130614.00,A,A*67
$GPVTG,20.2,T,20.3,M,000.1,N,000.2,K,A*21
$GPGSV,3,1,09,16,51,301,33,31,09,210,,18,36,135,38,29,25,089,38*7D
$GPGSV,3,2,09,30,29,160,38,21,74,072,33,22,13,171,,03,30,289,*76
$GPGSV,3,3,09,06,46,290,,,,,,,,,,,,,*4F
$GPGSA,M,3,16,18,29,30,21,,,,,,,,3.5,1.7,3.1*39
Trace #3 at position 0.500000
$GPZDA,130615.03,06,10,2011,00,00*60
$GPRMC,130615.00,A,4611.951030,N,01258.215509,E,000.1,89.9,061011,0.2,E,A*01,4611.951073,N,01258.215350,E,1,04,5.9,134.57,M,46.25,M,,*63
$GPGLL,4611.951073,N,01258.215350,E,130616.00,A,A*6F
$GPVTG,275.8,T,275.9,M,000.3,N,000.6,K,A*27
$GPGSV,3,1,09,16,51,301,26,31,09,210,,18,36,135,39,29,25,089,37*77
$GPGSV,3,2,09,30,29,160,38,21,74,072,36,22,13,171,,03,30,289,*73
$GPGSV,3,3,09,06,46,290,,,,,,,,,,,,,*4F
$GPGSA,M,3,18,29,30,21,,,,,,,,,8.9,5.9,6.8*3F
Trace #4 at position 0.750000
$GPZDA,130617.03,06,10,2011,00,00*62
$GPRMC,130617.00,A,4611.951129,N,01258.215143,E,000.3,305.8,061011,0.2,E,A*34
$GPGGA,130618.00,4611.951181,N,01258.214998,E,1,04,5.8,134.20,M,46.25,M,,*6F
$GPGLL,4611.951181,N,01258.214998,E,130618.00,A,A*62
$GPV46,290,,,,,,,,,,,,,*4F
$GPGSA,M,3,18,29,30,21,,,,,,,,,8.9,5.8,6.8*3E
Trace #5 at position 1.000000
$GPZDA,130617.03,06,10,2011,00,00*62
$GPRMC,130617.00,A,4611.951129,N,01258.215143,E,000.3,305.8,061011,0.2,E,A*34
$GPGGA,130618.00,4611.951181,N,01258.214998,E,1,04,5.8,134.20,M,46.25,M,,*6F
$GPGLL,4611.951181,N,01258.214998,E,130618.00,A,A*62
$GPV46,290,,,,,,,,,,,,,*4F
$GPGSA,M,3,18,29,30,21,,,,,,,,,8.9,5.8,6.8*3E
Trace #6 at position 1.250000
$GPZDA,130618.03,06,10,2011,00,00*6D
$GPRMC,130618.00,A,4611.951181,N,01258.214998,E,000.1,297.9,061011,0.2,E,A*3F
$GPGGA,130619.00,4611.951220,N,01258.214897,E,1,04,5.8,134.07,M,46.25,M,,*6D
$GPGLL,4611.951220,N,01258.214897,E,130619.00,A,A*65
$GPVTG,336.0,T,336.1,M,000.1,N,000.2,K,A*21
$GPGSV,3,1,09,16,51,301,26,31,09,210,,18,36,135,38,29,25,089,37*76
$GPGSV,3,2,09,30,29,160,40,21,74,072,36,22,13,171,,03,30,289,*7C
$GPGSV,3,3,09.8,6.7*31
$GPZDA,130619.03,06,10,2011,00,00*6C
$GPRMC,130619.00,A,4611.951220,N,01258.214897,E,000.1,336.0,061011,0.2,E,A*3B
$GPGGA,130620.00,4611.951319,N,01258.214717,E,1,04,5.8,133.90,M,46.25,M,,*62
$GPGLL,4611.951319,N,01258.214717,E,130620.00,A,A*63
$GPVTG,309.1,T,309.2,M,000.8,N,001.4,K,A*2D
$GPGSV,3,1,09,16,51,301,,31,09,210,,18,36,135,38,29,25,089,37*72
$GPGSV,3,2,09,30,29,160,39,21,74,072,36,22,13,171,,03,30,289,*72
$GPGSV,3,3,09,06,46,290,,,,,,,,,,,,,*4F
$GPGSA,M,3,18,29,30,21,,,,,,,,,8.99,N,01258.214717,E,000.8,309.1,061011,0.2,E,A*39
Trace #7 at position 1.500000
$GPGGA,130621.00,4611.951395,N,01258.214575,E,1,04,5.8,133.79,M,46.25,M,,*66
$GPGLL,4611.951395,N,01258.214575,E,130621.00,A,A*60
$GPVTG,130.7,T,130.9,M,000.1,N,000.2,K,A*2E
$GPGSV,3,1,09,16,51,301,,31,09,210,,18,36,135,38,29,25,089,39*7C
$GPGSV,3,2,09,30,29,160,39,21,74,072,36,22,13,171,,03,30,289,*72
$GPGSV,3,3,09,06,46,290,,,,,,,,,,,,,*4F
$GPGSA,M,3,18,29,30,21,,,,,,,,,8.9,5.8,6.7*31
Trace #8 at position 1.750000
$GPZDA,130622.03,06,10,2011,00,00*64
$GPRMC,130622.00,A,4611.951397,N,01258.214619,E,000.4,105.0,061011,0.2,E,A*31$GPGGA,130623.00,4611.951408,N,01258.214670,E,1,04,5.8,134.02,M,46.25,M,,*6A
$GPGLL,4611.951408,N,01258.214670,E,130623.00,A,A*67
$GPVTG,106.7,T,106.8,M,000.2,N,000.4,K,A*2A
$GPGSV,3,1,09,16,51,301,,31,09,210,,18,36,135,38,29,25,089,38*7D
$GPGSV,3,2,09,30,29,160,39,21,74,072,36,22,13,171,,03,30,289,34*75
$GPGSV,3,3,09,06,46,290,32,,,,,,,,,,,,*4E
$GPGSA,M,3,18,29,30,21,,,,,,,,,8.9,5.8,6.7*31
Trace #9 at position 2.000000
$GPZDA,130622.03,06,10,2011,00,00*64
$GPRMC,130622.00,A,4611.951397,N,01258.214619,E,000.4,105.0,061011,0.2,E,A*31$GPGGA,130623.00,4611.951408,N,01258.214670,E,1,04,5.8,134.02,M,46.25,M,,*6A
$GPGLL,4611.951408,N,01258.214670,E,130623.00,A,A*67
$GPVTG,106.7,T,106.8,M,000.2,N,000.4,K,A*2A
$GPGSV,3,1,09,16,51,301,,31,09,210,,18,36,135,38,29,25,089,38*7D
$GPGSV,3,2,09,30,29,160,39,21,74,072,36,22,13,171,,03,30,289,34*75
$GPGSV,3,3,09,06,46,290,32,,,,,,,,,,,,*4E
$GPGSA,M,3,18,29,30,21,,,,,,,,,8.9,5.8,6.7*31
Trace #10 at position 2.250000
$GPZDA,130623.03,06,10,2011,00,00*65
$GPRMC,130623.00,A,4611.951408,N,01258.214670,E,000.2,106.7,061011,0.2,E,$GPGGA,130624.00,4611.951524,N,01258.214563,E,1,04,5.8,133.84,M,46.25,M,,*6A
$GPGLL,4611.951524,N,01258.214563,E,130624.00,A,A*6E
$GPVTG,326.6,T,326.8,M,000.8,N,001.4,K,A*20
$GPGSV,3,1,09,16,51,301,,31,09,210,,18,36,135,39,29,25,089,37*73
$GPGSV,3,2,09,30,29,160,39,21,74,072,36,22,13,171,,03,30,289,33*72
$GPGSV,3,3,09,06,46,290,35,,,,,,,,,,,,*49
$GPGSA,M,3,18,29,30,21,,,,,,,,,8.9,5.8,6.7*31
Trace #11 at position 2.500000
$GPZDA,130624.03,06,10,2011,00,00*62
$GPRMC,130624.00,A,4611.951524,N,01258.214563,E,000.8,326.6,061011,0.2,E,$GPGGA,130625.00,4611.951690,N,01258.214380,E,1,04,5.8,133.64,M,46.25,M,,*62
$GPGLL,4611.951690,N,01258.214380,E,130625.00,A,A*68
$GPVTG,320.0,T,320.2,M,000.4,N,000.8,K,A*2D
$GPGSV,3,1,09,16,52,301,,31,09,210,,18,36,135,40,29,25,089,37*7E
$GPGSV,3,2,09,30,29,160,38,21,74,072,35,22,13,171,,03,30,289,32*71
$GPGSV,3,3,09,06,46,290,32,,,,,,,,,,,,*4E
$GPGSA,M,3,18,29,30,21,,,,,,,,,8.9,5.8,6.7*31
Trace #12 at position 2.750000
$GPZDA,130626.04,06,10,2011,00,00*67
$GPRMC,130626.00,A,4611.951677,N,01258.214503,E,000.1,175.1,061011,0.$GPGGA,130627.00,4611.951693,N,01258.214712,E,1,05,1.6,134.20,M,46.25,M,,*60
$GPGLL,4611.951693,N,01258.214712,E,130627.00,A,A*66
$GPVTG,23.0,T,23.2,M,000.6,N,001.1,K,A*27
$GPGSV,3,1,09,16,52,301,,31,09,210,,18,36,135,39,29,25,089,35*72
$GPGSV,3,2,09,30,29,160,38,21,74,072,36,22,13,171,,03,30,289,26*77
$GPGSV,3,3,09,06,46,290,34,,,,,,,,,,,,*48
$GPGSA,M,3,18,29,30,21,06,,,,,,,,3.3,1.6,2.9*36
Trace #13 at position 3.000000
$GPZDA,130627.03,06,10,2011,00,00*61
$GPRMC,130627.00,A,4611.951693,N,01258.214712,E,000.6,23.0,061011,0.2,E,A04,5.8,134.02,M,46.25,M,,*67
$GPGLL,4611.951872,N,01258.214633,E,130628.00,A,A*6A
$GPVTG,347.6,T,347.7,M,000.4,N,000.8,K,A*2E
$GPGSV,3,1,09,16,52,301,,31,09,210,,18,36,135,39,29,25,089,35*72
$GPGSV,3,2,09,30,29,160,38,21,74,072,37,22,13,171,,03,30,289,27*77
$GPGSV,3,3,09,06,46,290,33,,,,,,,,,,,,*4F
$GPGSA,M,3,18,29,30,21,,,,,,,,,8.9,5.8,6.7*31
Trace #14 at position 3.250000
$GPZDA,130629.03,06,10,2011,00,00*6F
$GPRMC,130629.00,A,4611.951967,N,01258.214709,E,000.6,339.8,061011,0.2,E,A*38
$GPGGA,130630.00,4611.952007,N,01258.214774,E,1,06,1.4,134.33,M,46.25,M,,*6D
$GPGLL,4611.952007,N,01258.214774,E,130630.00,A,A*3,09,06,46,290,33,,,,,,,,,,,,*4F
$GPGSA,M,3,18,29,30,21,03,06,,,,,,,2.8,1.4,2.4*30
Trace #15 at position 3.500000
$GPZDA,130629.03,06,10,2011,00,00*6F
$GPRMC,130629.00,A,4611.951967,N,01258.214709,E,000.6,339.8,061011,0.2,E,A*38
$GPGGA,130630.00,4611.952007,N,01258.214774,E,1,06,1.4,134.33,M,46.25,M,,*6D
$GPGLL,4611.952007,N,01258.214774,E,130630.00,A,A*3,09,06,46,290,33,,,,,,,,,,,,*4F
$GPGSA,M,3,18,29,30,21,03,06,,,,,,,2.8,1.4,2.4*30
Trace #16 at position 3.750000
$GPZDA,130630.03,06,10,2011,00,00*67
$GPRMC,130630.00,A,4611.952007,N,01258.214774,E,000.1,262.7,061011,0.2,E,A*31
$GPGGA,130631.00,4611.952095,N,01258.214760,E,1,06,1.4,134.40,M,46.25,M,,*66
$GPGLL,4611.952095,N,01258.214760,E,130631.00,A,A*67
$GPVTG,329.2,T,329.3,M,001.0,N,001.8,K,A*2A
$GPGSV,3,1,09,16,52,301,,31,09,210,,18,36,135,39,29,25,089,35*72
$GPGSV,3,2,09,30,29,160,36,21,74,072,36,22,13,171,,03,30,289,31*7F.8,1.4,2.4*30
$GPZDA,130631.03,06,10,2011,00,00*66
$GPRMC,130631.00,A,4611.952095,N,01258.214760,E,001.0,329.2,061011,0.2,E,A*35
$GPGGA,130632.00,4611.952265,N,01258.214834,E,1,05,1.6,134.16,M,46.25,M,,*64
$GPGLL,4611.952265,N,01258.214834,E,130632.00,A,A*67
$GPVTG,8.7,T,8.8,M,000.8,N,001.5,K,A*20
$GPGSV,3,1,09,16,52,301,,31,09,210,,18,36,135,39,29,25,089,32*75
$GPGSV,3,2,09,30,29,160,37,21,74,072,32,22,13,171,,03,30,289,32*79
$GPGSV,3,3,09,06,46,290,31,,,,,,,,,,,,*4D
$GPGSA,M,3,18,29,30,21,06,,,,,$GPGGA,130633.00,4611.952330,N,01258.215037,E,1,05,1.6,134.10,M,46.25,M,,*68
Trace #17 at position 4.000000
$GPGLL,4611.952330,N,01258.215037,E,130633.00,A,A*6D
$GPVTG,80.6,T,80.7,M,000.3,N,000.6,K,A*27
$GPGSV,3,1,09,16,52,301,,31,09,210,,18,36,135,39,29,25,089,32*75
$GPGSV,3,2,09,30,29,160,37,21,74,072,33,22,13,171,,03,30,289,28*73
$GPGSV,3,3,09,06,46,290,31,,,,,,,,,,,,*4D
$GPGSA,M,3,18,29,30,21,06,,,,,,,,3.3,1.6,2.9*36
Trace #18 at position 4.250000
$GPZDA,130633.03,06,10,2011,00,00*64
$GPRMC,130633.00,A,4611.952330,N,01258.215037,E,000.3,80.6,061011,0.2,E,A$GPGGA,130634.00,4611.952353,N,01258.215246,E,1,05,1.6,134.53,M,46.25,M,,*69
$GPGLL,4611.952353,N,01258.215246,E,130634.00,A,A*6B
$GPVTG,32.1,T,32.2,M,000.5,N,001.0,K,A*24
$GPGSV,3,1,09,16,52,301,,31,09,210,,18,36,135,39,29,25,089,33*74
$GPGSV,3,2,09,30,29,160,36,21,74,072,35,22,13,171,,03,30,289,30*7D
$GPGSV,3,3,09,06,46,290,31,,,,,,,,,,,,*4D
$GPGSA,M,3,18,29,30,21,06,,,,,,,,3.3,1.6,2.9*36
Trace #19 at position 4.500000
$GPZDA,130633.03,06,10,2011,00,00*64
$GPRMC,130633.00,A,4611.952330,N,01258.215037,E,000.3,80.6,061011,0.2,E,A$GPGGA,130634.00,4611.952353,N,01258.215246,E,1,05,1.6,134.53,M,46.25,M,,*69
$GPGLL,4611.952353,N,01258.215246,E,130634.00,A,A*6B
$GPVTG,32.1,T,32.2,M,000.5,N,001.0,K,A*24
$GPGSV,3,1,09,16,52,301,,31,09,210,,18,36,135,39,29,25,089,33*74
$GPGSV,3,2,09,30,29,160,36,21,74,072,35,22,13,171,,03,30,289,30*7D
$GPGSV,3,3,09,06,46,290,31,,,,,,,,,,,,*4D
$GPGSA,M,3,18,29,30,21,06,,,,,,,,3.3,1.6,2.9*36
Trace #20 at position 4.750000
$GPZDA,130634.03,06,10,2011,00,00*63
$GPRMC,130634.00,A,4611.952353,N,01258.215246,E,000.5,32.1,061011,0.2,E,A$GPGGA,130635.00,4611.952564,N,01258.215106,E,1,04,5.8,134.14,M,46.25,M,,*65
$GPGLL,4611.952564,N,01258.215106,E,130635.00,A,A*6F
$GPVTG,24.6,T,24.7,M,000.6,N,001.1,K,A*24
$GPGSV,3,1,09,16,52,301,,31,09,210,,18,36,135,38,29,25,090,33*7D
$GPGSV,3,2,09,30,29,160,38,21,74,072,35,22,13,171,,03,30,289,29*7B
$GPGSV,3,3,09,06,46,290,30,,,,,,,,,,,,*4C
$GPGSA,M,3,18,29,30,21,,,,,,,,,8.8,5.8,6.7*30
Trace #21 at position 5.000000
$GPZDA,130635.03,06,10,2011,00,00*62
$GPRMC,130635.00,A,4611.952564,N,01258.215106,E,000.6,24.6,061011,0.2,E,A*0$GPGGA,130636.00,4611.952758,N,01258.214893,E,1,04,5.8,133.86,M,46.25,M,,*63
$GPGLL,4611.952758,N,01258.214893,E,130636.00,A,A*65
$GPVTG,336.6,T,336.7,M,000.5,N,000.9,K,A*2E
$GPGSV,3,1,09,16,52,301,,31,09,210,,18,36,135,39,29,25,090,35*7A
$GPGSV,3,2,09,30,29,160,38,21,74,072,36,22,13,171,,03,30,289,32*72
$GPGSV,3,3,09,06,46,290,30,,,,,,,,,,,,*4C
$GPGSA,M,3,18,29,30,21,,,,,,,,,8.8,5.8,6.7*30
Trace #22 at position 5.250000
$GPZDA,130636.03,06,10,2011,00,00*61
$GPRMC,130636.00,A,4611.952758,N,01258.214893,E,000.5,336.6,061011,0.2,E,$GPGGA,130637.00,4611.952907,N,01258.214615,E,1,04,5.8,133.63,M,46.25,M,,*6D
$GPGLL,4611.952907,N,01258.214615,E,130637.00,A,A*60
$GPVTG,324.8,T,325.0,M,000.4,N,000.7,K,A*29
$GPGSV,3,1,09,16,52,301,,31,09,210,,18,36,135,40,29,25,090,33*72
$GPGSV,3,2,09,30,29,160,38,21,74,072,35,22,13,171,,03,30,289,31*72
$GPGSV,3,3,09,06,46,290,,,,,,,,,,,,,*4F
$GPGSA,M,3,18,29,30,21,,,,,,,,,8.8,5.8,6.7*30
Trace #23 at position 5.500000
$GPZDA,130636.03,06,10,2011,00,00*61
$GPRMC,130636.00,A,4611.952758,N,01258.214893,E,000.5,336.6,061011,0.2,E,$GPGGA,130637.00,4611.952907,N,01258.214615,E,1,04,5.8,133.63,M,46.25,M,,*6D
$GPGLL,4611.952907,N,01258.214615,E,130637.00,A,A*60
$GPVTG,324.8,T,325.0,M,000.4,N,000.7,K,A*29
$GPGSV,3,1,09,16,52,301,,31,09,210,,18,36,135,40,29,25,090,33*72
$GPGSV,3,2,09,30,29,160,38,21,74,072,35,22,13,171,,03,30,289,31*72
$GPGSV,3,3,09,06,46,290,,,,,,,,,,,,,*4F
$GPGSA,M,3,18,29,30,21,,,,,,,,,8.8,5.8,6.7*30
Trace #24 at position 5.750000
$GPZDA,130637.03,06,10,2011,00,00*60
$GPRMC,130637.00,A,4611.952907,N,01258.214615,E,000.4,324.8,061011,0.2,E,A*$GPGGA,130638.00,4611.953044,N,01258.214299,E,1,04,5.8,133.28,M,46.25,M,,*62
$GPGLL,4611.953044,N,01258.214299,E,130638.00,A,A*60
$GPVTG,302.6,T,302.7,M,000.7,N,001.2,K,A*26
$GPGSV,3,1,09,16,52,301,,31,09,210,,18,36,135,40,29,25,090,35*74
$GPGSV,3,2,09,30,29,160,37,21,74,072,32,22,13,171,,03,30,289,32*79
$GPGSV,3,3,09,06,46,290,30,,,,,,,,,,,,*4C
$GPGSA,M,3,18,29,30,21,,,,,,,,,8.8,5.8,6.7*30
Trace #25 at position 6.000000
$GPZDA,130638.03,06,10,2011,00,00*6F
$GPRMC,130638.00,A,4611.953044,N,01258.214299,E,000.7,302.6,061011,0.2,E,$GPGGA,130639.00,4611.953183,N,01258.213998,E,1,04,5.8,133.38,M,46.25,M,,*65
$GPGLL,4611.953183,N,01258.213998,E,130639.00,A,A*66
$GPVTG,326.0,T,326.1,M,000.4,N,000.7,K,A*21
$GPGSV,3,1,09,16,52,301,,31,09,210,,18,36,135,38,29,25,090,33*7D
$GPGSV,3,2,09,30,29,160,36,21,74,072,33,22,13,171,,03,30,289,30*7B
$GPGSV,3,3,09,06,46,290,31,,,,,,,,,,,,*4D
$GPGSA,M,3,18,29,30,21,,,,,,,,,8.8,5.8,6.7*30
Trace #26 at position 6.250000
$GPZDA,130639.03,06,10,2011,00,00*6E
$GPRMC,130639.00,A,4611.953183,N,01258.213998,E,000.4,326.0,061011,0.2,E,PGLL,4611.953406,N,01258.213764,E,130640.00,A,A*6D
$GPVTG,343.7,T,343.9,M,001.0,N,001.8,K,A*25
$GPGSV,3,1,09,16,52,301,,31,09,210,,18,36,135,40,29,25,090,33*72
$GPGSV,3,2,09,30,29,160,37,21,74,072,33,22,13,171,,03,30,289,*79
$GPGSV,3,3,09,06,46,290,31,,,,,,,,,,,,*4D
$GPGSA,M,3,18,29,30,21,,,,,,,,,8.8,5.8,6.7*30
Trace #27 at position 6.500000
$GPZDA,130640.03,06,10,2011,00,00*60
$GPRMC,130640.00,A,4611.953406,N,01258.213764,E,001.0,343.7,061011,0.2,E,A*36
$GPGGA,130641.00,4611.953694,N,01258.213538,E,1,04,5.8,133.44,M,46.25,M,,*66*2F
$GPGSV,3,1,09,16,52,301,,31,09,210,,18,36,135,40,29,24,090,35*75
$GPGSV,3,2,09,30,29,160,38,21,74,072,34,22,13,171,,03,30,289,31*73
$GPGSV,3,3,09,06,46,290,31,,,,,,,,,,,,*4D
$GPGSA,M,3,18,29,30,21,,,,,,,,,8.8,5.8,6.6*31
Trace #28 at position 6.750000
$GPZDA,130640.03,06,10,2011,00,00*60
$GPRMC,130640.00,A,4611.953406,N,01258.213764,E,001.0,343.7,061011,0.2,E,A*36
$GPGGA,130641.00,4611.953694,N,01258.213538,E,1,04,5.8,133.44,M,46.25,M,,*66*2F
$GPGSV,3,1,09,16,52,301,,31,09,210,,18,36,135,40,29,24,090,35*75
$GPGSV,3,2,09,30,29,160,38,21,74,072,34,22,13,171,,03,30,289,31*73
$GPGSV,3,3,09,06,46,290,31,,,,,,,,,,,,*4D
$GPGSA,M,3,18,29,30,21,,,,,,,,,8.8,5.8,6.6*31
Trace #29 at position 7.000000
$GPZDA,130641.03,06,10,2011,00,00*61
$GPRMC,130641.00,A,4611.953694,N,01258.213538,E,000.9,344.1,061011,0.2,E,A*3C
$GPGGA,130642.00,4611.953866,N,01258.213385,E,1,04,5.8,133.47,M,46.25,M,,*65
$GPGLL,4611.953866,N,01258.213385,E,130642.00,A,A*6E
$GPVTG,7.4,T,7.6,M,000.1,N,000.3,K*31
$GPZDA,130642.03,06,10,2011,00,00*62
$GPRMC,130642.00,A,4611.953866,N,01258.213385,E,000.1,7.4,061011,0.2,E,A*35
$GPGGA,130643.00,4611.953950,N,01258.213232,E,1,04,5.8,133.50,M,46.25,M,,*6B
$GPGLL,4611.953950,N,01258.213232,E,130643.00,A,A*66
$GPVTG,295.3,T,295.5,M,000.4,N,000.7,K,A*26
$GPGSV,3,1,09,16,52,301,31,31,09,210,,18,36,135,40,29,24,090,34*76
$GPGSV,3,2,09,30,29,160,38,21,74,071,35,22,13,171,,03,30,289,*73
$GPGSV,3,3,09,06,46,290,31,,,,,,,,,,,,*4D
$GPGSA,M,3,18,29,30,21,,,,,,,,,8.8,5.8GPRMC,130643.00,A,4611.953950,N,01258.213232,E,000.4,295.3,061011,0.2,E,A*36
Trace #30 at position 7.250000
$GPGGA,130644.00,4611.954089,N,01258.213033,E,1,04,5.8,133.32,M,46.25,M,,*61
$GPGLL,4611.954089,N,01258.213033,E,130644.00,A,A*68
$GPVTG,330.5,T,330.7,M,000.6,N,001.0,K,A*26
$GPGSV,3,1,09,16,52,301,32,31,09,210,,18,36,135,40,29,24,090,33*72
$GPGSV,3,2,09,30,29,160,39,21,74,071,35,22,13,171,,03,30,289,32*73
$GPGSV,3,3,09,06,46,290,32,,,,,,,,,,,,*4E
$GPGSA,M,3,18,29,30,21,,,,,,,,,8.8,5.8,6.6*31
Trace #31 at position 7.500000
$GPGGA,130644.00,4611.954089,N,01258.213033,E,1,04,5.8,133.32,M,46.25,M,,*61
$GPGLL,4611.954089,N,01258.213033,E,130644.00,A,A*68
$GPVTG,330.5,T,330.7,M,000.6,N,001.0,K,A*26
$GPGSV,3,1,09,16,52,301,32,31,09,210,,18,36,135,40,29,24,090,33*72
$GPGSV,3,2,09,30,29,160,39,21,74,071,35,22,13,171,,03,30,289,32*73
$GPGSV,3,3,09,06,46,290,32,,,,,,,,,,,,*4E
$GPGSA,M,3,18,29,30,21,,,,,,,,,8.8,5.8,6.6*31
Trace #32 at position 7.750000
$GPZDA,130644.03,06,10,2011,00,$GPGGA,130645.00,4611.954251,N,01258.212886,E,1,04,5.8,133.11,M,46.25,M,,*61
$GPGLL,4611.954251,N,01258.212886,E,130645.00,A,A*69
$GPVTG,341.5,T,341.6,M,000.3,N,000.5,K,A*26
$GPGSV,3,1,09,16,52,301,,31,09,210,,18,36,135,40,29,24,090,35*75
$GPGSV,3,2,09,30,29,160,38,21,74,071,36,22,13,171,,03,30,289,32*71
$GPGSV,3,3,09,06,46,290,32,,,,,,,,,,,,*4E
$GPGSA,M,3,18,29,30,21,,,,,,,,,8.8,5.8,6.6*31
Trace #33 at position 8.000000
$GPZDA,130645.03,06,10,2011,00,00*65
$GPRMC,130645.00,A,4611.954251,N,01258.212886,E,000.3,341.5,061011,0.2,E,$GPGGA,130646.00,4611.954491,N,01258.212767,E,1,04,5.8,132.99,M,46.25,M,,*69
$GPGLL,4611.954491,N,01258.212767,E,130646.00,A,A*60
$GPVTG,352.9,T,353.1,M,001.1,N,002.0,K,A*28
$GPGSV,3,1,09,16,52,301,31,31,09,210,,18,36,135,40,29,24,090,35*77
$GPGSV,3,2,09,30,29,160,39,21,74,071,34,22,13,171,,03,30,289,31*71
$GPGSV,3,3,09,06,46,290,33,,,,,,,,,,,,*4F
$GPGSA,M,3,18,29,30,21,,,,,,,,,8.8,5.8,6.6*31
Trace #34 at position 8.250000
$GPZDA,130646.03,06,10,2011,00,00*66
$GPRMC,130646.00,A,4611.954491,N,01258.212767,E,001.1,352.9,061011,0.2,$GPGGA,130647.00,4611.954603,N,01258.213029,E,1,05,1.6,133.61,M,46.25,M,,*60
$GPGLL,4611.954603,N,01258.213029,E,130647.00,A,A*64
$GPVTG,330.2,T,330.4,M,000.6,N,001.2,K,A*20
$GPGSV,3,1,09,16,52,301,32,31,09,210,,18,36,135,40,29,24,090,35*74
$GPGSV,3,2,09,30,29,160,38,21,74,071,35,22,13,171,,03,30,289,32*72
$GPGSV,3,3,09,06,46,290,34,,,,,,,,,,,,*48
$GPGSA,M,3,18,29,30,21,06,,,,,,,,3.3,1.6,2.9*36
Trace #35 at position 8.500000
$GPZDA,130647.03,06,10,2011,00,00*67
$GPRMC,130647.00,A,4611.954603,N,01258.213029,E,000.6,330.2,061011,0.$GPGGA,130648.00,4611.954646,N,01258.213174,E,1,05,1.6,134.11,M,46.25,M,,*67
$GPGLL,4611.954646,N,01258.213174,E,130648.00,A,A*63
$GPVTG,311.8,T,311.9,M,000.7,N,001.3,K,A*27
$GPGSV,3,1,09,16,52,301,32,31,09,210,,18,36,135,39,29,24,090,35*7A
$GPGSV,3,2,09,30,29,160,39,21,74,071,36,22,13,171,,03,30,289,32*70
$GPGSV,3,3,09,06,46,290,33,,,,,,,,,,,,*4F
$GPGSA,M,3,18,29,30,21,06,,,,,,,,3.3,1.6,2.9*36
Trace #36 at position 8.750000
$GPZDA,130648.03,06,10,2011,00,00*68
$GPRMC,130648.00,A,4611.954646,N,01258.213174,E,000.7,311.8,061011,0.$GPGGA,130649.00,4611.954733,N,01258.213274,E,1,05,1.6,134.52,M,46.25,M,,*61
$GPGLL,4611.954733,N,01258.213274,E,130649.00,A,A*62
$GPVTG,333.7,T,333.9,M,000.9,N,001.7,K,A*22
$GPGSV,3,1,09,16,52,301,32,31,09,210,,18,36,135,39,29,24,090,36*79
$GPGSV,3,2,09,30,29,160,39,21,74,071,34,22,13,171,,03,30,289,29*78
$GPGSV,3,3,09,06,46,290,35,,,,,,,,,,,,*49
$GPGSA,M,3,18,29,30,21,06,,,,,,,,3.3,1.6,2.9*36
Trace #37 at position 9.000000
$GPZDA,130648.03,06,10,2011,00,00*68
$GPRMC,130648.00,A,4611.954646,N,01258.213174,E,000.7,311.8,061011,0.$GPGGA,130649.00,4611.954733,N,01258.213274,E,1,05,1.6,134.52,M,46.25,M,,*61
$GPGLL,4611.954733,N,01258.213274,E,130649.00,A,A*62
$GPVTG,333.7,T,333.9,M,000.9,N,001.7,K,A*22
$GPGSV,3,1,09,16,52,301,32,31,09,210,,18,36,135,39,29,24,090,36*79
$GPGSV,3,2,09,30,29,160,39,21,74,071,34,22,13,171,,03,30,289,29*78
$GPGSV,3,3,09,06,46,290,35,,,,,,,,,,,,*49
$GPGSA,M,3,18,29,30,21,06,,,,,,,,3.3,1.6,2.9*36
Trace #38 at position 9.250000
$GPZDA,130649.03,06,10,2011,00,00*69
$GPRMC,130649.00,A,4611.954733,N,01258.213274,E,000.9,333.7,061011,0.$GPGGA,130650.00,4611.954883,N,01258.213363,E,1,05,1.6,134.89,M,46.25,M,,*6C
$GPGLL,4611.954883,N,01258.213363,E,130650.00,A,A*69
$GPVTG,334.1,T,334.3,M,001.0,N,001.8,K,A*29
$GPGSV,3,1,09,16,52,301,33,31,09,210,,18,36,135,40,29,24,090,35*75
$GPGSV,3,2,09,30,29,160,38,21,74,071,36,22,13,171,,03,30,289,*70
$GPGSV,3,3,09,06,46,290,32,,,,,,,,,,,,*4E
$GPGSA,M,3,18,29,30,21,06,,,,,,,,3.3,1.6,2.9*36
Trace #39 at position 9.500000
$GPZDA,130650.03,06,10,2011,00,00*61
$GPRMC,130650.00,A,4611.954883,N,01258.213363,E,001.0,334.1,061011,0.2,$GPGGA,130651.00,4611.954890,N,01258.213761,E,1,06,1.5,135.49,M,46.25,M,,*64
$GPGLL,4611.954890,N,01258.213761,E,130651.00,A,A*6C
$GPVTG,102.6,T,102.7,M,001.5,N,002.7,K,A*23
$GPGSV,3,1,09,16,52,301,,31,09,210,,18,36,135,40,29,24,090,36*76
$GPGSV,3,2,09,30,29,160,37,21,74,071,36,22,13,171,,03,30,289,31*7D
$GPGSV,3,3,09,06,46,290,32,,,,,,,,,,,,*4E
$GPGSA,M,3,16,18,29,30,21,06,,,,,,,3.3,1.5,2.9*32
Trace #40 at position 9.750000
$GPZDA,130651.03,06,10,2011,00,00*60
$GPRMC,130651.00,A,4611.954890,N,01258.213761,E,001.5,102.6,061011,0.05,1.6,135.74,M,46.25,M,,*65
$GPGLL,4611.954914,N,01258.214240,E,130652.00,A,A*63
$GPVTG,25.8,T,26.0,M,000.9,N,001.6,K,A*26
$GPGSV,3,1,09,16,52,301,32,31,09,210,,18,36,135,40,29,24,090,30*71
$GPGSV,3,2,09,30,29,160,38,21,74,071,35,22,13,171,,03,30,289,31*71
$GPGSV,3,3,09,06,46,290,35,,,,,,,,,,,,*49
$GPGSA,M,3,18,29,30,21,06,,,,,,,,3.3,1.6,2.9*36
Trace #41 at position 10.000000
$GPZDA,130652.03,06,10,2011,00,00*63
$GPRMC,130652.00,A,4611.954914,N,01258.214240,E,000.9,25.8,061011,0.2,E,A*0C
$GPGGA,130653.00,4611.955112,N,01258.2143G,355.5,T,355.7,M,001.0,N,001.9,K,A*28
$GPGSV,3,1,09,16,52,301,32,31,09,210,,18,36,135,39,29,24,090,34*7B
$GPGSV,3,2,09,30,28,160,38,21,74,071,35,22,13,171,,03,30,289,31*70
$GPGSV,3,3,09,06,46,290,34,,,,,,,,,,,,*48
$GPGSA,M,3,18,29,30,21,06,,,,,,,,3.3,1.6,2.9*36
Trace #42 at position 10.250000
$GPZDA,130653.03,06,10,2011,00,00*62
$GPRMC,130653.00,A,4611.955112,N,01258.214389,E,001.0,355.5,061011,0.2,E,A*37
$GPGGA,130654.00,4611.955223,N,01258.214449,E,1,05,1.6,135.55,M,46.25,M,,*61
$GPGLL,4611.955223,N,01258.214449,E,130654.00,A,A,,,,,,,,,,,,*48
$GPGSA,M,3,18,29,30,21,06,,,,,,,,3.3,1.6,2.9*36
Trace #43 at position 10.500000
$GPZDA,130654.03,06,10,2011,00,00*65
$GPRMC,130654.00,A,4611.955223,N,01258.214449,E,000.2,2.7,061011,0.2,E,A*3A
$GPGGA,130655.00,4611.955430,N,01258.214059,E,1,04,5.7,135.28,M,46.25,M,,*6F
$GPGLL,4611.955430,N,01258.214059,E,130655.00,A,A*64
$GPVTG,336.6,T,336.8,M,000.6,N,001.2,K,A*28
$GPGSV,3,1,09,16,52,301,31,31,08,210,,18,36,135,40,29,24,090,34*77
$GPGSV,3,2,09,30,28,160,37,21,74,071,35,22,13,171,,03,31,289,28*76
$GPGSV,3,3,09,06,4,4611.955430,N,01258.214059,E,000.6,336.6,061011,0.2,E,A*3B
$GPGGA,130656.00,4611.955594,N,01258.214006,E,1,06,1.5,135.54,M,46.25,M,,*66
$GPGLL,4611.955594,N,01258.214006,E,130656.00,A,A*62
$GPVTG,339.7,T,339.8,M,001.0,N,001.8,K,A*24
$GPGSV,3,1,09,16,52,301,31,31,08,210,,18,36,135,40,29,24,090,34*77
$GPGSV,3,2,09,30,28,160,37,21,74,071,36,22,13,171,,03,31,289,31*7D
$GPGSV,3,3,09,06,46,290,32,,,,,,,,,,,,*4E
$GPGSA,M,3,16,18,29,30,21,06,,,,,,,3.3,1.5,2.9*32
Trace #44 at position 10.750000
$GPZDA,130656.04,06,10,2011,00,00*60
$GPRMC$GPGGA,130657.00,4611.955732,N,01258.214014,E,1,06,1.5,135.69,M,46.25,M,,*64
$GPGLL,4611.955732,N,01258.214014,E,130657.00,A,A*6E
$GPVTG,5.6,T,5.7,M,000.4,N,000.8,K,A*2E
$GPGSV,3,1,09,16,52,301,32,31,08,210,,18,36,135,40,29,24,090,34*74
$GPGSV,3,2,09,30,28,160,39,21,74,071,35,22,13,171,,03,31,289,*72
$GPGSV,3,3,09,06,46,290,33,,,,,,,,,,,,*4F
$GPGSA,M,3,16,18,29,30,21,06,,,,,,,3.3,1.5,2.9*32
Trace #45 at position 11.000000
$GPZDA,130656.04,06,10,2011,00,00*60
$GPRMC$GPGGA,130657.00,4611.955732,N,01258.214014,E,1,06,1.5,135.69,M,46.25,M,,*64
$GPGLL,4611.955732,N,01258.214014,E,130657.00,A,A*6E
$GPVTG,5.6,T,5.7,M,000.4,N,000.8,K,A*2E
$GPGSV,3,1,09,16,52,301,32,31,08,210,,18,36,135,40,29,24,090,34*74
$GPGSV,3,2,09,30,28,160,39,21,74,071,35,22,13,171,,03,31,289,*72
$GPGSV,3,3,09,06,46,290,33,,,,,,,,,,,,*4F
$GPGSA,M,3,16,18,29,30,21,06,,,,,,,3.3,1.5,2.9*32
Trace #46 at position 11.250000
$GPZDA,130657.03,06,10,2011,00,00*66
$GPRMC,130657.00,A,4611.955732,N,01258.214014,E,000.4,5.6,061011,0.2,E,A*$GPGGA,130658.00,4611.955818,N,01258.213996,E,1,06,1.5,135.85,M,46.25,M,,*6A
$GPGLL,4611.955818,N,01258.213996,E,130658.00,A,A*62
$GPVTG,319.1,T,319.3,M,000.6,N,001.1,K,A*27
$GPGSV,3,1,09,16,52,301,33,31,08,210,,18,36,135,41,29,24,090,34*74
$GPGSV,3,2,09,30,28,160,38,21,74,071,36,22,13,171,,03,31,289,29*7B
$GPGSV,3,3,09,06,46,290,33,,,,,,,,,,,,*4F
$GPGSA,M,3,16,18,29,30,21,06,,,,,,,3.3,1.5,2.9*32
Trace #47 at position 11.500000
$GPZDA,130658.03,06,10,2011,00,00*69
$GPRMC,130658.00,A,4611.955818,N,01258.213996,E,000.6,319.1,061011,$GPGGA,130659.00,4611.955950,N,01258.213990,E,1,06,1.5,136.03,M,46.25,M,,*6D
$GPGLL,4611.955950,N,01258.213990,E,130659.00,A,A*68
$GPVTG,10.6,T,10.8,M,000.7,N,001.3,K,A*28
$GPGSV,3,1,09,16,52,301,33,31,08,210,,18,36,135,40,29,24,090,35*74
$GPGSV,3,2,09,30,28,160,38,21,74,071,35,22,13,171,,03,31,289,31*71
$GPGSV,3,3,09,06,46,290,34,,,,,,,,,,,,*48
$GPGSA,M,3,16,18,29,30,21,06,,,,,,,3.3,1.5,2.9*32
Trace #48 at position 11.750000
$GPZDA,130658.03,06,10,2011,00,00*69
$GPRMC,130658.00,A,4611.955818,N,01258.213996,E,000.6,319.1,061011,$GPGGA,130659.00,4611.955950,N,01258.213990,E,1,06,1.5,136.03,M,46.25,M,,*6D
$GPGLL,4611.955950,N,01258.213990,E,130659.00,A,A*68
$GPVTG,10.6,T,10.8,M,000.7,N,001.3,K,A*28
$GPGSV,3,1,09,16,52,301,33,31,08,210,,18,36,135,40,29,24,090,35*74
$GPGSV,3,2,09,30,28,160,38,21,74,071,35,22,13,171,,03,31,289,31*71
$GPGSV,3,3,09,06,46,290,34,,,,,,,,,,,,*48
$GPGSA,M,3,16,18,29,30,21,06,,,,,,,3.3,1.5,2.9*32
Trace #49 at position 12.000000
$GPZDA,130659.03,06,10,2011,00,00*68
$GPRMC,130659.00,A,4611.955950,N,01258.213990,E,000.7,10.6,061011,0.2$GPGGA,130700.00,4611.956112,N,01258.213952,E,1,06,1.5,136.22,M,46.25,M,,*60
$GPGLL,4611.956112,N,01258.213952,E,130700.00,A,A*66
$GPVTG,321.3,T,321.5,M,000.8,N,001.5,K,A*29
$GPGSV,3,1,09,16,52,301,34,31,08,210,,18,36,135,39,29,24,090,34*7C
$GPGSV,3,2,09,30,28,160,37,21,74,071,37,22,13,171,,03,31,289,32*7F
$GPGSV,3,3,09,06,46,290,34,,,,,,,,,,,,*48
$GPGSA,M,3,16,18,29,30,21,06,,,,,,,3.3,1.5,2.9*32
Trace #50 at position 12.250000
$GPZDA,130659.03,06,10,2011,00,00*68
$GPRMC,130659.00,A,4611.955950,N,01258.213990,E,000.7,10.6,061011,0.2$GPGGA,130700.00,4611.956112,N,01258.213952,E,1,06,1.5,136.22,M,46.25,M,,*60
$GPGLL,4611.956112,N,01258.213952,E,130700.00,A,A*66
$GPVTG,321.3,T,321.5,M,000.8,N,001.5,K,A*29
$GPGSV,3,1,09,16,52,301,34,31,08,210,,18,36,135,39,29,24,090,34*7C
$GPGSV,3,2,09,30,28,160,37,21,74,071,37,22,13,171,,03,31,289,32*7F
$GPGSV,3,3,09,06,46,290,34,,,,,,,,,,,,*48
$GPGSA,M,3,16,18,29,30,21,06,,,,,,,3.3,1.5,2.9*32
Trace #51 at position 12.500000
$GPZDA,130700.03,06,10,2011,00,00*65
$GPRMC,130700.00,A,4611.956112,N,01258.213952,E,000.8,321.3,061011,$GPGGA,130701.00,4611.956184,N,01258.213922,E,1,06,1.5,136.36,M,46.25,M,,*6C
$GPGLL,4611.956184,N,01258.213922,E,130701.00,A,A*6F
$GPVTG,95.2,T,95.3,M,000.2,N,000.3,K,A*23
$GPGSV,3,1,09,16,52,301,31,31,08,210,,18,36,135,40,29,24,090,34*77
$GPGSV,3,2,09,30,28,160,38,21,74,071,36,22,13,171,,03,31,289,32*71
$GPGSV,3,3,09,06,46,290,34,,,,,,,,,,,,*48
$GPGSA,M,3,16,18,29,30,21,06,,,,,,,3.3,1.5,2.9*32
Trace #52 at position 12.750000
$GPZDA,130701.03,06,10,2011,00,00*64
$GPRMC,130701.00,A,4611.956184,N,01258.213922,E,000.2,95.2,061011,0.2$GPGGA,130702.00,4611.956202,N,01258.213971,E,1,06,1.5,136.39,M,46.25,M,,*6B
$GPGLL,4611.956202,N,01258.213971,E,130702.00,A,A*67
$GPVTG,350.2,T,350.4,M,000.2,N,000.3,K,A*24
$GPGSV,3,1,09,16,52,301,34,31,08,210,,18,36,135,40,29,24,090,36*70
$GPGSV,3,2,09,30,28,160,40,21,74,071,37,22,13,171,,03,31,289,32*7F
$GPGSV,3,3,09,06,46,290,33,,,,,,,,,,,,*4F
$GPGSA,M,3,16,18,29,30,21,06,,,,,,,3.3,1.5,2.9*32
Trace #53 at position 13.000000
$GPZDA,130701.03,06,10,2011,00,00*64
$GPRMC,130701.00,A,4611.956184,N,01258.213922,E,000.2,95.2,061011,0.2$GPGGA,130702.00,4611.956202,N,01258.213971,E,1,06,1.5,136.39,M,46.25,M,,*6B
$GPGLL,4611.956202,N,01258.213971,E,130702.00,A,A*67
$GPVTG,350.2,T,350.4,M,000.2,N,000.3,K,A*24
$GPGSV,3,1,09,16,52,301,34,31,08,210,,18,36,135,40,29,24,090,36*70
$GPGSV,3,2,09,30,28,160,40,21,74,071,37,22,13,171,,03,31,289,32*7F
$GPGSV,3,3,09,06,46,290,33,,,,,,,,,,,,*4F
$GPGSA,M,3,16,18,29,30,21,06,,,,,,,3.3,1.5,2.9*32
Trace #54 at position 13.250000
$GPZDA,130702.03,06,10,2011,00,00*67
$GPRMC,130702.00,A,4611.956202,N,01258.213971,E,000.2,350.2,061011,1258.213986,E,1,05,1.6,136.55,M,46.25,M,,*6A
$GPGLL,4611.956244,N,01258.213986,E,130703.00,A,A*6C
$GPVTG,320.7,T,320.9,M,000.3,N,000.5,K,A*2B
$GPGSV,3,1,09,16,52,301,29,31,08,210,,18,36,135,39,29,24,090,36*72
$GPGSV,3,2,09,30,28,160,38,21,74,071,35,22,13,171,,03,31,289,31*71
$GPGSV,3,3,09,06,46,290,32,,,,,,,,,,,,*4E
$GPGSA,M,3,18,29,30,21,06,,,,,,,,3.3,1.6,2.9*36
Trace #55 at position 13.500000
$GPZDA,130702.03,06,10,2011,00,00*67
$GPRMC,130702.00,A,4611.956202,N,01258.213971,E,000.2,350.2,061011,1258.213986,E,1,05,1.6,136.55,M,46.25,M,,*6A
$GPGLL,4611.956244,N,01258.213986,E,130703.00,A,A*6C
$GPVTG,320.7,T,320.9,M,000.3,N,000.5,K,A*2B
$GPGSV,3,1,09,16,52,301,29,31,08,210,,18,36,135,39,29,24,090,36*72
$GPGSV,3,2,09,30,28,160,38,21,74,071,35,22,13,171,,03,31,289,31*71
$GPGSV,3,3,09,06,46,290,32,,,,,,,,,,,,*4E
$GPGSA,M,3,18,29,30,21,06,,,,,,,,3.3,1.6,2.9*36
Trace #56 at position 13.750000
$GPZDA,130703.04,06,10,2011,00,00*61
$GPRMC,130703.00,A,4611.956244,N,01258.213986,E,000.3,320.7,061011,0.2,E,A*30
$GPGGA,130704.00,4611.58.213927,E,130704.00,A,A*60
$GPVTG,331.9,T,332.0,M,000.8,N,001.5,K,A*25
$GPGSV,3,1,09,16,52,301,31,31,08,210,,18,36,135,40,29,24,090,36*75
$GPGSV,3,2,09,30,28,160,38,21,74,071,35,22,13,171,,03,31,289,31*71
$GPGSV,3,3,09,06,46,290,32,,,,,,,,,,,,*4E
$GPGSA,M,3,18,29,30,21,06,,,,,,,,3.3,1.6,2.9*36
Trace #57 at position 14.000000
$GPZDA,130704.03,06,10,2011,00,00*61
$GPRMC,130704.00,A,4611.956367,N,01258.213927,E,000.8,331.9,061011,0.2,E,A*39
$GPGGA,130705.00,4611.956560,N,01258.213752,E,1,05,1.6,136.98,M,46.25,M,,*6B
$GPGLL,4611.9501.1,N,002.0,K,A*2B
$GPGSV,3,1,09,16,52,301,29,31,08,210,,18,36,135,41,29,24,090,35*7E
$GPGSV,3,2,09,30,28,160,38,21,74,071,35,22,13,171,,03,31,289,25*74
$GPGSV,3,3,09,06,46,290,32,,,,,,,,,,,,*4E
$GPGSA,M,3,18,29,30,21,06,,,,,,,,3.3,1.6,2.9*36
Trace #58 at position 14.250000
$GPZDA,130705.03,06,10,2011,00,00*60
$GPRMC,130705.00,A,4611.956560,N,01258.213752,E,001.1,311.9,061011,0.2,E,A*3F
$GPGGA,130706.00,4611.956687,N,01258.213706,E,1,05,1.6,136.93,M,46.25,M,,*68
$GPGLL,4611.956687,N,01258.213706,E,130706.00,A,A*64
$GPVTG,38.6,T,*74
$GPGSV,3,3,09,06,46,290,31,,,,,,,,,,,,*4D
$GPGSA,M,3,18,29,30,21,06,,,,,,,,3.3,1.6,2.9*36
Trace #59 at position 14.500000
$GPZDA,130706.03,06,10,2011,00,00*63
$GPRMC,130706.00,A,4611.956687,N,01258.213706,E,000.3,38.6,061011,0.2,E,A*03
$GPGGA,130707.00,4611.956820,N,01258.213785,E,1,05,1.6,136.89,M,46.25,M,,*6A
$GPGLL,4611.956820,N,01258.213785,E,130707.00,A,A*6D
$GPVTG,356.8,T,357.0,M,000.7,N,001.2,K,A*2E
$GPGSV,3,1,09,16,52,301,29,31,08,210,,18,36,135,40,29,24,090,37*7D
$GPGSV,3,2,09,30,28,160,40,21,74,071,35,22,13,171,,03,,A,4611.956820,N,01258.213785,E,000.7,356.8,061011,0.2,E,A*3B
$GPGGA,130708.00,4611.957019,N,01258.213682,E,1,05,1.6,136.85,M,46.25,M,,*6C
$GPGLL,4611.957019,N,01258.213682,E,130708.00,A,A*67
$GPVTG,315.6,T,315.7,M,001.0,N,001.8,K,A*2A
$GPGSV,3,1,09,16,52,301,28,31,08,210,,18,36,135,40,29,24,090,36*7D
$GPGSV,3,2,09,30,28,160,40,21,74,071,33,22,13,171,,03,31,289,30*79
$GPGSV,3,3,09,06,46,290,32,,,,,,,,,,,,*4E
$GPGSA,M,3,18,29,30,21,06,,,,,,,,3.3,1.6,2.9*36
Trace #60 at position 14.750000
$GPZDA,130708.04,06,10,2011,00,00*6A
$GPRMC$GPGGA,130709.00,4611.957257,N,01258.213505,E,1,05,1.6,136.55,M,46.25,M,,*64
$GPGLL,4611.957257,N,01258.213505,E,130709.00,A,A*62
$GPVTG,335.4,T,335.5,M,001.1,N,002.0,K,A*20
$GPGSV,3,1,09,16,52,301,,31,08,210,,18,36,135,40,29,24,090,38*79
$GPGSV,3,2,09,30,28,160,40,21,74,071,32,22,13,171,,03,31,289,*7B
$GPGSV,3,3,09,06,46,290,33,,,,,,,,,,,,*4F
$GPGSA,M,3,18,29,30,21,06,,,,,,,,3.3,1.6,2.9*36
Trace #61 at position 15.000000
$GPZDA,130708.04,06,10,2011,00,00*6A
$GPRMC$GPGGA,130709.00,4611.957257,N,01258.213505,E,1,05,1.6,136.55,M,46.25,M,,*64
$GPGLL,4611.957257,N,01258.213505,E,130709.00,A,A*62
$GPVTG,335.4,T,335.5,M,001.1,N,002.0,K,A*20
$GPGSV,3,1,09,16,52,301,,31,08,210,,18,36,135,40,29,24,090,38*79
$GPGSV,3,2,09,30,28,160,40,21,74,071,32,22,13,171,,03,31,289,*7B
$GPGSV,3,3,09,06,46,290,33,,,,,,,,,,,,*4F
$GPGSA,M,3,18,29,30,21,06,,,,,,,,3.3,1.6,2.9*36
Trace #62 at position 15.250000
$GPZDA,130709.03,06,10,2011,00,00*6C
$GPRMC,130709.00,A,4611.957257,N,01258.213505,E,001.1,335.4,061011,0.2,E,$GPGGA,130710.00,4611.957507,N,01258.213429,E,1,05,1.6,136.33,M,46.25,M,,*61
$GPGLL,4611.957507,N,01258.213429,E,130710.00,A,A*67
$GPVTG,348.4,T,348.5,M,000.9,N,001.6,K,A*2C
$GPGSV,3,1,09,16,52,301,,31,08,210,,18,36,135,40,29,24,090,36*77
$GPGSV,3,2,09,30,28,160,39,21,74,071,33,22,13,171,,03,31,289,32*75
$GPGSV,3,3,09,06,46,290,32,,,,,,,,,,,,*4E
$GPGSA,M,3,18,29,30,21,06,,,,,,,,3.3,1.6,2.9*36
Trace #63 at position 15.500000
$GPZDA,130710.03,06,10,2011,00,00*64
$GPRMC,130710.00,A,4611.957507,N,01258.213429,E,000.9,348.4,061011,0.2,$GPGGA,130711.00,4611.957640,N,01258.213550,E,1,05,1.6,137.27,M,46.25,M,,*6B
$GPGLL,4611.957640,N,01258.213550,E,130711.00,A,A*69
$GPVTG,74.2,T,74.3,M,000.6,N,001.1,K,A*24
$GPGSV,3,1,09,16,52,301,32,31,08,210,,18,36,135,40,29,24,090,32*72
$GPGSV,3,2,09,30,28,160,38,21,74,071,34,22,13,171,,03,31,289,31*70
$GPGSV,3,3,09,06,46,291,32,,,,,,,,,,,,*4F
$GPGSA,M,3,18,29,30,21,06,,,,,,,,3.3,1.6,2.9*36
Trace #64 at position 15.750000
$GPZDA,130710.03,06,10,2011,00,00*64
$GPRMC,130710.00,A,4611.957507,N,01258.213429,E,000.9,348.4,061011,0.2,$GPGGA,130711.00,4611.957640,N,01258.213550,E,1,05,1.6,137.27,M,46.25,M,,*6B
$GPGLL,4611.957640,N,01258.213550,E,130711.00,A,A*69
$GPVTG,74.2,T,74.3,M,000.6,N,001.1,K,A*24
$GPGSV,3,1,09,16,52,301,32,31,08,210,,18,36,135,40,29,24,090,32*72
$GPGSV,3,2,09,30,28,160,38,21,74,071,34,22,13,171,,03,31,289,31*70
$GPGSV,3,3,09,06,46,291,32,,,,,,,,,,,,*4F
$GPGSA,M,3,18,29,30,21,06,,,,,,,,3.3,1.6,2.9*36
Trace #65 at position 16.000000
$GPZDA,130711.03,06,10,2011,00,00*65
$GPRMC,130711.00,A,4611.957640,N,01258.213550,E,000.6,74.2,061011,0.2,E$GPGGA,130712.00,4611.957767,N,01258.213636,E,1,05,1.6,138.28,M,46.25,M,,*6F
$GPGLL,4611.957767,N,01258.213636,E,130712.00,A,A*6D
$GPVTG,340.4,T,340.5,M,000.7,N,001.4,K,A*20
$GPGSV,3,1,09,16,52,301,32,31,08,210,,18,36,135,41,29,24,090,35*74
$GPGSV,3,2,09,30,28,160,39,21,74,071,33,22,13,171,,03,31,289,32*75
$GPGSV,3,3,09,06,46,291,32,,,,,,,,,,,,*4F
$GPGSA,M,3,18,29,30,21,06,,,,,,,,3.3,1.6,2.9*36
Trace #66 at position 16.250000
$GPZDA,130712.03,06,10,2011,00,00*66
$GPRMC,130712.00,A,4611.957767,N,01258.213636,E,000.7,340.4,061011,0.$GPGGA,130713.00,4611.957866,N,01258.213546,E,1,05,1.6,138.28,M,46.25,M,,*64
$GPGLL,4611.957866,N,01258.213546,E,130713.00,A,A*66
$GPVTG,260.3,T,260.4,M,000.3,N,000.6,K,A*21
$GPGSV,3,1,09,16,52,301,31,31,08,210,,18,36,135,39,29,24,090,34*79
$GPGSV,3,2,09,30,28,160,38,21,74,071,34,22,13,171,,03,31,289,*72
$GPGSV,3,3,09,06,46,291,33,,,,,,,,,,,,*4E
$GPGSA,M,3,18,29,30,21,06,,,,,,,,3.3,1.6,2.9*36
Trace #67 at position 16.500000
$GPZDA,130712.03,06,10,2011,00,00*66
$GPRMC,130712.00,A,4611.957767,N,01258.213636,E,000.7,340.4,061011,0.$GPGGA,130713.00,4611.957866,N,01258.213546,E,1,05,1.6,138.28,M,46.25,M,,*64
$GPGLL,4611.957866,N,01258.213546,E,130713.00,A,A*66
$GPVTG,260.3,T,260.4,M,000.3,N,000.6,K,A*21
$GPGSV,3,1,09,16,52,301,31,31,08,210,,18,36,135,39,29,24,090,34*79
$GPGSV,3,2,09,30,28,160,38,21,74,071,34,22,13,171,,03,31,289,*72
$GPGSV,3,3,09,06,46,291,33,,,,,,,,,,,,*4E
$GPGSA,M,3,18,29,30,21,06,,,,,,,,3.3,1.6,2.9*36
Trace #68 at position 16.750000
$GPZDA,130713.03,06,10,2011,00,00*67
$GPRMC,130713.00,A,4611.957866,N,01258.213546,E,000.3,260.3,061011,0.2,$GPGGA,130714.00,4611.957961,N,01258.213470,E,1,05,1.6,138.23,M,46.25,M,,*6A
$GPGLL,4611.957961,N,01258.213470,E,130714.00,A,A*63
$GPVTG,343.2,T,343.3,M,000.6,N,001.2,K,A*27
$GPGSV,3,1,09,16,52,301,33,31,08,210,,18,36,135,39,29,24,090,33*7C
$GPGSV,3,2,09,30,28,160,39,21,74,071,35,22,13,171,,03,31,289,31*70
$GPGSV,3,3,09,06,46,291,33,,,,,,,,,,,,*4E
$GPGSA,M,3,18,29,30,21,06,,,,,,,,3.3,1.6,2.9*36
Trace #69 at position 17.000000
$GPZDA,130714.03,06,10,2011,00,00*60
$GPRMC,130714.00,A,4611.957961,N,01258.213470,E,000.6,343.2,061011,0.PGLL,4611.958154,N,01258.213400,E,130715.00,A,A*64
$GPVTG,338.8,T,339.0,M,000.7,N,001.3,K,A*2F
$GPGSV,3,1,09,16,52,301,31,31,08,210,,18,36,135,41,29,24,090,34*76
$GPGSV,3,2,09,30,28,160,38,21,74,071,35,22,13,171,,03,31,289,32*72
$GPGSV,3,3,09,06,46,291,33,,,,,,,,,,,,*4E
$GPGSA,M,3,18,29,30,21,06,,,,,,,,3.3,1.6,2.9*36
Trace #70 at position 17.250000
$GPZDA,130715.03,06,10,2011,00,00*61
$GPRMC,130715.00,A,4611.958154,N,01258.213400,E,000.7,338.8,061011,0.2,E,A*3A
$GPGGA,130716.00,4611.958320,N,01258.213404,E,1,05,1.6,138.01,M,46.25,3,1,09,16,52,301,29,31,08,210,,18,36,135,39,29,24,090,34*70
$GPGSV,3,2,09,30,28,160,37,21,74,071,33,22,13,171,,03,31,289,31*78
$GPGSV,3,3,09,06,46,291,33,,,,,,,,,,,,*4E
$GPGSA,M,3,18,29,30,21,06,,,,,,,,3.3,1.6,2.9*36
Trace #71 at position 17.500000
$GPZDA,130715.03,06,10,2011,00,00*61
$GPRMC,130715.00,A,4611.958154,N,01258.213400,E,000.7,338.8,061011,0.2,E,A*3A
$GPGGA,130716.00,4611.958320,N,01258.213404,E,1,05,1.6,138.01,M,46.25,3,1,09,16,52,301,29,31,08,210,,18,36,135,39,29,24,090,34*70
$GPGSV,3,2,09,30,28,160,37,21,74,071,33,22,13,171,,03,31,289,31*78
$GPGSV,3,3,09,06,46,291,33,,,,,,,,,,,,*4E
$GPGSA,M,3,18,29,30,21,06,,,,,,,,3.3,1.6,2.9*36
Trace #72 at position 17.750000
$GPZDA,130716.03,06,10,2011,00,00*62
$GPRMC,130716.00,A,4611.958320,N,01258.213404,E,000.4,28.3,061011,0.2,E,A*06
$GPGGA,,,,,,0,03,,,M,,M,,*65
$GPGLL,,,,,,V,N*64
$GPVTG,,T,,,,N,,K,N*61
$GPGSV,3,1,09,16,52,301,31,31,08,210,,18,36,135,41,29,24,090,33*71
$GPGSV,3,2,09,30,28,160,37,21,74,0,00*62
$GPRMC,130716.00,V,,,,,,,,,,N*7F
$GPGGA,130718.00,4611.958842,N,01258.213104,E,1,04,5.7,137.35,M,46.25,M,,*63
$GPGLL,4611.958842,N,01258.213104,E,130718.00,A,A*66
$GPVTG,18.1,T,18.3,M,000.8,N,001.5,K,A*2D
$GPGSV,3,1,09,16,52,301,31,31,08,210,,18,36,135,40,29,24,090,33*70
$GPGSV,3,2,09,30,28,160,39,21,74,071,33,22,13,171,,03,31,289,29*7F
$GPGSV,3,3,09,06,46,291,31,,,,,,,,,,,,*4C
$GPGSA,M,3,18,29,30,21,,,,,,,,,8.6,5.7,6.5*33
Trace #73 at position 18.000000
$GPZDA,130718.04,06,10,2011,00,00*6B
$GPRMC,130718.00,A,4611.958842,N,01258.213104,E,000.8,18.1,061011,0.2,E,A*0F
$GPGGA,130719.00,4611.959207,N,01258.212644,E,1,04,5.7,136.35,M,46.25,M,,*6B
$GPGLL,4611.959207,N,01258.212644,E,130719.00,A,A*6F
$GPVTG,327.4,T,327.5,M,000.7,N,001.4,K,A*20
$GPGSV,3,1,09,16,52,301,,31,08,210,,18,36,135,39,29,24,090,35*7A
$GPGSV,3,2,09,30,28,160,39,21,74,071,34,22,13,171,,03,31,289,28*79
$GPGSV,3,3,09,06,46,291,29,,,,,,,,,,,,*45
$GPGSA,M,3,18,29,30,21,,,,,,,,,8.6,5.7,6.5*33
Trace #74 at position 18.250000
$GPZDA,130719.03,06,10,2011,00,00*6D
$GPRMC,130719.00,A,4611.9$GPGGA,,,,,,0,03,,,M,,M,,*65
$GPGLL,,,,,,V,N*64
$GPVTG,,T,,,,N,,K,N*61
$GPGSV,3,1,09,16,52,301,,31,08,210,,18,36,135,41,29,24,090,35*75
$GPGSV,3,2,09,30,28,160,39,21,74,071,33,22,13,171,,03,31,289,29*7F
$GPGSV,3,3,09,06,46,291,33,,,,,,,,,,,,*4E
$GPGSA,M,1,,,,,,,,,,,,,8.6,5.7,6.5*33
Trace #75 at position 18.500000
$GPZDA,130720.02,06,10,2011,00,00*66
$GPRMC,130719.00,V,,,,,,,,,,N*70
$GPGGA,130721.00,4611.959674,N,01258.212058,E,1,04,5.7,135.51,M,46.25,M,,*6A
$GPGLL,4611.959674,N,01258.212058,E,130721.00,A,A*6F
$GPVTG,1.1,T,1.2,M,000.4,N,000.8,K,A*2C
$GPGSV,3,1,09,16,52,301,30,31,08,210,,18,36,135,39,29,24,090,35*79
$GPGSV,3,2,09,30,28,160,37,21,74,071,34,22,13,171,,03,31,289,30*7E
$GPGSV,3,3,09,06,46,291,30,,,,,,,,,,,,*4D
$GPGSA,M,3,18,29,30,21,,,,,,,,,8.6,5.7,6.5*33
Trace #76 at position 18.750000
$GPZDA,130720.02,06,10,2011,00,00*66
$GPRMC,130719.00,V,,,,,,,,,,N*70
$GPGGA,130721.00,4611.959674,N,01258.212058,E,1,04,5.7,135.51,M,46.25,M,,*6A
$GPGLL,4611.959674,N,01258.212058,E,130721.00,A,A*6F
$GPVTG,1.1,T,1.2,M,000.4,N,000.8,K,A*2C
$GPGSV,3,1,09,16,52,301,30,31,08,210,,18,36,135,39,29,24,090,35*79
$GPGSV,3,2,09,30,28,160,37,21,74,071,34,22,13,171,,03,31,289,30*7E
$GPGSV,3,3,09,06,46,291,30,,,,,,,,,,,,*4D
$GPGSA,M,3,18,29,30,21,,,,,,,,,8.6,5.7,6.5*33
Trace #77 at position 19.000000
$GPZDA,130721.03,06,10,2011,00,00*66
$GPRMC,130721.00,A,4611.959674,N,01258.212058,E,000.4,1.1,061011,0.2,E,A*32
$GPGGA,130722.00,4611.959950,N,01258.211637,E,1,04,5.7,135.11,M,46.25,M,,*68
$GPGLL,4611.959950,N,01258.211637,E,130722.00,A,A*69
$GPVTG,334.7,T,334.9,M,000.5,N,001.0,K,A*29
$GPGSV,3,1,09,16,52,301,32,31,08,210,,18,36,135,40,29,24,090,35*75
$GPGSV,3,2,09,30,28,160,39,21,74,071,35,22,13,171,,03,31,289,32*73
$GPGSV,3,3,09,06,46,291,30,,,,,,,,,,,,*4D
$GPGSA,M,3,18,29,30,21,,,,,,,,,8.6,5.7,6.5*33
Trace #78 at position 19.250000
$GPZDA,130722.03,06,10,2011,00,00*65
$GPRMC,130722.00,A,4611.959950,N,01258.211637,E,000.5,334.7,061011,0.2,E,A*36
$GPGGA,130723.00,4611.960180,N,01258.211241,E,1,04,5.6,134.81,M,46.25,M,,*6A
$GPGLL,4611.960180,N,01258.211241,E,130723.00,A,A*62
$GPVTG,333.4,T,333.6,M,000.1,N,000.2,K,A*22
$GPGSV,3,1,09,16,52,301,,31,08,210,,18,36,135,39,29,24,090,35*7A
$GPGSV,3,2,09,30,28,160,40,21,74,071,35,22,13,171,,03,31,289,31*7E
$GPGSV,3,3,09,06,46,291,30,,,,,,,,,,,,*4D
$GPGSA,M,3,18,29,30,21,,,,,,,,,8.6,5.6,6.5*32
Trace #79 at position 19.500000
$GPZDA,130722.03,06,10,2011,00,00*65
$GPRMC,130722.00,A,4611.959950,N,01258.211637,E,000.5,334.7,061011,0.2,E,A*36
$GPGGA,130723.00,4611.960180,N,01258.211241,E,1,04,5.6,134.81,M,46.25,M,,*6A
$GPGLL,4611.960180,N,01258.211241,E,130723.00,A,A*62
$GPVTG,333.4,T,333.6,M,000.1,N,000.2,K,A*22
$GPGSV,3,1,09,16,52,301,,31,08,210,,18,36,135,39,29,24,090,35*7A
$GPGSV,3,2,09,30,28,160,40,21,74,071,35,22,13,171,,03,31,289,31*7E
$GPGSV,3,3,09,06,46,291,30,,,,,,,,,,,,*4D
$GPGSA,M,3,18,29,30,21,,,,,,,,,8.6,5.6,6.5*32
Trace #80 at position 19.750000
$GPZDA,130723.03,06,10,2011,00,00*64
$GPRMC,130723.00,A,4611.960180,N,01258.211241,E,000.1,333.4,061011,0.2,E,A*3D
$GPGGA,130724.00,4611.960426,N,01258.210887,E,1,04,5.6,134.34,M,46.25,M,,*6B
$GPGLL,4611.960426,N,01258.210887,E,130724.00,A,A*6D
$GPVTG,336.4,T,336.6,M,000.8,N,001.5,K,A*2D
$GPGSV,3,1,09,16,52,301,27,31,08,210,,18,36,135,40,29,24,090,36*72
$GPGSV,3,2,09,30,28,160,40,21,74,071,34,22,13,171,,03,31,289,31*7F
$GPGSV,3,3,09,06,46,291,33,,,,,,,,,,,,*4E
$GPGSA,M,3,18,29,30,21,,,,,,,,,8.6,5.6,6.5*32
Trace #81 at position 20.000000
$GPZDA,130724.03,06,10,2011,00,00*63
$GPRMC,130724.00,A,4611.960426,N,01258.210887,E,000.8,336.4,061011,0.2,E,A*3E
$GPGGA,130725.00,4611.960725,N,01258.210574,E,1,04,5.6,133.73,M,46.25,M,,*6F
$GPGLL,4611.960725,N,01258.210574,E,130725.00,A,A*6D
$GPVTG,358.4,T,358.6,M,000.6,N,001.1,K,A*27
$GPGSV,3,1,09,16,52,301,31,31,08,210,,18,36,135,40,29,24,090,36*75
$GPGSV,3,2,09,30,28,160,40,21,74,071,34,22,13,171,,03,31,289,30*7E
$GPGSV,3,3,09,06,46,291,33,,,,,,,,,,,,*4E
$GPGSA,M,3,18,29,30,21,,,,,,,,,8.6,5.6,6.5*32
Trace #82 at position 20.250000
$GPZDA,130725.03,06,10,2011,00,00*62
$GPRMC,130725.00,A,4611.960725,N,01258.210574,E,000.6,358.4,061011,0.2,E,A*38
$GPGGA,130726.00,4611.960943,N,01258.210258,E,1,04,5.6,133.30,M,46.25,M,,*6C
$GPGLL,4611.960943,N,01258.210258,E,130726.00,A,A*69
$GPVTG,292.7,T,292.8,M,000.5,N,000.9,K,A*20
$GPGSV,3,1,09,16,52,301,32,31,08,210,,18,36,135,40,29,24,090,36*76
$GPGSV,3,2,09,30,28,160,38,21,74,071,35,22,13,171,,03,31,289,31*71
$GPGSV,3,3,09,06,46,291,33,,,,,,,,,,,,*4E
$GPGSA,M,3,18,29,30,21,,,,,,,,,8.6,5.6,6.5*32
Trace #83 at position 20.500000
$GPZDA,130726.03,06,10,2011,00,00*61
$GPRMC,130726.00,A,4611.960943,N,01258.210258,E,000.5,292.7,061011,0.2,E,A*3B
$GPGGA,,,,,,0,03,,,M,,M,,*65
$GPGLL,,,,,,V,N*64
$GPVTG,,T,,,,N,,K,N*61
$GPGSV,3,1,09,16,52,301,33,31,08,210,28,160,38,21,74,071,36,22,13,171,,03,31,289,32*71
$GPGSV,3,3,09,06,46,291,34,,,,,,,,,,,,*49
$GPGSA,M,1,,,,,,,,,,,,,8.6,5.6,6.5*32
Trace #84 at position 20.750000
$GPZDA,130727.02,06,10,2011,00,00*61
$GPRMC,130726.00,V,,,,,,,,,,N*7C
$GPGGA,130728.00,4611.961315,N,01258.209840,E,1,04,5.6,132.94,M,46.25,M,,*6E
$GPGLL,4611.961315,N,01258.209840,E,130728.00,A,A*64
$GPVTG,351.3,T,351.5,M,000.7,N,001.3,K,A*20
$GPGSV,3,1,09,16,52,301,30,31,08,210,,18,36,135,39,29,24,090,33*7F
$GPGSV,3,2,09,30,28,160,39,21,74,071,35,22,13,171,,03,31,289,30*71
$GPGSV,3,3,09,06,46,291,32,,,,,,,,,,,,*4F
$GPGSA,M,3,18,29,30,21,,,,,,,,,8.6,5.6,6.5*32
Trace #85 at position 21.000000
$GPZDA,130727.02,06,10,2011,00,00*61
$GPRMC,130726.00,V,,,,,,,,,,N*7C
$GPGGA,130728.00,4611.961315,N,01258.209840,E,1,04,5.6,132.94,M,46.25,M,,*6E
$GPGLL,4611.961315,N,01258.209840,E,130728.00,A,A*64
$GPVTG,351.3,T,351.5,M,000.7,N,001.3,K,A*20
$GPGSV,3,1,09,16,52,301,30,31,08,210,,18,36,135,39,29,24,090,33*7F
$GPGSV,3,2,09,30,28,160,39,21,74,071,35,22,13,171,,03,31,289,30*71
$GPGSV,3,3,09,06,46,291,32,,,,,,,,,,,,*4F
$GPGSA,M,3,18,29,30,21,,,,,,,,,8.6,5.6,6.5*32
Trace #86 at position 21.250000
$GPZDA,130728.03,06,10,2011,00,00*6F
$GPRMC,130728.00,A,4611.961315,N,01258.209840,E,000.7,351.3,061011,0.2,E,A*3E
$GPGGA,130729.00,4611.961494,N,01258.209714,E,1,04,5.6,133.12,M,46.25,M,,*60
$GPGLL,4611.961494,N,01258.209714,E,130729.00,A,A*65
$GPVTG,118.1,T,118.2,M,000.4,N,000.8,K,A*2C
$GPGSV,3,1,09,16,52,301,28,31,08,210,,18,36,135,40,29,24,090,33*78
$GPGSV,3,2,09,30,28,160,39,21,74,071,34,22,13,171,,03,,,,,*4E
$GPGSA,M,3,18,29,30,21,,,,,,,,,8.6,5.6,6.4*33
Trace #87 at position 21.500000
$GPZDA,130728.03,06,10,2011,00,00*6F
$GPRMC,130728.00,A,4611.961315,N,01258.209840,E,000.7,351.3,061011,0.2,E,A*3E
$GPGGA,130729.00,4611.961494,N,01258.209714,E,1,04,5.6,133.12,M,46.25,M,,*60
$GPGLL,4611.961494,N,01258.209714,E,130729.00,A,A*65
$GPVTG,118.1,T,118.2,M,000.4,N,000.8,K,A*2C
$GPGSV,3,1,09,16,52,301,28,31,08,210,,18,36,135,40,29,24,090,33*78
$GPGSV,3,2,09,30,28,160,39,21,74,071,34,22,13,171,,03,,,,,*4E
$GPGSA,M,3,18,29,30,21,,,,,,,,,8.6,5.6,6.4*33
Trace #88 at position 21.750000
$GPZDA,130729.03,06,10,2011,00,00*6E
$GPRMC,130729.00,A,4611.961494,N,01258.209714,E,000.4,118.1,061011,0.2,E,A*31
$GPGGA,130730.00,4611.961685,N,01258.209598,E,1,04,5.6,133.06,M,46.25,M,,*69
$GPGLL,4611.961685,N,01258.209598,E,130730.00,A,A*69
$GPVTG,357.2,T,357.3,M,000.9,N,001.6,K,A*2C
$GPGSV,3,1,09,16,52,301,31,31,08,210,,18,36,135,40,29,24,090,33*70
$GPGSV,3,2,09,30,28,160,38,21,74,071,35,22,13,171,,03,31,289,31*71
$GPGSV,3,3,09,06,46,291,3
$GPZDA,130730.03,06,10,2011,00,00*66
$GPRMC,130730.00,A,4611.961685,N,01258.209598,E,000.9,357.2,061011,0.2,E,A*3A
$GPGGA,130731.00,4611.961784,N,01258.209917,E,1,05,1.6,133.58,M,46.25,M,,*6D
$GPGLL,4611.961784,N,01258.209917,E,130731.00,A,A*63
$GPVTG,337.0,T,337.2,M,000.9,N,001.7,K,A*2E
$GPGSV,3,1,09,16,52,301,32,31,08,209,,18,36,135,39,29,24,090,34*72
$GPGSV,3,2,09,30,28,160,38,21,74,071,35,22,13,171,,03,31,289,30*70
$GPGSV,3,3,09,06,46,291,32,,,,,,,,,,,,*4F
$GPGSA,M,3,18,29,30,21,06,,,,,,,,3.3,1,000.9,337.0,061011,0.2,E,A*34
Trace #89 at position 22.000000
$GPZDA,130729.03,06,10,2011,00,00*6E
$GPRMC,130729.00,A,4611.961494,N,01258.209714,E,000.4,118.1,061011,0.2,E,A*31
$GPGGA,130730.00,4611.961685,N,01258.209598,E,1,04,5.6,133.06,M,46.25,M,,*69
$GPGLL,4611.961685,N,01258.209598,E,130730.00,A,A*69
$GPVTG,357.2,T,357.3,M,000.9,N,001.6,K,A*2C
$GPGSV,3,1,09,16,52,301,31,31,08,210,,18,36,135,40,29,24,090,33*70
$GPGSV,3,2,09,30,28,160,38,21,74,071,35,22,13,171,,03,31,289,31*71
$GPGSV,3,3,09,06,46,291,3
$GPZDA,130730.03,06,10,2011,00,00*66
$GPRMC,130730.00,A,4611.961685,N,01258.209598,E,000.9,357.2,061011,0.2,E,A*3A
$GPGGA,130731.00,4611.961784,N,01258.209917,E,1,05,1.6,133.58,M,46.25,M,,*6D
$GPGLL,4611.961784,N,01258.209917,E,130731.00,A,A*63
$GPVTG,337.0,T,337.2,M,000.9,N,001.7,K,A*2E
$GPGSV,3,1,09,16,52,301,32,31,08,209,,18,36,135,39,29,24,090,34*72
$GPGSV,3,2,09,30,28,160,38,21,74,071,35,22,13,171,,03,31,289,30*70
$GPGSV,3,3,09,06,46,291,32,,,,,,,,,,,,*4F
$GPGSA,M,3,18,29,30,21,06,,,,,,,,3.3,1,000.9,337.0,061011,0.2,E,A*34
Trace #90 at position 22.250000
$GPGGA,130732.00,4611.961808,N,01258.210089,E,1,05,1.6,134.16,M,46.25,M,,*6E
$GPGLL,4611.961808,N,01258.210089,E,130732.00,A,A*6D
$GPVTG,294.4,T,294.6,M,000.6,N,001.1,K,A*27
$GPGSV,3,1,09,16,52,301,30,31,08,209,,18,36,135,40,29,24,090,34*7E
$GPGSV,3,2,09,30,28,160,39,21,74,071,35,22,13,171,,03,31,289,31*70
$GPGSV,3,3,09,06,46,291,34,,,,,,,,,,,,*49
$GPGSA,M,3,18,29,30,21,06,,,,,,,,3.3,1.6,2.9*36
Trace #91 at position 22.500000
$GPZDA,130732.03,06,10,2011,00,00*64
$GPRMC,130732.00,A,4611.961808,N,0125$GPGGA,130733.00,4611.961818,N,01258.210228,E,1,05,1.6,134.54,M,46.25,M,,*61
$GPGLL,4611.961818,N,01258.210228,E,130733.00,A,A*64
$GPVTG,327.5,T,327.6,M,000.7,N,001.3,K,A*25
$GPGSV,3,1,09,16,52,301,32,31,08,209,,18,36,135,39,29,24,090,33*75
$GPGSV,3,2,09,30,28,160,39,21,74,071,35,22,13,171,,03,31,289,31*70
$GPGSV,3,3,09,06,46,291,33,,,,,,,,,,,,*4E
$GPGSA,M,3,18,29,30,21,06,,,,,,,,3.3,1.6,2.9*36
Trace #92 at position 22.750000
$GPZDA,130732.03,06,10,2011,00,00*64
$GPRMC,130732.00,A,4611.961808,N,0125$GPGGA,130733.00,4611.961818,N,01258.210228,E,1,05,1.6,134.54,M,46.25,M,,*61
$GPGLL,4611.961818,N,01258.210228,E,130733.00,A,A*64
$GPVTG,327.5,T,327.6,M,000.7,N,001.3,K,A*25
$GPGSV,3,1,09,16,52,301,32,31,08,209,,18,36,135,39,29,24,090,33*75
$GPGSV,3,2,09,30,28,160,39,21,74,071,35,22,13,171,,03,31,289,31*70
$GPGSV,3,3,09,06,46,291,33,,,,,,,,,,,,*4E
$GPGSA,M,3,18,29,30,21,06,,,,,,,,3.3,1.6,2.9*36
Trace #93 at position 23.000000
$GPZDA,130733.04,06,10,2011,00,00*62
$GPRMC,130733.00,A,4611.961818,N,01258.210228,E,000.7,327.5,061011,0.$GPGGA,130734.00,4611.961977,N,01258.210366,E,1,06,1.5,134.93,M,46.25,M,,*6E
$GPGLL,4611.961977,N,01258.210366,E,130734.00,A,A*60
$GPVTG,355.4,T,355.5,M,000.9,N,001.7,K,A*2D
$GPGSV,3,1,09,16,52,301,33,31,08,209,,18,36,135,40,29,24,090,35*7C
$GPGSV,3,2,09,30,28,160,38,21,74,071,35,22,13,171,,03,31,289,*73
$GPGSV,3,3,09,06,46,291,35,,,,,,,,,,,,*48
$GPGSA,M,3,16,18,29,30,21,06,,,,,,,3.3,1.5,2.9*32
Trace #94 at position 23.250000
$GPZDA,130734.04,06,10,2011,00,00*65
$GPRMC,130734.00,A,4611.961977,N,01258.210366,E,000.9,355.4,061011,0.$GPGGA,130735.00,4611.962127,N,01258.210487,E,1,06,1.5,135.30,M,46.25,M,,*61
$GPGLL,4611.962127,N,01258.210487,E,130735.00,A,A*67
$GPVTG,330.2,T,330.3,M,000.6,N,001.1,K,A*24
$GPGSV,3,1,09,16,52,301,33,31,08,209,,18,36,135,40,29,24,090,35*7C
$GPGSV,3,2,09,30,28,160,37,21,74,071,35,22,13,171,,03,31,289,31*7E
$GPGSV,3,3,09,06,46,291,34,,,,,,,,,,,,*49
$GPGSA,M,3,16,18,29,30,21,06,,,,,,,3.3,1.5,2.9*32
Trace #95 at position 23.500000
$GPZDA,130734.04,06,10,2011,00,00*65
$GPRMC,130734.00,A,4611.961977,N,01258.210366,E,000.9,355.4,061011,0.$GPGGA,130735.00,4611.962127,N,01258.210487,E,1,06,1.5,135.30,M,46.25,M,,*61
$GPGLL,4611.962127,N,01258.210487,E,130735.00,A,A*67
$GPVTG,330.2,T,330.3,M,000.6,N,001.1,K,A*24
$GPGSV,3,1,09,16,52,301,33,31,08,209,,18,36,135,40,29,24,090,35*7C
$GPGSV,3,2,09,30,28,160,37,21,74,071,35,22,13,171,,03,31,289,31*7E
$GPGSV,3,3,09,06,46,291,34,,,,,,,,,,,,*49
$GPGSA,M,3,16,18,29,30,21,06,,,,,,,3.3,1.5,2.9*32
Trace #96 at position 23.750000
$GPZDA,130735.03,06,10,2011,00,00*63
$GPRMC,130735.00,A,4611.962127,N,01258.210487,E,000.6,330.2,061011,$GPGGA,130736.00,4611.962212,N,01258.210609,E,1,06,1.5,135.65,M,46.25,M,,*63
$GPGLL,4611.962212,N,01258.210609,E,130736.00,A,A*65
$GPVTG,8.6,T,8.7,M,000.4,N,000.8,K,A*2E
$GPGSV,3,1,09,16,52,301,34,31,08,209,,18,36,135,40,29,24,090,35*7B
$GPGSV,3,2,09,30,28,160,38,21,74,071,35,22,13,171,,03,31,289,32*72
$GPGSV,3,3,09,06,46,291,35,,,,,,,,,,,,*48
$GPGSA,M,3,16,18,29,30,21,06,,,,,,,3.3,1.5,2.9*32
Trace #97 at position 24.000000
$GPZDA,130735.03,06,10,2011,00,00*63
$GPRMC,130735.00,A,4611.962127,N,01258.210487,E,000.6,330.2,061011,$GPGGA,130736.00,4611.962212,N,01258.210609,E,1,06,1.5,135.65,M,46.25,M,,*63
$GPGLL,4611.962212,N,01258.210609,E,130736.00,A,A*65
$GPVTG,8.6,T,8.7,M,000.4,N,000.8,K,A*2E
$GPGSV,3,1,09,16,52,301,34,31,08,209,,18,36,135,40,29,24,090,35*7B
$GPGSV,3,2,09,30,28,160,38,21,74,071,35,22,13,171,,03,31,289,32*72
$GPGSV,3,3,09,06,46,291,35,,,,,,,,,,,,*48
$GPGSA,M,3,16,18,29,30,21,06,,,,,,,3.3,1.5,2.9*32
Trace #98 at position 24.250000
$GPZDA,130736.03,06,10,2011,00,00*60
$GPRMC,130736.00,A,4611.962212,N,01258.210609,E,000.4,8.6,061011,0.2,E,$GPGGA,130737.00,4611.962337,N,01258.210664,E,1,06,1.5,135.98,M,46.25,M,,*6D
$GPGLL,4611.962337,N,01258.210664,E,130737.00,A,A*69
$GPVTG,327.1,T,327.2,M,000.9,N,001.7,K,A*2F
$GPGSV,3,1,09,16,52,301,35,31,08,209,,18,36,135,40,29,24,090,35*7A
$GPGSV,3,2,09,30,28,160,38,21,74,071,35,22,13,171,,03,31,289,*73
$GPGSV,3,3,09,06,46,291,34,,,,,,,,,,,,*49
$GPGSA,M,3,16,18,29,30,21,06,,,,,,,3.3,1.5,2.9*32
Trace #99 at position 24.500000
$GPZDA,130736.03,06,10,2011,00,00*60
$GPRMC,130736.00,A,4611.962212,N,01258.210609,E,000.4,8.6,061011,0.2,E,$GPGGA,130737.00,4611.962337,N,01258.210664,E,1,06,1.5,135.98,M,46.25,M,,*6D
$GPGLL,4611.962337,N,01258.210664,E,130737.00,A,A*69
$GPVTG,327.1,T,327.2,M,000.9,N,001.7,K,A*2F
$GPGSV,3,1,09,16,52,301,35,31,08,209,,18,36,135,40,29,24,090,35*7A
$GPGSV,3,2,09,30,28,160,38,21,74,071,35,22,13,171,,03,31,289,*73
$GPGSV,3,3,09,06,46,291,34,,,,,,,,,,,,*49
$GPGSA,M,3,16,18,29,30,21,06,,,,,,,3.3,1.5,2.9*32
Trace #100 at position 24.750000
$GPZDA,130737.03,06,10,2011,00,00*61
$GPRMC,130737.00,A,4611.962337,N,01258.210664,E,000.9,327.1,061011,0.$GPGGA,130738.00,4611.962490,N,01258.210726,E,1,06,1.5,136.33,M,46.25,M,,*6D
$GPGLL,4611.962490,N,01258.210726,E,130738.00,A,A*6B
$GPVTG,15.7,T,15.9,M,000.6,N,001.1,K,A*2B
$GPGSV,3,1,09,16,52,301,31,31,08,209,,18,36,135,40,29,24,090,35*7E
$GPGSV,3,2,09,30,28,160,38,21,74,071,35,22,13,171,,03,31,289,*73
$GPGSV,3,3,09,06,46,291,32,,,,,,,,,,,,*4F
$GPGSA,M,3,16,18,29,30,21,06,,,,,,,3.3,1.5,2.9*32
Trace #101 at position 25.000000
$GPZDA,130738.04,06,10,2011,00,00*69
$GPRMC,130738.00,A,4611.962490,N,01258.210726,E,000.6,15.7,061011,0.2,E1258.210854,E,1,06,1.5,136.67,M,46.25,M,,*64
$GPGLL,4611.962680,N,01258.210854,E,130739.00,A,A*63
$GPVTG,355.0,T,355.1,M,001.1,N,002.0,K,A*20
$GPGSV,3,1,09,16,52,301,,31,08,209,,18,36,135,40,29,24,090,35*7C
$GPGSV,3,2,09,30,28,160,38,21,74,071,35,22,13,171,,03,31,289,*73
$GPGSV,3,3,09,06,46,291,33,,,,,,,,,,,,*4E
$GPGSA,M,3,16,18,29,30,21,06,,,,,,,3.3,1.5,2.9*32
Trace #102 at position 25.250000
$GPZDA,130739.04,06,10,2011,00,00*68
$GPRMC,130739.00,A,4611.962680,N,01258.210854,E,001.1,355.0,061011,0.2,E,A*39
$GPGGA,130740.00,4611.961.962315,N,01258.210428,E,130740.00,A,A*63
$GPVTG,205.1,T,205.2,M,001.1,N,002.1,K,A*23
$GPGSV,3,1,09,16,52,301,,31,08,209,,18,36,135,40,29,24,090,33*7A
$GPGSV,3,2,09,30,28,160,37,21,74,071,33,22,13,171,,03,31,289,32*7B
$GPGSV,3,3,09,06,46,291,33,,,,,,,,,,,,*4E
$GPGSA,M,3,16,18,30,21,,,,,,,,,13.8,7.4,11.6*3F
Trace #103 at position 25.500000
$GPZDA,130744.03,06,10,2011,00,00*65
$GPRMC,130744.00,A,4611.962922,N,01258.209820,E,001.2,346.7,06101$GPGGA,130745.00,4611.963560,N,01258.209200,E,1,04,5.6,136.75,M,46.25,M,,*66
$GPGLL,4611.963560,N,01258.209200,E,130745.00,A,A*67
$GPVTG,326.6,T,326.8,M,002.5,N,004.7,K,A*29
$GPGSV,3,1,09,16,52,301,31,31,08,209,,18,36,134,41,29,24,090,33*78
$GPGSV,3,2,09,30,28,160,40,21,74,071,33,22,13,171,,03,31,289,*7A
$GPGSV,3,3,09,06,46,291,,,,,,,,,,,,,*4E
$GPGSA,M,3,18,29,30,21,,,,,,,,,8.5,5.6,6.4*30
Trace #104 at position 25.750000
$GPZDA,130745.03,06,10,2011,00,00*64
$GPRMC,130745.00,A,4611.963560,N,01258.209200,E,002.5,326.6,061011,0.2,E,A*$GPGGA,130746.00,4611.964044,N,01258.208699,E,1,04,5.6,136.14,M,46.25,M,,*63
$GPGLL,4611.964044,N,01258.208699,E,130746.00,A,A*65
$GPVTG,12.2,T,12.4,M,000.4,N,000.8,K,A*29
$GPGSV,3,1,09,16,52,301,31,31,08,209,,18,36,134,40,29,24,090,35*7F
$GPGSV,3,2,09,30,28,160,39,21,74,071,34,22,13,171,,03,31,289,*73
$GPGSV,3,3,09,06,46,291,,,,,,,,,,,,,*4E
$GPGSA,M,3,18,29,30,21,,,,,,,,,8.5,5.6,6.4*30
Trace #105 at position 26.000000
$GPZDA,130746.03,06,10,2011,00,00*67
$GPRMC,130746.00,A,4611.964044,N,01258.208699,E,000.4,12.2,061011,0.2,E,A*09$GPGGA,130747.00,4611.964283,N,01258.208422,E,1,04,5.6,135.81,M,46.25,M,,*66
$GPGLL,4611.964283,N,01258.208422,E,130747.00,A,A*6F
$GPVTG,315.7,T,315.9,M,000.6,N,001.1,K,A*2B
$GPGSV,3,1,09,16,52,301,29,31,08,209,,18,36,134,40,29,24,090,34*77
$GPGSV,3,2,09,30,28,160,38,21,74,071,32,22,13,171,,03,31,289,*74
$GPGSV,3,3,09,06,46,291,26,,,,,,,,,,,,*4A
$GPGSA,M,3,18,29,30,21,,,,,,,,,8.5,5.6,6.4*30
Trace #106 at position 26.250000
$GPZDA,130747.03,06,10,2011,00,00*66
$GPRMC,130747.00,A,4611.964283,N,01258.208422,E,000.6,315.7,061011,0.2,E,$GPGGA,130748.00,4611.964410,N,01258.208127,E,1,04,5.6,135.38,M,46.25,M,,*67
$GPGLL,4611.964410,N,01258.208127,E,130748.00,A,A*6C
$GPVTG,199.2,T,199.4,M,000.3,N,000.6,K,A*20
$GPGSV,3,1,09,16,52,301,28,31,08,209,,18,36,134,40,29,24,090,35*77
$GPGSV,3,2,09,30,28,160,37,21,74,071,33,22,13,171,,03,31,289,*7A
$GPGSV,3,3,09,06,46,291,,,,,,,,,,,,,*4E
$GPGSA,M,3,18,29,30,21,,,,,,,,,8.5,5.6,6.4*30
Trace #107 at position 26.500000
$GPZDA,130748.03,06,10,2011,00,00*69
$GPRMC,130748.00,A,4611.964410,N,01258.208127,E,000.3,199.2,061011,0.2,E,A*$GPGGA,130749.00,4611.964475,N,01258.207969,E,1,04,5.6,135.01,M,46.25,M,,*62
$GPGLL,4611.964475,N,01258.207969,E,130749.00,A,A*63
$GPVTG,88.9,T,89.0,M,000.2,N,000.4,K,A*2D
$GPGSV,3,1,09,16,52,301,30,31,08,209,,18,36,134,40,29,24,090,35*7E
$GPGSV,3,2,09,30,28,160,37,21,74,071,36,22,13,171,,03,31,289,*7F
$GPGSV,3,3,09,06,46,291,,,,,,,,,,,,,*4E
$GPGSA,M,3,18,29,30,21,,,,,,,,,8.5,5.6,6.4*30
Trace #108 at position 26.750000
$GPZDA,130749.03,06,10,2011,00,00*68
$GPRMC,130749.00,A,4611.964475,N,01258.207969,E,000.2,88.9,061011,0.2,E,A*01$GPGGA,130750.00,4611.964561,N,01258.207865,E,1,04,5.6,134.73,M,46.25,M,,*67
$GPGLL,4611.964561,N,01258.207865,E,130750.00,A,A*62
$GPVTG,121.3,T,121.4,M,000.1,N,000.2,K,A*27
$GPGSV,3,1,09,16,52,301,30,31,08,209,,18,36,134,39,29,24,090,36*73
$GPGSV,3,2,09,30,28,160,38,21,74,071,36,22,13,171,,03,31,289,*70
$GPGSV,3,3,09,06,46,291,,,,,,,,,,,,,*4E
$GPGSA,M,3,18,29,30,21,,,,,,,,,8.5,5.6,6.4*30
Trace #109 at position 27.000000
$GPZDA,130749.03,06,10,2011,00,00*68
$GPRMC,130749.00,A,4611.964475,N,01258.207969,E,000.2,88.9,061011,0.2,E,A*01$GPGGA,130750.00,4611.964561,N,01258.207865,E,1,04,5.6,134.73,M,46.25,M,,*67
$GPGLL,4611.964561,N,01258.207865,E,130750.00,A,A*62
$GPVTG,121.3,T,121.4,M,000.1,N,000.2,K,A*27
$GPGSV,3,1,09,16,52,301,30,31,08,209,,18,36,134,39,29,24,090,36*73
$GPGSV,3,2,09,30,28,160,38,21,74,071,36,22,13,171,,03,31,289,*70
$GPGSV,3,3,09,06,46,291,,,,,,,,,,,,,*4E
$GPGSA,M,3,18,29,30,21,,,,,,,,,8.5,5.6,6.4*30
Trace #110 at position 27.250000
$GPZDA,130751.03,06,10,2011,00,00*61
$GPRMC,130751.00,A,4611.964689,N,01258.207719,E,000.4,345.0,061011,0.2,E,A*3D
