Trace #1 at position 0.000000
$GPZDA,092408.03,09,10,2011,00,00*68
$GPRMC,092408.00,A,4611.954451,N,01258.231226,E,000.3,2.9,091011,0.2,E,A*32
$GPGGA,092409.00,4611.954506,N,01258.231221,E,1,04,4.1,139.12,M,46.25,M,,*60
$GPGLL,4611.954506,N,01258.231221,E,092409.00,A,A*69
$GPVTG,1.2,T,1.4,M,000.1,N,000.2,K,A*26
$GPGSV,2,1,07,02,36,063,44,12,46,091,45,14,19,242,36,25,78,045,46*70
$GPGSV,2,2,07,29,66,233,40,30,45,297,,31,36,309,33,,,,*40
$GPGSA,M,3,02,12,25,29,,,,,,,,,6.9,4.1,5.6*3A
Trace #2 at position 0.250000
$GPZDA,092410.03,09,10,2011,00,00*61
$GPRMC,092410.00,A,4611.954526,N,01258.231199,E,000.1,288.4,091011,0.2,E,A*32
$GPGGA,092411.00,4611.954507,N,01258.231177,E,1,04,4.1,138.83,M,46.25,M,,*61
$GPGLL,4611.954507,N,01258.231177,E,092411.00,A,A*61
$GPVTG,184.6,T,184.8,M,000.2,N,000.3,K,A*2C
$GPGSV,2,1,07,02,36,063,44,12,46,091,44,14,19,242,38,25,78,045,46*7F
$GPGSV,2,2,07,29,66,233,43,30,45,297,,31,36,309,31,,,,*41
$GPGSA,M,3,02,12,25,29,,,,,,,,,6.9,4.1,5.6*3A
Trace #3 at position 0.500000
$GPZDA,092410.03,09,10,2011,00,00*61
$GPRMC,092410.00,A,4611.954526,N,01258.231199,E,000.1,288.4,091011,0.2,E,A*32
$GPGGA,092411.00,4611.954507,N,01258.231177,E,1,04,4.1,138.83,M,46.25,M,,*61
$GPGLL,4611.954507,N,01258.231177,E,092411.00,A,A*61
$GPVTG,184.6,T,184.8,M,000.2,N,000.3,K,A*2C
$GPGSV,2,1,07,02,36,063,44,12,46,091,44,14,19,242,38,25,78,045,46*7F
$GPGSV,2,2,07,29,66,233,43,30,45,297,,31,36,309,31,,,,*41
$GPGSA,M,3,02,12,25,29,,,,,,,,,6.9,4.1,5.6*3A
Trace #4 at position 0.750000
$GPZDA,092411.03,09,10,2011,00,00*60
$GPRMC,092411.00,A,4611.954507,N,01258.231177,E,000.2,184.6,091011,0.2,E,A*3E
$GPGGA,092412.00,4611.954508,N,01258.231179,E,1,04,4.1,138.73,M,46.25,M,,*6C
$GPGLL,4611.954508,N,01258.231179,E,092412.00,A,A*63
$GPVTG,15.2,T,15.4,M,000.1,N,000.3,K,A*27
$GPGSV,2,1,07,02,36,063,45,12,46,091,44,14,19,242,38,25,78,045,45*7D
$GPGSV,2,2,07,29,66,233,42,30,45,297,,31,36,309,30,,,,*41
$GPGSA,M,3,02,12,25,29,,,,,,,,,6.9,4.1,5.6*3A
Trace #5 at position 1.000000
$GPZDA,092411.03,09,10,2011,00,00*60
$GPRMC,092411.00,A,4611.954507,N,01258.231177,E,000.2,184.6,091011,0.2,E,A*3E
$GPGGA,092412.00,4611.954508,N,01258.231179,E,1,04,4.1,138.73,M,46.25,M,,*6C
$GPGLL,4611.954508,N,01258.231179,E,092412.00,A,A*63
$GPVTG,15.2,T,15.4,M,000.1,N,000.3,K,A*27
$GPGSV,2,1,07,02,36,063,45,12,46,091,44,14,19,242,38,25,78,045,45*7D
$GPGSV,2,2,07,29,66,233,42,30,45,297,,31,36,309,30,,,,*41
$GPGSA,M,3,02,12,25,29,,,,,,,,,6.9,4.1,5.6*3A
Trace #6 at position 1.250000
$GPZDA,092412.03,09,10,2011,00,00*63
$GPRMC,092412.00,A,4611.954508,N,01258.231179,E,000.1,15.2,091011,0.2,E,A*02
$GPGGA,092413.00,4611.954557,N,01258.231139,E,1,04,4.1,138.59,M,46.25,M,,*6B
$GPGLL,4611.954557,N,01258.231139,E,092413.00,A,A*6C
$GPVTG,304.7,T,304.9,M,000.3,N,000.5,K,A*2B
$GPGSV,2,1,07,02,36,063,45,12,46,091,45,14,19,242,37,25,78,045,47*71
$GPGSV,2,2,07,29,66,233,42,30,45,297,,31,36,309,33,,,,*42
$GPGSA,M,3,02,12,25,29,,,,,,,,,6.9,4.1,5.6*3A
Trace #7 at position 1.500000
$GPZDA,092413.03,09,10,2011,00,00*62
$GPRMC,092413.00,A,4611.954557,N,01258.231139,E,000.3,304.7,091011,0.2,E,A*39
$GPGGA,092414.00,4611.954659,N,01258.231156,E,1,04,4.1,138.48,M,46.25,M,,*68
$GPGLL,4611.954659,N,01258.231156,E,092414.00,A,A*6F
$GPVTG,45.0,T,45.1,M,000.6,N,001.1,K,A*24
$GPGSV,2,1,07,02,36,063,45,12,46,091,43,14,19,242,36,25,78,045,44*75
$GPGSV,2,2,07,29,66,233,42,30,45,297,,31,36,309,20,,,,*40
$GPGSA,M,3,02,12,25,29,,,,,,,,,6.9,4.1,5.6*3A
Trace #8 at position 1.750000
$GPZDA,092413.03,09,10,2011,00,00*62
$GPRMC,092413.00,A,4611.954557,N,01258.231139,E,000.3,304.7,091011,0.2,E,A*39
$GPGGA,092414.00,4611.954659,N,01258.231156,E,1,04,4.1,138.48,M,46.25,M,,*68
$GPGLL,4611.954659,N,01258.231156,E,092414.00,A,A*6F
$GPVTG,45.0,T,45.1,M,000.6,N,001.1,K,A*24
$GPGSV,2,1,07,02,36,063,45,12,46,091,43,14,19,242,36,25,78,045,44*75
$GPGSV,2,2,07,29,66,233,42,30,45,297,,31,36,309,20,,,,*40
$GPGSA,M,3,02,12,25,29,,,,,,,,,6.9,4.1,5.6*3A
Trace #9 at position 2.000000
$GPZDA,092414.03,09,10,2011,00,00*65
$GPRMC,092414.00,A,4611.954659,N,01258.231156,E,000.6,45.0,091011,0.2,E,A*0E
$GPGGA,092415.00,4611.954857,N,01258.231239,E,1,04,4.1,138.53,M,46.25,M,,*69
$GPGLL,4611.954857,N,01258.231239,E,092415.00,A,A*64
$GPVTG,18.4,T,18.6,M,000.9,N,001.6,K,A*2F
$GPGSV,2,1,07,02,36,063,43,12,46,091,44,14,19,242,37,25,78,045,48*79
$GPGSV,2,2,07,29,66,233,42,30,45,297,,31,36,309,27,,,,*47
$GPGSA,M,3,02,12,25,29,,,,,,,,,6.9,4.1,5.6*3A
Trace #10 at position 2.250000
$GPZDA,092414.03,09,10,2011,00,00*65
$GPRMC,092414.00,A,4611.954659,N,01258.231156,E,000.6,45.0,091011,0.2,E,A*0E
$GPGGA,092415.00,4611.954857,N,01258.231239,E,1,04,4.1,138.53,M,46.25,M,,*69
$GPGLL,4611.954857,N,01258.231239,E,092415.00,A,A*64
$GPVTG,18.4,T,18.6,M,000.9,N,001.6,K,A*2F
$GPGSV,2,1,07,02,36,063,43,12,46,091,44,14,19,242,37,25,78,045,48*79
$GPGSV,2,2,07,29,66,233,42,30,45,297,,31,36,309,27,,,,*47
$GPGSA,M,3,02,12,25,29,,,,,,,,,6.9,4.1,5.6*3A
Trace #11 at position 2.500000
$GPZDA,092415.03,09,10,2011,00,00*64
$GPRMC,092415.00,A,4611.954857,N,01258.231239,E,000.9,18.4,091011,0.2,E,A*06
$GPGGA,092416.00,4611.955073,N,01258.231319,E,1,05,3.6,138.86,M,46.25,M,,*6F
$GPGLL,4611.955073,N,01258.231319,E,092416.00,A,A*6B
$GPVTG,353.0,T,353.1,M,000.7,N,001.2,K,A*26
$GPGSV,2,1,07,02,36,063,41,12,46,091,42,14,19,242,39,25,78,045,45*7E
$GPGSV,2,2,07,29,66,233,40,30,45,297,,31,36,309,,,,,*40
$GPGSA,M,3,02,12,14,25,29,,,,,,,,4.2,3.6,2.0*37
Trace #12 at position 2.750000
$GPZDA,092415.03,09,10,2011,00,00*64
$GPRMC,092415.00,A,4611.954857,N,01258.231239,E,000.9,18.4,091011,0.2,E,A*06
$GPGGA,092416.00,4611.955073,N,01258.231319,E,1,05,3.6,138.86,M,46.25,M,,*6F
$GPGLL,4611.955073,N,01258.231319,E,092416.00,A,A*6B
$GPVTG,353.0,T,353.1,M,000.7,N,001.2,K,A*26
$GPGSV,2,1,07,02,36,063,41,12,46,091,42,14,19,242,39,25,78,045,45*7E
$GPGSV,2,2,07,29,66,233,40,30,45,297,,31,36,309,,,,,*40
$GPGSA,M,3,02,12,14,25,29,,,,,,,,4.2,3.6,2.0*37
Trace #13 at position 3.000000
$GPZDA,092415.03,09,10,2011,00,00*64
$GPRMC,092415.00,A,4611.954857,N,01258.231239,E,000.9,18.4,091011,0.2,E,A*06
$GPGGA,092416.00,4611.955073,N,01258.231319,E,1,05,3.6,138.86,M,46.25,M,,*6F
$GPGLL,4611.955073,N,01258.231319,E,092416.00,A,A*6B
$GPVTG,353.0,T,353.1,M,000.7,N,001.2,K,A*26
$GPGSV,2,1,07,02,36,063,41,12,46,091,42,14,19,242,39,25,78,045,45*7E
$GPGSV,2,2,07,29,66,233,40,30,45,297,,31,36,309,,,,,*40
$GPGSA,M,3,02,12,14,25,29,,,,,,,,4.2,3.6,2.0*37
Trace #14 at position 3.250000
$GPZDA,092416.03,09,10,2011,00,00*67
$GPRMC,092416.00,A,4611.955073,N,01258.231319,E,000.7,353.0,091011,0.2,E,A*3F
$GPGGA,092417.00,4611.955322,N,01258.231403,E,1,05,3.6,139.08,M,46.25,M,,*62
$GPGLL,4611.955322,N,01258.231403,E,092417.00,A,A*61
$GPVTG,20.7,T,20.9,M,001.1,N,002.0,K,A*2F
$GPGSV,2,1,07,02,36,063,42,12,46,091,42,14,19,242,38,25,78,045,45*7C
$GPGSV,2,2,07,29,66,233,41,30,45,297,,31,36,309,,,,,*41
$GPGSA,M,3,02,12,14,25,29,,,,,,,,4.2,3.6,2.0*37
Trace #15 at position 3.500000
$GPZDA,092416.03,09,10,2011,00,00*67
$GPRMC,092416.00,A,4611.955073,N,01258.231319,E,000.7,353.0,091011,0.2,E,A*3F
$GPGGA,092417.00,4611.955322,N,01258.231403,E,1,05,3.6,139.08,M,46.25,M,,*62
$GPGLL,4611.955322,N,01258.231403,E,092417.00,A,A*61
$GPVTG,20.7,T,20.9,M,001.1,N,002.0,K,A*2F
$GPGSV,2,1,07,02,36,063,42,12,46,091,42,14,19,242,38,25,78,045,45*7C
$GPGSV,2,2,07,29,66,233,41,30,45,297,,31,36,309,,,,,*41
$GPGSA,M,3,02,12,14,25,29,,,,,,,,4.2,3.6,2.0*37
Trace #16 at position 3.750000
$GPZDA,092416.03,09,10,2011,00,00*67
$GPRMC,092416.00,A,4611.955073,N,01258.231319,E,000.7,353.0,091011,0.2,E,A*3F
$GPGGA,092417.00,4611.955322,N,01258.231403,E,1,05,3.6,139.08,M,46.25,M,,*62
$GPGLL,4611.955322,N,01258.231403,E,092417.00,A,A*61
$GPVTG,20.7,T,20.9,M,001.1,N,002.0,K,A*2F
$GPGSV,2,1,07,02,36,063,42,12,46,091,42,14,19,242,38,25,78,045,45*7C
$GPGSV,2,2,07,29,66,233,41,30,45,297,,31,36,309,,,,,*41
$GPGSA,M,3,02,12,14,25,29,,,,,,,,4.2,3.6,2.0*37
Trace #17 at position 4.000000
$GPZDA,092417.03,09,10,2011,00,00*66
$GPRMC,092417.00,A,4611.955322,N,01258.231403,E,001.1,20.7,091011,0.2,E,A*02
$GPGGA,092418.00,4611.955617,N,01258.231375,E,1,05,3.6,139.32,M,46.25,M,,*61
$GPGLL,4611.955617,N,01258.231375,E,092418.00,A,A*6B
$GPVTG,330.0,T,330.1,M,001.2,N,002.1,K,A*22
$GPGSV,2,1,07,02,36,063,43,12,46,091,42,14,19,242,40,25,78,045,46*71
$GPGSV,2,2,07,29,66,233,41,30,45,297,,31,36,309,,,,,*41
$GPGSA,M,3,02,12,14,25,29,,,,,,,,4.2,3.6,2.0*37
Trace #18 at position 4.250000
$GPZDA,092417.03,09,10,2011,00,00*66
$GPRMC,092417.00,A,4611.955322,N,01258.231403,E,001.1,20.7,091011,0.2,E,A*02
$GPGGA,092418.00,4611.955617,N,01258.231375,E,1,05,3.6,139.32,M,46.25,M,,*61
$GPGLL,4611.955617,N,01258.231375,E,092418.00,A,A*6B
$GPVTG,330.0,T,330.1,M,001.2,N,002.1,K,A*22
$GPGSV,2,1,07,02,36,063,43,12,46,091,42,14,19,242,40,25,78,045,46*71
$GPGSV,2,2,07,29,66,233,41,30,45,297,,31,36,309,,,,,*41
$GPGSA,M,3,02,12,14,25,29,,,,,,,,4.2,3.6,2.0*37
Trace #19 at position 4.500000
$GPZDA,092417.03,09,10,2011,00,00*66
$GPRMC,092417.00,A,4611.955322,N,01258.231403,E,001.1,20.7,091011,0.2,E,A*02
$GPGGA,092418.00,4611.955617,N,01258.231375,E,1,05,3.6,139.32,M,46.25,M,,*61
$GPGLL,4611.955617,N,01258.231375,E,092418.00,A,A*6B
$GPVTG,330.0,T,330.1,M,001.2,N,002.1,K,A*22
$GPGSV,2,1,07,02,36,063,43,12,46,091,42,14,19,242,40,25,78,045,46*71
$GPGSV,2,2,07,29,66,233,41,30,45,297,,31,36,309,,,,,*41
$GPGSA,M,3,02,12,14,25,29,,,,,,,,4.2,3.6,2.0*37
Trace #20 at position 4.750000
$GPZDA,092418.03,09,10,2011,00,00*69
$GPRMC,092418.00,A,4611.955617,N,01258.231375,E,001.2,330.0,091011,0.2,E,A*3E
$GPGGA,092419.00,4611.955974,N,01258.231135,E,1,05,3.6,139.54,M,46.25,M,,*6C
$GPGLL,4611.955974,N,01258.231135,E,092419.00,A,A*66
$GPVTG,333.3,T,333.5,M,001.7,N,003.1,K,A*21
$GPGSV,2,1,07,02,36,063,43,12,46,091,43,14,19,242,39,25,78,045,47*7F
$GPGSV,2,2,07,29,66,233,41,30,45,297,,31,36,309,,,,,*41
$GPGSA,M,3,02,12,14,25,29,,,,,,,,4.2,3.6,2.0*37
Trace #21 at position 5.000000
$GPZDA,092418.03,09,10,2011,00,00*69
$GPRMC,092418.00,A,4611.955617,N,01258.231375,E,001.2,330.0,091011,0.2,E,A*3E
$GPGGA,092419.00,4611.955974,N,01258.231135,E,1,05,3.6,139.54,M,46.25,M,,*6C
$GPGLL,4611.955974,N,01258.231135,E,092419.00,A,A*66
$GPVTG,333.3,T,333.5,M,001.7,N,003.1,K,A*21
$GPGSV,2,1,07,02,36,063,43,12,46,091,43,14,19,242,39,25,78,045,47*7F
$GPGSV,2,2,07,29,66,233,41,30,45,297,,31,36,309,,,,,*41
$GPGSA,M,3,02,12,14,25,29,,,,,,,,4.2,3.6,2.0*37
Trace #22 at position 5.250000
$GPZDA,092418.03,09,10,2011,00,00*69
$GPRMC,092418.00,A,4611.955617,N,01258.231375,E,001.2,330.0,091011,0.2,E,A*3E
$GPGGA,092419.00,4611.955974,N,01258.231135,E,1,05,3.6,139.54,M,46.25,M,,*6C
$GPGLL,4611.955974,N,01258.231135,E,092419.00,A,A*66
$GPVTG,333.3,T,333.5,M,001.7,N,003.1,K,A*21
$GPGSV,2,1,07,02,36,063,43,12,46,091,43,14,19,242,39,25,78,045,47*7F
$GPGSV,2,2,07,29,66,233,41,30,45,297,,31,36,309,,,,,*41
$GPGSA,M,3,02,12,14,25,29,,,,,,,,4.2,3.6,2.0*37
Trace #23 at position 5.500000
$GPZDA,092419.03,09,10,2011,00,00*68
$GPRMC,092419.00,A,4611.955974,N,01258.231135,E,001.7,333.3,091011,0.2,E,A*36
$GPGGA,092420.00,4611.956376,N,01258.230978,E,1,05,3.6,139.73,M,46.25,M,,*68
$GPGLL,4611.956376,N,01258.230978,E,092420.00,A,A*67
$GPVTG,352.3,T,352.5,M,001.4,N,002.6,K,A*24
$GPGSV,2,1,07,02,36,063,43,12,46,091,44,14,19,242,39,25,78,045,46*79
$GPGSV,2,2,07,29,66,233,43,30,45,297,,31,36,309,,,,,*43
$GPGSA,M,3,02,12,14,25,29,,,,,,,,4.2,3.6,2.0*37
Trace #24 at position 5.750000
$GPZDA,092419.03,09,10,2011,00,00*68
$GPRMC,092419.00,A,4611.955974,N,01258.231135,E,001.7,333.3,091011,0.2,E,A*36
$GPGGA,092420.00,4611.956376,N,01258.230978,E,1,05,3.6,139.73,M,46.25,M,,*68
$GPGLL,4611.956376,N,01258.230978,E,092420.00,A,A*67
$GPVTG,352.3,T,352.5,M,001.4,N,002.6,K,A*24
$GPGSV,2,1,07,02,36,063,43,12,46,091,44,14,19,242,39,25,78,045,46*79
$GPGSV,2,2,07,29,66,233,43,30,45,297,,31,36,309,,,,,*43
$GPGSA,M,3,02,12,14,25,29,,,,,,,,4.2,3.6,2.0*37
Trace #25 at position 6.000000
$GPZDA,092419.03,09,10,2011,00,00*68
$GPRMC,092419.00,A,4611.955974,N,01258.231135,E,001.7,333.3,091011,0.2,E,A*36
$GPGGA,092420.00,4611.956376,N,01258.230978,E,1,05,3.6,139.73,M,46.25,M,,*68
$GPGLL,4611.956376,N,01258.230978,E,092420.00,A,A*67
$GPVTG,352.3,T,352.5,M,001.4,N,002.6,K,A*24
$GPGSV,2,1,07,02,36,063,43,12,46,091,44,14,19,242,39,25,78,045,46*79
$GPGSV,2,2,07,29,66,233,43,30,45,297,,31,36,309,,,,,*43
$GPGSA,M,3,02,12,14,25,29,,,,,,,,4.2,3.6,2.0*37
Trace #26 at position 6.250000
$GPZDA,092420.03,09,10,2011,00,00*62
$GPRMC,092420.00,A,4611.956376,N,01258.230978,E,001.4,352.3,091011,0.2,E,A*33
$GPGGA,092421.00,4611.956679,N,01258.230949,E,1,05,3.6,139.91,M,46.25,M,,*6D
$GPGLL,4611.956679,N,01258.230949,E,092421.00,A,A*6E
$GPVTG,358.7,T,358.8,M,000.7,N,001.3,K,A*29
$GPGSV,2,1,07,02,36,063,44,12,46,091,41,14,19,242,38,25,78,045,44*78
$GPGSV,2,2,07,29,66,233,43,30,45,297,,31,36,309,,,,,*43
$GPGSA,M,3,02,12,14,25,29,,,,,,,,4.2,3.6,2.0*37
Trace #27 at position 6.500000
$GPZDA,092420.03,09,10,2011,00,00*62
$GPRMC,092420.00,A,4611.956376,N,01258.230978,E,001.4,352.3,091011,0.2,E,A*33
$GPGGA,092421.00,4611.956679,N,01258.230949,E,1,05,3.6,139.91,M,46.25,M,,*6D
$GPGLL,4611.956679,N,01258.230949,E,092421.00,A,A*6E
$GPVTG,358.7,T,358.8,M,000.7,N,001.3,K,A*29
$GPGSV,2,1,07,02,36,063,44,12,46,091,41,14,19,242,38,25,78,045,44*78
$GPGSV,2,2,07,29,66,233,43,30,45,297,,31,36,309,,,,,*43
$GPGSA,M,3,02,12,14,25,29,,,,,,,,4.2,3.6,2.0*37
Trace #28 at position 6.750000
$GPZDA,092420.03,09,10,2011,00,00*62
$GPRMC,092420.00,A,4611.956376,N,01258.230978,E,001.4,352.3,091011,0.2,E,A*33
$GPGGA,092421.00,4611.956679,N,01258.230949,E,1,05,3.6,139.91,M,46.25,M,,*6D
$GPGLL,4611.956679,N,01258.230949,E,092421.00,A,A*6E
$GPVTG,358.7,T,358.8,M,000.7,N,001.3,K,A*29
$GPGSV,2,1,07,02,36,063,44,12,46,091,41,14,19,242,38,25,78,045,44*78
$GPGSV,2,2,07,29,66,233,43,30,45,297,,31,36,309,,,,,*43
$GPGSA,M,3,02,12,14,25,29,,,,,,,,4.2,3.6,2.0*37
Trace #29 at position 7.000000
$GPZDA,092421.03,09,10,2011,00,00*63
$GPRMC,092421.00,A,4611.956679,N,01258.230949,E,000.7,358.7,091011,0.2,E,A*36
$GPGGA,092422.00,4611.956931,N,01258.230835,E,1,05,3.6,140.10,M,46.25,M,,*60
$GPGLL,4611.956931,N,01258.230835,E,092422.00,A,A*64
$GPVTG,328.7,T,328.9,M,001.1,N,002.1,K,A*2E
$GPGSV,2,1,07,02,35,063,44,12,46,091,43,14,19,242,38,25,78,045,45*78
$GPGSV,2,2,07,29,66,233,42,30,45,297,,31,36,309,,,,,*42
$GPGSA,M,3,02,12,14,25,29,,,,,,,,4.1,3.6,2.0*34
Trace #30 at position 7.250000
$GPZDA,092421.03,09,10,2011,00,00*63
$GPRMC,092421.00,A,4611.956679,N,01258.230949,E,000.7,358.7,091011,0.2,E,A*36
$GPGGA,092422.00,4611.956931,N,01258.230835,E,1,05,3.6,140.10,M,46.25,M,,*60
$GPGLL,4611.956931,N,01258.230835,E,092422.00,A,A*64
$GPVTG,328.7,T,328.9,M,001.1,N,002.1,K,A*2E
$GPGSV,2,1,07,02,35,063,44,12,46,091,43,14,19,242,38,25,78,045,45*78
$GPGSV,2,2,07,29,66,233,42,30,45,297,,31,36,309,,,,,*42
$GPGSA,M,3,02,12,14,25,29,,,,,,,,4.1,3.6,2.0*34
Trace #31 at position 7.500000
$GPZDA,092421.03,09,10,2011,00,00*63
$GPRMC,092421.00,A,4611.956679,N,01258.230949,E,000.7,358.7,091011,0.2,E,A*36
$GPGGA,092422.00,4611.956931,N,01258.230835,E,1,05,3.6,140.10,M,46.25,M,,*60
$GPGLL,4611.956931,N,01258.230835,E,092422.00,A,A*64
$GPVTG,328.7,T,328.9,M,001.1,N,002.1,K,A*2E
$GPGSV,2,1,07,02,35,063,44,12,46,091,43,14,19,242,38,25,78,045,45*78
$GPGSV,2,2,07,29,66,233,42,30,45,297,,31,36,309,,,,,*42
$GPGSA,M,3,02,12,14,25,29,,,,,,,,4.1,3.6,2.0*34
Trace #32 at position 7.750000
$GPZDA,092422.03,09,10,2011,00,00*60
$GPRMC,092422.00,A,4611.956931,N,01258.230835,E,001.1,328.7,091011,0.2,E,A*3C
$GPGGA,092423.00,4611.957276,N,01258.230658,E,1,05,3.6,140.26,M,46.25,M,,*68
$GPGLL,4611.957276,N,01258.230658,E,092423.00,A,A*69
$GPVTG,346.2,T,346.4,M,001.4,N,002.6,K,A*24
$GPGSV,2,1,07,02,35,063,43,12,46,091,42,14,19,242,39,25,78,045,45*7F
$GPGSV,2,2,07,29,66,233,42,30,45,297,33,31,36,309,,,,,*42
$GPGSA,M,3,02,12,14,25,29,,,,,,,,4.1,3.6,2.0*34
Trace #33 at position 8.000000
$GPZDA,092422.03,09,10,2011,00,00*60
$GPRMC,092422.00,A,4611.956931,N,01258.230835,E,001.1,328.7,091011,0.2,E,A*3C
$GPGGA,092423.00,4611.957276,N,01258.230658,E,1,05,3.6,140.26,M,46.25,M,,*68
$GPGLL,4611.957276,N,01258.230658,E,092423.00,A,A*69
$GPVTG,346.2,T,346.4,M,001.4,N,002.6,K,A*24
$GPGSV,2,1,07,02,35,063,43,12,46,091,42,14,19,242,39,25,78,045,45*7F
$GPGSV,2,2,07,29,66,233,42,30,45,297,33,31,36,309,,,,,*42
$GPGSA,M,3,02,12,14,25,29,,,,,,,,4.1,3.6,2.0*34
Trace #34 at position 8.250000
$GPZDA,092422.03,09,10,2011,00,00*60
$GPRMC,092422.00,A,4611.956931,N,01258.230835,E,001.1,328.7,091011,0.2,E,A*3C
$GPGGA,092423.00,4611.957276,N,01258.230658,E,1,05,3.6,140.26,M,46.25,M,,*68
$GPGLL,4611.957276,N,01258.230658,E,092423.00,A,A*69
$GPVTG,346.2,T,346.4,M,001.4,N,002.6,K,A*24
$GPGSV,2,1,07,02,35,063,43,12,46,091,42,14,19,242,39,25,78,045,45*7F
$GPGSV,2,2,07,29,66,233,42,30,45,297,33,31,36,309,,,,,*42
$GPGSA,M,3,02,12,14,25,29,,,,,,,,4.1,3.6,2.0*34
Trace #35 at position 8.500000
$GPZDA,092422.03,09,10,2011,00,00*60
$GPRMC,092422.00,A,4611.956931,N,01258.230835,E,001.1,328.7,091011,0.2,E,A*3C
$GPGGA,092423.00,4611.957276,N,01258.230658,E,1,05,3.6,140.26,M,46.25,M,,*68
$GPGLL,4611.957276,N,01258.230658,E,092423.00,A,A*69
$GPVTG,346.2,T,346.4,M,001.4,N,002.6,K,A*24
$GPGSV,2,1,07,02,35,063,43,12,46,091,42,14,19,242,39,25,78,045,45*7F
$GPGSV,2,2,07,29,66,233,42,30,45,297,33,31,36,309,,,,,*42
$GPGSA,M,3,02,12,14,25,29,,,,,,,,4.1,3.6,2.0*34
Trace #36 at position 8.750000
$GPZDA,092423.03,09,10,2011,00,00*61
$GPRMC,092423.00,A,4611.957276,N,01258.230658,E,001.4,346.2,091011,0.2,E,A*39
$GPGGA,092424.00,4611.957748,N,01258.230533,E,1,05,3.6,140.37,M,46.25,M,,*69
$GPGLL,4611.957748,N,01258.230533,E,092424.00,A,A*68
$GPVTG,351.2,T,351.3,M,002.0,N,003.7,K,A*24
$GPGSV,2,1,07,02,35,063,43,12,46,091,42,14,19,242,39,25,78,045,46*7C
$GPGSV,2,2,07,29,66,233,42,30,45,297,,31,36,309,,,,,*42
$GPGSA,M,3,02,12,14,25,29,,,,,,,,4.1,3.6,2.0*34
Trace #37 at position 9.000000
$GPZDA,092423.03,09,10,2011,00,00*61
$GPRMC,092423.00,A,4611.957276,N,01258.230658,E,001.4,346.2,091011,0.2,E,A*39
$GPGGA,092424.00,4611.957748,N,01258.230533,E,1,05,3.6,140.37,M,46.25,M,,*69
$GPGLL,4611.957748,N,01258.230533,E,092424.00,A,A*68
$GPVTG,351.2,T,351.3,M,002.0,N,003.7,K,A*24
$GPGSV,2,1,07,02,35,063,43,12,46,091,42,14,19,242,39,25,78,045,46*7C
$GPGSV,2,2,07,29,66,233,42,30,45,297,,31,36,309,,,,,*42
$GPGSA,M,3,02,12,14,25,29,,,,,,,,4.1,3.6,2.0*34
Trace #38 at position 9.250000
$GPZDA,092423.03,09,10,2011,00,00*61
$GPRMC,092423.00,A,4611.957276,N,01258.230658,E,001.4,346.2,091011,0.2,E,A*39
$GPGGA,092424.00,4611.957748,N,01258.230533,E,1,05,3.6,140.37,M,46.25,M,,*69
$GPGLL,4611.957748,N,01258.230533,E,092424.00,A,A*68
$GPVTG,351.2,T,351.3,M,002.0,N,003.7,K,A*24
$GPGSV,2,1,07,02,35,063,43,12,46,091,42,14,19,242,39,25,78,045,46*7C
$GPGSV,2,2,07,29,66,233,42,30,45,297,,31,36,309,,,,,*42
$GPGSA,M,3,02,12,14,25,29,,,,,,,,4.1,3.6,2.0*34
Trace #39 at position 9.500000
$GPZDA,092424.03,09,10,2011,00,00*66
$GPRMC,092424.00,A,4611.957748,N,01258.230533,E,002.0,351.2,091011,0.2,E,A*39
$GPGGA,092425.00,4611.958163,N,01258.230368,E,1,05,3.6,140.46,M,46.25,M,,*66
$GPGLL,4611.958163,N,01258.230368,E,092425.00,A,A*61
$GPVTG,332.6,T,332.7,M,001.1,N,002.1,K,A*21
$GPGSV,2,1,07,02,35,063,43,12,46,091,41,14,19,242,40,25,78,045,46*71
$GPGSV,2,2,07,29,66,233,42,30,45,297,31,31,36,309,,,,,*40
$GPGSA,M,3,02,12,14,25,29,,,,,,,,4.1,3.6,2.0*34
Trace #40 at position 9.750000
$GPZDA,092424.03,09,10,2011,00,00*66
$GPRMC,092424.00,A,4611.957748,N,01258.230533,E,002.0,351.2,091011,0.2,E,A*39
$GPGGA,092425.00,4611.958163,N,01258.230368,E,1,05,3.6,140.46,M,46.25,M,,*66
$GPGLL,4611.958163,N,01258.230368,E,092425.00,A,A*61
$GPVTG,332.6,T,332.7,M,001.1,N,002.1,K,A*21
$GPGSV,2,1,07,02,35,063,43,12,46,091,41,14,19,242,40,25,78,045,46*71
$GPGSV,2,2,07,29,66,233,42,30,45,297,31,31,36,309,,,,,*40
$GPGSA,M,3,02,12,14,25,29,,,,,,,,4.1,3.6,2.0*34
Trace #41 at position 10.000000
$GPZDA,092424.03,09,10,2011,00,00*66
$GPRMC,092424.00,A,4611.957748,N,01258.230533,E,002.0,351.2,091011,0.2,E,A*39
$GPGGA,092425.00,4611.958163,N,01258.230368,E,1,05,3.6,140.46,M,46.25,M,,*66
$GPGLL,4611.958163,N,01258.230368,E,092425.00,A,A*61
$GPVTG,332.6,T,332.7,M,001.1,N,002.1,K,A*21
$GPGSV,2,1,07,02,35,063,43,12,46,091,41,14,19,242,40,25,78,045,46*71
$GPGSV,2,2,07,29,66,233,42,30,45,297,31,31,36,309,,,,,*40
$GPGSA,M,3,02,12,14,25,29,,,,,,,,4.1,3.6,2.0*34
Trace #42 at position 10.250000
$GPZDA,092425.03,09,10,2011,00,00*67
$GPRMC,092425.00,A,4611.958163,N,01258.230368,E,001.1,332.6,091011,0.2,E,A*33
$GPGGA,092426.00,4611.958599,N,01258.230258,E,1,05,3.6,140.51,M,46.25,M,,*60
$GPGLL,4611.958599,N,01258.230258,E,092426.00,A,A*61
$GPVTG,0.7,T,0.9,M,002.1,N,003.8,K,A*25
$GPGSV,2,1,07,02,35,063,42,12,46,091,41,14,19,242,39,25,78,045,46*7E
$GPGSV,2,2,07,29,66,233,42,30,45,297,28,31,37,309,,,,,*49
$GPGSA,M,3,02,12,14,25,29,,,,,,,,4.1,3.6,2.0*34
Trace #43 at position 10.500000
$GPZDA,092425.03,09,10,2011,00,00*67
$GPRMC,092425.00,A,4611.958163,N,01258.230368,E,001.1,332.6,091011,0.2,E,A*33
$GPGGA,092426.00,4611.958599,N,01258.230258,E,1,05,3.6,140.51,M,46.25,M,,*60
$GPGLL,4611.958599,N,01258.230258,E,092426.00,A,A*61
$GPVTG,0.7,T,0.9,M,002.1,N,003.8,K,A*25
$GPGSV,2,1,07,02,35,063,42,12,46,091,41,14,19,242,39,25,78,045,46*7E
$GPGSV,2,2,07,29,66,233,42,30,45,297,28,31,37,309,,,,,*49
$GPGSA,M,3,02,12,14,25,29,,,,,,,,4.1,3.6,2.0*34
Trace #44 at position 10.750000
$GPZDA,092425.03,09,10,2011,00,00*67
$GPRMC,092425.00,A,4611.958163,N,01258.230368,E,001.1,332.6,091011,0.2,E,A*33
$GPGGA,092426.00,4611.958599,N,01258.230258,E,1,05,3.6,140.51,M,46.25,M,,*60
$GPGLL,4611.958599,N,01258.230258,E,092426.00,A,A*61
$GPVTG,0.7,T,0.9,M,002.1,N,003.8,K,A*25
$GPGSV,2,1,07,02,35,063,42,12,46,091,41,14,19,242,39,25,78,045,46*7E
$GPGSV,2,2,07,29,66,233,42,30,45,297,28,31,37,309,,,,,*49
$GPGSA,M,3,02,12,14,25,29,,,,,,,,4.1,3.6,2.0*34
Trace #45 at position 11.000000
$GPZDA,092425.03,09,10,2011,00,00*67
$GPRMC,092425.00,A,4611.958163,N,01258.230368,E,001.1,332.6,091011,0.2,E,A*33
$GPGGA,092426.00,4611.958599,N,01258.230258,E,1,05,3.6,140.51,M,46.25,M,,*60
$GPGLL,4611.958599,N,01258.230258,E,092426.00,A,A*61
$GPVTG,0.7,T,0.9,M,002.1,N,003.8,K,A*25
$GPGSV,2,1,07,02,35,063,42,12,46,091,41,14,19,242,39,25,78,045,46*7E
$GPGSV,2,2,07,29,66,233,42,30,45,297,28,31,37,309,,,,,*49
$GPGSA,M,3,02,12,14,25,29,,,,,,,,4.1,3.6,2.0*34
Trace #46 at position 11.250000
$GPZDA,092426.03,09,10,2011,00,00*64
$GPRMC,092426.00,A,4611.958599,N,01258.230258,E,002.1,0.7,091011,0.2,E,A*33
$GPGGA,092427.00,4611.959057,N,01258.230055,E,1,05,3.6,140.58,M,46.25,M,,*61
$GPGLL,4611.959057,N,01258.230055,E,092427.00,A,A*69
$GPVTG,320.4,T,320.5,M,001.6,N,002.9,K,A*2E
$GPGSV,2,1,07,02,35,063,44,12,46,091,43,14,19,242,40,25,78,045,47*75
$GPGSV,2,2,07,29,66,233,43,30,45,297,31,31,37,309,,,,,*40
$GPGSA,M,3,02,12,14,25,29,,,,,,,,4.1,3.6,2.0*34
Trace #47 at position 11.500000
$GPZDA,092426.03,09,10,2011,00,00*64
$GPRMC,092426.00,A,4611.958599,N,01258.230258,E,002.1,0.7,091011,0.2,E,A*33
$GPGGA,092427.00,4611.959057,N,01258.230055,E,1,05,3.6,140.58,M,46.25,M,,*61
$GPGLL,4611.959057,N,01258.230055,E,092427.00,A,A*69
$GPVTG,320.4,T,320.5,M,001.6,N,002.9,K,A*2E
$GPGSV,2,1,07,02,35,063,44,12,46,091,43,14,19,242,40,25,78,045,47*75
$GPGSV,2,2,07,29,66,233,43,30,45,297,31,31,37,309,,,,,*40
$GPGSA,M,3,02,12,14,25,29,,,,,,,,4.1,3.6,2.0*34
Trace #48 at position 11.750000
$GPZDA,092426.03,09,10,2011,00,00*64
$GPRMC,092426.00,A,4611.958599,N,01258.230258,E,002.1,0.7,091011,0.2,E,A*33
$GPGGA,092427.00,4611.959057,N,01258.230055,E,1,05,3.6,140.58,M,46.25,M,,*61
$GPGLL,4611.959057,N,01258.230055,E,092427.00,A,A*69
$GPVTG,320.4,T,320.5,M,001.6,N,002.9,K,A*2E
$GPGSV,2,1,07,02,35,063,44,12,46,091,43,14,19,242,40,25,78,045,47*75
$GPGSV,2,2,07,29,66,233,43,30,45,297,31,31,37,309,,,,,*40
$GPGSA,M,3,02,12,14,25,29,,,,,,,,4.1,3.6,2.0*34
Trace #49 at position 12.000000
$GPZDA,092427.03,09,10,2011,00,00*65
$GPRMC,092427.00,A,4611.959057,N,01258.230055,E,001.6,320.4,091011,0.2,E,A*3D
$GPGGA,092428.00,4611.959566,N,01258.229674,E,1,05,3.6,140.67,M,46.25,M,,*68
$GPGLL,4611.959566,N,01258.229674,E,092428.00,A,A*6C
$GPVTG,338.4,T,338.5,M,002.6,N,004.8,K,A*2A
$GPGSV,2,1,07,02,35,063,44,12,46,091,42,14,19,242,37,25,78,045,46*75
$GPGSV,2,2,07,29,66,233,41,30,45,297,24,31,37,309,,,,,*46
$GPGSA,M,3,02,12,14,25,29,,,,,,,,4.1,3.6,2.0*34
Trace #50 at position 12.250000
$GPZDA,092427.03,09,10,2011,00,00*65
$GPRMC,092427.00,A,4611.959057,N,01258.230055,E,001.6,320.4,091011,0.2,E,A*3D
$GPGGA,092428.00,4611.959566,N,01258.229674,E,1,05,3.6,140.67,M,46.25,M,,*68
$GPGLL,4611.959566,N,01258.229674,E,092428.00,A,A*6C
$GPVTG,338.4,T,338.5,M,002.6,N,004.8,K,A*2A
$GPGSV,2,1,07,02,35,063,44,12,46,091,42,14,19,242,37,25,78,045,46*75
$GPGSV,2,2,07,29,66,233,41,30,45,297,24,31,37,309,,,,,*46
$GPGSA,M,3,02,12,14,25,29,,,,,,,,4.1,3.6,2.0*34
Trace #51 at position 12.500000
$GPZDA,092427.03,09,10,2011,00,00*65
$GPRMC,092427.00,A,4611.959057,N,01258.230055,E,001.6,320.4,091011,0.2,E,A*3D
$GPGGA,092428.00,4611.959566,N,01258.229674,E,1,05,3.6,140.67,M,46.25,M,,*68
$GPGLL,4611.959566,N,01258.229674,E,092428.00,A,A*6C
$GPVTG,338.4,T,338.5,M,002.6,N,004.8,K,A*2A
$GPGSV,2,1,07,02,35,063,44,12,46,091,42,14,19,242,37,25,78,045,46*75
$GPGSV,2,2,07,29,66,233,41,30,45,297,24,31,37,309,,,,,*46
$GPGSA,M,3,02,12,14,25,29,,,,,,,,4.1,3.6,2.0*34
Trace #52 at position 12.750000
$GPZDA,092428.03,09,10,2011,00,00*6A
$GPRMC,092428.00,A,4611.959566,N,01258.229674,E,002.6,338.4,091011,0.2,E,A*32
$GPGGA,092429.00,4611.960029,N,01258.229396,E,1,05,3.6,140.77,M,46.25,M,,*65
$GPGLL,4611.960029,N,01258.229396,E,092429.00,A,A*60
$GPVTG,329.7,T,329.9,M,001.1,N,002.1,K,A*2E
$GPGSV,2,1,07,02,35,063,44,12,46,091,44,14,19,242,39,25,78,045,47*7C
$GPGSV,2,2,07,29,66,233,42,30,45,297,27,31,37,309,,,,,*46
$GPGSA,M,3,02,12,14,25,29,,,,,,,,4.1,3.6,2.0*34
Trace #53 at position 13.000000
$GPZDA,092428.03,09,10,2011,00,00*6A
$GPRMC,092428.00,A,4611.959566,N,01258.229674,E,002.6,338.4,091011,0.2,E,A*32
$GPGGA,092429.00,4611.960029,N,01258.229396,E,1,05,3.6,140.77,M,46.25,M,,*65
$GPGLL,4611.960029,N,01258.229396,E,092429.00,A,A*60
$GPVTG,329.7,T,329.9,M,001.1,N,002.1,K,A*2E
$GPGSV,2,1,07,02,35,063,44,12,46,091,44,14,19,242,39,25,78,045,47*7C
$GPGSV,2,2,07,29,66,233,42,30,45,297,27,31,37,309,,,,,*46
$GPGSA,M,3,02,12,14,25,29,,,,,,,,4.1,3.6,2.0*34
Trace #54 at position 13.250000
$GPZDA,092428.03,09,10,2011,00,00*6A
$GPRMC,092428.00,A,4611.959566,N,01258.229674,E,002.6,338.4,091011,0.2,E,A*32
$GPGGA,092429.00,4611.960029,N,01258.229396,E,1,05,3.6,140.77,M,46.25,M,,*65
$GPGLL,4611.960029,N,01258.229396,E,092429.00,A,A*60
$GPVTG,329.7,T,329.9,M,001.1,N,002.1,K,A*2E
$GPGSV,2,1,07,02,35,063,44,12,46,091,44,14,19,242,39,25,78,045,47*7C
$GPGSV,2,2,07,29,66,233,42,30,45,297,27,31,37,309,,,,,*46
$GPGSA,M,3,02,12,14,25,29,,,,,,,,4.1,3.6,2.0*34
Trace #55 at position 13.500000
$GPZDA,092429.03,09,10,2011,00,00*6B
$GPRMC,092429.00,A,4611.960029,N,01258.229396,E,001.1,329.7,091011,0.2,E,A*39
$GPGGA,092430.00,4611.960363,N,01258.229207,E,1,05,3.6,140.87,M,46.25,M,,*66
$GPGLL,4611.960363,N,01258.229207,E,092430.00,A,A*6C
$GPVTG,340.2,T,340.4,M,001.5,N,002.8,K,A*2B
$GPGSV,2,1,07,02,35,063,44,12,46,091,42,14,19,242,39,25,78,046,46*78
$GPGSV,2,2,07,29,66,233,42,30,45,297,31,31,37,309,,,,,*41
$GPGSA,M,3,02,12,14,25,29,,,,,,,,4.1,3.6,2.0*34
Trace #56 at position 13.750000
$GPZDA,092429.03,09,10,2011,00,00*6B
$GPRMC,092429.00,A,4611.960029,N,01258.229396,E,001.1,329.7,091011,0.2,E,A*39
$GPGGA,092430.00,4611.960363,N,01258.229207,E,1,05,3.6,140.87,M,46.25,M,,*66
$GPGLL,4611.960363,N,01258.229207,E,092430.00,A,A*6C
$GPVTG,340.2,T,340.4,M,001.5,N,002.8,K,A*2B
$GPGSV,2,1,07,02,35,063,44,12,46,091,42,14,19,242,39,25,78,046,46*78
$GPGSV,2,2,07,29,66,233,42,30,45,297,31,31,37,309,,,,,*41
$GPGSA,M,3,02,12,14,25,29,,,,,,,,4.1,3.6,2.0*34
Trace #57 at position 14.000000
$GPZDA,092429.03,09,10,2011,00,00*6B
$GPRMC,092429.00,A,4611.960029,N,01258.229396,E,001.1,329.7,091011,0.2,E,A*39
$GPGGA,092430.00,4611.960363,N,01258.229207,E,1,05,3.6,140.87,M,46.25,M,,*66
$GPGLL,4611.960363,N,01258.229207,E,092430.00,A,A*6C
$GPVTG,340.2,T,340.4,M,001.5,N,002.8,K,A*2B
$GPGSV,2,1,07,02,35,063,44,12,46,091,42,14,19,242,39,25,78,046,46*78
$GPGSV,2,2,07,29,66,233,42,30,45,297,31,31,37,309,,,,,*41
$GPGSA,M,3,02,12,14,25,29,,,,,,,,4.1,3.6,2.0*34
Trace #58 at position 14.250000
$GPZDA,092430.03,09,10,2011,00,00*63
$GPRMC,092430.00,A,4611.960363,N,01258.229207,E,001.5,340.2,091011,0.2,E,A*3B
$GPGGA,092431.00,4611.960728,N,01258.229169,E,1,05,3.6,140.88,M,46.25,M,,*68
$GPGLL,4611.960728,N,01258.229169,E,092431.00,A,A*6D
$GPVTG,12.9,T,13.0,M,001.2,N,002.2,K,A*28
$GPGSV,2,1,07,02,35,063,44,12,46,091,42,14,19,242,38,25,78,046,47*78
$GPGSV,2,2,07,29,66,233,42,30,45,297,31,31,37,309,,,,,*41
$GPGSA,M,3,02,12,14,25,29,,,,,,,,4.1,3.6,2.0*34
Trace #59 at position 14.500000
$GPZDA,092430.03,09,10,2011,00,00*63
$GPRMC,092430.00,A,4611.960363,N,01258.229207,E,001.5,340.2,091011,0.2,E,A*3B
$GPGGA,092431.00,4611.960728,N,01258.229169,E,1,05,3.6,140.88,M,46.25,M,,*68
$GPGLL,4611.960728,N,01258.229169,E,092431.00,A,A*6D
$GPVTG,12.9,T,13.0,M,001.2,N,002.2,K,A*28
$GPGSV,2,1,07,02,35,063,44,12,46,091,42,14,19,242,38,25,78,046,47*78
$GPGSV,2,2,07,29,66,233,42,30,45,297,31,31,37,309,,,,,*41
$GPGSA,M,3,02,12,14,25,29,,,,,,,,4.1,3.6,2.0*34
Trace #60 at position 14.750000
$GPZDA,092430.03,09,10,2011,00,00*63
$GPRMC,092430.00,A,4611.960363,N,01258.229207,E,001.5,340.2,091011,0.2,E,A*3B
$GPGGA,092431.00,4611.960728,N,01258.229169,E,1,05,3.6,140.88,M,46.25,M,,*68
$GPGLL,4611.960728,N,01258.229169,E,092431.00,A,A*6D
$GPVTG,12.9,T,13.0,M,001.2,N,002.2,K,A*28
$GPGSV,2,1,07,02,35,063,44,12,46,091,42,14,19,242,38,25,78,046,47*78
$GPGSV,2,2,07,29,66,233,42,30,45,297,31,31,37,309,,,,,*41
$GPGSA,M,3,02,12,14,25,29,,,,,,,,4.1,3.6,2.0*34
Trace #61 at position 15.000000
$GPZDA,092430.03,09,10,2011,00,00*63
$GPRMC,092430.00,A,4611.960363,N,01258.229207,E,001.5,340.2,091011,0.2,E,A*3B
$GPGGA,092431.00,4611.960728,N,01258.229169,E,1,05,3.6,140.88,M,46.25,M,,*68
$GPGLL,4611.960728,N,01258.229169,E,092431.00,A,A*6D
$GPVTG,12.9,T,13.0,M,001.2,N,002.2,K,A*28
$GPGSV,2,1,07,02,35,063,44,12,46,091,42,14,19,242,38,25,78,046,47*78
$GPGSV,2,2,07,29,66,233,42,30,45,297,31,31,37,309,,,,,*41
$GPGSA,M,3,02,12,14,25,29,,,,,,,,4.1,3.6,2.0*34
Trace #62 at position 15.250000
$GPZDA,092431.03,09,10,2011,00,00*62
$GPRMC,092431.00,A,4611.960728,N,01258.229169,E,001.2,12.9,091011,0.2,E,A*02
$GPGGA,092432.00,4611.961084,N,01258.229182,E,1,05,3.6,140.89,M,46.25,M,,*6F
$GPGLL,4611.961084,N,01258.229182,E,092432.00,A,A*6B
$GPVTG,354.5,T,354.7,M,001.3,N,002.4,K,A*25
$GPGSV,2,1,07,02,35,063,43,12,46,091,42,14,19,242,38,25,78,046,46*7E
$GPGSV,2,2,07,29,66,233,43,30,45,297,,31,37,309,,,,,*42
$GPGSA,M,3,02,12,14,25,29,,,,,,,,4.1,3.6,2.0*34
Trace #63 at position 15.500000
$GPZDA,092431.03,09,10,2011,00,00*62
$GPRMC,092431.00,A,4611.960728,N,01258.229169,E,001.2,12.9,091011,0.2,E,A*02
$GPGGA,092432.00,4611.961084,N,01258.229182,E,1,05,3.6,140.89,M,46.25,M,,*6F
$GPGLL,4611.961084,N,01258.229182,E,092432.00,A,A*6B
$GPVTG,354.5,T,354.7,M,001.3,N,002.4,K,A*25
$GPGSV,2,1,07,02,35,063,43,12,46,091,42,14,19,242,38,25,78,046,46*7E
$GPGSV,2,2,07,29,66,233,43,30,45,297,,31,37,309,,,,,*42
$GPGSA,M,3,02,12,14,25,29,,,,,,,,4.1,3.6,2.0*34
Trace #64 at position 15.750000
$GPZDA,092432.03,09,10,2011,00,00*61
$GPRMC,092432.00,A,4611.961084,N,01258.229182,E,001.3,354.5,091011,0.2,E,A*38
$GPGGA,092433.00,4611.961430,N,01258.229076,E,1,05,3.6,140.96,M,46.25,M,,*61
$GPGLL,4611.961430,N,01258.229076,E,092433.00,A,A*6B
$GPVTG,346.0,T,346.1,M,001.1,N,002.0,K,A*20
$GPGSV,2,1,07,02,35,063,43,12,46,091,42,14,19,242,38,25,78,046,46*7E
$GPGSV,2,2,07,29,66,233,43,30,45,297,,31,37,309,,,,,*42
$GPGSA,M,3,02,12,14,25,29,,,,,,,,4.1,3.6,2.0*34
Trace #65 at position 16.000000
$GPZDA,092432.03,09,10,2011,00,00*61
$GPRMC,092432.00,A,4611.961084,N,01258.229182,E,001.3,354.5,091011,0.2,E,A*38
$GPGGA,092433.00,4611.961430,N,01258.229076,E,1,05,3.6,140.96,M,46.25,M,,*61
$GPGLL,4611.961430,N,01258.229076,E,092433.00,A,A*6B
$GPVTG,346.0,T,346.1,M,001.1,N,002.0,K,A*20
$GPGSV,2,1,07,02,35,063,43,12,46,091,42,14,19,242,38,25,78,046,46*7E
$GPGSV,2,2,07,29,66,233,43,30,45,297,,31,37,309,,,,,*42
$GPGSA,M,3,02,12,14,25,29,,,,,,,,4.1,3.6,2.0*34
Trace #66 at position 16.250000
$GPZDA,092432.03,09,10,2011,00,00*61
$GPRMC,092432.00,A,4611.961084,N,01258.229182,E,001.3,354.5,091011,0.2,E,A*38
$GPGGA,092433.00,4611.961430,N,01258.229076,E,1,05,3.6,140.96,M,46.25,M,,*61
$GPGLL,4611.961430,N,01258.229076,E,092433.00,A,A*6B
$GPVTG,346.0,T,346.1,M,001.1,N,002.0,K,A*20
$GPGSV,2,1,07,02,35,063,43,12,46,091,42,14,19,242,38,25,78,046,46*7E
$GPGSV,2,2,07,29,66,233,43,30,45,297,,31,37,309,,,,,*42
$GPGSA,M,3,02,12,14,25,29,,,,,,,,4.1,3.6,2.0*34
Trace #67 at position 16.500000
$GPZDA,092433.03,09,10,2011,00,00*60
$GPRMC,092433.00,A,4611.961430,N,01258.229076,E,001.1,346.0,091011,0.2,E,A*3C
$GPGGA,092434.00,4611.961802,N,01258.228965,E,1,05,3.6,141.08,M,46.25,M,,*67
$GPGLL,4611.961802,N,01258.228965,E,092434.00,A,A*6B
$GPVTG,355.2,T,355.3,M,001.4,N,002.7,K,A*22
$GPGSV,2,1,07,02,35,063,43,12,46,091,43,14,19,242,38,25,78,046,48*71
$GPGSV,2,2,07,29,66,233,42,30,45,297,32,31,37,308,,,,,*43
$GPGSA,M,3,02,12,14,25,29,,,,,,,,4.1,3.6,2.0*34
Trace #68 at position 16.750000
$GPZDA,092433.03,09,10,2011,00,00*60
$GPRMC,092433.00,A,4611.961430,N,01258.229076,E,001.1,346.0,091011,0.2,E,A*3C
$GPGGA,092434.00,4611.961802,N,01258.228965,E,1,05,3.6,141.08,M,46.25,M,,*67
$GPGLL,4611.961802,N,01258.228965,E,092434.00,A,A*6B
$GPVTG,355.2,T,355.3,M,001.4,N,002.7,K,A*22
$GPGSV,2,1,07,02,35,063,43,12,46,091,43,14,19,242,38,25,78,046,48*71
$GPGSV,2,2,07,29,66,233,42,30,45,297,32,31,37,308,,,,,*43
$GPGSA,M,3,02,12,14,25,29,,,,,,,,4.1,3.6,2.0*34
Trace #69 at position 17.000000
$GPZDA,092433.03,09,10,2011,00,00*60
$GPRMC,092433.00,A,4611.961430,N,01258.229076,E,001.1,346.0,091011,0.2,E,A*3C
$GPGGA,092434.00,4611.961802,N,01258.228965,E,1,05,3.6,141.08,M,46.25,M,,*67
$GPGLL,4611.961802,N,01258.228965,E,092434.00,A,A*6B
$GPVTG,355.2,T,355.3,M,001.4,N,002.7,K,A*22
$GPGSV,2,1,07,02,35,063,43,12,46,091,43,14,19,242,38,25,78,046,48*71
$GPGSV,2,2,07,29,66,233,42,30,45,297,32,31,37,308,,,,,*43
$GPGSA,M,3,02,12,14,25,29,,,,,,,,4.1,3.6,2.0*34
Trace #70 at position 17.250000
$GPZDA,092434.03,09,10,2011,00,00*67
$GPRMC,092434.00,A,4611.961802,N,01258.228965,E,001.4,355.2,091011,0.2,E,A*39
$GPGGA,092435.00,4611.962186,N,01258.228811,E,1,05,3.6,141.12,M,46.25,M,,*69
$GPGLL,4611.962186,N,01258.228811,E,092435.00,A,A*6E
$GPVTG,337.5,T,337.7,M,001.2,N,002.3,K,A*23
$GPGSV,2,1,07,02,35,063,43,12,46,091,43,14,19,242,38,25,78,046,47*7E
$GPGSV,2,2,07,29,66,233,41,30,45,297,,31,37,308,,,,,*41
$GPGSA,M,3,02,12,14,25,29,,,,,,,,4.1,3.6,2.0*34
Trace #71 at position 17.500000
$GPZDA,092434.03,09,10,2011,00,00*67
$GPRMC,092434.00,A,4611.961802,N,01258.228965,E,001.4,355.2,091011,0.2,E,A*39
$GPGGA,092435.00,4611.962186,N,01258.228811,E,1,05,3.6,141.12,M,46.25,M,,*69
$GPGLL,4611.962186,N,01258.228811,E,092435.00,A,A*6E
$GPVTG,337.5,T,337.7,M,001.2,N,002.3,K,A*23
$GPGSV,2,1,07,02,35,063,43,12,46,091,43,14,19,242,38,25,78,046,47*7E
$GPGSV,2,2,07,29,66,233,41,30,45,297,,31,37,308,,,,,*41
$GPGSA,M,3,02,12,14,25,29,,,,,,,,4.1,3.6,2.0*34
Trace #72 at position 17.750000
$GPZDA,092434.03,09,10,2011,00,00*67
$GPRMC,092434.00,A,4611.961802,N,01258.228965,E,001.4,355.2,091011,0.2,E,A*39
$GPGGA,092435.00,4611.962186,N,01258.228811,E,1,05,3.6,141.12,M,46.25,M,,*69
$GPGLL,4611.962186,N,01258.228811,E,092435.00,A,A*6E
$GPVTG,337.5,T,337.7,M,001.2,N,002.3,K,A*23
$GPGSV,2,1,07,02,35,063,43,12,46,091,43,14,19,242,38,25,78,046,47*7E
$GPGSV,2,2,07,29,66,233,41,30,45,297,,31,37,308,,,,,*41
$GPGSA,M,3,02,12,14,25,29,,,,,,,,4.1,3.6,2.0*34
Trace #73 at position 18.000000
$GPZDA,092434.03,09,10,2011,00,00*67
$GPRMC,092434.00,A,4611.961802,N,01258.228965,E,001.4,355.2,091011,0.2,E,A*39
$GPGGA,092435.00,4611.962186,N,01258.228811,E,1,05,3.6,141.12,M,46.25,M,,*69
$GPGLL,4611.962186,N,01258.228811,E,092435.00,A,A*6E
$GPVTG,337.5,T,337.7,M,001.2,N,002.3,K,A*23
$GPGSV,2,1,07,02,35,063,43,12,46,091,43,14,19,242,38,25,78,046,47*7E
$GPGSV,2,2,07,29,66,233,41,30,45,297,,31,37,308,,,,,*41
$GPGSA,M,3,02,12,14,25,29,,,,,,,,4.1,3.6,2.0*34
Trace #74 at position 18.250000
$GPZDA,092435.03,09,10,2011,00,00*66
$GPRMC,092435.00,A,4611.962186,N,01258.228811,E,001.2,337.5,091011,0.2,E,A*39
$GPGGA,092436.00,4611.962614,N,01258.228612,E,1,05,3.6,141.06,M,46.25,M,,*6E
$GPGLL,4611.962614,N,01258.228612,E,092436.00,A,A*6C
$GPVTG,348.7,T,348.8,M,001.8,N,003.4,K,A*22
$GPGSV,2,1,07,02,35,063,42,12,46,091,41,14,19,242,38,25,78,046,46*7C
$GPGSV,2,2,07,29,66,233,41,30,45,297,,31,37,308,,,,,*41
$GPGSA,M,3,02,12,14,25,29,,,,,,,,4.1,3.6,2.0*34
Trace #75 at position 18.500000
$GPZDA,092435.03,09,10,2011,00,00*66
$GPRMC,092435.00,A,4611.962186,N,01258.228811,E,001.2,337.5,091011,0.2,E,A*39
$GPGGA,092436.00,4611.962614,N,01258.228612,E,1,05,3.6,141.06,M,46.25,M,,*6E
$GPGLL,4611.962614,N,01258.228612,E,092436.00,A,A*6C
$GPVTG,348.7,T,348.8,M,001.8,N,003.4,K,A*22
$GPGSV,2,1,07,02,35,063,42,12,46,091,41,14,19,242,38,25,78,046,46*7C
$GPGSV,2,2,07,29,66,233,41,30,45,297,,31,37,308,,,,,*41
$GPGSA,M,3,02,12,14,25,29,,,,,,,,4.1,3.6,2.0*34
Trace #76 at position 18.750000
$GPZDA,092436.03,09,10,2011,00,00*65
$GPRMC,092436.00,A,4611.962614,N,01258.228612,E,001.8,348.7,091011,0.2,E,A*3B
$GPGGA,092437.00,4611.963048,N,01258.228359,E,1,05,3.6,141.10,M,46.25,M,,*6C
$GPGLL,4611.963048,N,01258.228359,E,092437.00,A,A*69
$GPVTG,327.6,T,327.8,M,001.5,N,002.7,K,A*2C
$GPGSV,2,1,07,02,35,063,43,12,46,091,41,14,19,242,39,25,78,046,48*72
$GPGSV,2,2,07,29,66,233,41,30,45,297,32,31,37,308,,,,,*40
$GPGSA,M,3,02,12,14,25,29,,,,,,,,4.1,3.6,2.0*34
Trace #77 at position 19.000000
$GPZDA,092436.03,09,10,2011,00,00*65
$GPRMC,092436.00,A,4611.962614,N,01258.228612,E,001.8,348.7,091011,0.2,E,A*3B
$GPGGA,092437.00,4611.963048,N,01258.228359,E,1,05,3.6,141.10,M,46.25,M,,*6C
$GPGLL,4611.963048,N,01258.228359,E,092437.00,A,A*69
$GPVTG,327.6,T,327.8,M,001.5,N,002.7,K,A*2C
$GPGSV,2,1,07,02,35,063,43,12,46,091,41,14,19,242,39,25,78,046,48*72
$GPGSV,2,2,07,29,66,233,41,30,45,297,32,31,37,308,,,,,*40
$GPGSA,M,3,02,12,14,25,29,,,,,,,,4.1,3.6,2.0*34
Trace #78 at position 19.250000
$GPZDA,092436.03,09,10,2011,00,00*65
$GPRMC,092436.00,A,4611.962614,N,01258.228612,E,001.8,348.7,091011,0.2,E,A*3B
$GPGGA,092437.00,4611.963048,N,01258.228359,E,1,05,3.6,141.10,M,46.25,M,,*6C
$GPGLL,4611.963048,N,01258.228359,E,092437.00,A,A*69
$GPVTG,327.6,T,327.8,M,001.5,N,002.7,K,A*2C
$GPGSV,2,1,07,02,35,063,43,12,46,091,41,14,19,242,39,25,78,046,48*72
$GPGSV,2,2,07,29,66,233,41,30,45,297,32,31,37,308,,,,,*40
$GPGSA,M,3,02,12,14,25,29,,,,,,,,4.1,3.6,2.0*34
Trace #79 at position 19.500000
$GPZDA,092437.03,09,10,2011,00,00*64
$GPRMC,092437.00,A,4611.963048,N,01258.228359,E,001.5,327.6,091011,0.2,E,A*3B
$GPGGA,092438.00,4611.963401,N,01258.228034,E,1,05,3.6,141.19,M,46.25,M,,*6B
$GPGLL,4611.963401,N,01258.228034,E,092438.00,A,A*67
$GPVTG,325.0,T,325.2,M,001.4,N,002.6,K,A*20
$GPGSV,2,1,07,02,35,063,43,12,46,091,43,14,19,242,39,25,78,046,48*70
$GPGSV,2,2,07,29,66,233,41,30,45,297,,31,37,308,,,,,*41
$GPGSA,M,3,02,12,14,25,29,,,,,,,,4.1,3.6,2.0*34
Trace #80 at position 19.750000
$GPZDA,092437.03,09,10,2011,00,00*64
$GPRMC,092437.00,A,4611.963048,N,01258.228359,E,001.5,327.6,091011,0.2,E,A*3B
$GPGGA,092438.00,4611.963401,N,01258.228034,E,1,05,3.6,141.19,M,46.25,M,,*6B
$GPGLL,4611.963401,N,01258.228034,E,092438.00,A,A*67
$GPVTG,325.0,T,325.2,M,001.4,N,002.6,K,A*20
$GPGSV,2,1,07,02,35,063,43,12,46,091,43,14,19,242,39,25,78,046,48*70
$GPGSV,2,2,07,29,66,233,41,30,45,297,,31,37,308,,,,,*41
$GPGSA,M,3,02,12,14,25,29,,,,,,,,4.1,3.6,2.0*34
Trace #81 at position 20.000000
$GPZDA,092437.03,09,10,2011,00,00*64
$GPRMC,092437.00,A,4611.963048,N,01258.228359,E,001.5,327.6,091011,0.2,E,A*3B
$GPGGA,092438.00,4611.963401,N,01258.228034,E,1,05,3.6,141.19,M,46.25,M,,*6B
$GPGLL,4611.963401,N,01258.228034,E,092438.00,A,A*67
$GPVTG,325.0,T,325.2,M,001.4,N,002.6,K,A*20
$GPGSV,2,1,07,02,35,063,43,12,46,091,43,14,19,242,39,25,78,046,48*70
$GPGSV,2,2,07,29,66,233,41,30,45,297,,31,37,308,,,,,*41
$GPGSA,M,3,02,12,14,25,29,,,,,,,,4.1,3.6,2.0*34
Trace #82 at position 20.250000
$GPZDA,092438.03,09,10,2011,00,00*6B
$GPRMC,092438.00,A,4611.963401,N,01258.228034,E,001.4,325.0,091011,0.2,E,A*30
$GPGGA,092439.00,4611.963753,N,01258.227789,E,1,05,3.6,141.23,M,46.25,M,,*69
$GPGLL,4611.963753,N,01258.227789,E,092439.00,A,A*6C
$GPVTG,340.1,T,340.3,M,001.3,N,002.3,K,A*22
$GPGSV,2,1,07,02,35,063,43,12,46,091,41,14,19,242,39,25,78,046,46*7C
$GPGSV,2,2,07,29,66,233,42,30,45,297,26,31,37,308,,,,,*46
$GPGSA,M,3,02,12,14,25,29,,,,,,,,4.1,3.6,2.0*34
Trace #83 at position 20.500000
$GPZDA,092438.03,09,10,2011,00,00*6B
$GPRMC,092438.00,A,4611.963401,N,01258.228034,E,001.4,325.0,091011,0.2,E,A*30
$GPGGA,092439.00,4611.963753,N,01258.227789,E,1,05,3.6,141.23,M,46.25,M,,*69
$GPGLL,4611.963753,N,01258.227789,E,092439.00,A,A*6C
$GPVTG,340.1,T,340.3,M,001.3,N,002.3,K,A*22
$GPGSV,2,1,07,02,35,063,43,12,46,091,41,14,19,242,39,25,78,046,46*7C
$GPGSV,2,2,07,29,66,233,42,30,45,297,26,31,37,308,,,,,*46
$GPGSA,M,3,02,12,14,25,29,,,,,,,,4.1,3.6,2.0*34
Trace #84 at position 20.750000
$GPZDA,092438.03,09,10,2011,00,00*6B
$GPRMC,092438.00,A,4611.963401,N,01258.228034,E,001.4,325.0,091011,0.2,E,A*30
$GPGGA,092439.00,4611.963753,N,01258.227789,E,1,05,3.6,141.23,M,46.25,M,,*69
$GPGLL,4611.963753,N,01258.227789,E,092439.00,A,A*6C
$GPVTG,340.1,T,340.3,M,001.3,N,002.3,K,A*22
$GPGSV,2,1,07,02,35,063,43,12,46,091,41,14,19,242,39,25,78,046,46*7C
$GPGSV,2,2,07,29,66,233,42,30,45,297,26,31,37,308,,,,,*46
$GPGSA,M,3,02,12,14,25,29,,,,,,,,4.1,3.6,2.0*34
Trace #85 at position 21.000000
$GPZDA,092439.03,09,10,2011,00,00*6A
$GPRMC,092439.00,A,4611.963753,N,01258.227789,E,001.3,340.1,091011,0.2,E,A*3E
$GPGGA,092440.00,4611.964123,N,01258.227636,E,1,05,3.6,141.28,M,46.25,M,,*6F
$GPGLL,4611.964123,N,01258.227636,E,092440.00,A,A*61
$GPVTG,344.6,T,344.8,M,001.3,N,002.5,K,A*28
$GPGSV,2,1,07,02,35,063,43,12,46,091,42,14,19,242,39,25,78,046,47*7E
$GPGSV,2,2,07,29,66,233,42,30,45,297,28,31,37,308,,,,,*48
$GPGSA,M,3,02,12,14,25,29,,,,,,,,4.1,3.6,2.0*34
Trace #86 at position 21.250000
$GPZDA,092439.03,09,10,2011,00,00*6A
$GPRMC,092439.00,A,4611.963753,N,01258.227789,E,001.3,340.1,091011,0.2,E,A*3E
$GPGGA,092440.00,4611.964123,N,01258.227636,E,1,05,3.6,141.28,M,46.25,M,,*6F
$GPGLL,4611.964123,N,01258.227636,E,092440.00,A,A*61
$GPVTG,344.6,T,344.8,M,001.3,N,002.5,K,A*28
$GPGSV,2,1,07,02,35,063,43,12,46,091,42,14,19,242,39,25,78,046,47*7E
$GPGSV,2,2,07,29,66,233,42,30,45,297,28,31,37,308,,,,,*48
$GPGSA,M,3,02,12,14,25,29,,,,,,,,4.1,3.6,2.0*34
Trace #87 at position 21.500000
$GPZDA,092439.03,09,10,2011,00,00*6A
$GPRMC,092439.00,A,4611.963753,N,01258.227789,E,001.3,340.1,091011,0.2,E,A*3E
$GPGGA,092440.00,4611.964123,N,01258.227636,E,1,05,3.6,141.28,M,46.25,M,,*6F
$GPGLL,4611.964123,N,01258.227636,E,092440.00,A,A*61
$GPVTG,344.6,T,344.8,M,001.3,N,002.5,K,A*28
$GPGSV,2,1,07,02,35,063,43,12,46,091,42,14,19,242,39,25,78,046,47*7E
$GPGSV,2,2,07,29,66,233,42,30,45,297,28,31,37,308,,,,,*48
$GPGSA,M,3,02,12,14,25,29,,,,,,,,4.1,3.6,2.0*34
Trace #88 at position 21.750000
$GPZDA,092440.03,09,10,2011,00,00*64
$GPRMC,092440.00,A,4611.964123,N,01258.227636,E,001.3,344.6,091011,0.2,E,A*30
$GPGGA,092441.00,4611.964547,N,01258.227497,E,1,05,3.6,141.32,M,46.25,M,,*6A
$GPGLL,4611.964547,N,01258.227497,E,092441.00,A,A*6F
$GPVTG,347.9,T,348.1,M,001.7,N,003.1,K,A*20
$GPGSV,2,1,07,02,35,063,43,12,46,091,42,14,19,242,38,25,78,046,47*7F
$GPGSV,2,2,07,29,66,233,41,30,45,297,31,31,37,308,,,,,*43
$GPGSA,M,3,02,12,14,25,29,,,,,,,,4.1,3.6,2.0*34
Trace #89 at position 22.000000
$GPZDA,092440.03,09,10,2011,00,00*64
$GPRMC,092440.00,A,4611.964123,N,01258.227636,E,001.3,344.6,091011,0.2,E,A*30
$GPGGA,092441.00,4611.964547,N,01258.227497,E,1,05,3.6,141.32,M,46.25,M,,*6A
$GPGLL,4611.964547,N,01258.227497,E,092441.00,A,A*6F
$GPVTG,347.9,T,348.1,M,001.7,N,003.1,K,A*20
$GPGSV,2,1,07,02,35,063,43,12,46,091,42,14,19,242,38,25,78,046,47*7F
$GPGSV,2,2,07,29,66,233,41,30,45,297,31,31,37,308,,,,,*43
$GPGSA,M,3,02,12,14,25,29,,,,,,,,4.1,3.6,2.0*34
Trace #90 at position 22.250000
$GPZDA,092440.03,09,10,2011,00,00*64
$GPRMC,092440.00,A,4611.964123,N,01258.227636,E,001.3,344.6,091011,0.2,E,A*30
$GPGGA,092441.00,4611.964547,N,01258.227497,E,1,05,3.6,141.32,M,46.25,M,,*6A
$GPGLL,4611.964547,N,01258.227497,E,092441.00,A,A*6F
$GPVTG,347.9,T,348.1,M,001.7,N,003.1,K,A*20
$GPGSV,2,1,07,02,35,063,43,12,46,091,42,14,19,242,38,25,78,046,47*7F
$GPGSV,2,2,07,29,66,233,41,30,45,297,31,31,37,308,,,,,*43
$GPGSA,M,3,02,12,14,25,29,,,,,,,,4.1,3.6,2.0*34
Trace #91 at position 22.500000
$GPZDA,092441.03,09,10,2011,00,00*65
$GPRMC,092441.00,A,4611.964547,N,01258.227497,E,001.7,347.9,091011,0.2,E,A*36
$GPGGA,092442.00,4611.965069,N,01258.227335,E,1,05,3.6,141.27,M,46.25,M,,*6A
$GPGLL,4611.965069,N,01258.227335,E,092442.00,A,A*6B
$GPVTG,347.1,T,347.3,M,002.2,N,004.1,K,A*24
$GPGSV,2,1,07,02,35,063,43,12,46,091,43,14,19,242,40,25,78,046,48*7E
$GPGSV,2,2,07,29,66,233,41,30,45,297,31,31,37,308,,,,,*43
$GPGSA,M,3,02,12,14,25,29,,,,,,,,4.1,3.6,2.0*34
Trace #92 at position 22.750000
$GPZDA,092441.03,09,10,2011,00,00*65
$GPRMC,092441.00,A,4611.964547,N,01258.227497,E,001.7,347.9,091011,0.2,E,A*36
$GPGGA,092442.00,4611.965069,N,01258.227335,E,1,05,3.6,141.27,M,46.25,M,,*6A
$GPGLL,4611.965069,N,01258.227335,E,092442.00,A,A*6B
$GPVTG,347.1,T,347.3,M,002.2,N,004.1,K,A*24
$GPGSV,2,1,07,02,35,063,43,12,46,091,43,14,19,242,40,25,78,046,48*7E
$GPGSV,2,2,07,29,66,233,41,30,45,297,31,31,37,308,,,,,*43
$GPGSA,M,3,02,12,14,25,29,,,,,,,,4.1,3.6,2.0*34
Trace #93 at position 23.000000
$GPZDA,092441.03,09,10,2011,00,00*65
$GPRMC,092441.00,A,4611.964547,N,01258.227497,E,001.7,347.9,091011,0.2,E,A*36
$GPGGA,092442.00,4611.965069,N,01258.227335,E,1,05,3.6,141.27,M,46.25,M,,*6A
$GPGLL,4611.965069,N,01258.227335,E,092442.00,A,A*6B
$GPVTG,347.1,T,347.3,M,002.2,N,004.1,K,A*24
$GPGSV,2,1,07,02,35,063,43,12,46,091,43,14,19,242,40,25,78,046,48*7E
$GPGSV,2,2,07,29,66,233,41,30,45,297,31,31,37,308,,,,,*43
$GPGSA,M,3,02,12,14,25,29,,,,,,,,4.1,3.6,2.0*34
Trace #94 at position 23.250000
$GPZDA,092442.03,09,10,2011,00,00*66
$GPRMC,092442.00,A,4611.965069,N,01258.227335,E,002.2,347.1,091011,0.2,E,A*3C
$GPGGA,092443.00,4611.965549,N,01258.227159,E,1,05,3.6,141.20,M,46.25,M,,*63
$GPGLL,4611.965549,N,01258.227159,E,092443.00,A,A*65
$GPVTG,343.3,T,343.4,M,001.4,N,002.7,K,A*24
$GPGSV,2,1,07,02,35,063,43,12,46,091,43,14,19,242,40,25,78,046,46*70
$GPGSV,2,2,07,29,66,233,42,30,45,297,,31,37,308,,,,,*42
$GPGSA,M,3,02,12,14,25,29,,,,,,,,4.1,3.6,2.0*34
Trace #95 at position 23.500000
$GPZDA,092442.03,09,10,2011,00,00*66
$GPRMC,092442.00,A,4611.965069,N,01258.227335,E,002.2,347.1,091011,0.2,E,A*3C
$GPGGA,092443.00,4611.965549,N,01258.227159,E,1,05,3.6,141.20,M,46.25,M,,*63
$GPGLL,4611.965549,N,01258.227159,E,092443.00,A,A*65
$GPVTG,343.3,T,343.4,M,001.4,N,002.7,K,A*24
$GPGSV,2,1,07,02,35,063,43,12,46,091,43,14,19,242,40,25,78,046,46*70
$GPGSV,2,2,07,29,66,233,42,30,45,297,,31,37,308,,,,,*42
$GPGSA,M,3,02,12,14,25,29,,,,,,,,4.1,3.6,2.0*34
Trace #96 at position 23.750000
$GPZDA,092442.03,09,10,2011,00,00*66
$GPRMC,092442.00,A,4611.965069,N,01258.227335,E,002.2,347.1,091011,0.2,E,A*3C
$GPGGA,092443.00,4611.965549,N,01258.227159,E,1,05,3.6,141.20,M,46.25,M,,*63
$GPGLL,4611.965549,N,01258.227159,E,092443.00,A,A*65
$GPVTG,343.3,T,343.4,M,001.4,N,002.7,K,A*24
$GPGSV,2,1,07,02,35,063,43,12,46,091,43,14,19,242,40,25,78,046,46*70
$GPGSV,2,2,07,29,66,233,42,30,45,297,,31,37,308,,,,,*42
$GPGSA,M,3,02,12,14,25,29,,,,,,,,4.1,3.6,2.0*34
Trace #97 at position 24.000000
$GPZDA,092442.03,09,10,2011,00,00*66
$GPRMC,092442.00,A,4611.965069,N,01258.227335,E,002.2,347.1,091011,0.2,E,A*3C
$GPGGA,092443.00,4611.965549,N,01258.227159,E,1,05,3.6,141.20,M,46.25,M,,*63
$GPGLL,4611.965549,N,01258.227159,E,092443.00,A,A*65
$GPVTG,343.3,T,343.4,M,001.4,N,002.7,K,A*24
$GPGSV,2,1,07,02,35,063,43,12,46,091,43,14,19,242,40,25,78,046,46*70
$GPGSV,2,2,07,29,66,233,42,30,45,297,,31,37,308,,,,,*42
$GPGSA,M,3,02,12,14,25,29,,,,,,,,4.1,3.6,2.0*34
Trace #98 at position 24.250000
$GPZDA,092443.03,09,10,2011,00,00*67
$GPRMC,092443.00,A,4611.965549,N,01258.227159,E,001.4,343.3,091011,0.2,E,A*31
$GPGGA,092444.00,4611.965996,N,01258.226923,E,1,05,3.6,141.23,M,46.25,M,,*6D
$GPGLL,4611.965996,N,01258.226923,E,092444.00,A,A*68
$GPVTG,337.3,T,337.5,M,002.1,N,004.0,K,A*22
$GPGSV,2,1,07,02,35,063,44,12,46,091,42,14,19,242,37,25,78,046,47*77
$GPGSV,2,2,07,29,66,233,41,30,45,297,,31,37,308,,,,,*41
$GPGSA,M,3,02,12,14,25,29,,,,,,,,4.1,3.6,2.0*34
Trace #99 at position 24.500000
$GPZDA,092443.03,09,10,2011,00,00*67
$GPRMC,092443.00,A,4611.965549,N,01258.227159,E,001.4,343.3,091011,0.2,E,A*31
$GPGGA,092444.00,4611.965996,N,01258.226923,E,1,05,3.6,141.23,M,46.25,M,,*6D
$GPGLL,4611.965996,N,01258.226923,E,092444.00,A,A*68
$GPVTG,337.3,T,337.5,M,002.1,N,004.0,K,A*22
$GPGSV,2,1,07,02,35,063,44,12,46,091,42,14,19,242,37,25,78,046,47*77
$GPGSV,2,2,07,29,66,233,41,30,45,297,,31,37,308,,,,,*41
$GPGSA,M,3,02,12,14,25,29,,,,,,,,4.1,3.6,2.0*34
Trace #100 at position 24.750000
$GPZDA,092444.03,09,10,2011,00,00*60
$GPRMC,092444.00,A,4611.965996,N,01258.226923,E,002.1,337.3,091011,0.2,E,A*39
$GPGGA,092445.00,4611.966430,N,01258.226580,E,1,05,3.6,141.28,M,46.25,M,,*60
$GPGLL,4611.966430,N,01258.226580,E,092445.00,A,A*6E
$GPVTG,322.5,T,322.7,M,001.7,N,003.1,K,A*25
$GPGSV,2,1,07,02,35,063,44,12,46,091,43,14,19,242,38,25,78,046,47*79
$GPGSV,2,2,07,29,66,233,41,30,45,297,32,31,37,308,,,,,*40
$GPGSA,M,3,02,12,14,25,29,,,,,,,,4.1,3.6,2.0*34
Trace #101 at position 25.000000
$GPZDA,092444.03,09,10,2011,00,00*60
$GPRMC,092444.00,A,4611.965996,N,01258.226923,E,002.1,337.3,091011,0.2,E,A*39
$GPGGA,092445.00,4611.966430,N,01258.226580,E,1,05,3.6,141.28,M,46.25,M,,*60
$GPGLL,4611.966430,N,01258.226580,E,092445.00,A,A*6E
$GPVTG,322.5,T,322.7,M,001.7,N,003.1,K,A*25
$GPGSV,2,1,07,02,35,063,44,12,46,091,43,14,19,242,38,25,78,046,47*79
$GPGSV,2,2,07,29,66,233,41,30,45,297,32,31,37,308,,,,,*40
$GPGSA,M,3,02,12,14,25,29,,,,,,,,4.1,3.6,2.0*34
Trace #102 at position 25.250000
$GPZDA,092444.03,09,10,2011,00,00*60
$GPRMC,092444.00,A,4611.965996,N,01258.226923,E,002.1,337.3,091011,0.2,E,A*39
$GPGGA,092445.00,4611.966430,N,01258.226580,E,1,05,3.6,141.28,M,46.25,M,,*60
$GPGLL,4611.966430,N,01258.226580,E,092445.00,A,A*6E
$GPVTG,322.5,T,322.7,M,001.7,N,003.1,K,A*25
$GPGSV,2,1,07,02,35,063,44,12,46,091,43,14,19,242,38,25,78,046,47*79
$GPGSV,2,2,07,29,66,233,41,30,45,297,32,31,37,308,,,,,*40
$GPGSA,M,3,02,12,14,25,29,,,,,,,,4.1,3.6,2.0*34
Trace #103 at position 25.500000
$GPZDA,092445.03,09,10,2011,00,00*61
$GPRMC,092445.00,A,4611.966430,N,01258.226580,E,001.7,322.5,091011,0.2,E,A*38
$GPGGA,092446.00,4611.966816,N,01258.226376,E,1,05,3.6,141.28,M,46.25,M,,*64
$GPGLL,4611.966816,N,01258.226376,E,092446.00,A,A*6A
$GPVTG,354.2,T,354.4,M,001.6,N,003.0,K,A*21
$GPGSV,2,1,07,02,35,063,43,12,46,091,43,14,19,242,38,25,78,046,46*7F
$GPGSV,2,2,07,29,66,233,42,30,45,297,32,31,37,308,,,,,*43
$GPGSA,M,3,02,12,14,25,29,,,,,,,,4.1,3.6,2.0*34
Trace #104 at position 25.750000
$GPZDA,092445.03,09,10,2011,00,00*61
$GPRMC,092445.00,A,4611.966430,N,01258.226580,E,001.7,322.5,091011,0.2,E,A*38
$GPGGA,092446.00,4611.966816,N,01258.226376,E,1,05,3.6,141.28,M,46.25,M,,*64
$GPGLL,4611.966816,N,01258.226376,E,092446.00,A,A*6A
$GPVTG,354.2,T,354.4,M,001.6,N,003.0,K,A*21
$GPGSV,2,1,07,02,35,063,43,12,46,091,43,14,19,242,38,25,78,046,46*7F
$GPGSV,2,2,07,29,66,233,42,30,45,297,32,31,37,308,,,,,*43
$GPGSA,M,3,02,12,14,25,29,,,,,,,,4.1,3.6,2.0*34
Trace #105 at position 26.000000
$GPZDA,092445.03,09,10,2011,00,00*61
$GPRMC,092445.00,A,4611.966430,N,01258.226580,E,001.7,322.5,091011,0.2,E,A*38
$GPGGA,092446.00,4611.966816,N,01258.226376,E,1,05,3.6,141.28,M,46.25,M,,*64
$GPGLL,4611.966816,N,01258.226376,E,092446.00,A,A*6A
$GPVTG,354.2,T,354.4,M,001.6,N,003.0,K,A*21
$GPGSV,2,1,07,02,35,063,43,12,46,091,43,14,19,242,38,25,78,046,46*7F
$GPGSV,2,2,07,29,66,233,42,30,45,297,32,31,37,308,,,,,*43
$GPGSA,M,3,02,12,14,25,29,,,,,,,,4.1,3.6,2.0*34
Trace #106 at position 26.250000
$GPZDA,092446.03,09,10,2011,00,00*62
$GPRMC,092446.00,A,4611.966816,N,01258.226376,E,001.6,354.2,091011,0.2,E,A*3B
$GPGGA,092447.00,4611.967253,N,01258.226123,E,1,05,3.6,141.20,M,46.25,M,,*65
$GPGLL,4611.967253,N,01258.226123,E,092447.00,A,A*63
$GPVTG,322.7,T,322.9,M,002.2,N,004.1,K,A*28
$GPGSV,2,1,07,02,35,063,43,12,46,091,42,14,19,242,37,25,78,046,46*71
$GPGSV,2,2,07,29,66,233,42,30,45,297,30,31,37,308,,,,,*41
$GPGSA,M,3,02,12,14,25,29,,,,,,,,4.1,3.6,2.0*34
Trace #107 at position 26.500000
$GPZDA,092446.03,09,10,2011,00,00*62
$GPRMC,092446.00,A,4611.966816,N,01258.226376,E,001.6,354.2,091011,0.2,E,A*3B
$GPGGA,092447.00,4611.967253,N,01258.226123,E,1,05,3.6,141.20,M,46.25,M,,*65
$GPGLL,4611.967253,N,01258.226123,E,092447.00,A,A*63
$GPVTG,322.7,T,322.9,M,002.2,N,004.1,K,A*28
$GPGSV,2,1,07,02,35,063,43,12,46,091,42,14,19,242,37,25,78,046,46*71
$GPGSV,2,2,07,29,66,233,42,30,45,297,30,31,37,308,,,,,*41
$GPGSA,M,3,02,12,14,25,29,,,,,,,,4.1,3.6,2.0*34
Trace #108 at position 26.750000
$GPZDA,092446.03,09,10,2011,00,00*62
$GPRMC,092446.00,A,4611.966816,N,01258.226376,E,001.6,354.2,091011,0.2,E,A*3B
$GPGGA,092447.00,4611.967253,N,01258.226123,E,1,05,3.6,141.20,M,46.25,M,,*65
$GPGLL,4611.967253,N,01258.226123,E,092447.00,A,A*63
$GPVTG,322.7,T,322.9,M,002.2,N,004.1,K,A*28
$GPGSV,2,1,07,02,35,063,43,12,46,091,42,14,19,242,37,25,78,046,46*71
$GPGSV,2,2,07,29,66,233,42,30,45,297,30,31,37,308,,,,,*41
$GPGSA,M,3,02,12,14,25,29,,,,,,,,4.1,3.6,2.0*34
Trace #109 at position 27.000000
$GPZDA,092447.03,09,10,2011,00,00*63
$GPRMC,092447.00,A,4611.967253,N,01258.226123,E,002.2,322.7,091011,0.2,E,A*31
$GPGGA,092448.00,4611.967754,N,01258.225775,E,1,05,3.6,141.13,M,46.25,M,,*6E
$GPGLL,4611.967754,N,01258.225775,E,092448.00,A,A*68
$GPVTG,341.2,T,341.4,M,002.4,N,004.4,K,A*23
$GPGSV,2,1,07,02,35,063,43,12,46,091,42,14,19,242,38,25,78,046,46*7E
$GPGSV,2,2,07,29,66,233,42,30,45,297,30,31,37,308,,,,,*41
$GPGSA,M,3,02,12,14,25,29,,,,,,,,4.1,3.6,2.0*34
Trace #110 at position 27.250000
$GPZDA,092447.03,09,10,2011,00,00*63
$GPRMC,092447.00,A,4611.967253,N,01258.226123,E,002.2,322.7,091011,0.2,E,A*31
$GPGGA,092448.00,4611.967754,N,01258.225775,E,1,05,3.6,141.13,M,46.25,M,,*6E
$GPGLL,4611.967754,N,01258.225775,E,092448.00,A,A*68
$GPVTG,341.2,T,341.4,M,002.4,N,004.4,K,A*23
$GPGSV,2,1,07,02,35,063,43,12,46,091,42,14,19,242,38,25,78,046,46*7E
$GPGSV,2,2,07,29,66,233,42,30,45,297,30,31,37,308,,,,,*41
$GPGSA,M,3,02,12,14,25,29,,,,,,,,4.1,3.6,2.0*34
Trace #111 at position 27.500000
$GPZDA,092448.03,09,10,2011,00,00*6C
$GPRMC,092448.00,A,4611.967754,N,01258.225775,E,002.4,341.2,091011,0.2,E,A*3C
$GPGGA,092449.00,4611.968083,N,01258.225671,E,1,05,3.6,141.14,M,46.25,M,,*6F
$GPGLL,4611.968083,N,01258.225671,E,092449.00,A,A*6E
$GPVTG,348.4,T,348.5,M,000.5,N,001.0,K,A*26
$GPGSV,2,1,07,02,35,063,43,12,46,091,42,14,19,242,39,25,78,046,46*7F
$GPGSV,2,2,07,29,66,233,43,30,45,297,32,31,37,308,,,,,*42
$GPGSA,M,3,02,12,14,25,29,,,,,,,,4.1,3.6,2.0*34
Trace #112 at position 27.750000
$GPZDA,092448.03,09,10,2011,00,00*6C
$GPRMC,092448.00,A,4611.967754,N,01258.225775,E,002.4,341.2,091011,0.2,E,A*3C
$GPGGA,092449.00,4611.968083,N,01258.225671,E,1,05,3.6,141.14,M,46.25,M,,*6F
$GPGLL,4611.968083,N,01258.225671,E,092449.00,A,A*6E
$GPVTG,348.4,T,348.5,M,000.5,N,001.0,K,A*26
$GPGSV,2,1,07,02,35,063,43,12,46,091,42,14,19,242,39,25,78,046,46*7F
$GPGSV,2,2,07,29,66,233,43,30,45,297,32,31,37,308,,,,,*42
$GPGSA,M,3,02,12,14,25,29,,,,,,,,4.1,3.6,2.0*34
Trace #113 at position 28.000000
$GPZDA,092448.03,09,10,2011,00,00*6C
$GPRMC,092448.00,A,4611.967754,N,01258.225775,E,002.4,341.2,091011,0.2,E,A*3C
$GPGGA,092449.00,4611.968083,N,01258.225671,E,1,05,3.6,141.14,M,46.25,M,,*6F
$GPGLL,4611.968083,N,01258.225671,E,092449.00,A,A*6E
$GPVTG,348.4,T,348.5,M,000.5,N,001.0,K,A*26
$GPGSV,2,1,07,02,35,063,43,12,46,091,42,14,19,242,39,25,78,046,46*7F
$GPGSV,2,2,07,29,66,233,43,30,45,297,32,31,37,308,,,,,*42
$GPGSA,M,3,02,12,14,25,29,,,,,,,,4.1,3.6,2.0*34
Trace #114 at position 28.250000
$GPZDA,092449.03,09,10,2011,00,00*6D
$GPRMC,092449.00,A,4611.968083,N,01258.225671,E,000.5,348.4,091011,0.2,E,A*36
$GPGGA,092450.00,4611.968271,N,01258.225612,E,1,05,3.6,141.22,M,46.25,M,,*68
$GPGLL,4611.968271,N,01258.225612,E,092450.00,A,A*6C
$GPVTG,336.5,T,336.6,M,001.2,N,002.2,K,A*23
$GPGSV,2,1,07,02,35,063,44,12,46,091,42,14,19,242,38,25,78,046,45*7A
$GPGSV,2,2,07,29,66,233,41,30,45,297,25,31,37,308,,,,,*46
$GPGSA,M,3,02,12,14,25,29,,,,,,,,4.1,3.6,2.0*34
Trace #115 at position 28.500000
$GPZDA,092449.03,09,10,2011,00,00*6D
$GPRMC,092449.00,A,4611.968083,N,01258.225671,E,000.5,348.4,091011,0.2,E,A*36
$GPGGA,092450.00,4611.968271,N,01258.225612,E,1,05,3.6,141.22,M,46.25,M,,*68
$GPGLL,4611.968271,N,01258.225612,E,092450.00,A,A*6C
$GPVTG,336.5,T,336.6,M,001.2,N,002.2,K,A*23
$GPGSV,2,1,07,02,35,063,44,12,46,091,42,14,19,242,38,25,78,046,45*7A
$GPGSV,2,2,07,29,66,233,41,30,45,297,25,31,37,308,,,,,*46
$GPGSA,M,3,02,12,14,25,29,,,,,,,,4.1,3.6,2.0*34
Trace #116 at position 28.750000
$GPZDA,092450.03,09,10,2011,00,00*65
$GPRMC,092450.00,A,4611.968271,N,01258.225612,E,001.2,336.5,091011,0.2,E,A*3A
$GPGGA,092451.00,4611.968579,N,01258.225348,E,1,05,3.6,141.23,M,46.25,M,,*6D
$GPGLL,4611.968579,N,01258.225348,E,092451.00,A,A*68
$GPVTG,318.2,T,318.3,M,001.8,N,003.3,K,A*2B
$GPGSV,2,1,07,02,35,063,44,12,46,091,44,14,19,242,38,25,78,046,46*7F
$GPGSV,2,2,07,29,66,233,41,30,45,297,30,31,37,308,,,,,*42
$GPGSA,M,3,02,12,14,25,29,,,,,,,,4.1,3.6,2.0*34
Trace #117 at position 29.000000
$GPZDA,092450.03,09,10,2011,00,00*65
$GPRMC,092450.00,A,4611.968271,N,01258.225612,E,001.2,336.5,091011,0.2,E,A*3A
$GPGGA,092451.00,4611.968579,N,01258.225348,E,1,05,3.6,141.23,M,46.25,M,,*6D
$GPGLL,4611.968579,N,01258.225348,E,092451.00,A,A*68
$GPVTG,318.2,T,318.3,M,001.8,N,003.3,K,A*2B
$GPGSV,2,1,07,02,35,063,44,12,46,091,44,14,19,242,38,25,78,046,46*7F
$GPGSV,2,2,07,29,66,233,41,30,45,297,30,31,37,308,,,,,*42
$GPGSA,M,3,02,12,14,25,29,,,,,,,,4.1,3.6,2.0*34
Trace #118 at position 29.250000
$GPZDA,092451.03,09,10,2011,00,00*64
$GPRMC,092451.00,A,4611.968579,N,01258.225348,E,001.8,318.2,091011,0.2,E,A*3F
