Trace #1 at position 0.000000
$GPZDA,090555.03,09,10,2011,00,00*63
$GPRMC,090555.00,A,4611.979482,N,01258.218961,E,000.1,162.9,091011,0.2,E,A*3E
$GPGGA,090556.00,4611.979500,N,01258.218949,E,1,06,1.5,139.28,M,46.25,M,,*64
$GPGLL,4611.979500,N,01258.218949,E,090556.00,A,A*67
$GPVTG,325.8,T,325.9,M,000.0,N,000.1,K,A*23
$GPGSV,2,1,07,02,38,072,41,12,53,082,33,14,25,248,39,25,78,359,47*79
$GPGSV,2,2,07,29,57,226,43,30,37,293,41,31,29,312,43,,,,*42
$GPGSA,M,3,02,14,25,29,30,31,,,,,,,2.8,1.5,2.4*3C
Trace #2 at position 0.250000
$GPZDA,090559.04,09,10,2011,00,00*68
$GPRMC,090559.00,A,4611.979569,N,01258.218894,E,000.3,81.3,091011,0.2,E,A*09
$GPGGA,090600.00,4611.979589,N,01258.218947,E,1,06,1.5,139.47,M,46.25,M,,*62
$GPGLL,4611.979589,N,01258.218947,E,090600.00,A,A*68
$GPVTG,231.6,T,231.7,M,000.0,N,000.0,K,A*22
$GPGSV,2,1,07,02,38,072,43,12,53,082,36,14,25,248,40,25,79,359,48*7E
$GPGSV,2,2,07,29,57,226,44,30,37,293,43,31,29,312,43,,,,*47
$GPGSA,M,3,02,14,25,29,30,31,,,,,,,2.8,1.5,2.4*3C
Trace #3 at position 0.500000
$GPZDA,090559.04,09,10,2011,00,00*68
$GPRMC,090559.00,A,4611.979569,N,01258.218894,E,000.3,81.3,091011,0.2,E,A*09
$GPGGA,090600.00,4611.979589,N,01258.218947,E,1,06,1.5,139.47,M,46.25,M,,*62
$GPGLL,4611.979589,N,01258.218947,E,090600.00,A,A*68
$GPVTG,231.6,T,231.7,M,000.0,N,000.0,K,A*22
$GPGSV,2,1,07,02,38,072,43,12,53,082,36,14,25,248,40,25,79,359,48*7E
$GPGSV,2,2,07,29,57,226,44,30,37,293,43,31,29,312,43,,,,*47
$GPGSA,M,3,02,14,25,29,30,31,,,,,,,2.8,1.5,2.4*3C
Trace #4 at position 0.750000
$GPZDA,090601.04,09,10,2011,00,00*66
$GPRMC,090601.00,A,4611.979584,N,01258.219020,E,000.3,92.8,091011,0.2,E,A*0B
$GPGGA,090602.00,4611.979463,N,01258.219272,E,1,07,1.4,139.58,M,46.25,M,,*67
$GPGLL,4611.979463,N,01258.219272,E,090602.00,A,A*63
$GPVTG,126.8,T,127.0,M,001.3,N,002.4,K,A*2E
$GPGSV,2,1,07,02,38,072,44,12,53,083,39,14,25,248,39,25,79,359,47*76
$GPGSV,2,2,07,29,57,226,43,30,37,293,43,31,29,312,42,,,,*41
$GPGSA,M,3,02,12,14,25,29,30,31,,,,,,2.7,1.4,2.4*31
Trace #5 at position 1.000000
$GPZDA,090601.04,09,10,2011,00,00*66
$GPRMC,090601.00,A,4611.979584,N,01258.219020,E,000.3,92.8,091011,0.2,E,A*0B
$GPGGA,090602.00,4611.979463,N,01258.219272,E,1,07,1.4,139.58,M,46.25,M,,*67
$GPGLL,4611.979463,N,01258.219272,E,090602.00,A,A*63
$GPVTG,126.8,T,127.0,M,001.3,N,002.4,K,A*2E
$GPGSV,2,1,07,02,38,072,44,12,53,083,39,14,25,248,39,25,79,359,47*76
$GPGSV,2,2,07,29,57,226,43,30,37,293,43,31,29,312,42,,,,*41
$GPGSA,M,3,02,12,14,25,29,30,31,,,,,,2.7,1.4,2.4*31
Trace #6 at position 1.250000
$GPZDA,090602.04,09,10,2011,00,00*65
$GPRMC,090602.00,A,4611.979463,N,01258.219272,E,001.3,126.8,091011,0.2,E,A*3A
$GPGGA,090603.00,4611.979257,N,01258.219474,E,1,07,1.4,139.54,M,46.25,M,,*6B
$GPGLL,4611.979257,N,01258.219474,E,090603.00,A,A*63
$GPVTG,171.8,T,172.0,M,000.7,N,001.3,K,A*2D
$GPGSV,2,1,07,02,38,072,45,12,53,083,42,14,25,248,39,25,79,359,47*7B
$GPGSV,2,2,07,29,57,226,44,30,38,293,42,31,29,312,41,,,,*4B
$GPGSA,M,3,02,12,14,25,29,30,31,,,,,,2.7,1.4,2.3*36
Trace #7 at position 1.500000
$GPZDA,090603.04,09,10,2011,00,00*64
$GPRMC,090603.00,A,4611.979257,N,01258.219474,E,000.7,171.8,091011,0.2,E,A*3D
$GPGGA,090604.00,4611.979079,N,01258.219493,E,1,07,1.4,139.58,M,46.25,M,,*67
$GPGLL,4611.979079,N,01258.219493,E,090604.00,A,A*63
$GPVTG,168.1,T,168.3,M,000.7,N,001.2,K,A*25
$GPGSV,2,1,07,02,38,072,45,12,53,083,43,14,25,248,38,25,79,359,47*7B
$GPGSV,2,2,07,29,57,226,44,30,38,293,42,31,29,312,42,,,,*48
$GPGSA,M,3,02,12,14,25,29,30,31,,,,,,2.7,1.4,2.3*36
Trace #8 at position 1.750000
$GPZDA,090603.04,09,10,2011,00,00*64
$GPRMC,090603.00,A,4611.979257,N,01258.219474,E,000.7,171.8,091011,0.2,E,A*3D
$GPGGA,090604.00,4611.979079,N,01258.219493,E,1,07,1.4,139.58,M,46.25,M,,*67
$GPGLL,4611.979079,N,01258.219493,E,090604.00,A,A*63
$GPVTG,168.1,T,168.3,M,000.7,N,001.2,K,A*25
$GPGSV,2,1,07,02,38,072,45,12,53,083,43,14,25,248,38,25,79,359,47*7B
$GPGSV,2,2,07,29,57,226,44,30,38,293,42,31,29,312,42,,,,*48
$GPGSA,M,3,02,12,14,25,29,30,31,,,,,,2.7,1.4,2.3*36
Trace #9 at position 2.000000
$GPZDA,090603.04,09,10,2011,00,00*64
$GPRMC,090603.00,A,4611.979257,N,01258.219474,E,000.7,171.8,091011,0.2,E,A*3D
$GPGGA,090604.00,4611.979079,N,01258.219493,E,1,07,1.4,139.58,M,46.25,M,,*67
$GPGLL,4611.979079,N,01258.219493,E,090604.00,A,A*63
$GPVTG,168.1,T,168.3,M,000.7,N,001.2,K,A*25
$GPGSV,2,1,07,02,38,072,45,12,53,083,43,14,25,248,38,25,79,359,47*7B
$GPGSV,2,2,07,29,57,226,44,30,38,293,42,31,29,312,42,,,,*48
$GPGSA,M,3,02,12,14,25,29,30,31,,,,,,2.7,1.4,2.3*36
Trace #10 at position 2.250000
$GPZDA,090604.04,09,10,2011,00,00*63
$GPRMC,090604.00,A,4611.979079,N,01258.219493,E,000.7,168.1,091011,0.2,E,A*3C
$GPGGA,090605.00,4611.978897,N,01258.219520,E,1,07,1.4,139.65,M,46.25,M,,*68
$GPGLL,4611.978897,N,01258.219520,E,090605.00,A,A*62
$GPVTG,165.3,T,165.5,M,000.7,N,001.3,K,A*20
$GPGSV,2,1,07,02,38,072,41,12,53,083,37,14,25,248,39,25,79,359,48*72
$GPGSV,2,2,07,29,57,226,41,30,38,293,43,31,29,312,42,,,,*4C
$GPGSA,M,3,02,12,14,25,29,30,31,,,,,,2.7,1.4,2.3*36
Trace #11 at position 2.500000
$GPZDA,090604.04,09,10,2011,00,00*63
$GPRMC,090604.00,A,4611.979079,N,01258.219493,E,000.7,168.1,091011,0.2,E,A*3C
$GPGGA,090605.00,4611.978897,N,01258.219520,E,1,07,1.4,139.65,M,46.25,M,,*68
$GPGLL,4611.978897,N,01258.219520,E,090605.00,A,A*62
$GPVTG,165.3,T,165.5,M,000.7,N,001.3,K,A*20
$GPGSV,2,1,07,02,38,072,41,12,53,083,37,14,25,248,39,25,79,359,48*72
$GPGSV,2,2,07,29,57,226,41,30,38,293,43,31,29,312,42,,,,*4C
$GPGSA,M,3,02,12,14,25,29,30,31,,,,,,2.7,1.4,2.3*36
Trace #12 at position 2.750000
$GPZDA,090604.04,09,10,2011,00,00*63
$GPRMC,090604.00,A,4611.979079,N,01258.219493,E,000.7,168.1,091011,0.2,E,A*3C
$GPGGA,090605.00,4611.978897,N,01258.219520,E,1,07,1.4,139.65,M,46.25,M,,*68
$GPGLL,4611.978897,N,01258.219520,E,090605.00,A,A*62
$GPVTG,165.3,T,165.5,M,000.7,N,001.3,K,A*20
$GPGSV,2,1,07,02,38,072,41,12,53,083,37,14,25,248,39,25,79,359,48*72
$GPGSV,2,2,07,29,57,226,41,30,38,293,43,31,29,312,42,,,,*4C
$GPGSA,M,3,02,12,14,25,29,30,31,,,,,,2.7,1.4,2.3*36
Trace #13 at position 3.000000
$GPZDA,090604.04,09,10,2011,00,00*63
$GPRMC,090604.00,A,4611.979079,N,01258.219493,E,000.7,168.1,091011,0.2,E,A*3C
$GPGGA,090605.00,4611.978897,N,01258.219520,E,1,07,1.4,139.65,M,46.25,M,,*68
$GPGLL,4611.978897,N,01258.219520,E,090605.00,A,A*62
$GPVTG,165.3,T,165.5,M,000.7,N,001.3,K,A*20
$GPGSV,2,1,07,02,38,072,41,12,53,083,37,14,25,248,39,25,79,359,48*72
$GPGSV,2,2,07,29,57,226,41,30,38,293,43,31,29,312,42,,,,*4C
$GPGSA,M,3,02,12,14,25,29,30,31,,,,,,2.7,1.4,2.3*36
Trace #14 at position 3.250000
$GPZDA,090605.04,09,10,2011,00,00*62
$GPRMC,090605.00,A,4611.978897,N,01258.219520,E,000.7,165.3,091011,0.2,E,A*32
$GPGGA,090606.00,4611.978641,N,01258.219654,E,1,07,1.4,139.81,M,46.25,M,,*64
$GPGLL,4611.978641,N,01258.219654,E,090606.00,A,A*64
$GPVTG,152.8,T,152.9,M,001.4,N,002.5,K,A*20
$GPGSV,2,1,07,02,38,072,43,12,53,083,39,14,25,248,39,25,79,359,46*70
$GPGSV,2,2,07,29,57,226,40,30,38,293,42,31,29,312,41,,,,*4F
$GPGSA,M,3,02,12,14,25,29,30,31,,,,,,2.7,1.4,2.3*36
Trace #15 at position 3.500000
$GPZDA,090605.04,09,10,2011,00,00*62
$GPRMC,090605.00,A,4611.978897,N,01258.219520,E,000.7,165.3,091011,0.2,E,A*32
$GPGGA,090606.00,4611.978641,N,01258.219654,E,1,07,1.4,139.81,M,46.25,M,,*64
$GPGLL,4611.978641,N,01258.219654,E,090606.00,A,A*64
$GPVTG,152.8,T,152.9,M,001.4,N,002.5,K,A*20
$GPGSV,2,1,07,02,38,072,43,12,53,083,39,14,25,248,39,25,79,359,46*70
$GPGSV,2,2,07,29,57,226,40,30,38,293,42,31,29,312,41,,,,*4F
$GPGSA,M,3,02,12,14,25,29,30,31,,,,,,2.7,1.4,2.3*36
Trace #16 at position 3.750000
$GPZDA,090605.04,09,10,2011,00,00*62
$GPRMC,090605.00,A,4611.978897,N,01258.219520,E,000.7,165.3,091011,0.2,E,A*32
$GPGGA,090606.00,4611.978641,N,01258.219654,E,1,07,1.4,139.81,M,46.25,M,,*64
$GPGLL,4611.978641,N,01258.219654,E,090606.00,A,A*64
$GPVTG,152.8,T,152.9,M,001.4,N,002.5,K,A*20
$GPGSV,2,1,07,02,38,072,43,12,53,083,39,14,25,248,39,25,79,359,46*70
$GPGSV,2,2,07,29,57,226,40,30,38,293,42,31,29,312,41,,,,*4F
$GPGSA,M,3,02,12,14,25,29,30,31,,,,,,2.7,1.4,2.3*36
Trace #17 at position 4.000000
$GPZDA,090606.04,09,10,2011,00,00*61
$GPRMC,090606.00,A,4611.978641,N,01258.219654,E,001.4,152.8,091011,0.2,E,A*39
$GPGGA,090607.00,4611.978219,N,01258.219887,E,1,07,1.4,139.94,M,46.25,M,,*68
$GPGLL,4611.978219,N,01258.219887,E,090607.00,A,A*6C
$GPVTG,159.3,T,159.5,M,001.9,N,003.6,K,A*28
$GPGSV,2,1,07,02,38,072,42,12,53,083,40,14,25,248,39,25,79,359,46*7F
$GPGSV,2,2,07,29,57,226,43,30,38,293,42,31,29,312,42,,,,*4F
$GPGSA,M,3,02,12,14,25,29,30,31,,,,,,2.7,1.4,2.3*36
Trace #18 at position 4.250000
$GPZDA,090606.04,09,10,2011,00,00*61
$GPRMC,090606.00,A,4611.978641,N,01258.219654,E,001.4,152.8,091011,0.2,E,A*39
$GPGGA,090607.00,4611.978219,N,01258.219887,E,1,07,1.4,139.94,M,46.25,M,,*68
$GPGLL,4611.978219,N,01258.219887,E,090607.00,A,A*6C
$GPVTG,159.3,T,159.5,M,001.9,N,003.6,K,A*28
$GPGSV,2,1,07,02,38,072,42,12,53,083,40,14,25,248,39,25,79,359,46*7F
$GPGSV,2,2,07,29,57,226,43,30,38,293,42,31,29,312,42,,,,*4F
$GPGSA,M,3,02,12,14,25,29,30,31,,,,,,2.7,1.4,2.3*36
Trace #19 at position 4.500000
$GPZDA,090606.04,09,10,2011,00,00*61
$GPRMC,090606.00,A,4611.978641,N,01258.219654,E,001.4,152.8,091011,0.2,E,A*39
$GPGGA,090607.00,4611.978219,N,01258.219887,E,1,07,1.4,139.94,M,46.25,M,,*68
$GPGLL,4611.978219,N,01258.219887,E,090607.00,A,A*6C
$GPVTG,159.3,T,159.5,M,001.9,N,003.6,K,A*28
$GPGSV,2,1,07,02,38,072,42,12,53,083,40,14,25,248,39,25,79,359,46*7F
$GPGSV,2,2,07,29,57,226,43,30,38,293,42,31,29,312,42,,,,*4F
$GPGSA,M,3,02,12,14,25,29,30,31,,,,,,2.7,1.4,2.3*36
Trace #20 at position 4.750000
$GPZDA,090607.04,09,10,2011,00,00*60
$GPRMC,090607.00,A,4611.978219,N,01258.219887,E,001.9,159.3,091011,0.2,E,A*3C
$GPGGA,090608.00,4611.977698,N,01258.220016,E,1,07,1.4,139.95,M,46.25,M,,*6E
$GPGLL,4611.977698,N,01258.220016,E,090608.00,A,A*6B
$GPVTG,178.2,T,178.4,M,002.0,N,003.7,K,A*23
$GPGSV,2,1,07,02,38,072,42,12,53,083,40,14,25,248,39,25,79,359,47*7E
$GPGSV,2,2,07,29,57,226,43,30,38,293,42,31,29,312,43,,,,*4E
$GPGSA,M,3,02,12,14,25,29,30,31,,,,,,2.7,1.4,2.3*36
Trace #21 at position 5.000000
$GPZDA,090607.04,09,10,2011,00,00*60
$GPRMC,090607.00,A,4611.978219,N,01258.219887,E,001.9,159.3,091011,0.2,E,A*3C
$GPGGA,090608.00,4611.977698,N,01258.220016,E,1,07,1.4,139.95,M,46.25,M,,*6E
$GPGLL,4611.977698,N,01258.220016,E,090608.00,A,A*6B
$GPVTG,178.2,T,178.4,M,002.0,N,003.7,K,A*23
$GPGSV,2,1,07,02,38,072,42,12,53,083,40,14,25,248,39,25,79,359,47*7E
$GPGSV,2,2,07,29,57,226,43,30,38,293,42,31,29,312,43,,,,*4E
$GPGSA,M,3,02,12,14,25,29,30,31,,,,,,2.7,1.4,2.3*36
Trace #22 at position 5.250000
$GPZDA,090607.04,09,10,2011,00,00*60
$GPRMC,090607.00,A,4611.978219,N,01258.219887,E,001.9,159.3,091011,0.2,E,A*3C
$GPGGA,090608.00,4611.977698,N,01258.220016,E,1,07,1.4,139.95,M,46.25,M,,*6E
$GPGLL,4611.977698,N,01258.220016,E,090608.00,A,A*6B
$GPVTG,178.2,T,178.4,M,002.0,N,003.7,K,A*23
$GPGSV,2,1,07,02,38,072,42,12,53,083,40,14,25,248,39,25,79,359,47*7E
$GPGSV,2,2,07,29,57,226,43,30,38,293,42,31,29,312,43,,,,*4E
$GPGSA,M,3,02,12,14,25,29,30,31,,,,,,2.7,1.4,2.3*36
Trace #23 at position 5.500000
$GPZDA,090607.04,09,10,2011,00,00*60
$GPRMC,090607.00,A,4611.978219,N,01258.219887,E,001.9,159.3,091011,0.2,E,A*3C
$GPGGA,090608.00,4611.977698,N,01258.220016,E,1,07,1.4,139.95,M,46.25,M,,*6E
$GPGLL,4611.977698,N,01258.220016,E,090608.00,A,A*6B
$GPVTG,178.2,T,178.4,M,002.0,N,003.7,K,A*23
$GPGSV,2,1,07,02,38,072,42,12,53,083,40,14,25,248,39,25,79,359,47*7E
$GPGSV,2,2,07,29,57,226,43,30,38,293,42,31,29,312,43,,,,*4E
$GPGSA,M,3,02,12,14,25,29,30,31,,,,,,2.7,1.4,2.3*36
Trace #24 at position 5.750000
$GPZDA,090608.04,09,10,2011,00,00*6F
$GPRMC,090608.00,A,4611.977698,N,01258.220016,E,002.0,178.2,091011,0.2,E,A*33
$GPGGA,090609.00,4611.977182,N,01258.220217,E,1,07,1.4,139.90,M,46.25,M,,*65
$GPGLL,4611.977182,N,01258.220217,E,090609.00,A,A*65
$GPVTG,150.7,T,150.8,M,002.1,N,003.9,K,A*25
$GPGSV,2,1,07,02,38,072,43,12,53,083,42,14,25,248,40,25,79,000,47*7C
$GPGSV,2,2,07,29,57,226,43,30,38,293,42,31,30,312,42,,,,*47
$GPGSA,M,3,02,12,14,25,29,30,31,,,,,,2.7,1.4,2.3*36
Trace #25 at position 6.000000
$GPZDA,090608.04,09,10,2011,00,00*6F
$GPRMC,090608.00,A,4611.977698,N,01258.220016,E,002.0,178.2,091011,0.2,E,A*33
$GPGGA,090609.00,4611.977182,N,01258.220217,E,1,07,1.4,139.90,M,46.25,M,,*65
$GPGLL,4611.977182,N,01258.220217,E,090609.00,A,A*65
$GPVTG,150.7,T,150.8,M,002.1,N,003.9,K,A*25
$GPGSV,2,1,07,02,38,072,43,12,53,083,42,14,25,248,40,25,79,000,47*7C
$GPGSV,2,2,07,29,57,226,43,30,38,293,42,31,30,312,42,,,,*47
$GPGSA,M,3,02,12,14,25,29,30,31,,,,,,2.7,1.4,2.3*36
Trace #26 at position 6.250000
$GPZDA,090608.04,09,10,2011,00,00*6F
$GPRMC,090608.00,A,4611.977698,N,01258.220016,E,002.0,178.2,091011,0.2,E,A*33
$GPGGA,090609.00,4611.977182,N,01258.220217,E,1,07,1.4,139.90,M,46.25,M,,*65
$GPGLL,4611.977182,N,01258.220217,E,090609.00,A,A*65
$GPVTG,150.7,T,150.8,M,002.1,N,003.9,K,A*25
$GPGSV,2,1,07,02,38,072,43,12,53,083,42,14,25,248,40,25,79,000,47*7C
$GPGSV,2,2,07,29,57,226,43,30,38,293,42,31,30,312,42,,,,*47
$GPGSA,M,3,02,12,14,25,29,30,31,,,,,,2.7,1.4,2.3*36
Trace #27 at position 6.500000
$GPZDA,090608.04,09,10,2011,00,00*6F
$GPRMC,090608.00,A,4611.977698,N,01258.220016,E,002.0,178.2,091011,0.2,E,A*33
$GPGGA,090609.00,4611.977182,N,01258.220217,E,1,07,1.4,139.90,M,46.25,M,,*65
$GPGLL,4611.977182,N,01258.220217,E,090609.00,A,A*65
$GPVTG,150.7,T,150.8,M,002.1,N,003.9,K,A*25
$GPGSV,2,1,07,02,38,072,43,12,53,083,42,14,25,248,40,25,79,000,47*7C
$GPGSV,2,2,07,29,57,226,43,30,38,293,42,31,30,312,42,,,,*47
$GPGSA,M,3,02,12,14,25,29,30,31,,,,,,2.7,1.4,2.3*36
Trace #28 at position 6.750000
$GPZDA,090609.04,09,10,2011,00,00*6E
$GPRMC,090609.00,A,4611.977182,N,01258.220217,E,002.1,150.7,091011,0.2,E,A*33
$GPGGA,090610.00,4611.976713,N,01258.220489,E,1,07,1.4,139.79,M,46.25,M,,*64
$GPGLL,4611.976713,N,01258.220489,E,090610.00,A,A*63
$GPVTG,163.1,T,163.2,M,001.7,N,003.2,K,A*27
$GPGSV,2,1,07,02,38,072,42,12,53,083,42,14,25,248,39,25,79,000,47*73
$GPGSV,2,2,07,29,57,226,44,30,38,293,42,31,30,312,43,,,,*41
$GPGSA,M,3,02,12,14,25,29,30,31,,,,,,2.7,1.4,2.3*36
Trace #29 at position 7.000000
$GPZDA,090609.04,09,10,2011,00,00*6E
$GPRMC,090609.00,A,4611.977182,N,01258.220217,E,002.1,150.7,091011,0.2,E,A*33
$GPGGA,090610.00,4611.976713,N,01258.220489,E,1,07,1.4,139.79,M,46.25,M,,*64
$GPGLL,4611.976713,N,01258.220489,E,090610.00,A,A*63
$GPVTG,163.1,T,163.2,M,001.7,N,003.2,K,A*27
$GPGSV,2,1,07,02,38,072,42,12,53,083,42,14,25,248,39,25,79,000,47*73
$GPGSV,2,2,07,29,57,226,44,30,38,293,42,31,30,312,43,,,,*41
$GPGSA,M,3,02,12,14,25,29,30,31,,,,,,2.7,1.4,2.3*36
Trace #30 at position 7.250000
$GPZDA,090609.04,09,10,2011,00,00*6E
$GPRMC,090609.00,A,4611.977182,N,01258.220217,E,002.1,150.7,091011,0.2,E,A*33
$GPGGA,090610.00,4611.976713,N,01258.220489,E,1,07,1.4,139.79,M,46.25,M,,*64
$GPGLL,4611.976713,N,01258.220489,E,090610.00,A,A*63
$GPVTG,163.1,T,163.2,M,001.7,N,003.2,K,A*27
$GPGSV,2,1,07,02,38,072,42,12,53,083,42,14,25,248,39,25,79,000,47*73
$GPGSV,2,2,07,29,57,226,44,30,38,293,42,31,30,312,43,,,,*41
$GPGSA,M,3,02,12,14,25,29,30,31,,,,,,2.7,1.4,2.3*36
Trace #31 at position 7.500000
$GPZDA,090610.04,09,10,2011,00,00*66
$GPRMC,090610.00,A,4611.976713,N,01258.220489,E,001.7,163.1,091011,0.2,E,A*36
$GPGGA,090611.00,4611.976287,N,01258.220657,E,1,07,1.4,139.78,M,46.25,M,,*6D
$GPGLL,4611.976287,N,01258.220657,E,090611.00,A,A*6B
$GPVTG,163.5,T,163.7,M,001.5,N,002.8,K,A*2F
$GPGSV,2,1,07,02,38,072,42,12,53,083,41,14,25,248,40,25,79,000,47*7E
$GPGSV,2,2,07,29,57,226,43,30,38,293,41,31,30,312,42,,,,*44
$GPGSA,M,3,02,12,14,25,29,30,31,,,,,,2.7,1.4,2.3*36
Trace #32 at position 7.750000
$GPZDA,090610.04,09,10,2011,00,00*66
$GPRMC,090610.00,A,4611.976713,N,01258.220489,E,001.7,163.1,091011,0.2,E,A*36
$GPGGA,090611.00,4611.976287,N,01258.220657,E,1,07,1.4,139.78,M,46.25,M,,*6D
$GPGLL,4611.976287,N,01258.220657,E,090611.00,A,A*6B
$GPVTG,163.5,T,163.7,M,001.5,N,002.8,K,A*2F
$GPGSV,2,1,07,02,38,072,42,12,53,083,41,14,25,248,40,25,79,000,47*7E
$GPGSV,2,2,07,29,57,226,43,30,38,293,41,31,30,312,42,,,,*44
$GPGSA,M,3,02,12,14,25,29,30,31,,,,,,2.7,1.4,2.3*36
Trace #33 at position 8.000000
$GPZDA,090610.04,09,10,2011,00,00*66
$GPRMC,090610.00,A,4611.976713,N,01258.220489,E,001.7,163.1,091011,0.2,E,A*36
$GPGGA,090611.00,4611.976287,N,01258.220657,E,1,07,1.4,139.78,M,46.25,M,,*6D
$GPGLL,4611.976287,N,01258.220657,E,090611.00,A,A*6B
$GPVTG,163.5,T,163.7,M,001.5,N,002.8,K,A*2F
$GPGSV,2,1,07,02,38,072,42,12,53,083,41,14,25,248,40,25,79,000,47*7E
$GPGSV,2,2,07,29,57,226,43,30,38,293,41,31,30,312,42,,,,*44
$GPGSA,M,3,02,12,14,25,29,30,31,,,,,,2.7,1.4,2.3*36
Trace #34 at position 8.250000
$GPZDA,090610.04,09,10,2011,00,00*66
$GPRMC,090610.00,A,4611.976713,N,01258.220489,E,001.7,163.1,091011,0.2,E,A*36
$GPGGA,090611.00,4611.976287,N,01258.220657,E,1,07,1.4,139.78,M,46.25,M,,*6D
$GPGLL,4611.976287,N,01258.220657,E,090611.00,A,A*6B
$GPVTG,163.5,T,163.7,M,001.5,N,002.8,K,A*2F
$GPGSV,2,1,07,02,38,072,42,12,53,083,41,14,25,248,40,25,79,000,47*7E
$GPGSV,2,2,07,29,57,226,43,30,38,293,41,31,30,312,42,,,,*44
$GPGSA,M,3,02,12,14,25,29,30,31,,,,,,2.7,1.4,2.3*36
Trace #35 at position 8.500000
$GPZDA,090611.04,09,10,2011,00,00*67
$GPRMC,090611.00,A,4611.976287,N,01258.220657,E,001.5,163.5,091011,0.2,E,A*38
$GPGGA,090612.00,4611.975901,N,01258.220816,E,1,07,1.4,139.89,M,46.25,M,,*6D
$GPGLL,4611.975901,N,01258.220816,E,090612.00,A,A*65
$GPVTG,160.7,T,160.9,M,001.4,N,002.6,K,A*2C
$GPGSV,2,1,07,02,38,072,43,12,53,083,42,14,25,248,40,25,79,000,47*7C
$GPGSV,2,2,07,29,57,226,43,30,38,293,42,31,30,312,43,,,,*46
$GPGSA,M,3,02,12,14,25,29,30,31,,,,,,2.7,1.4,2.3*36
Trace #36 at position 8.750000
$GPZDA,090611.04,09,10,2011,00,00*67
$GPRMC,090611.00,A,4611.976287,N,01258.220657,E,001.5,163.5,091011,0.2,E,A*38
$GPGGA,090612.00,4611.975901,N,01258.220816,E,1,07,1.4,139.89,M,46.25,M,,*6D
$GPGLL,4611.975901,N,01258.220816,E,090612.00,A,A*65
$GPVTG,160.7,T,160.9,M,001.4,N,002.6,K,A*2C
$GPGSV,2,1,07,02,38,072,43,12,53,083,42,14,25,248,40,25,79,000,47*7C
$GPGSV,2,2,07,29,57,226,43,30,38,293,42,31,30,312,43,,,,*46
$GPGSA,M,3,02,12,14,25,29,30,31,,,,,,2.7,1.4,2.3*36
Trace #37 at position 9.000000
$GPZDA,090611.04,09,10,2011,00,00*67
$GPRMC,090611.00,A,4611.976287,N,01258.220657,E,001.5,163.5,091011,0.2,E,A*38
$GPGGA,090612.00,4611.975901,N,01258.220816,E,1,07,1.4,139.89,M,46.25,M,,*6D
$GPGLL,4611.975901,N,01258.220816,E,090612.00,A,A*65
$GPVTG,160.7,T,160.9,M,001.4,N,002.6,K,A*2C
$GPGSV,2,1,07,02,38,072,43,12,53,083,42,14,25,248,40,25,79,000,47*7C
$GPGSV,2,2,07,29,57,226,43,30,38,293,42,31,30,312,43,,,,*46
$GPGSA,M,3,02,12,14,25,29,30,31,,,,,,2.7,1.4,2.3*36
Trace #38 at position 9.250000
$GPZDA,090611.04,09,10,2011,00,00*67
$GPRMC,090611.00,A,4611.976287,N,01258.220657,E,001.5,163.5,091011,0.2,E,A*38
$GPGGA,090612.00,4611.975901,N,01258.220816,E,1,07,1.4,139.89,M,46.25,M,,*6D
$GPGLL,4611.975901,N,01258.220816,E,090612.00,A,A*65
$GPVTG,160.7,T,160.9,M,001.4,N,002.6,K,A*2C
$GPGSV,2,1,07,02,38,072,43,12,53,083,42,14,25,248,40,25,79,000,47*7C
$GPGSV,2,2,07,29,57,226,43,30,38,293,42,31,30,312,43,,,,*46
$GPGSA,M,3,02,12,14,25,29,30,31,,,,,,2.7,1.4,2.3*36
Trace #39 at position 9.500000
$GPZDA,090612.04,09,10,2011,00,00*64
$GPRMC,090612.00,A,4611.975901,N,01258.220816,E,001.4,160.7,091011,0.2,E,A*36
$GPGGA,090613.00,4611.975492,N,01258.220977,E,1,07,1.4,140.04,M,46.25,M,,*66
$GPGLL,4611.975492,N,01258.220977,E,090613.00,A,A*65
$GPVTG,164.2,T,164.4,M,001.6,N,003.0,K,A*21
$GPGSV,2,1,07,02,38,072,42,12,53,083,42,14,25,248,39,25,79,000,47*73
$GPGSV,2,2,07,29,57,226,43,30,38,293,42,31,30,312,43,,,,*46
$GPGSA,M,3,02,12,14,25,29,30,31,,,,,,2.7,1.4,2.3*36
Trace #40 at position 9.750000
$GPZDA,090612.04,09,10,2011,00,00*64
$GPRMC,090612.00,A,4611.975901,N,01258.220816,E,001.4,160.7,091011,0.2,E,A*36
$GPGGA,090613.00,4611.975492,N,01258.220977,E,1,07,1.4,140.04,M,46.25,M,,*66
$GPGLL,4611.975492,N,01258.220977,E,090613.00,A,A*65
$GPVTG,164.2,T,164.4,M,001.6,N,003.0,K,A*21
$GPGSV,2,1,07,02,38,072,42,12,53,083,42,14,25,248,39,25,79,000,47*73
$GPGSV,2,2,07,29,57,226,43,30,38,293,42,31,30,312,43,,,,*46
$GPGSA,M,3,02,12,14,25,29,30,31,,,,,,2.7,1.4,2.3*36
Trace #41 at position 10.000000
$GPZDA,090612.04,09,10,2011,00,00*64
$GPRMC,090612.00,A,4611.975901,N,01258.220816,E,001.4,160.7,091011,0.2,E,A*36
$GPGGA,090613.00,4611.975492,N,01258.220977,E,1,07,1.4,140.04,M,46.25,M,,*66
$GPGLL,4611.975492,N,01258.220977,E,090613.00,A,A*65
$GPVTG,164.2,T,164.4,M,001.6,N,003.0,K,A*21
$GPGSV,2,1,07,02,38,072,42,12,53,083,42,14,25,248,39,25,79,000,47*73
$GPGSV,2,2,07,29,57,226,43,30,38,293,42,31,30,312,43,,,,*46
$GPGSA,M,3,02,12,14,25,29,30,31,,,,,,2.7,1.4,2.3*36
Trace #42 at position 10.250000
$GPZDA,090613.04,09,10,2011,00,00*65
$GPRMC,090613.00,A,4611.975492,N,01258.220977,E,001.6,164.2,091011,0.2,E,A*35
$GPGGA,090614.00,4611.975004,N,01258.221097,E,1,07,1.4,140.11,M,46.25,M,,*68
$GPGLL,4611.975004,N,01258.221097,E,090614.00,A,A*6F
$GPVTG,175.1,T,175.3,M,001.9,N,003.5,K,A*2F
$GPGSV,2,1,07,02,38,072,42,12,53,083,41,14,25,248,40,25,79,000,46*7F
$GPGSV,2,2,07,29,57,226,42,30,38,293,42,31,30,312,43,,,,*47
$GPGSA,M,3,02,12,14,25,29,30,31,,,,,,2.7,1.4,2.3*36
Trace #43 at position 10.500000
$GPZDA,090613.04,09,10,2011,00,00*65
$GPRMC,090613.00,A,4611.975492,N,01258.220977,E,001.6,164.2,091011,0.2,E,A*35
$GPGGA,090614.00,4611.975004,N,01258.221097,E,1,07,1.4,140.11,M,46.25,M,,*68
$GPGLL,4611.975004,N,01258.221097,E,090614.00,A,A*6F
$GPVTG,175.1,T,175.3,M,001.9,N,003.5,K,A*2F
$GPGSV,2,1,07,02,38,072,42,12,53,083,41,14,25,248,40,25,79,000,46*7F
$GPGSV,2,2,07,29,57,226,42,30,38,293,42,31,30,312,43,,,,*47
$GPGSA,M,3,02,12,14,25,29,30,31,,,,,,2.7,1.4,2.3*36
Trace #44 at position 10.750000
$GPZDA,090613.04,09,10,2011,00,00*65
$GPRMC,090613.00,A,4611.975492,N,01258.220977,E,001.6,164.2,091011,0.2,E,A*35
$GPGGA,090614.00,4611.975004,N,01258.221097,E,1,07,1.4,140.11,M,46.25,M,,*68
$GPGLL,4611.975004,N,01258.221097,E,090614.00,A,A*6F
$GPVTG,175.1,T,175.3,M,001.9,N,003.5,K,A*2F
$GPGSV,2,1,07,02,38,072,42,12,53,083,41,14,25,248,40,25,79,000,46*7F
$GPGSV,2,2,07,29,57,226,42,30,38,293,42,31,30,312,43,,,,*47
$GPGSA,M,3,02,12,14,25,29,30,31,,,,,,2.7,1.4,2.3*36
Trace #45 at position 11.000000
$GPZDA,090614.04,09,10,2011,00,00*62
$GPRMC,090614.00,A,4611.975004,N,01258.221097,E,001.9,175.1,091011,0.2,E,A*33
$GPGGA,090615.00,4611.974485,N,01258.221247,E,1,07,1.4,140.02,M,46.25,M,,*68
$GPGLL,4611.974485,N,01258.221247,E,090615.00,A,A*6D
$GPVTG,163.2,T,163.4,M,001.9,N,003.5,K,A*2B
$GPGSV,2,1,07,02,38,072,41,12,53,083,40,14,25,248,39,25,79,000,46*73
$GPGSV,2,2,07,29,57,226,43,30,38,293,42,31,30,312,43,,,,*46
$GPGSA,M,3,02,12,14,25,29,30,31,,,,,,2.7,1.4,2.3*36
Trace #46 at position 11.250000
$GPZDA,090614.04,09,10,2011,00,00*62
$GPRMC,090614.00,A,4611.975004,N,01258.221097,E,001.9,175.1,091011,0.2,E,A*33
$GPGGA,090615.00,4611.974485,N,01258.221247,E,1,07,1.4,140.02,M,46.25,M,,*68
$GPGLL,4611.974485,N,01258.221247,E,090615.00,A,A*6D
$GPVTG,163.2,T,163.4,M,001.9,N,003.5,K,A*2B
$GPGSV,2,1,07,02,38,072,41,12,53,083,40,14,25,248,39,25,79,000,46*73
$GPGSV,2,2,07,29,57,226,43,30,38,293,42,31,30,312,43,,,,*46
$GPGSA,M,3,02,12,14,25,29,30,31,,,,,,2.7,1.4,2.3*36
Trace #47 at position 11.500000
$GPZDA,090614.04,09,10,2011,00,00*62
$GPRMC,090614.00,A,4611.975004,N,01258.221097,E,001.9,175.1,091011,0.2,E,A*33
$GPGGA,090615.00,4611.974485,N,01258.221247,E,1,07,1.4,140.02,M,46.25,M,,*68
$GPGLL,4611.974485,N,01258.221247,E,090615.00,A,A*6D
$GPVTG,163.2,T,163.4,M,001.9,N,003.5,K,A*2B
$GPGSV,2,1,07,02,38,072,41,12,53,083,40,14,25,248,39,25,79,000,46*73
$GPGSV,2,2,07,29,57,226,43,30,38,293,42,31,30,312,43,,,,*46
$GPGSA,M,3,02,12,14,25,29,30,31,,,,,,2.7,1.4,2.3*36
Trace #48 at position 11.750000
$GPZDA,090614.04,09,10,2011,00,00*62
$GPRMC,090614.00,A,4611.975004,N,01258.221097,E,001.9,175.1,091011,0.2,E,A*33
$GPGGA,090615.00,4611.974485,N,01258.221247,E,1,07,1.4,140.02,M,46.25,M,,*68
$GPGLL,4611.974485,N,01258.221247,E,090615.00,A,A*6D
$GPVTG,163.2,T,163.4,M,001.9,N,003.5,K,A*2B
$GPGSV,2,1,07,02,38,072,41,12,53,083,40,14,25,248,39,25,79,000,46*73
$GPGSV,2,2,07,29,57,226,43,30,38,293,42,31,30,312,43,,,,*46
$GPGSA,M,3,02,12,14,25,29,30,31,,,,,,2.7,1.4,2.3*36
Trace #49 at position 12.000000
$GPZDA,090615.04,09,10,2011,00,00*63
$GPRMC,090615.00,A,4611.974485,N,01258.221247,E,001.9,163.2,091011,0.2,E,A*35
$GPGGA,090616.00,4611.974043,N,01258.221459,E,1,07,1.4,139.96,M,46.25,M,,*6F
$GPGLL,4611.974043,N,01258.221459,E,090616.00,A,A*69
$GPVTG,160.2,T,160.4,M,001.5,N,002.7,K,A*24
$GPGSV,2,1,07,02,38,072,42,12,53,083,41,14,25,248,39,25,79,000,46*71
$GPGSV,2,2,07,29,57,226,44,30,38,293,42,31,30,312,42,,,,*40
$GPGSA,M,3,02,12,14,25,29,30,31,,,,,,2.7,1.4,2.3*36
Trace #50 at position 12.250000
$GPZDA,090615.04,09,10,2011,00,00*63
$GPRMC,090615.00,A,4611.974485,N,01258.221247,E,001.9,163.2,091011,0.2,E,A*35
$GPGGA,090616.00,4611.974043,N,01258.221459,E,1,07,1.4,139.96,M,46.25,M,,*6F
$GPGLL,4611.974043,N,01258.221459,E,090616.00,A,A*69
$GPVTG,160.2,T,160.4,M,001.5,N,002.7,K,A*24
$GPGSV,2,1,07,02,38,072,42,12,53,083,41,14,25,248,39,25,79,000,46*71
$GPGSV,2,2,07,29,57,226,44,30,38,293,42,31,30,312,42,,,,*40
$GPGSA,M,3,02,12,14,25,29,30,31,,,,,,2.7,1.4,2.3*36
Trace #51 at position 12.500000
$GPZDA,090615.04,09,10,2011,00,00*63
$GPRMC,090615.00,A,4611.974485,N,01258.221247,E,001.9,163.2,091011,0.2,E,A*35
$GPGGA,090616.00,4611.974043,N,01258.221459,E,1,07,1.4,139.96,M,46.25,M,,*6F
$GPGLL,4611.974043,N,01258.221459,E,090616.00,A,A*69
$GPVTG,160.2,T,160.4,M,001.5,N,002.7,K,A*24
$GPGSV,2,1,07,02,38,072,42,12,53,083,41,14,25,248,39,25,79,000,46*71
$GPGSV,2,2,07,29,57,226,44,30,38,293,42,31,30,312,42,,,,*40
$GPGSA,M,3,02,12,14,25,29,30,31,,,,,,2.7,1.4,2.3*36
Trace #52 at position 12.750000
$GPZDA,090615.04,09,10,2011,00,00*63
$GPRMC,090615.00,A,4611.974485,N,01258.221247,E,001.9,163.2,091011,0.2,E,A*35
$GPGGA,090616.00,4611.974043,N,01258.221459,E,1,07,1.4,139.96,M,46.25,M,,*6F
$GPGLL,4611.974043,N,01258.221459,E,090616.00,A,A*69
$GPVTG,160.2,T,160.4,M,001.5,N,002.7,K,A*24
$GPGSV,2,1,07,02,38,072,42,12,53,083,41,14,25,248,39,25,79,000,46*71
$GPGSV,2,2,07,29,57,226,44,30,38,293,42,31,30,312,42,,,,*40
$GPGSA,M,3,02,12,14,25,29,30,31,,,,,,2.7,1.4,2.3*36
Trace #53 at position 13.000000
$GPZDA,090616.04,09,10,2011,00,00*60
$GPRMC,090616.00,A,4611.974043,N,01258.221459,E,001.5,160.2,091011,0.2,E,A*3E
$GPGGA,090617.00,4611.973686,N,01258.221658,E,1,07,1.4,140.03,M,46.25,M,,*67
$GPGLL,4611.973686,N,01258.221658,E,090617.00,A,A*63
$GPVTG,156.5,T,156.6,M,001.2,N,002.2,K,A*23
$GPGSV,2,1,07,02,38,072,42,12,53,083,40,14,25,248,40,25,79,000,46*7E
$GPGSV,2,2,07,29,57,226,43,30,38,293,42,31,30,312,43,,,,*46
$GPGSA,M,3,02,12,14,25,29,30,31,,,,,,2.7,1.4,2.3*36
Trace #54 at position 13.250000
$GPZDA,090616.04,09,10,2011,00,00*60
$GPRMC,090616.00,A,4611.974043,N,01258.221459,E,001.5,160.2,091011,0.2,E,A*3E
$GPGGA,090617.00,4611.973686,N,01258.221658,E,1,07,1.4,140.03,M,46.25,M,,*67
$GPGLL,4611.973686,N,01258.221658,E,090617.00,A,A*63
$GPVTG,156.5,T,156.6,M,001.2,N,002.2,K,A*23
$GPGSV,2,1,07,02,38,072,42,12,53,083,40,14,25,248,40,25,79,000,46*7E
$GPGSV,2,2,07,29,57,226,43,30,38,293,42,31,30,312,43,,,,*46
$GPGSA,M,3,02,12,14,25,29,30,31,,,,,,2.7,1.4,2.3*36
Trace #55 at position 13.500000
$GPZDA,090616.04,09,10,2011,00,00*60
$GPRMC,090616.00,A,4611.974043,N,01258.221459,E,001.5,160.2,091011,0.2,E,A*3E
$GPGGA,090617.00,4611.973686,N,01258.221658,E,1,07,1.4,140.03,M,46.25,M,,*67
$GPGLL,4611.973686,N,01258.221658,E,090617.00,A,A*63
$GPVTG,156.5,T,156.6,M,001.2,N,002.2,K,A*23
$GPGSV,2,1,07,02,38,072,42,12,53,083,40,14,25,248,40,25,79,000,46*7E
$GPGSV,2,2,07,29,57,226,43,30,38,293,42,31,30,312,43,,,,*46
$GPGSA,M,3,02,12,14,25,29,30,31,,,,,,2.7,1.4,2.3*36
Trace #56 at position 13.750000
$GPZDA,090616.04,09,10,2011,00,00*60
$GPRMC,090616.00,A,4611.974043,N,01258.221459,E,001.5,160.2,091011,0.2,E,A*3E
$GPGGA,090617.00,4611.973686,N,01258.221658,E,1,07,1.4,140.03,M,46.25,M,,*67
$GPGLL,4611.973686,N,01258.221658,E,090617.00,A,A*63
$GPVTG,156.5,T,156.6,M,001.2,N,002.2,K,A*23
$GPGSV,2,1,07,02,38,072,42,12,53,083,40,14,25,248,40,25,79,000,46*7E
$GPGSV,2,2,07,29,57,226,43,30,38,293,42,31,30,312,43,,,,*46
$GPGSA,M,3,02,12,14,25,29,30,31,,,,,,2.7,1.4,2.3*36
Trace #57 at position 14.000000
$GPZDA,090617.04,09,10,2011,00,00*61
$GPRMC,090617.00,A,4611.973686,N,01258.221658,E,001.2,156.5,091011,0.2,E,A*31
$GPGGA,090618.00,4611.973274,N,01258.221802,E,1,07,1.4,140.05,M,46.25,M,,*66
$GPGLL,4611.973274,N,01258.221802,E,090618.00,A,A*64
$GPVTG,173.6,T,173.7,M,001.7,N,003.2,K,A*25
$GPGSV,2,1,07,02,38,072,42,12,53,083,41,14,25,248,38,25,79,000,46*70
$GPGSV,2,2,07,29,57,226,44,30,38,293,42,31,30,312,43,,,,*41
$GPGSA,M,3,02,12,14,25,29,30,31,,,,,,2.7,1.4,2.3*36
Trace #58 at position 14.250000
$GPZDA,090617.04,09,10,2011,00,00*61
$GPRMC,090617.00,A,4611.973686,N,01258.221658,E,001.2,156.5,091011,0.2,E,A*31
$GPGGA,090618.00,4611.973274,N,01258.221802,E,1,07,1.4,140.05,M,46.25,M,,*66
$GPGLL,4611.973274,N,01258.221802,E,090618.00,A,A*64
$GPVTG,173.6,T,173.7,M,001.7,N,003.2,K,A*25
$GPGSV,2,1,07,02,38,072,42,12,53,083,41,14,25,248,38,25,79,000,46*70
$GPGSV,2,2,07,29,57,226,44,30,38,293,42,31,30,312,43,,,,*41
$GPGSA,M,3,02,12,14,25,29,30,31,,,,,,2.7,1.4,2.3*36
Trace #59 at position 14.500000
$GPZDA,090617.04,09,10,2011,00,00*61
$GPRMC,090617.00,A,4611.973686,N,01258.221658,E,001.2,156.5,091011,0.2,E,A*31
$GPGGA,090618.00,4611.973274,N,01258.221802,E,1,07,1.4,140.05,M,46.25,M,,*66
$GPGLL,4611.973274,N,01258.221802,E,090618.00,A,A*64
$GPVTG,173.6,T,173.7,M,001.7,N,003.2,K,A*25
$GPGSV,2,1,07,02,38,072,42,12,53,083,41,14,25,248,38,25,79,000,46*70
$GPGSV,2,2,07,29,57,226,44,30,38,293,42,31,30,312,43,,,,*41
$GPGSA,M,3,02,12,14,25,29,30,31,,,,,,2.7,1.4,2.3*36
Trace #60 at position 14.750000
$GPZDA,090618.04,09,10,2011,00,00*6E
$GPRMC,090618.00,A,4611.973274,N,01258.221802,E,001.7,173.6,091011,0.2,E,A*37
$GPGGA,090619.00,4611.972757,N,01258.221956,E,1,07,1.4,140.04,M,46.25,M,,*63
$GPGLL,4611.972757,N,01258.221956,E,090619.00,A,A*60
$GPVTG,165.3,T,165.5,M,001.9,N,003.5,K,A*2B
$GPGSV,2,1,07,02,38,072,42,12,53,083,40,14,25,248,39,25,79,000,47*71
$GPGSV,2,2,07,29,57,226,44,30,38,293,42,31,30,312,43,,,,*41
$GPGSA,M,3,02,12,14,25,29,30,31,,,,,,2.7,1.4,2.3*36
Trace #61 at position 15.000000
$GPZDA,090618.04,09,10,2011,00,00*6E
$GPRMC,090618.00,A,4611.973274,N,01258.221802,E,001.7,173.6,091011,0.2,E,A*37
$GPGGA,090619.00,4611.972757,N,01258.221956,E,1,07,1.4,140.04,M,46.25,M,,*63
$GPGLL,4611.972757,N,01258.221956,E,090619.00,A,A*60
$GPVTG,165.3,T,165.5,M,001.9,N,003.5,K,A*2B
$GPGSV,2,1,07,02,38,072,42,12,53,083,40,14,25,248,39,25,79,000,47*71
$GPGSV,2,2,07,29,57,226,44,30,38,293,42,31,30,312,43,,,,*41
$GPGSA,M,3,02,12,14,25,29,30,31,,,,,,2.7,1.4,2.3*36
Trace #62 at position 15.250000
$GPZDA,090618.04,09,10,2011,00,00*6E
$GPRMC,090618.00,A,4611.973274,N,01258.221802,E,001.7,173.6,091011,0.2,E,A*37
$GPGGA,090619.00,4611.972757,N,01258.221956,E,1,07,1.4,140.04,M,46.25,M,,*63
$GPGLL,4611.972757,N,01258.221956,E,090619.00,A,A*60
$GPVTG,165.3,T,165.5,M,001.9,N,003.5,K,A*2B
$GPGSV,2,1,07,02,38,072,42,12,53,083,40,14,25,248,39,25,79,000,47*71
$GPGSV,2,2,07,29,57,226,44,30,38,293,42,31,30,312,43,,,,*41
$GPGSA,M,3,02,12,14,25,29,30,31,,,,,,2.7,1.4,2.3*36
Trace #63 at position 15.500000
$GPZDA,090618.04,09,10,2011,00,00*6E
$GPRMC,090618.00,A,4611.973274,N,01258.221802,E,001.7,173.6,091011,0.2,E,A*37
$GPGGA,090619.00,4611.972757,N,01258.221956,E,1,07,1.4,140.04,M,46.25,M,,*63
$GPGLL,4611.972757,N,01258.221956,E,090619.00,A,A*60
$GPVTG,165.3,T,165.5,M,001.9,N,003.5,K,A*2B
$GPGSV,2,1,07,02,38,072,42,12,53,083,40,14,25,248,39,25,79,000,47*71
$GPGSV,2,2,07,29,57,226,44,30,38,293,42,31,30,312,43,,,,*41
$GPGSA,M,3,02,12,14,25,29,30,31,,,,,,2.7,1.4,2.3*36
Trace #64 at position 15.750000
$GPZDA,090619.04,09,10,2011,00,00*6F
$GPRMC,090619.00,A,4611.972757,N,01258.221956,E,001.9,165.3,091011,0.2,E,A*3F
$GPGGA,090620.00,4611.972208,N,01258.222089,E,1,07,1.4,139.96,M,46.25,M,,*6B
$GPGLL,4611.972208,N,01258.222089,E,090620.00,A,A*6D
$GPVTG,179.0,T,179.1,M,002.0,N,003.7,K,A*24
$GPGSV,2,1,07,02,38,072,43,12,53,083,40,14,25,248,40,25,79,000,47*7E
$GPGSV,2,2,07,29,57,226,44,30,38,293,42,31,30,312,43,,,,*41
$GPGSA,M,3,02,12,14,25,29,30,31,,,,,,2.7,1.4,2.3*36
Trace #65 at position 16.000000
$GPZDA,090619.04,09,10,2011,00,00*6F
$GPRMC,090619.00,A,4611.972757,N,01258.221956,E,001.9,165.3,091011,0.2,E,A*3F
$GPGGA,090620.00,4611.972208,N,01258.222089,E,1,07,1.4,139.96,M,46.25,M,,*6B
$GPGLL,4611.972208,N,01258.222089,E,090620.00,A,A*6D
$GPVTG,179.0,T,179.1,M,002.0,N,003.7,K,A*24
$GPGSV,2,1,07,02,38,072,43,12,53,083,40,14,25,248,40,25,79,000,47*7E
$GPGSV,2,2,07,29,57,226,44,30,38,293,42,31,30,312,43,,,,*41
$GPGSA,M,3,02,12,14,25,29,30,31,,,,,,2.7,1.4,2.3*36
Trace #66 at position 16.250000
$GPZDA,090619.04,09,10,2011,00,00*6F
$GPRMC,090619.00,A,4611.972757,N,01258.221956,E,001.9,165.3,091011,0.2,E,A*3F
$GPGGA,090620.00,4611.972208,N,01258.222089,E,1,07,1.4,139.96,M,46.25,M,,*6B
$GPGLL,4611.972208,N,01258.222089,E,090620.00,A,A*6D
$GPVTG,179.0,T,179.1,M,002.0,N,003.7,K,A*24
$GPGSV,2,1,07,02,38,072,43,12,53,083,40,14,25,248,40,25,79,000,47*7E
$GPGSV,2,2,07,29,57,226,44,30,38,293,42,31,30,312,43,,,,*41
$GPGSA,M,3,02,12,14,25,29,30,31,,,,,,2.7,1.4,2.3*36
Trace #67 at position 16.500000
$GPZDA,090619.04,09,10,2011,00,00*6F
$GPRMC,090619.00,A,4611.972757,N,01258.221956,E,001.9,165.3,091011,0.2,E,A*3F
$GPGGA,090620.00,4611.972208,N,01258.222089,E,1,07,1.4,139.96,M,46.25,M,,*6B
$GPGLL,4611.972208,N,01258.222089,E,090620.00,A,A*6D
$GPVTG,179.0,T,179.1,M,002.0,N,003.7,K,A*24
$GPGSV,2,1,07,02,38,072,43,12,53,083,40,14,25,248,40,25,79,000,47*7E
$GPGSV,2,2,07,29,57,226,44,30,38,293,42,31,30,312,43,,,,*41
$GPGSA,M,3,02,12,14,25,29,30,31,,,,,,2.7,1.4,2.3*36
Trace #68 at position 16.750000
$GPZDA,090620.04,09,10,2011,00,00*65
$GPRMC,090620.00,A,4611.972208,N,01258.222089,E,002.0,179.0,091011,0.2,E,A*36
$GPGGA,090621.00,4611.971719,N,01258.222248,E,1,07,1.4,139.97,M,46.25,M,,*62
$GPGLL,4611.971719,N,01258.222248,E,090621.00,A,A*65
$GPVTG,159.1,T,159.3,M,001.4,N,002.7,K,A*21
$GPGSV,2,1,07,02,38,072,42,12,53,083,40,14,25,248,39,25,79,000,47*71
$GPGSV,2,2,07,29,57,226,44,30,38,293,41,31,30,312,42,,,,*43
$GPGSA,M,3,02,12,14,25,29,30,31,,,,,,2.7,1.4,2.3*36
Trace #69 at position 17.000000
$GPZDA,090620.04,09,10,2011,00,00*65
$GPRMC,090620.00,A,4611.972208,N,01258.222089,E,002.0,179.0,091011,0.2,E,A*36
$GPGGA,090621.00,4611.971719,N,01258.222248,E,1,07,1.4,139.97,M,46.25,M,,*62
$GPGLL,4611.971719,N,01258.222248,E,090621.00,A,A*65
$GPVTG,159.1,T,159.3,M,001.4,N,002.7,K,A*21
$GPGSV,2,1,07,02,38,072,42,12,53,083,40,14,25,248,39,25,79,000,47*71
$GPGSV,2,2,07,29,57,226,44,30,38,293,41,31,30,312,42,,,,*43
$GPGSA,M,3,02,12,14,25,29,30,31,,,,,,2.7,1.4,2.3*36
Trace #70 at position 17.250000
$GPZDA,090620.04,09,10,2011,00,00*65
$GPRMC,090620.00,A,4611.972208,N,01258.222089,E,002.0,179.0,091011,0.2,E,A*36
$GPGGA,090621.00,4611.971719,N,01258.222248,E,1,07,1.4,139.97,M,46.25,M,,*62
$GPGLL,4611.971719,N,01258.222248,E,090621.00,A,A*65
$GPVTG,159.1,T,159.3,M,001.4,N,002.7,K,A*21
$GPGSV,2,1,07,02,38,072,42,12,53,083,40,14,25,248,39,25,79,000,47*71
$GPGSV,2,2,07,29,57,226,44,30,38,293,41,31,30,312,42,,,,*43
$GPGSA,M,3,02,12,14,25,29,30,31,,,,,,2.7,1.4,2.3*36
Trace #71 at position 17.500000
$GPZDA,090621.04,09,10,2011,00,00*64
$GPRMC,090621.00,A,4611.971719,N,01258.222248,E,001.4,159.1,091011,0.2,E,A*3A
$GPGGA,090622.00,4611.971242,N,01258.222587,E,1,07,1.4,140.12,M,46.25,M,,*6D
$GPGLL,4611.971242,N,01258.222587,E,090622.00,A,A*69
$GPVTG,151.3,T,151.5,M,002.1,N,003.9,K,A*2C
$GPGSV,2,1,07,02,38,072,42,12,53,083,39,14,25,248,38,25,79,000,47*7E
$GPGSV,2,2,07,29,57,226,44,30,38,293,41,31,30,312,42,,,,*43
$GPGSA,M,3,02,12,14,25,29,30,31,,,,,,2.7,1.4,2.3*36
Trace #72 at position 17.750000
$GPZDA,090621.04,09,10,2011,00,00*64
$GPRMC,090621.00,A,4611.971719,N,01258.222248,E,001.4,159.1,091011,0.2,E,A*3A
$GPGGA,090622.00,4611.971242,N,01258.222587,E,1,07,1.4,140.12,M,46.25,M,,*6D
$GPGLL,4611.971242,N,01258.222587,E,090622.00,A,A*69
$GPVTG,151.3,T,151.5,M,002.1,N,003.9,K,A*2C
$GPGSV,2,1,07,02,38,072,42,12,53,083,39,14,25,248,38,25,79,000,47*7E
$GPGSV,2,2,07,29,57,226,44,30,38,293,41,31,30,312,42,,,,*43
$GPGSA,M,3,02,12,14,25,29,30,31,,,,,,2.7,1.4,2.3*36
Trace #73 at position 18.000000
$GPZDA,090621.04,09,10,2011,00,00*64
$GPRMC,090621.00,A,4611.971719,N,01258.222248,E,001.4,159.1,091011,0.2,E,A*3A
$GPGGA,090622.00,4611.971242,N,01258.222587,E,1,07,1.4,140.12,M,46.25,M,,*6D
$GPGLL,4611.971242,N,01258.222587,E,090622.00,A,A*69
$GPVTG,151.3,T,151.5,M,002.1,N,003.9,K,A*2C
$GPGSV,2,1,07,02,38,072,42,12,53,083,39,14,25,248,38,25,79,000,47*7E
$GPGSV,2,2,07,29,57,226,44,30,38,293,41,31,30,312,42,,,,*43
$GPGSA,M,3,02,12,14,25,29,30,31,,,,,,2.7,1.4,2.3*36
Trace #74 at position 18.250000
$GPZDA,090622.04,09,10,2011,00,00*67
$GPRMC,090622.00,A,4611.971242,N,01258.222587,E,002.1,151.3,091011,0.2,E,A*3A
$GPGGA,090623.00,4611.970754,N,01258.222879,E,1,07,1.4,140.12,M,46.25,M,,*63
$GPGLL,4611.970754,N,01258.222879,E,090623.00,A,A*67
$GPVTG,166.0,T,166.2,M,001.5,N,002.8,K,A*2F
$GPGSV,2,1,07,02,38,072,42,12,53,083,40,14,25,248,38,25,79,000,47*70
$GPGSV,2,2,07,29,57,226,44,30,38,293,42,31,30,312,42,,,,*40
$GPGSA,M,3,02,12,14,25,29,30,31,,,,,,2.7,1.4,2.3*36
Trace #75 at position 18.500000
$GPZDA,090622.04,09,10,2011,00,00*67
$GPRMC,090622.00,A,4611.971242,N,01258.222587,E,002.1,151.3,091011,0.2,E,A*3A
$GPGGA,090623.00,4611.970754,N,01258.222879,E,1,07,1.4,140.12,M,46.25,M,,*63
$GPGLL,4611.970754,N,01258.222879,E,090623.00,A,A*67
$GPVTG,166.0,T,166.2,M,001.5,N,002.8,K,A*2F
$GPGSV,2,1,07,02,38,072,42,12,53,083,40,14,25,248,38,25,79,000,47*70
$GPGSV,2,2,07,29,57,226,44,30,38,293,42,31,30,312,42,,,,*40
$GPGSA,M,3,02,12,14,25,29,30,31,,,,,,2.7,1.4,2.3*36
Trace #76 at position 18.750000
$GPZDA,090622.04,09,10,2011,00,00*67
$GPRMC,090622.00,A,4611.971242,N,01258.222587,E,002.1,151.3,091011,0.2,E,A*3A
$GPGGA,090623.00,4611.970754,N,01258.222879,E,1,07,1.4,140.12,M,46.25,M,,*63
$GPGLL,4611.970754,N,01258.222879,E,090623.00,A,A*67
$GPVTG,166.0,T,166.2,M,001.5,N,002.8,K,A*2F
$GPGSV,2,1,07,02,38,072,42,12,53,083,40,14,25,248,38,25,79,000,47*70
$GPGSV,2,2,07,29,57,226,44,30,38,293,42,31,30,312,42,,,,*40
$GPGSA,M,3,02,12,14,25,29,30,31,,,,,,2.7,1.4,2.3*36
Trace #77 at position 19.000000
$GPZDA,090623.04,09,10,2011,00,00*66
$GPRMC,090623.00,A,4611.970754,N,01258.222879,E,001.5,166.0,091011,0.2,E,A*34
$GPGGA,090624.00,4611.970339,N,01258.223052,E,1,07,1.4,140.14,M,46.25,M,,*6D
$GPGLL,4611.970339,N,01258.223052,E,090624.00,A,A*6F
$GPVTG,163.0,T,163.2,M,001.4,N,002.6,K,A*20
$GPGSV,2,1,07,02,38,072,44,12,53,083,40,14,25,248,39,25,79,000,47*77
$GPGSV,2,2,07,29,57,226,44,30,38,293,41,31,30,312,42,,,,*43
$GPGSA,M,3,02,12,14,25,29,30,31,,,,,,2.7,1.4,2.3*36
Trace #78 at position 19.250000
$GPZDA,090623.04,09,10,2011,00,00*66
$GPRMC,090623.00,A,4611.970754,N,01258.222879,E,001.5,166.0,091011,0.2,E,A*34
$GPGGA,090624.00,4611.970339,N,01258.223052,E,1,07,1.4,140.14,M,46.25,M,,*6D
$GPGLL,4611.970339,N,01258.223052,E,090624.00,A,A*6F
$GPVTG,163.0,T,163.2,M,001.4,N,002.6,K,A*20
$GPGSV,2,1,07,02,38,072,44,12,53,083,40,14,25,248,39,25,79,000,47*77
$GPGSV,2,2,07,29,57,226,44,30,38,293,41,31,30,312,42,,,,*43
$GPGSA,M,3,02,12,14,25,29,30,31,,,,,,2.7,1.4,2.3*36
Trace #79 at position 19.500000
$GPZDA,090623.04,09,10,2011,00,00*66
$GPRMC,090623.00,A,4611.970754,N,01258.222879,E,001.5,166.0,091011,0.2,E,A*34
$GPGGA,090624.00,4611.970339,N,01258.223052,E,1,07,1.4,140.14,M,46.25,M,,*6D
$GPGLL,4611.970339,N,01258.223052,E,090624.00,A,A*6F
$GPVTG,163.0,T,163.2,M,001.4,N,002.6,K,A*20
$GPGSV,2,1,07,02,38,072,44,12,53,083,40,14,25,248,39,25,79,000,47*77
$GPGSV,2,2,07,29,57,226,44,30,38,293,41,31,30,312,42,,,,*43
$GPGSA,M,3,02,12,14,25,29,30,31,,,,,,2.7,1.4,2.3*36
Trace #80 at position 19.750000
$GPZDA,090624.04,09,10,2011,00,00*61
$GPRMC,090624.00,A,4611.970339,N,01258.223052,E,001.4,163.0,091011,0.2,E,A*38
$GPGGA,090625.00,4611.970022,N,01258.223290,E,1,07,1.4,140.25,M,46.25,M,,*6B
$GPGLL,4611.970022,N,01258.223290,E,090625.00,A,A*6B
$GPVTG,134.8,T,135.0,M,001.0,N,001.9,K,A*23
$GPGSV,2,1,07,02,38,072,44,12,53,083,41,14,25,248,39,25,79,000,47*76
$GPGSV,2,2,07,29,57,226,44,30,38,293,41,31,30,312,41,,,,*40
$GPGSA,M,3,02,12,14,25,29,30,31,,,,,,2.7,1.4,2.3*36
Trace #81 at position 20.000000
$GPZDA,090624.04,09,10,2011,00,00*61
$GPRMC,090624.00,A,4611.970339,N,01258.223052,E,001.4,163.0,091011,0.2,E,A*38
$GPGGA,090625.00,4611.970022,N,01258.223290,E,1,07,1.4,140.25,M,46.25,M,,*6B
$GPGLL,4611.970022,N,01258.223290,E,090625.00,A,A*6B
$GPVTG,134.8,T,135.0,M,001.0,N,001.9,K,A*23
$GPGSV,2,1,07,02,38,072,44,12,53,083,41,14,25,248,39,25,79,000,47*76
$GPGSV,2,2,07,29,57,226,44,30,38,293,41,31,30,312,41,,,,*40
$GPGSA,M,3,02,12,14,25,29,30,31,,,,,,2.7,1.4,2.3*36
Trace #82 at position 20.250000
$GPZDA,090624.04,09,10,2011,00,00*61
$GPRMC,090624.00,A,4611.970339,N,01258.223052,E,001.4,163.0,091011,0.2,E,A*38
$GPGGA,090625.00,4611.970022,N,01258.223290,E,1,07,1.4,140.25,M,46.25,M,,*6B
$GPGLL,4611.970022,N,01258.223290,E,090625.00,A,A*6B
$GPVTG,134.8,T,135.0,M,001.0,N,001.9,K,A*23
$GPGSV,2,1,07,02,38,072,44,12,53,083,41,14,25,248,39,25,79,000,47*76
$GPGSV,2,2,07,29,57,226,44,30,38,293,41,31,30,312,41,,,,*40
$GPGSA,M,3,02,12,14,25,29,30,31,,,,,,2.7,1.4,2.3*36
Trace #83 at position 20.500000
$GPZDA,090624.04,09,10,2011,00,00*61
$GPRMC,090624.00,A,4611.970339,N,01258.223052,E,001.4,163.0,091011,0.2,E,A*38
$GPGGA,090625.00,4611.970022,N,01258.223290,E,1,07,1.4,140.25,M,46.25,M,,*6B
$GPGLL,4611.970022,N,01258.223290,E,090625.00,A,A*6B
$GPVTG,134.8,T,135.0,M,001.0,N,001.9,K,A*23
$GPGSV,2,1,07,02,38,072,44,12,53,083,41,14,25,248,39,25,79,000,47*76
$GPGSV,2,2,07,29,57,226,44,30,38,293,41,31,30,312,41,,,,*40
$GPGSA,M,3,02,12,14,25,29,30,31,,,,,,2.7,1.4,2.3*36
Trace #84 at position 20.750000
$GPZDA,090625.04,09,10,2011,00,00*60
$GPRMC,090625.00,A,4611.970022,N,01258.223290,E,001.0,134.8,091011,0.2,E,A*32
$GPGGA,090626.00,4611.969566,N,01258.223467,E,1,07,1.4,140.12,M,46.25,M,,*6F
$GPGLL,4611.969566,N,01258.223467,E,090626.00,A,A*6B
$GPVTG,176.2,T,176.3,M,002.3,N,004.3,K,A*24
$GPGSV,2,1,07,02,38,072,44,12,53,083,42,14,25,248,39,25,79,000,47*75
$GPGSV,2,2,07,29,57,226,43,30,38,293,42,31,30,312,42,,,,*47
$GPGSA,M,3,02,12,14,25,29,30,31,,,,,,2.7,1.4,2.3*36
Trace #85 at position 21.000000
$GPZDA,090625.04,09,10,2011,00,00*60
$GPRMC,090625.00,A,4611.970022,N,01258.223290,E,001.0,134.8,091011,0.2,E,A*32
$GPGGA,090626.00,4611.969566,N,01258.223467,E,1,07,1.4,140.12,M,46.25,M,,*6F
$GPGLL,4611.969566,N,01258.223467,E,090626.00,A,A*6B
$GPVTG,176.2,T,176.3,M,002.3,N,004.3,K,A*24
$GPGSV,2,1,07,02,38,072,44,12,53,083,42,14,25,248,39,25,79,000,47*75
$GPGSV,2,2,07,29,57,226,43,30,38,293,42,31,30,312,42,,,,*47
$GPGSA,M,3,02,12,14,25,29,30,31,,,,,,2.7,1.4,2.3*36
Trace #86 at position 21.250000
$GPZDA,090625.04,09,10,2011,00,00*60
$GPRMC,090625.00,A,4611.970022,N,01258.223290,E,001.0,134.8,091011,0.2,E,A*32
$GPGGA,090626.00,4611.969566,N,01258.223467,E,1,07,1.4,140.12,M,46.25,M,,*6F
$GPGLL,4611.969566,N,01258.223467,E,090626.00,A,A*6B
$GPVTG,176.2,T,176.3,M,002.3,N,004.3,K,A*24
$GPGSV,2,1,07,02,38,072,44,12,53,083,42,14,25,248,39,25,79,000,47*75
$GPGSV,2,2,07,29,57,226,43,30,38,293,42,31,30,312,42,,,,*47
$GPGSA,M,3,02,12,14,25,29,30,31,,,,,,2.7,1.4,2.3*36
Trace #87 at position 21.500000
$GPZDA,090626.04,09,10,2011,00,00*63
$GPRMC,090626.00,A,4611.969566,N,01258.223467,E,002.3,176.2,091011,0.2,E,A*3E
$GPGGA,090627.00,4611.969058,N,01258.223442,E,1,07,1.4,139.94,M,46.25,M,,*61
$GPGLL,4611.969058,N,01258.223442,E,090627.00,A,A*65
$GPVTG,199.4,T,199.6,M,001.3,N,002.3,K,A*22
$GPGSV,2,1,07,02,38,072,43,12,53,083,41,14,25,248,38,25,79,000,47*70
$GPGSV,2,2,07,29,57,226,44,30,38,293,41,31,30,312,42,,,,*43
$GPGSA,M,3,02,12,14,25,29,30,31,,,,,,2.7,1.4,2.3*36
Trace #88 at position 21.750000
$GPZDA,090626.04,09,10,2011,00,00*63
$GPRMC,090626.00,A,4611.969566,N,01258.223467,E,002.3,176.2,091011,0.2,E,A*3E
$GPGGA,090627.00,4611.969058,N,01258.223442,E,1,07,1.4,139.94,M,46.25,M,,*61
$GPGLL,4611.969058,N,01258.223442,E,090627.00,A,A*65
$GPVTG,199.4,T,199.6,M,001.3,N,002.3,K,A*22
$GPGSV,2,1,07,02,38,072,43,12,53,083,41,14,25,248,38,25,79,000,47*70
$GPGSV,2,2,07,29,57,226,44,30,38,293,41,31,30,312,42,,,,*43
$GPGSA,M,3,02,12,14,25,29,30,31,,,,,,2.7,1.4,2.3*36
Trace #89 at position 22.000000
$GPZDA,090627.04,09,10,2011,00,00*62
$GPRMC,090627.00,A,4611.969058,N,01258.223442,E,001.3,199.4,091011,0.2,E,A*34
$GPGGA,090628.00,4611.968601,N,01258.223535,E,1,07,1.4,139.88,M,46.25,M,,*69
$GPGLL,4611.968601,N,01258.223535,E,090628.00,A,A*60
$GPVTG,162.0,T,162.1,M,002.1,N,003.9,K,A*2B
$GPGSV,2,1,07,02,38,072,42,12,53,083,40,14,25,248,37,25,79,000,47*7F
$GPGSV,2,2,07,29,57,226,44,30,38,293,41,31,30,312,42,,,,*43
$GPGSA,M,3,02,12,14,25,29,30,31,,,,,,2.7,1.4,2.3*36
Trace #90 at position 22.250000
$GPZDA,090627.04,09,10,2011,00,00*62
$GPRMC,090627.00,A,4611.969058,N,01258.223442,E,001.3,199.4,091011,0.2,E,A*34
$GPGGA,090628.00,4611.968601,N,01258.223535,E,1,07,1.4,139.88,M,46.25,M,,*69
$GPGLL,4611.968601,N,01258.223535,E,090628.00,A,A*60
$GPVTG,162.0,T,162.1,M,002.1,N,003.9,K,A*2B
$GPGSV,2,1,07,02,38,072,42,12,53,083,40,14,25,248,37,25,79,000,47*7F
$GPGSV,2,2,07,29,57,226,44,30,38,293,41,31,30,312,42,,,,*43
$GPGSA,M,3,02,12,14,25,29,30,31,,,,,,2.7,1.4,2.3*36
Trace #91 at position 22.500000
$GPZDA,090627.04,09,10,2011,00,00*62
$GPRMC,090627.00,A,4611.969058,N,01258.223442,E,001.3,199.4,091011,0.2,E,A*34
$GPGGA,090628.00,4611.968601,N,01258.223535,E,1,07,1.4,139.88,M,46.25,M,,*69
$GPGLL,4611.968601,N,01258.223535,E,090628.00,A,A*60
$GPVTG,162.0,T,162.1,M,002.1,N,003.9,K,A*2B
$GPGSV,2,1,07,02,38,072,42,12,53,083,40,14,25,248,37,25,79,000,47*7F
$GPGSV,2,2,07,29,57,226,44,30,38,293,41,31,30,312,42,,,,*43
$GPGSA,M,3,02,12,14,25,29,30,31,,,,,,2.7,1.4,2.3*36
Trace #92 at position 22.750000
$GPZDA,090627.04,09,10,2011,00,00*62
$GPRMC,090627.00,A,4611.969058,N,01258.223442,E,001.3,199.4,091011,0.2,E,A*34
$GPGGA,090628.00,4611.968601,N,01258.223535,E,1,07,1.4,139.88,M,46.25,M,,*69
$GPGLL,4611.968601,N,01258.223535,E,090628.00,A,A*60
$GPVTG,162.0,T,162.1,M,002.1,N,003.9,K,A*2B
$GPGSV,2,1,07,02,38,072,42,12,53,083,40,14,25,248,37,25,79,000,47*7F
$GPGSV,2,2,07,29,57,226,44,30,38,293,41,31,30,312,42,,,,*43
$GPGSA,M,3,02,12,14,25,29,30,31,,,,,,2.7,1.4,2.3*36
Trace #93 at position 23.000000
$GPZDA,090628.04,09,10,2011,00,00*6D
$GPRMC,090628.00,A,4611.968601,N,01258.223535,E,002.1,162.0,091011,0.2,E,A*30
$GPGGA,090629.00,4611.968177,N,01258.223710,E,1,07,1.4,139.83,M,46.25,M,,*60
$GPGLL,4611.968177,N,01258.223710,E,090629.00,A,A*62
$GPVTG,180.5,T,180.6,M,001.0,N,001.8,K,A*28
$GPGSV,2,1,07,02,38,072,44,12,53,083,42,14,25,248,40,25,79,000,47*7B
$GPGSV,2,2,07,29,57,226,44,30,38,293,42,31,30,312,42,,,,*40
$GPGSA,M,3,02,12,14,25,29,30,31,,,,,,2.7,1.4,2.3*36
Trace #94 at position 23.250000
$GPZDA,090628.04,09,10,2011,00,00*6D
$GPRMC,090628.00,A,4611.968601,N,01258.223535,E,002.1,162.0,091011,0.2,E,A*30
$GPGGA,090629.00,4611.968177,N,01258.223710,E,1,07,1.4,139.83,M,46.25,M,,*60
$GPGLL,4611.968177,N,01258.223710,E,090629.00,A,A*62
$GPVTG,180.5,T,180.6,M,001.0,N,001.8,K,A*28
$GPGSV,2,1,07,02,38,072,44,12,53,083,42,14,25,248,40,25,79,000,47*7B
$GPGSV,2,2,07,29,57,226,44,30,38,293,42,31,30,312,42,,,,*40
$GPGSA,M,3,02,12,14,25,29,30,31,,,,,,2.7,1.4,2.3*36
Trace #95 at position 23.500000
$GPZDA,090628.04,09,10,2011,00,00*6D
$GPRMC,090628.00,A,4611.968601,N,01258.223535,E,002.1,162.0,091011,0.2,E,A*30
$GPGGA,090629.00,4611.968177,N,01258.223710,E,1,07,1.4,139.83,M,46.25,M,,*60
$GPGLL,4611.968177,N,01258.223710,E,090629.00,A,A*62
$GPVTG,180.5,T,180.6,M,001.0,N,001.8,K,A*28
$GPGSV,2,1,07,02,38,072,44,12,53,083,42,14,25,248,40,25,79,000,47*7B
$GPGSV,2,2,07,29,57,226,44,30,38,293,42,31,30,312,42,,,,*40
$GPGSA,M,3,02,12,14,25,29,30,31,,,,,,2.7,1.4,2.3*36
Trace #96 at position 23.750000
$GPZDA,090629.04,09,10,2011,00,00*6C
$GPRMC,090629.00,A,4611.968177,N,01258.223710,E,001.0,180.5,091011,0.2,E,A*39
$GPGGA,090630.00,4611.967834,N,01258.223912,E,1,07,1.4,139.84,M,46.25,M,,*62
$GPGLL,4611.967834,N,01258.223912,E,090630.00,A,A*67
$GPVTG,149.8,T,150.0,M,001.6,N,002.9,K,A*2F
$GPGSV,2,1,07,02,38,072,42,12,53,083,41,14,25,248,39,25,79,000,46*71
$GPGSV,2,2,07,29,57,226,44,30,38,293,42,31,30,312,42,,,,*40
$GPGSA,M,3,02,12,14,25,29,30,31,,,,,,2.7,1.4,2.3*36
Trace #97 at position 24.000000
$GPZDA,090629.04,09,10,2011,00,00*6C
$GPRMC,090629.00,A,4611.968177,N,01258.223710,E,001.0,180.5,091011,0.2,E,A*39
$GPGGA,090630.00,4611.967834,N,01258.223912,E,1,07,1.4,139.84,M,46.25,M,,*62
$GPGLL,4611.967834,N,01258.223912,E,090630.00,A,A*67
$GPVTG,149.8,T,150.0,M,001.6,N,002.9,K,A*2F
$GPGSV,2,1,07,02,38,072,42,12,53,083,41,14,25,248,39,25,79,000,46*71
$GPGSV,2,2,07,29,57,226,44,30,38,293,42,31,30,312,42,,,,*40
$GPGSA,M,3,02,12,14,25,29,30,31,,,,,,2.7,1.4,2.3*36
Trace #98 at position 24.250000
$GPZDA,090630.04,09,10,2011,00,00*64
$GPRMC,090630.00,A,4611.967834,N,01258.223912,E,001.6,149.8,091011,0.2,E,A*32
$GPGGA,090631.00,4611.967454,N,01258.224206,E,1,07,1.4,139.88,M,46.25,M,,*6C
$GPGLL,4611.967454,N,01258.224206,E,090631.00,A,A*65
$GPVTG,157.5,T,157.6,M,001.3,N,002.4,K,A*24
$GPGSV,2,1,07,02,38,072,42,12,53,083,39,14,25,248,40,25,79,000,47*71
$GPGSV,2,2,07,29,57,226,44,30,38,293,41,31,30,312,41,,,,*40
$GPGSA,M,3,02,12,14,25,29,30,31,,,,,,2.7,1.4,2.3*36
Trace #99 at position 24.500000
$GPZDA,090632.04,09,10,2011,00,00*66
$GPRMC,090632.00,A,4611.967163,N,01258.224370,E,000.8,166.8,091011,0.2,E,A*30
$GPGGA,090633.00,4611.966972,N,01258.224385,E,1,06,1.5,139.82,M,46.25,M,,*66
$GPGLL,4611.966972,N,01258.224385,E,090633.00,A,A*65
$GPVTG,202.6,T,202.8,M,000.5,N,000.9,K,A*21
$GPGSV,2,1,07,02,38,072,37,12,53,083,36,14,25,248,37,25,79,000,46*7D
$GPGSV,2,2,07,29,57,226,43,30,38,293,40,31,30,312,42,,,,*45
$GPGSA,M,3,02,14,25,29,30,31,,,,,,,2.8,1.5,2.3*3B
Trace #100 at position 24.750000
$GPZDA,090633.04,09,10,2011,00,00*67
$GPRMC,090633.00,A,4611.966972,N,01258.224385,E,000.5,202.6,091011,0.2,E,A*30
$GPGGA,090634.00,4611.966920,N,01258.224344,E,1,06,1.5,139.75,M,46.25,M,,*63
$GPGLL,4611.966920,N,01258.224344,E,090634.00,A,A*68
$GPVTG,321.7,T,321.9,M,000.2,N,000.4,K,A*2B
$GPGSV,2,1,07,02,38,072,40,12,53,083,37,14,25,248,38,25,79,000,45*70
$GPGSV,2,2,07,29,57,226,44,30,38,293,41,31,30,312,41,,,,*40
$GPGSA,M,3,02,14,25,29,30,31,,,,,,,2.8,1.5,2.3*3B
Trace #101 at position 25.000000
$GPZDA,090633.04,09,10,2011,00,00*67
$GPRMC,090633.00,A,4611.966972,N,01258.224385,E,000.5,202.6,091011,0.2,E,A*30
$GPGGA,090634.00,4611.966920,N,01258.224344,E,1,06,1.5,139.75,M,46.25,M,,*63
$GPGLL,4611.966920,N,01258.224344,E,090634.00,A,A*68
$GPVTG,321.7,T,321.9,M,000.2,N,000.4,K,A*2B
$GPGSV,2,1,07,02,38,072,40,12,53,083,37,14,25,248,38,25,79,000,45*70
$GPGSV,2,2,07,29,57,226,44,30,38,293,41,31,30,312,41,,,,*40
$GPGSA,M,3,02,14,25,29,30,31,,,,,,,2.8,1.5,2.3*3B
Trace #102 at position 25.250000
$GPZDA,090633.04,09,10,2011,00,00*67
$GPRMC,090633.00,A,4611.966972,N,01258.224385,E,000.5,202.6,091011,0.2,E,A*30
$GPGGA,090634.00,4611.966920,N,01258.224344,E,1,06,1.5,139.75,M,46.25,M,,*63
$GPGLL,4611.966920,N,01258.224344,E,090634.00,A,A*68
$GPVTG,321.7,T,321.9,M,000.2,N,000.4,K,A*2B
$GPGSV,2,1,07,02,38,072,40,12,53,083,37,14,25,248,38,25,79,000,45*70
$GPGSV,2,2,07,29,57,226,44,30,38,293,41,31,30,312,41,,,,*40
$GPGSA,M,3,02,14,25,29,30,31,,,,,,,2.8,1.5,2.3*3B
Trace #103 at position 25.500000
$GPZDA,090634.03,09,10,2011,00,00*67
$GPRMC,090634.00,A,4611.966920,N,01258.224344,E,000.2,321.7,091011,0.2,E,A*3B
$GPGGA,090635.00,4611.966931,N,01258.224347,E,1,07,1.4,139.74,M,46.25,M,,*60
$GPGLL,4611.966931,N,01258.224347,E,090635.00,A,A*6A
$GPVTG,308.5,T,308.7,M,000.1,N,000.3,K,A*23
$GPGSV,2,1,07,02,38,072,42,12,53,083,42,14,25,248,39,25,79,000,47*73
$GPGSV,2,2,07,29,57,226,43,30,38,293,41,31,30,312,42,,,,*44
$GPGSA,M,3,02,12,14,25,29,30,31,,,,,,2.7,1.4,2.3*36
Trace #104 at position 25.750000
$GPZDA,090634.03,09,10,2011,00,00*67
$GPRMC,090634.00,A,4611.966920,N,01258.224344,E,000.2,321.7,091011,0.2,E,A*3B
$GPGGA,090635.00,4611.966931,N,01258.224347,E,1,07,1.4,139.74,M,46.25,M,,*60
$GPGLL,4611.966931,N,01258.224347,E,090635.00,A,A*6A
$GPVTG,308.5,T,308.7,M,000.1,N,000.3,K,A*23
$GPGSV,2,1,07,02,38,072,42,12,53,083,42,14,25,248,39,25,79,000,47*73
$GPGSV,2,2,07,29,57,226,43,30,38,293,41,31,30,312,42,,,,*44
$GPGSA,M,3,02,12,14,25,29,30,31,,,,,,2.7,1.4,2.3*36
Trace #105 at position 26.000000
$GPZDA,090634.03,09,10,2011,00,00*67
$GPRMC,090634.00,A,4611.966920,N,01258.224344,E,000.2,321.7,091011,0.2,E,A*3B
$GPGGA,090635.00,4611.966931,N,01258.224347,E,1,07,1.4,139.74,M,46.25,M,,*60
$GPGLL,4611.966931,N,01258.224347,E,090635.00,A,A*6A
$GPVTG,308.5,T,308.7,M,000.1,N,000.3,K,A*23
$GPGSV,2,1,07,02,38,072,42,12,53,083,42,14,25,248,39,25,79,000,47*73
$GPGSV,2,2,07,29,57,226,43,30,38,293,41,31,30,312,42,,,,*44
$GPGSA,M,3,02,12,14,25,29,30,31,,,,,,2.7,1.4,2.3*36
Trace #106 at position 26.250000
$GPZDA,090634.03,09,10,2011,00,00*67
$GPRMC,090634.00,A,4611.966920,N,01258.224344,E,000.2,321.7,091011,0.2,E,A*3B
$GPGGA,090635.00,4611.966931,N,01258.224347,E,1,07,1.4,139.74,M,46.25,M,,*60
$GPGLL,4611.966931,N,01258.224347,E,090635.00,A,A*6A
$GPVTG,308.5,T,308.7,M,000.1,N,000.3,K,A*23
$GPGSV,2,1,07,02,38,072,42,12,53,083,42,14,25,248,39,25,79,000,47*73
$GPGSV,2,2,07,29,57,226,43,30,38,293,41,31,30,312,42,,,,*44
$GPGSA,M,3,02,12,14,25,29,30,31,,,,,,2.7,1.4,2.3*36
Trace #107 at position 26.500000
$GPZDA,090635.04,09,10,2011,00,00*61
$GPRMC,090635.00,A,4611.966931,N,01258.224347,E,000.1,308.5,091011,0.2,E,A*33
$GPGGA,090636.00,4611.966665,N,01258.224412,E,1,07,1.4,139.73,M,46.25,M,,*6D
$GPGLL,4611.966665,N,01258.224412,E,090636.00,A,A*60
$GPVTG,175.7,T,175.9,M,001.8,N,003.3,K,A*24
$GPGSV,2,1,07,02,38,072,42,12,53,083,40,14,25,248,40,25,79,000,47*7F
$GPGSV,2,2,07,29,57,226,43,30,38,293,42,31,30,312,43,,,,*46
$GPGSA,M,3,02,12,14,25,29,30,31,,,,,,2.7,1.4,2.3*36
Trace #108 at position 26.750000
$GPZDA,090635.04,09,10,2011,00,00*61
$GPRMC,090635.00,A,4611.966931,N,01258.224347,E,000.1,308.5,091011,0.2,E,A*33
$GPGGA,090636.00,4611.966665,N,01258.224412,E,1,07,1.4,139.73,M,46.25,M,,*6D
$GPGLL,4611.966665,N,01258.224412,E,090636.00,A,A*60
$GPVTG,175.7,T,175.9,M,001.8,N,003.3,K,A*24
$GPGSV,2,1,07,02,38,072,42,12,53,083,40,14,25,248,40,25,79,000,47*7F
$GPGSV,2,2,07,29,57,226,43,30,38,293,42,31,30,312,43,,,,*46
$GPGSA,M,3,02,12,14,25,29,30,31,,,,,,2.7,1.4,2.3*36
Trace #109 at position 27.000000
$GPZDA,090635.04,09,10,2011,00,00*61
$GPRMC,090635.00,A,4611.966931,N,01258.224347,E,000.1,308.5,091011,0.2,E,A*33
$GPGGA,090636.00,4611.966665,N,01258.224412,E,1,07,1.4,139.73,M,46.25,M,,*6D
$GPGLL,4611.966665,N,01258.224412,E,090636.00,A,A*60
$GPVTG,175.7,T,175.9,M,001.8,N,003.3,K,A*24
$GPGSV,2,1,07,02,38,072,42,12,53,083,40,14,25,248,40,25,79,000,47*7F
$GPGSV,2,2,07,29,57,226,43,30,38,293,42,31,30,312,43,,,,*46
$GPGSA,M,3,02,12,14,25,29,30,31,,,,,,2.7,1.4,2.3*36
Trace #110 at position 27.250000
$GPZDA,090635.04,09,10,2011,00,00*61
$GPRMC,090635.00,A,4611.966931,N,01258.224347,E,000.1,308.5,091011,0.2,E,A*33
$GPGGA,090636.00,4611.966665,N,01258.224412,E,1,07,1.4,139.73,M,46.25,M,,*6D
$GPGLL,4611.966665,N,01258.224412,E,090636.00,A,A*60
$GPVTG,175.7,T,175.9,M,001.8,N,003.3,K,A*24
$GPGSV,2,1,07,02,38,072,42,12,53,083,40,14,25,248,40,25,79,000,47*7F
$GPGSV,2,2,07,29,57,226,43,30,38,293,42,31,30,312,43,,,,*46
$GPGSA,M,3,02,12,14,25,29,30,31,,,,,,2.7,1.4,2.3*36
Trace #111 at position 27.500000
$GPZDA,090636.04,09,10,2011,00,00*62
$GPRMC,090636.00,A,4611.966665,N,01258.224412,E,001.8,175.7,091011,0.2,E,A*3B
$GPGGA,090637.00,4611.966098,N,01258.224661,E,1,07,1.4,139.71,M,46.25,M,,*6C
$GPGLL,4611.966098,N,01258.224661,E,090637.00,A,A*63
$GPVTG,158.7,T,158.9,M,002.2,N,004.1,K,A*28
$GPGSV,2,1,07,02,38,072,41,12,53,083,38,14,25,248,40,25,79,001,47*72
$GPGSV,2,2,07,29,57,226,43,30,38,293,42,31,30,312,42,,,,*47
$GPGSA,M,3,02,12,14,25,29,30,31,,,,,,2.7,1.4,2.3*36
Trace #112 at position 27.750000
$GPZDA,090636.04,09,10,2011,00,00*62
$GPRMC,090636.00,A,4611.966665,N,01258.224412,E,001.8,175.7,091011,0.2,E,A*3B
$GPGGA,090637.00,4611.966098,N,01258.224661,E,1,07,1.4,139.71,M,46.25,M,,*6C
$GPGLL,4611.966098,N,01258.224661,E,090637.00,A,A*63
$GPVTG,158.7,T,158.9,M,002.2,N,004.1,K,A*28
$GPGSV,2,1,07,02,38,072,41,12,53,083,38,14,25,248,40,25,79,001,47*72
$GPGSV,2,2,07,29,57,226,43,30,38,293,42,31,30,312,42,,,,*47
$GPGSA,M,3,02,12,14,25,29,30,31,,,,,,2.7,1.4,2.3*36
Trace #113 at position 28.000000
$GPZDA,090636.04,09,10,2011,00,00*62
$GPRMC,090636.00,A,4611.966665,N,01258.224412,E,001.8,175.7,091011,0.2,E,A*3B
$GPGGA,090637.00,4611.966098,N,01258.224661,E,1,07,1.4,139.71,M,46.25,M,,*6C
$GPGLL,4611.966098,N,01258.224661,E,090637.00,A,A*63
$GPVTG,158.7,T,158.9,M,002.2,N,004.1,K,A*28
$GPGSV,2,1,07,02,38,072,41,12,53,083,38,14,25,248,40,25,79,001,47*72
$GPGSV,2,2,07,29,57,226,43,30,38,293,42,31,30,312,42,,,,*47
$GPGSA,M,3,02,12,14,25,29,30,31,,,,,,2.7,1.4,2.3*36
Trace #114 at position 28.250000
$GPZDA,090636.04,09,10,2011,00,00*62
$GPRMC,090636.00,A,4611.966665,N,01258.224412,E,001.8,175.7,091011,0.2,E,A*3B
$GPGGA,090637.00,4611.966098,N,01258.224661,E,1,07,1.4,139.71,M,46.25,M,,*6C
$GPGLL,4611.966098,N,01258.224661,E,090637.00,A,A*63
$GPVTG,158.7,T,158.9,M,002.2,N,004.1,K,A*28
$GPGSV,2,1,07,02,38,072,41,12,53,083,38,14,25,248,40,25,79,001,47*72
$GPGSV,2,2,07,29,57,226,43,30,38,293,42,31,30,312,42,,,,*47
$GPGSA,M,3,02,12,14,25,29,30,31,,,,,,2.7,1.4,2.3*36
Trace #115 at position 28.500000
$GPZDA,090637.04,09,10,2011,00,00*63
$GPRMC,090637.00,A,4611.966098,N,01258.224661,E,002.2,158.7,091011,0.2,E,A*3E
$GPGGA,090638.00,4611.965570,N,01258.224903,E,1,07,1.4,139.70,M,46.25,M,,*69
$GPGLL,4611.965570,N,01258.224903,E,090638.00,A,A*67
$GPVTG,175.8,T,175.9,M,001.6,N,003.0,K,A*26
$GPGSV,2,1,07,02,38,072,42,12,53,083,40,14,25,248,40,25,79,001,47*7E
$GPGSV,2,2,07,29,57,226,43,30,38,293,43,31,30,312,42,,,,*46
$GPGSA,M,3,02,12,14,25,29,30,31,,,,,,2.7,1.4,2.3*36
Trace #116 at position 28.750000
$GPZDA,090637.04,09,10,2011,00,00*63
$GPRMC,090637.00,A,4611.966098,N,01258.224661,E,002.2,158.7,091011,0.2,E,A*3E
$GPGGA,090638.00,4611.965570,N,01258.224903,E,1,07,1.4,139.70,M,46.25,M,,*69
$GPGLL,4611.965570,N,01258.224903,E,090638.00,A,A*67
$GPVTG,175.8,T,175.9,M,001.6,N,003.0,K,A*26
