Trace #1 at position 0.000000
$GPZDA,130931.03,06,10,2011,00,00*69
$GPRMC,130931.00,A,4611.976508,N,01258.204682,E,000.2,166.9,061011,0.2,$GPGGA,130932.00,4611.976510,N,01258.204784,E,1,05,2.2,137.58,M,46.25,M,,*63
$GPGLL,4611.976510,N,01258.204784,E,130932.00,A,A*6E
$GPVTG,190.8,T,191.0,M,000.2,N,000.4,K,A*2C
$GPGSV,3,1,09,16,53,300,41,31,08,209,34,18,37,134,25,29,24,090,34*7C
$GPGSV,3,2,09,30,27,160,,21,73,069,37,22,14,171,,03,32,290,37*73
$GPGSV,3,3,09,06,47,291,41,,,,,,,,,,,,*4A
$GPGSA,M,3,16,31,29,21,06,,,,,,,,3.7,2.2,3.0*32
Trace #2 at position 0.250000
$GPZDA,131027.03,06,10,2011,00,00*66
$GPRMC,131027.00,A,4611.977672,N,01258.205693,E,000.3,53.5,061011,0.2,E,A*0B
$GPGGA,131028.00,4611.977648,N,01258.205668197.5,T,197.6,M,000.0,N,000.0,K,A*20
$GPGSV,3,1,09,16,53,300,41,31,07,209,30,18,37,133,,29,23,091,34*71
$GPGSV,3,2,09,30,27,160,,21,73,069,38,22,14,171,,03,32,290,35*7E
$GPGSV,3,3,09,06,47,291,41,,,,,,,,,,,,*4A
$GPGSA,M,3,16,31,29,21,03,06,,,,,,,3.0,1.7,2.4*35
Trace #3 at position 0.500000
$GPZDA,131029.03,06,10,2011,00,00*68
$GPRMC,131029.00,A,4611.977591,N,01258.205600,E,000.2,199.0,061011,0.2,E,A*32
$GPGGA,131030.00,4611.977528,N,01258.205544,E,1,06,1.8,136.25,M,46.25,M,,*6D
$GPGLL,4611.977528,N,01258.205544,E,131030.00,A,A*61
$GPVTG,173.4,T,173.6,M,000.1,N,000.3,K,A*23
$GPGSV,3,1,09,16,53,30$GPGSV,3,3,09,06,47,291,41,,,,,,,,,,,,*4A
$GPGSA,M,3,16,31,29,21,03,06,,,,,,,3.0,1.8,2.4*3A
Trace #4 at position 0.750000
$GPZDA,131030.03,06,10,2011,00,00*60
$GPRMC,131030.00,A,4611.977528,N,01258.205544,E,000.1,173.4,061011,0.2,E,A*38
$GPGGA,131031.00,4611.977482,N,01258.205513,E,1,06,1.8,136.41,M,46.25,M,,*6D
$GPGLL,4611.977482,N,01258.205513,E,131031.00,A,A*63
$GPVTG,134.5,T,134.6,M,000.1,N,000.1,K,A*20
$GPGSV,3,1,09,16,53,300,40,31,07,209,32,18,37,133,,29,23,091,32*74
$GPGSV,3,2,09,30,27,160,,21,72,068,38,22,14,171,,03,32,22.4*3A
$GPZDA,131031.03,06,10,2011,00,00*61
$GPRMC,131031.00,A,4611.977482,N,01258.205513,E,000.1,134.5,061011,0.2,E,A*38
$GPGGA,131032.00,4611.977479,N,01258.205502,E,1,06,1.8,136.49,M,46.25,M,,*62
$GPGLL,4611.977479,N,01258.205502,E,131032.00,A,A*64
$GPVTG,31.6,T,31.7,M,000.2,N,000.3,K,A*23
$GPGSV,3,1,09,16,53,300,41,31,07,209,32,18,37,133,,29,23,091,36*71
$GPGSV,3,2,09,30,27,160,,21,72,068,39,22,14,171,,03,32,290,38*72
$GPGSV,3,3,09,06,47,291,41,,,,,,,,,,,,*4A
$GPGSA,M,3,16,31,29,21,03,06,,,,,,,$GPGGA,131033.00,4611.977482,N,01258.205484,E,1,06,1.8,136.51,M,46.25,M,,*61
Trace #5 at position 1.000000
$GPGLL,4611.977482,N,01258.205484,E,131033.00,A,A*6E
$GPVTG,33.1,T,33.3,M,000.0,N,000.0,K,A*21
$GPGSV,3,1,09,16,53,300,41,31,07,209,31,18,37,133,,29,23,091,36*72
$GPGSV,3,2,09,30,27,160,,21,72,068,38,22,14,171,,03,32,290,38*73
$GPGSV,3,3,09,06,47,291,40,,,,,,,,,,,,*4B
$GPGSA,M,3,16,31,29,21,03,06,,,,,,,3.0,1.8,2.4*3A
Trace #6 at position 1.250000
$GPZDA,131033.04,06,10,2011,00,00*64
$GPRMC,131033.00,A,4611.977482,N,01258.205484,E,000.0,33.1,061011,0.2,E$GPGGA,131034.00,4611.977469,N,01258.205462,E,1,06,1.8,136.53,M,46.25,M,,*69
$GPGLL,4611.977469,N,01258.205462,E,131034.00,A,A*64
$GPVTG,47.6,T,47.7,M,000.1,N,000.1,K,A*22
$GPGSV,3,1,09,16,53,300,41,31,07,209,32,18,37,133,,29,23,091,36*71
$GPGSV,3,2,09,30,27,160,,21,72,068,38,22,14,171,,03,32,290,38*73
$GPGSV,3,3,09,06,47,291,40,,,,,,,,,,,,*4B
$GPGSA,M,3,16,31,29,21,03,06,,,,,,,3.0,1.8,2.4*3A
Trace #7 at position 1.500000
$GPZDA,131035.03,06,10,2011,00,00*65
$GPRMC,131035.00,A,4611.977451,N,01258.205474,E,000.2,88.5,061011,0.2,E$GPGGA,131036.00,4611.977390,N,01258.205526,E,1,06,1.8,136.62,M,46.25,M,,*69
$GPGLL,4611.977390,N,01258.205526,E,131036.00,A,A*66
$GPVTG,131.3,T,131.5,M,000.4,N,000.7,K,A*26
$GPGSV,3,1,09,16,53,299,40,31,07,209,33,18,37,133,,29,23,091,37*71
$GPGSV,3,2,09,30,27,160,,21,72,068,38,22,14,171,,03,32,290,38*73
$GPGSV,3,3,09,06,47,291,39,,,,,,,,,,,,*45
$GPGSA,M,3,16,31,29,21,03,06,,,,,,,3.0,1.8,2.4*3A
Trace #8 at position 1.750000
$GPZDA,131036.03,06,10,2011,00,00*66
$GPRMC,131036.00,A,4611.977390,N,01258.205526,E,000.4,131.3,061011,0.$GPGGA,131037.00,4611.977285,N,01258.205593,E,1,06,1.8,136.68,M,46.25,M,,*69
$GPGLL,4611.977285,N,01258.205593,E,131037.00,A,A*6C
$GPVTG,141.7,T,141.9,M,000.4,N,000.8,K,A*21
$GPGSV,3,1,09,16,53,299,41,31,07,209,34,18,37,133,,29,23,091,36*76
$GPGSV,3,2,09,30,27,160,,21,72,068,38,22,14,171,,03,32,290,38*73
$GPGSV,3,3,09,06,48,291,41,,,,,,,,,,,,*45
$GPGSA,M,3,16,31,29,21,03,06,,,,,,,3.0,1.8,2.4*3A
Trace #9 at position 2.000000
$GPZDA,131037.03,06,10,2011,00,00*67
$GPRMC,131037.00,A,4611.977285,N,01258.205593,E,000.4,141.7,061011,0.$GPGGA,131038.00,4611.977239,N,01258.205595,E,1,06,1.8,136.66,M,46.25,M,,*69
$GPGLL,4611.977239,N,01258.205595,E,131038.00,A,A*62
$GPVTG,338.8,T,338.9,M,000.2,N,000.4,K,A*24
$GPGSV,3,1,09,16,53,299,41,31,07,209,35,18,37,133,,29,23,091,36*77
$GPGSV,3,2,09,30,27,160,,21,72,068,38,22,14,171,,03,32,290,38*73
$GPGSV,3,3,09,06,48,291,40,,,,,,,,,,,,*44
$GPGSA,M,3,16,31,29,21,03,06,,,,,,,3.0,1.8,2.4*3A
Trace #10 at position 2.250000
$GPZDA,131038.04,06,10,2011,00,00*6F
$GPRMC,131038.00,A,4611.977239,N,01258.205595,E,000.2,338.8,061011,0.$GPGGA,131039.00,4611.977189,N,01258.205583,E,1,06,1.8,136.66,M,46.25,M,,*67
$GPGLL,4611.977189,N,01258.205583,E,131039.00,A,A*6C
$GPVTG,151.9,T,152.0,M,000.3,N,000.6,K,A*2C
$GPGSV,3,1,09,16,53,299,42,31,07,209,34,18,37,133,,29,23,091,35*76
$GPGSV,3,2,09,30,27,160,,21,72,068,38,22,14,171,,03,32,290,39*72
$GPGSV,3,3,09,06,48,291,41,,,,,,,,,,,,*45
$GPGSA,M,3,16,31,29,21,03,06,,,,,,,3.0,1.8,2.4*3A
Trace #11 at position 2.500000
$GPZDA,131040.04,06,10,2011,00,00*60
$GPRMC,131040.00,A,4611.977095,N,01258.205625,E,000.2,122.8,061011,0.2,E,A*33
$GPGGA,131041.00,4611.976976,N,01258.205617,E,1,06,1.8.9,K,A*2E
$GPGSV,3,1,09,16,53,299,41,31,07,209,33,18,37,133,,29,23,091,35*72
$GPGSV,3,2,09,30,27,160,,21,72,068,37,22,14,171,,03,32,290,38*7C
$GPGSV,3,3,09,06,48,291,41,,,,,,,,,,,,*45
$GPGSA,M,3,16,31,29,21,03,06,,,,,,,3.0,1.8,2.4*3A
Trace #12 at position 2.750000
$GPZDA,131041.03,06,10,2011,00,00*66
$GPRMC,131041.00,A,4611.976976,N,01258.205617,E,000.5,196.4,061011,0.2,E,A*32
$GPGGA,131042.00,4611.976856,N,01258.205581,E,1,06,1.8,136.75,M,46.25,M,,*61
$GPGLL,4611.976856,N,01258.205581,E,131042.00,A,A*68
$GPVTG,182.2,T,182.4,M,02,14,171,,03,32,290,38*73
$GPGSV,3,3,09,06,48,291,41,,,,,,,,,,,,*45
$GPGSA,M,3,16,31,29,21,03,06,,,,,,,3.0,1.8,2.4*3A
Trace #13 at position 3.000000
$GPZDA,131042.03,06,10,2011,00,00*65
$GPRMC,131042.00,A,4611.976856,N,01258.205581,E,000.2,182.2,061011,0.2,E,A*3A
$GPGGA,131043.00,4611.976797,N,01258.205688,E,1,06,1.8,136.78,M,46.25,M,,*65
$GPGLL,4611.976797,N,01258.205688,E,131043.00,A,A*61
$GPVTG,85.0,T,85.1,M,000.6,N,001.1,K,A*24
$GPGSV,3,1,09,16,53,299,42,31,07,209,35,18,37,133,,29,23,091,34*76
$GPGSV,3,2,09,30,27,160,,21,72,,,,,,,,,,*46
$GPGSA,M,3,16,31,29,21,03,06,,,,,,,3.0,1.8,2.4*3A
Trace #14 at position 3.250000
$GPZDA,131043.04,06,10,2011,00,00*63
$GPRMC,131043.00,A,4611.976797,N,01258.205688,E,000.6,85.0,061011,0.2,E,A*03
$GPGGA,131044.00,4611.976734,N,01258.205779,E,1,06,1.8,136.82,M,46.25,M,,*61
$GPGLL,4611.976734,N,01258.205779,E,131044.00,A,A*60
$GPVTG,184.0,T,184.1,M,000.3,N,000.5,K,A*24
$GPGSV,3,1,09,16,53,299,42,31,07,209,34,18,37,133,,29,23,091,33*70
$GPGSV,3,2,09,30,27,160,,21,72,068,36,22,14,171,,03,32,290,38*7D
$GPGSV,3,3,09,06,48,8,2.4*3A
$GPZDA,131044.03,06,10,2011,00,00*63
$GPRMC,131044.00,A,4611.976734,N,01258.205779,E,000.3,184.0,061011,0.2,E,A*37
$GPGGA,131045.00,4611.976610,N,01258.205817,E,1,06,1.8,136.84,M,46.25,M,,*66
$GPGLL,4611.976610,N,01258.205817,E,131045.00,A,A*61
$GPVTG,144.7,T,144.9,M,000.5,N,000.9,K,A*21
$GPGSV,3,1,09,16,53,299,42,31,07,209,35,18,37,133,,29,23,091,36*74
$GPGSV,3,2,09,30,27,160,,21,72,068,37,22,14,171,,03,32,290,39*7D
$GPGSV,3,3,09,06,48,291,41,,,,,,,,,,,,*45
$GPGSA,M,3,16,31,29,21,03,06,,,1.976610,N,01258.205817,E,000.5,144.7,061011,0.2,E,A*3B
Trace #15 at position 3.500000
$GPGGA,131046.00,4611.976447,N,01258.205840,E,1,06,1.8,136.74,M,46.25,M,,*68
$GPGLL,4611.976447,N,01258.205840,E,131046.00,A,A*60
$GPVTG,188.4,T,188.6,M,000.6,N,001.1,K,A*27
$GPGSV,3,1,09,16,53,299,41,31,07,209,35,18,37,133,,29,23,091,36*77
$GPGSV,3,2,09,30,27,160,,21,72,068,37,22,14,171,,03,32,290,38*7C
$GPGSV,3,3,09,06,48,291,41,,,,,,,,,,,,*45
$GPGSA,M,3,16,31,29,21,03,06,,,,,,,3.0,1.8,2.4*3A
Trace #16 at position 3.750000
$GPZDA,131046.03,06,10,2011,00,00*61
$GPRMC,13104$GPGGA,131047.00,4611.976343,N,01258.205800,E,1,06,1.8,136.70,M,46.25,M,,*6A
$GPGLL,4611.976343,N,01258.205800,E,131047.00,A,A*66
$GPVTG,305.7,T,305.9,M,000.1,N,000.2,K,A*2E
$GPGSV,3,1,09,16,53,299,41,31,07,209,34,18,37,133,,29,23,091,34*74
$GPGSV,3,2,09,30,27,160,,21,72,068,37,22,14,171,,03,32,290,39*7D
$GPGSV,3,3,09,06,48,291,41,,,,,,,,,,,,*45
$GPGSA,M,3,16,31,29,21,03,06,,,,,,,3.0,1.8,2.4*3A
Trace #17 at position 4.000000
$GPZDA,131047.03,06,10,2011,00,00*60
$GPRMC,131047.00,A,4611.976343,N,01258.205800,E,000.1,305.7,061011,0.$GPGGA,131048.00,4611.976266,N,01258.205807,E,1,06,1.8,136.73,M,46.25,M,,*67
$GPGLL,4611.976266,N,01258.205807,E,131048.00,A,A*68
$GPVTG,157.2,T,157.3,M,000.4,N,000.7,K,A*21
$GPGSV,3,1,09,16,53,299,42,31,07,209,34,18,37,133,,29,23,091,35*76
$GPGSV,3,2,09,30,27,160,,21,72,068,38,22,14,171,,03,32,290,38*73
$GPGSV,3,3,09,06,48,291,41,,,,,,,,,,,,*45
$GPGSA,M,3,16,31,29,21,03,06,,,,,,,3.0,1.8,2.4*3A
Trace #18 at position 4.250000
$GPZDA,131048.04,06,10,2011,00,00*68
$GPRMC,131048.00,A,4611.976266,N,01258.205807,E,000.4,157.2,061011,0.$GPGGA,131049.00,4611.976145,N,01258.205841,E,1,06,1.8,136.80,M,46.25,M,,*6A
$GPGLL,4611.976145,N,01258.205841,E,131049.00,A,A*69
$GPVTG,174.2,T,174.4,M,000.3,N,000.5,K,A*23
$GPGSV,3,1,09,16,53,299,41,31,07,209,34,18,38,133,,29,23,091,35*7A
$GPGSV,3,2,09,30,27,160,,21,72,068,36,22,14,171,,03,32,290,39*7C
$GPGSV,3,3,09,06,48,291,40,,,,,,,,,,,,*44
$GPGSA,M,3,16,31,29,21,03,06,,,,,,,3.0,1.8,2.4*3A
Trace #19 at position 4.500000
$GPZDA,131049.03,06,10,2011,00,00*6E
$GPRMC,131049.00,A,4611.976145,N,01258.205841,E,000.3,174.2,061011,0.$GPGGA,131050.00,4611.976001,N,01258.205898,E,1,06,1.8,136.89,M,46.25,M,,*6E
$GPGLL,4611.976001,N,01258.205898,E,131050.00,A,A*64
$GPVTG,154.4,T,154.6,M,000.7,N,001.2,K,A*25
$GPGSV,3,1,09,16,53,299,41,31,07,209,34,18,38,133,,29,23,091,34*7B
$GPGSV,3,2,09,30,27,160,,21,72,068,37,22,14,171,,03,32,290,39*7D
$GPGSV,3,3,09,06,48,291,40,,,,,,,,,,,,*44
$GPGSA,M,3,16,31,29,21,03,06,,,,,,,3.0,1.8,2.4*3A
Trace #20 at position 4.750000
$GPZDA,131049.03,06,10,2011,00,00*6E
$GPRMC,131049.00,A,4611.976145,N,01258.205841,E,000.3,174.2,061011,0.$GPGGA,131050.00,4611.976001,N,01258.205898,E,1,06,1.8,136.89,M,46.25,M,,*6E
$GPGLL,4611.976001,N,01258.205898,E,131050.00,A,A*64
$GPVTG,154.4,T,154.6,M,000.7,N,001.2,K,A*25
$GPGSV,3,1,09,16,53,299,41,31,07,209,34,18,38,133,,29,23,091,34*7B
$GPGSV,3,2,09,30,27,160,,21,72,068,37,22,14,171,,03,32,290,39*7D
$GPGSV,3,3,09,06,48,291,40,,,,,,,,,,,,*44
$GPGSA,M,3,16,31,29,21,03,06,,,,,,,3.0,1.8,2.4*3A
Trace #21 at position 5.000000
$GPZDA,131050.03,06,10,2011,00,00*66
$GPRMC,131050.00,A,4611.976001,N,01258.205898,E,000.7,154.4,061011,0.$GPGGA,131051.00,4611.975867,N,01258.205937,E,1,06,1.8,136.92,M,46.25,M,,*6A
$GPGLL,4611.975867,N,01258.205937,E,131051.00,A,A*6A
$GPVTG,198.0,T,198.2,M,000.2,N,000.4,K,A*27
$GPGSV,3,1,09,16,53,299,41,31,07,209,36,18,38,133,,29,23,091,34*79
$GPGSV,3,2,09,30,27,160,,21,72,068,37,22,14,171,,03,32,290,38*7C
$GPGSV,3,3,09,06,48,292,41,,,,,,,,,,,,*46
$GPGSA,M,3,16,31,29,21,03,06,,,,,,,3.0,1.8,2.4*3A
Trace #22 at position 5.250000
$GPZDA,131051.03,06,10,2011,00,00*67
$GPRMC,131051.00,A,4611.975867,N,01258.205937,E,000.2,198.0,061011,0.$GPGGA,131052.00,4611.975813,N,01258.205975,E,1,06,1.8,136.92,M,46.25,M,,*6C
$GPGLL,4611.975813,N,01258.205975,E,131052.00,A,A*6C
$GPVTG,82.0,T,82.2,M,000.3,N,000.5,K,A*27
$GPGSV,3,1,09,16,53,299,42,31,07,209,33,18,38,133,,29,23,091,34*7F
$GPGSV,3,2,09,30,27,160,,21,72,068,37,22,14,171,,03,32,290,39*7D
$GPGSV,3,3,09,06,48,292,41,,,,,,,,,,,,*46
$GPGSA,M,3,16,31,29,21,03,06,,,,,,,3.0,1.8,2.4*3A
Trace #23 at position 5.500000
$GPZDA,131052.03,06,10,2011,00,00*64
$GPRMC,131052.00,A,4611.975813,N,01258.205975,E,000.3,82.0,061011,0.2,E$GPGGA,131053.00,4611.975696,N,01258.206078,E,1,06,1.8,136.90,M,46.25,M,,*6B
$GPGLL,4611.975696,N,01258.206078,E,131053.00,A,A*69
$GPVTG,158.7,T,158.9,M,000.7,N,001.3,K,A*28
$GPGSV,3,1,09,16,53,299,41,31,07,209,34,18,38,133,,29,23,091,35*7A
$GPGSV,3,2,09,30,27,160,,21,72,068,37,22,14,171,,03,32,290,38*7C
$GPGSV,3,3,09,06,48,292,40,,,,,,,,,,,,*47
$GPGSA,M,3,16,31,29,21,03,06,,,,,,,3.0,1.8,2.4*3A
Trace #24 at position 5.750000
$GPZDA,131052.03,06,10,2011,00,00*64
$GPRMC,131052.00,A,4611.975813,N,01258.205975,E,000.3,82.0,061011,0.2,E$GPGGA,131053.00,4611.975696,N,01258.206078,E,1,06,1.8,136.90,M,46.25,M,,*6B
$GPGLL,4611.975696,N,01258.206078,E,131053.00,A,A*69
$GPVTG,158.7,T,158.9,M,000.7,N,001.3,K,A*28
$GPGSV,3,1,09,16,53,299,41,31,07,209,34,18,38,133,,29,23,091,35*7A
$GPGSV,3,2,09,30,27,160,,21,72,068,37,22,14,171,,03,32,290,38*7C
$GPGSV,3,3,09,06,48,292,40,,,,,,,,,,,,*47
$GPGSA,M,3,16,31,29,21,03,06,,,,,,,3.0,1.8,2.4*3A
Trace #25 at position 6.000000
$GPZDA,131053.04,06,10,2011,00,00*62
$GPRMC,131053.00,A,4611.975696,N,01258.206078,E,000.7,158.7,061011,0.46.25,M,,*65
$GPGLL,4611.975498,N,01258.206175,E,131054.00,A,A*6E
$GPVTG,156.5,T,156.6,M,000.7,N,001.2,K,A*24
$GPGSV,3,1,09,16,53,299,42,31,07,209,35,18,38,133,,29,23,091,35*78
$GPGSV,3,2,09,30,27,160,,21,72,068,37,22,14,171,,03,32,290,38*7C
$GPGSV,3,3,09,06,48,292,41,,,,,,,,,,,,*46
$GPGSA,M,3,16,31,29,21,03,06,,,,,,,3.0,1.8,2.4*3A
Trace #26 at position 6.250000
$GPZDA,131054.04,06,10,2011,00,00*65
$GPRMC,131054.00,A,4611.975498,N,01258.206175,E,000.7,156.5,061011,0.2,E,A*37
$GPGGA,131055.00,4611.975300,N,01258.206334,E,1,06,1.8PVTG,136.6,T,136.8,M,000.9,N,001.7,K,A*22
$GPGSV,3,1,09,16,53,299,42,31,07,209,35,18,38,133,,29,23,091,34*79
$GPGSV,3,2,09,30,27,161,,21,72,068,36,22,15,171,,03,32,290,39*7C
$GPGSV,3,3,09,06,48,292,41,,,,,,,,,,,,*46
$GPGSA,M,3,16,31,29,21,03,06,,,,,,,3.0,1.8,2.4*3A
Trace #27 at position 6.500000
$GPZDA,131055.03,06,10,2011,00,00*63
$GPRMC,131055.00,A,4611.975300,N,01258.206334,E,000.9,136.6,061011,0.2,E,A*3C
$GPGGA,131056.00,4611.975114,N,01258.206412,E,1,06,1.8,136.79,M,46.25,M,,*6C
$GPGLL,4611.975114,N,01258.206412,E,131056.00,92,40,,,,,,,,,,,,*47
$GPGSA,M,3,16,31,29,21,03,06,,,,,,,3.0,1.8,2.4*3A
Trace #28 at position 6.750000
$GPZDA,131055.03,06,10,2011,00,00*63
$GPRMC,131055.00,A,4611.975300,N,01258.206334,E,000.9,136.6,061011,0.2,E,A*3C
$GPGGA,131056.00,4611.975114,N,01258.206412,E,1,06,1.8,136.79,M,46.25,M,,*6C
$GPGLL,4611.975114,N,01258.206412,E,131056.00,92,40,,,,,,,,,,,,*47
$GPGSA,M,3,16,31,29,21,03,06,,,,,,,3.0,1.8,2.4*3A
Trace #29 at position 7.000000
$GPZDA,131055.03,06,10,2011,00,00*63
$GPRMC,131055.00,A,4611.975300,N,01258.206334,E,000.9,136.6,061011,0.2,E,A*3C
$GPGGA,131056.00,4611.975114,N,01258.206412,E,1,06,1.8,136.79,M,46.25,M,,*6C
$GPGLL,4611.975114,N,01258.206412,E,131056.00,92,40,,,,,,,,,,,,*47
$GPGSA,M,3,16,31,29,21,03,06,,,,,,,3.0,1.8,2.4*3A
Trace #30 at position 7.250000
$GPZDA,131056.03,06,10,2011,00,00*60
$GPRMC,131056.00,A,4611.975114,N,01258.206412,E,000.5,194.2,061011,0.2,E,A*3B
$GPGGA,131057.00,4611.974907,N,01258.206415,E,1,06,1.8,136.75,M,46.25,M,,*6D
$GPGLL,4611.974907,N,01258.206415,E,131057.00,A,A*64
$GPVTG,166.5,T,166.7,M,000.9,N,001.7,K,A*2E
$GPGSV,3,1,09,16,53,299,41,31,07,209,32,18,38,133,,29,23,091,35*7C
$GPGSV,3,2,09,30,27,161,,21,72,068,38,22,15,171,,03,32,290,39*72
$GPGSV,3,3,A
$GPZDA,131057.03,06,10,2011,00,00*61
$GPRMC,131057.00,A,4611.974907,N,01258.206415,E,000.9,166.5,061011,0.2,E,A*30
$GPGGA,131058.00,4611.974563,N,01258.206440,E,1,06,1.8,136.75,M,46.25,M,,*6C
$GPGLL,4611.974563,N,01258.206440,E,131058.00,A,A*65
$GPVTG,181.6,T,181.7,M,001.6,N,003.0,K,A*26
$GPGSV,3,1,09,16,53,299,42,31,07,209,32,18,38,133,,29,23,091,34*7E
$GPGSV,3,2,09,30,27,161,,21,72,068,37,22,15,171,,03,32,290,39*7D
$GPGSV,3,3,09,06,48,292,40,,,,,,,,,,,,*47
$GPGSA,M,3,16,31,29,21,03,06,,,,,,,3.0.00,A,4611.974563,N,01258.206440,E,001.6,181.6,061011,0.2,E,A*35
Trace #31 at position 7.500000
$GPZDA,131056.03,06,10,2011,00,00*60
$GPRMC,131056.00,A,4611.975114,N,01258.206412,E,000.5,194.2,061011,0.2,E,A*3B
$GPGGA,131057.00,4611.974907,N,01258.206415,E,1,06,1.8,136.75,M,46.25,M,,*6D
$GPGLL,4611.974907,N,01258.206415,E,131057.00,A,A*64
$GPVTG,166.5,T,166.7,M,000.9,N,001.7,K,A*2E
$GPGSV,3,1,09,16,53,299,41,31,07,209,32,18,38,133,,29,23,091,35*7C
$GPGSV,3,2,09,30,27,161,,21,72,068,38,22,15,171,,03,32,290,39*72
$GPGSV,3,3,A
$GPZDA,131057.03,06,10,2011,00,00*61
$GPRMC,131057.00,A,4611.974907,N,01258.206415,E,000.9,166.5,061011,0.2,E,A*30
$GPGGA,131058.00,4611.974563,N,01258.206440,E,1,06,1.8,136.75,M,46.25,M,,*6C
$GPGLL,4611.974563,N,01258.206440,E,131058.00,A,A*65
$GPVTG,181.6,T,181.7,M,001.6,N,003.0,K,A*26
$GPGSV,3,1,09,16,53,299,42,31,07,209,32,18,38,133,,29,23,091,34*7E
$GPGSV,3,2,09,30,27,161,,21,72,068,37,22,15,171,,03,32,290,39*7D
$GPGSV,3,3,09,06,48,292,40,,,,,,,,,,,,*47
$GPGSA,M,3,16,31,29,21,03,06,,,,,,,3.0.00,A,4611.974563,N,01258.206440,E,001.6,181.6,061011,0.2,E,A*35
Trace #32 at position 7.750000
$GPGGA,131059.00,4611.975129,N,01258.206705,E,1,05,22.6,136.77,M,46.25,M,,*5A
$GPGLL,4611.975129,N,01258.206705,E,131059.00,A,A*6D
$GPVTG,163.2,T,163.3,M,000.7,N,001.2,K,A*26
$GPGSV,3,1,09,16,53,299,41,31,07,209,33,18,38,133,,29,23,091,34*7C
$GPGSV,3,2,09,30,27,161,,21,72,068,37,22,15,171,,03,32,290,38*7C
$GPGSV,3,3,09,06,48,292,40,,,,,,,,,,,,*47
$GPGSA,M,3,16,29,21,03,06,,,,,,,,22.7,22.6,2.5*32
Trace #33 at position 8.000000
$GPZDA,131059.04,06,10,2011,00,00*68
$G$GPGGA,131100.00,4611.975615,N,01258.206943,E,1,05,22.6,136.71,M,46.25,M,,*55
$GPGLL,4611.975615,N,01258.206943,E,131100.00,A,A*64
$GPVTG,182.1,T,182.2,M,001.6,N,002.9,K,A*2C
$GPGSV,3,1,09,16,53,299,41,31,07,209,33,18,38,133,,29,23,091,35*7D
$GPGSV,3,2,09,30,27,161,,21,72,068,38,22,15,171,,03,32,290,38*73
$GPGSV,3,3,09,06,48,292,40,,,,,,,,,,,,*47
$GPGSA,M,3,16,29,21,03,06,,,,,,,,22.7,22.6,2.5*32
Trace #34 at position 8.250000
$GPZDA,131059.04,06,10,2011,00,00*68
$G$GPGGA,131100.00,4611.975615,N,01258.206943,E,1,05,22.6,136.71,M,46.25,M,,*55
$GPGLL,4611.975615,N,01258.206943,E,131100.00,A,A*64
$GPVTG,182.1,T,182.2,M,001.6,N,002.9,K,A*2C
$GPGSV,3,1,09,16,53,299,41,31,07,209,33,18,38,133,,29,23,091,35*7D
$GPGSV,3,2,09,30,27,161,,21,72,068,38,22,15,171,,03,32,290,38*73
$GPGSV,3,3,09,06,48,292,40,,,,,,,,,,,,*47
$GPGSA,M,3,16,29,21,03,06,,,,,,,,22.7,22.6,2.5*32
Trace #35 at position 8.500000
$GPZDA,131100.03,06,10,2011,00,00*62
$GPRMC,131100.00,A,4611.975615,N,01258.206943,E,001.6,182.1,061011,0$GPGGA,131101.00,4611.976035,N,01258.207119,E,1,05,22.7,136.70,M,46.25,M,,*55
$GPGLL,4611.976035,N,01258.207119,E,131101.00,A,A*64
$GPVTG,186.6,T,186.7,M,000.6,N,001.0,K,A*25
$GPGSV,3,1,09,16,53,299,41,31,07,209,34,18,38,133,,29,23,091,33*7C
$GPGSV,3,2,09,30,27,161,,21,72,068,37,22,15,171,,03,32,290,38*7C
$GPGSV,3,3,09,06,48,292,41,,,,,,,,,,,,*46
$GPGSA,M,3,16,29,21,03,06,,,,,,,,22.9,22.7,2.5*3D
Trace #36 at position 8.750000
$GPZDA,131100.03,06,10,2011,00,00*62
$GPRMC,131100.00,A,4611.975615,N,01258.206943,E,001.6,182.1,061011,0$GPGGA,131101.00,4611.976035,N,01258.207119,E,1,05,22.7,136.70,M,46.25,M,,*55
$GPGLL,4611.976035,N,01258.207119,E,131101.00,A,A*64
$GPVTG,186.6,T,186.7,M,000.6,N,001.0,K,A*25
$GPGSV,3,1,09,16,53,299,41,31,07,209,34,18,38,133,,29,23,091,33*7C
$GPGSV,3,2,09,30,27,161,,21,72,068,37,22,15,171,,03,32,290,38*7C
$GPGSV,3,3,09,06,48,292,41,,,,,,,,,,,,*46
$GPGSA,M,3,16,29,21,03,06,,,,,,,,22.9,22.7,2.5*3D
Trace #37 at position 9.000000
$GPZDA,131101.03,06,10,2011,00,00*63
$GPRMC,131101.00,A,4611.976035,N,01258.207119,E,000.6,186.6,061011,0$GPGGA,131102.00,4611.976832,N,01258.207609,E,1,04,24.8,135.86,M,46.25,M,,*5D
$GPGLL,4611.976832,N,01258.207609,E,131102.00,A,A*6E
$GPVTG,182.9,T,183.0,M,001.8,N,003.3,K,A*22
$GPGSV,3,1,09,16,53,299,41,31,07,209,31,18,38,133,,29,23,091,32*78
$GPGSV,3,2,09,30,27,161,,21,72,068,36,22,15,171,,03,32,290,39*7C
$GPGSV,3,3,09,06,48,292,40,,,,,,,,,,,,*47
$GPGSA,M,3,16,21,03,06,,,,,,,,,26.1,24.8,8.1*3D
Trace #38 at position 9.250000
$GPZDA,131102.03,06,10,2011,00,00*60
$GPRMC,131102.00,A,4611.976832,N,01258.207609,E,001.8,182.9,061011,0.2$GPGGA,131103.00,4611.977400,N,01258.208132,E,1,04,24.9,135.08,M,46.25,M,,*57
$GPGLL,4611.977400,N,01258.208132,E,131103.00,A,A*63
$GPVTG,167.6,T,167.7,M,001.7,N,003.1,K,A*26
$GPGSV,3,1,09,16,53,299,41,31,07,209,33,18,38,133,,29,23,091,32*7A
$GPGSV,3,2,09,30,27,161,,21,72,068,37,22,15,171,,03,32,290,39*7D
$GPGSV,3,3,09,06,48,292,41,,,,,,,,,,,,*46
$GPGSA,M,3,16,21,03,06,,,,,,,,,26.2,24.9,8.1*3F
Trace #39 at position 9.500000
$GPZDA,131102.03,06,10,2011,00,00*60
$GPRMC,131102.00,A,4611.976832,N,01258.207609,E,001.8,182.9,061011,0.2$GPGGA,131103.00,4611.977400,N,01258.208132,E,1,04,24.9,135.08,M,46.25,M,,*57
$GPGLL,4611.977400,N,01258.208132,E,131103.00,A,A*63
$GPVTG,167.6,T,167.7,M,001.7,N,003.1,K,A*26
$GPGSV,3,1,09,16,53,299,41,31,07,209,33,18,38,133,,29,23,091,32*7A
$GPGSV,3,2,09,30,27,161,,21,72,068,37,22,15,171,,03,32,290,39*7D
$GPGSV,3,3,09,06,48,292,41,,,,,,,,,,,,*46
$GPGSA,M,3,16,21,03,06,,,,,,,,,26.2,24.9,8.1*3F
Trace #40 at position 9.750000
$GPZDA,131103.04,06,10,2011,00,00*66
$GPRMC,131103.00,A,4611.977400,N,01258.208132,E,001.7,167.6,061011,0.2$GPGGA,131104.00,4611.976581,N,01258.208048,E,1,06,1.8,135.28,M,46.25,M,,*63
$GPGLL,4611.976581,N,01258.208048,E,131104.00,A,A*61
$GPVTG,178.7,T,178.9,M,000.8,N,001.5,K,A*21
$GPGSV,3,1,09,16,53,299,40,31,07,209,32,18,38,133,,29,23,091,33*7B
$GPGSV,3,2,09,30,27,161,,21,72,068,36,22,15,171,,03,32,290,39*7C
$GPGSV,3,3,09,06,48,292,40,,,,,,,,,,,,*47
$GPGSA,M,3,16,31,29,21,03,06,,,,,,,3.0,1.8,2.4*3A
Trace #41 at position 10.000000
$GPZDA,131103.04,06,10,2011,00,00*66
$GPRMC,131103.00,A,4611.977400,N,01258.208132,E,001.7,167.6,061011,0.2$GPGGA,131104.00,4611.976581,N,01258.208048,E,1,06,1.8,135.28,M,46.25,M,,*63
$GPGLL,4611.976581,N,01258.208048,E,131104.00,A,A*61
$GPVTG,178.7,T,178.9,M,000.8,N,001.5,K,A*21
$GPGSV,3,1,09,16,53,299,40,31,07,209,32,18,38,133,,29,23,091,33*7B
$GPGSV,3,2,09,30,27,161,,21,72,068,36,22,15,171,,03,32,290,39*7C
$GPGSV,3,3,09,06,48,292,40,,,,,,,,,,,,*47
$GPGSA,M,3,16,31,29,21,03,06,,,,,,,3.0,1.8,2.4*3A
Trace #42 at position 10.250000
$GPZDA,131104.04,06,10,2011,00,00*61
$GPRMC,131104.00,A,4611.976581,N,01258.208048,E,000.8,178.7,061011,0.$GPGGA,131105.00,4611.976861,N,01258.208181,E,1,05,23.0,135.36,M,46.25,M,,*51
$GPGLL,4611.976861,N,01258.208181,E,131105.00,A,A*67
$GPVTG,179.5,T,179.7,M,000.8,N,001.6,K,A*2E
$GPGSV,3,1,09,16,53,299,41,31,07,209,33,18,38,133,,29,23,091,33*7B
$GPGSV,3,2,09,30,27,161,,21,72,068,37,22,15,171,,03,32,290,39*7D
$GPGSV,3,3,09,06,48,292,40,,,,,,,,,,,,*47
$GPGSA,M,3,16,29,21,03,06,,,,,,,,23.1,23.0,2.5*32
Trace #43 at position 10.500000
$GPZDA,131104.04,06,10,2011,00,00*61
$GPRMC,131104.00,A,4611.976581,N,01258.208048,E,000.8,178.7,061011,0.$GPGGA,131105.00,4611.976861,N,01258.208181,E,1,05,23.0,135.36,M,46.25,M,,*51
$GPGLL,4611.976861,N,01258.208181,E,131105.00,A,A*67
$GPVTG,179.5,T,179.7,M,000.8,N,001.6,K,A*2E
$GPGSV,3,1,09,16,53,299,41,31,07,209,33,18,38,133,,29,23,091,33*7B
$GPGSV,3,2,09,30,27,161,,21,72,068,37,22,15,171,,03,32,290,39*7D
$GPGSV,3,3,09,06,48,292,40,,,,,,,,,,,,*47
$GPGSA,M,3,16,29,21,03,06,,,,,,,,23.1,23.0,2.5*32
Trace #44 at position 10.750000
$GPZDA,131105.04,06,10,2011,00,00*60
$GPRMC,131105.00,A,4611.976861,N,01258.208181,E,000.8,179.5,061011,0$GPGGA,131106.00,4611.977034,N,01258.208382,E,1,05,23.0,135.40,M,46.25,M,,*5B
$GPGLL,4611.977034,N,01258.208382,E,131106.00,A,A*6C
$GPVTG,164.7,T,164.9,M,001.4,N,002.5,K,A*2F
$GPGSV,3,1,09,16,53,299,41,31,07,209,33,18,38,133,,29,23,091,33*7B
$GPGSV,3,2,09,30,27,161,,21,72,068,37,22,15,171,,03,32,290,38*7C
$GPGSV,3,3,09,06,48,292,41,,,,,,,,,,,,*46
$GPGSA,M,3,16,29,21,03,06,,,,,,,,23.1,23.0,2.5*32
Trace #45 at position 11.000000
$GPZDA,131105.04,06,10,2011,00,00*60
$GPRMC,131105.00,A,4611.976861,N,01258.208181,E,000.8,179.5,061011,0$GPGGA,131106.00,4611.977034,N,01258.208382,E,1,05,23.0,135.40,M,46.25,M,,*5B
$GPGLL,4611.977034,N,01258.208382,E,131106.00,A,A*6C
$GPVTG,164.7,T,164.9,M,001.4,N,002.5,K,A*2F
$GPGSV,3,1,09,16,53,299,41,31,07,209,33,18,38,133,,29,23,091,33*7B
$GPGSV,3,2,09,30,27,161,,21,72,068,37,22,15,171,,03,32,290,38*7C
$GPGSV,3,3,09,06,48,292,41,,,,,,,,,,,,*46
$GPGSA,M,3,16,29,21,03,06,,,,,,,,23.1,23.0,2.5*32
Trace #46 at position 11.250000
$GPZDA,131106.04,06,10,2011,00,00*63
$GPRMC,131106.00,A,4611.977034,N,01258.208382,E,001.4,164.7,061011,046.25,M,,*65
$GPGLL,4611.976421,N,01258.208609,E,131107.00,A,A*6A
$GPVTG,146.9,T,147.1,M,001.0,N,001.9,K,A*23
$GPGSV,3,1,09,16,53,299,41,31,07,209,32,18,38,133,,29,23,091,33*7A
$GPGSV,3,2,09,30,27,161,32,21,72,068,37,22,15,171,,03,32,290,38*7D
$GPGSV,3,3,09,06,48,292,40,,,,,,,,,,,,*47
$GPGSA,M,3,16,31,21,03,06,,,,,,,,9.5,5.5,7.7*31
Trace #47 at position 11.500000
$GPZDA,131107.04,06,10,2011,00,00*62
$GPRMC,131107.00,A,4611.976421,N,01258.208609,E,001.0,146.9,061011,0.2,E,A*38
$GPGGA,131108.00,4611.976703,N,01258.208829,E,1,05,23.SV,3,1,09,16,53,299,41,31,07,209,32,18,38,133,,29,23,091,33*7A
$GPGSV,3,2,09,30,27,161,32,21,72,068,37,22,15,171,,03,32,290,38*7D
$GPGSV,3,3,09,06,48,292,41,,,,,,,,,,,,*46
$GPGSA,M,3,16,29,21,03,06,,,,,,,,23.3,23.1,2.5*31
Trace #48 at position 11.750000
$GPZDA,131107.04,06,10,2011,00,00*62
$GPRMC,131107.00,A,4611.976421,N,01258.208609,E,001.0,146.9,061011,0.2,E,A*38
$GPGGA,131108.00,4611.976703,N,01258.208829,E,1,05,23.SV,3,1,09,16,53,299,41,31,07,209,32,18,38,133,,29,23,091,33*7A
$GPGSV,3,2,09,30,27,161,32,21,72,068,37,22,15,171,,03,32,290,38*7D
$GPGSV,3,3,09,06,48,292,41,,,,,,,,,,,,*46
$GPGSA,M,3,16,29,21,03,06,,,,,,,,23.3,23.1,2.5*31
Trace #49 at position 12.000000
$GPZDA,131108.04,06,10,2011,00,00*6D
$GPRMC,131108.00,A,4611.976703,N,01258.208829,E,000.7,173.2,061011,0.2,E,A*33
$GPGGA,131109.00,4611.976955,N,01258.208880,E,1,05,23.3,135.10,M,46.25,M,,*54
$GPGLL,4611.976955,N,01258.208880,E,131109.00,A,A*65
$GPVTG,205.6,T,205.8,M,000.8,N,001.5GSV,3,2,09,30,27,161,34,21,72,068,37,22,15,171,,03,32,290,38*7B
$GPGSV,3,3,09,06,48,292,40,,,,,,,,,,,,*47
$GPGSA,M,3,16,29,21,03,06,,,,,,,,23.4,23.3,2.5*34
Trace #50 at position 12.250000
$GPZDA,131108.04,06,10,2011,00,00*6D
$GPRMC,131108.00,A,4611.976703,N,01258.208829,E,000.7,173.2,061011,0.2,E,A*33
$GPGGA,131109.00,4611.976955,N,01258.208880,E,1,05,23.3,135.10,M,46.25,M,,*54
$GPGLL,4611.976955,N,01258.208880,E,131109.00,A,A*65
$GPVTG,205.6,T,205.8,M,000.8,N,001.5GSV,3,2,09,30,27,161,34,21,72,068,37,22,15,171,,03,32,290,38*7B
$GPGSV,3,3,09,06,48,292,40,,,,,,,,,,,,*47
$GPGSA,M,3,16,29,21,03,06,,,,,,,,23.4,23.3,2.5*34
Trace #51 at position 12.500000
$GPZDA,131108.04,06,10,2011,00,00*6D
$GPRMC,131108.00,A,4611.976703,N,01258.208829,E,000.7,173.2,061011,0.2,E,A*33
$GPGGA,131109.00,4611.976955,N,01258.208880,E,1,05,23.3,135.10,M,46.25,M,,*54
$GPGLL,4611.976955,N,01258.208880,E,131109.00,A,A*65
$GPVTG,205.6,T,205.8,M,000.8,N,001.5GSV,3,2,09,30,27,161,34,21,72,068,37,22,15,171,,03,32,290,38*7B
$GPGSV,3,3,09,06,48,292,40,,,,,,,,,,,,*47
$GPGSA,M,3,16,29,21,03,06,,,,,,,,23.4,23.3,2.5*34
Trace #52 at position 12.750000
$GPZDA,131109.04,06,10,2011,00,00*6C
$GPRMC,131109.00,A,4611.976955,N,01258.208880,E,000.8,205.6,061011,0.2,E,A*35
$GPGGA,131110.00,4611.976278,N,01258.208762,E,1,06,1.5,135.29,M,46.25,M,,*64
$GPGLL,4611.976278,N,01258.208762,E,131110.00,A,A*6A
$GPVTG,31.1,T,31.3,M,001.4,N,002.6,K,A*20
$GPGSV,3,1,09,16,53,299,41,31,07,209,27,18,38,133,,29,23,091,RMC,131110.00,A,4611.976278,N,01258.208762,E,001.4,31.1,061011,0.2,E,A*05
$GPGGA,131111.00,4611.977035,N,01258.209253,E,1,04,25.4,134.66,M,46.25,M,,*56
$GPGLL,4611.977035,N,01258.209253,E,131111.00,A,A*67
$GPVTG,181.1,T,181.2,M,000.9,N,001.7,K,A*2F
$GPGSV,3,1,09,16,53,299,41,31,07,209,,18,38,133,,29,23,091,34*7C
$GPGSV,3,2,09,30,27,161,31,21,72,068,37,22,15,171,,03,32,290,38*7E
$GPGSV,3,3,09,06,48,292,41,,,,,,,,,,,,*46
$GPGSA,M,3,16,21,03,06,,,,,,,,,26.6,25.4,8.0*36
Trace #53 at position 13.000000
$GPZDA,131111.03,06,10,2011,00,00,061011,0.2,E,A*3E
$GPGGA,131112.00,4611.977607,N,01258.209649,E,1,05,23.4,134.24,M,46.25,M,,*5C
$GPGLL,4611.977607,N,01258.209649,E,131112.00,A,A*6C
$GPVTG,31.5,T,31.7,M,003.1,N,005.7,K,A*21
$GPGSV,3,1,09,16,53,299,42,31,07,209,,18,38,133,,29,23,091,32*79
$GPGSV,3,2,09,30,27,161,32,21,72,068,37,22,15,171,,03,32,290,38*7D
$GPGSV,3,3,09,06,48,292,41,,,,,,,,,,,,*46
$GPGSA,M,3,16,29,21,03,06,,,,,,,,23.6,23.4,2.5*31
Trace #54 at position 13.250000
$GPZDA,131111.03,06,10,2011,00,00,061011,0.2,E,A*3E
$GPGGA,131112.00,4611.977607,N,01258.209649,E,1,05,23.4,134.24,M,46.25,M,,*5C
$GPGLL,4611.977607,N,01258.209649,E,131112.00,A,A*6C
$GPVTG,31.5,T,31.7,M,003.1,N,005.7,K,A*21
$GPGSV,3,1,09,16,53,299,42,31,07,209,,18,38,133,,29,23,091,32*79
$GPGSV,3,2,09,30,27,161,32,21,72,068,37,22,15,171,,03,32,290,38*7D
$GPGSV,3,3,09,06,48,292,41,,,,,,,,,,,,*46
$GPGSA,M,3,16,29,21,03,06,,,,,,,,23.6,23.4,2.5*31
Trace #55 at position 13.500000
$GPZDA,131112.04,06,10,2011,00,00*66
$GPRMC,131112.00,A,4611.977607,N,01258.209649,E,00$GPGGA,131113.00,4611.978030,N,01258.210040,E,1,05,23.6,133.88,M,46.25,M,,*54
$GPGLL,4611.978030,N,01258.210040,E,131113.00,A,A*67
$GPVTG,170.6,T,170.7,M,001.1,N,002.1,K,A*21
$GPGSV,3,1,09,16,53,299,41,31,07,209,,18,38,133,,29,23,091,33*7B
$GPGSV,3,2,09,30,27,161,,21,72,068,37,22,15,171,,03,32,290,39*7D
$GPGSV,3,3,09,06,48,292,40,,,,,,,,,,,,*47
$GPGSA,M,3,16,29,21,03,06,,,,,,,,23.7,23.6,2.5*32
Trace #56 at position 13.750000
$GPZDA,131112.04,06,10,2011,00,00*66
$GPRMC,131112.00,A,4611.977607,N,01258.209649,E,00$GPGGA,131113.00,4611.978030,N,01258.210040,E,1,05,23.6,133.88,M,46.25,M,,*54
$GPGLL,4611.978030,N,01258.210040,E,131113.00,A,A*67
$GPVTG,170.6,T,170.7,M,001.1,N,002.1,K,A*21
$GPGSV,3,1,09,16,53,299,41,31,07,209,,18,38,133,,29,23,091,33*7B
$GPGSV,3,2,09,30,27,161,,21,72,068,37,22,15,171,,03,32,290,39*7D
$GPGSV,3,3,09,06,48,292,40,,,,,,,,,,,,*47
$GPGSA,M,3,16,29,21,03,06,,,,,,,,23.7,23.6,2.5*32
Trace #57 at position 14.000000
$GPZDA,131113.03,06,10,2011,00,00*60
$GPRMC,131113.00,A,4611.978030,N,01258.210040,E,001.1,170.6,061011,0.2$GPGGA,131114.00,4611.978045,N,01258.210224,E,1,05,23.6,133.83,M,46.25,M,,*5A
$GPGLL,4611.978045,N,01258.210224,E,131114.00,A,A*62
$GPVTG,91.4,T,91.5,M,000.6,N,001.1,K,A*24
$GPGSV,3,1,09,16,53,299,42,31,07,209,,18,38,133,,29,23,091,32*79
$GPGSV,3,2,09,30,27,161,33,21,72,068,37,22,15,171,,03,32,290,38*7C
$GPGSV,3,3,09,06,48,292,41,,,,,,,,,,,,*46
$GPGSA,M,3,16,29,21,03,06,,,,,,,,23.7,23.6,2.5*32
Trace #58 at position 14.250000
$GPZDA,131114.03,06,10,2011,00,00*67
$GPRMC,131114.00,A,4611.978045,N,01258.210224,E,000.6,91.4,061011,0.2,$GPGGA,131115.00,4611.978074,N,01258.210454,E,1,05,23.7,133.81,M,46.25,M,,*5B
$GPGLL,4611.978074,N,01258.210454,E,131115.00,A,A*60
$GPVTG,156.6,T,156.7,M,001.2,N,002.3,K,A*20
$GPGSV,3,1,09,16,53,299,42,31,07,209,,18,38,133,,29,23,091,34*7F
$GPGSV,3,2,09,30,26,161,31,21,72,068,37,22,15,171,,03,32,290,38*7F
$GPGSV,3,3,09,06,48,292,41,,,,,,,,,,,,*46
$GPGSA,M,3,16,29,21,03,06,,,,,,,,23.8,23.7,2.6*3F
Trace #59 at position 14.500000
$GPZDA,131114.03,06,10,2011,00,00*67
$GPRMC,131114.00,A,4611.978045,N,01258.210224,E,000.6,91.4,061011,0.2,$GPGGA,131115.00,4611.978074,N,01258.210454,E,1,05,23.7,133.81,M,46.25,M,,*5B
$GPGLL,4611.978074,N,01258.210454,E,131115.00,A,A*60
$GPVTG,156.6,T,156.7,M,001.2,N,002.3,K,A*20
$GPGSV,3,1,09,16,53,299,42,31,07,209,,18,38,133,,29,23,091,34*7F
$GPGSV,3,2,09,30,26,161,31,21,72,068,37,22,15,171,,03,32,290,38*7F
$GPGSV,3,3,09,06,48,292,41,,,,,,,,,,,,*46
$GPGSA,M,3,16,29,21,03,06,,,,,,,,23.8,23.7,2.6*3F
Trace #60 at position 14.750000
$GPZDA,131114.03,06,10,2011,00,00*67
$GPRMC,131114.00,A,4611.978045,N,01258.210224,E,000.6,91.4,061011,0.2,$GPGGA,131115.00,4611.978074,N,01258.210454,E,1,05,23.7,133.81,M,46.25,M,,*5B
$GPGLL,4611.978074,N,01258.210454,E,131115.00,A,A*60
$GPVTG,156.6,T,156.7,M,001.2,N,002.3,K,A*20
$GPGSV,3,1,09,16,53,299,42,31,07,209,,18,38,133,,29,23,091,34*7F
$GPGSV,3,2,09,30,26,161,31,21,72,068,37,22,15,171,,03,32,290,38*7F
$GPGSV,3,3,09,06,48,292,41,,,,,,,,,,,,*46
$GPGSA,M,3,16,29,21,03,06,,,,,,,,23.8,23.7,2.6*3F
Trace #61 at position 15.000000
$GPZDA,131115.03,06,10,2011,00,00*66
$GPRMC,131115.00,A,4611.978074,N,01258.210454,E,001.2,156.6,061011,0$GPGGA,131116.00,4611.977935,N,01258.210592,E,1,05,23.7,134.01,M,46.25,M,,*5F
$GPGLL,4611.977935,N,01258.210592,E,131116.00,A,A*6B
$GPVTG,170.3,T,170.5,M,001.0,N,001.9,K,A*2C
$GPGSV,3,1,09,16,53,299,41,31,07,209,,18,38,133,,29,23,091,34*7C
$GPGSV,3,2,09,30,26,161,,21,72,068,37,22,15,171,,03,32,290,39*7C
$GPGSV,3,3,09,06,48,292,41,,,,,,,,,,,,*46
$GPGSA,M,3,16,29,21,03,06,,,,,,,,23.8,23.7,2.6*3F
Trace #62 at position 15.250000
$GPZDA,131115.03,06,10,2011,00,00*66
$GPRMC,131115.00,A,4611.978074,N,01258.210454,E,001.2,156.6,061011,0$GPGGA,131116.00,4611.977935,N,01258.210592,E,1,05,23.7,134.01,M,46.25,M,,*5F
$GPGLL,4611.977935,N,01258.210592,E,131116.00,A,A*6B
$GPVTG,170.3,T,170.5,M,001.0,N,001.9,K,A*2C
$GPGSV,3,1,09,16,53,299,41,31,07,209,,18,38,133,,29,23,091,34*7C
$GPGSV,3,2,09,30,26,161,,21,72,068,37,22,15,171,,03,32,290,39*7C
$GPGSV,3,3,09,06,48,292,41,,,,,,,,,,,,*46
$GPGSA,M,3,16,29,21,03,06,,,,,,,,23.8,23.7,2.6*3F
Trace #63 at position 15.500000
$GPZDA,131116.03,06,10,2011,00,00*65
$GPRMC,131116.00,A,4611.977935,N,01258.210592,E,001.0,170.3,061011,0.2$GPGGA,131117.00,4611.977786,N,01258.210683,E,1,05,23.7,134.05,M,46.25,M,,*5F
$GPGLL,4611.977786,N,01258.210683,E,131117.00,A,A*6F
$GPVTG,171.5,T,171.7,M,001.2,N,002.2,K,A*22
$GPGSV,3,1,09,16,53,299,41,31,07,209,,18,38,133,,29,23,091,33*7B
$GPGSV,3,2,09,30,26,161,34,21,72,068,37,22,15,171,,03,32,290,39*7B
$GPGSV,3,3,09,06,48,292,41,,,,,,,,,,,,*46
$GPGSA,M,3,16,29,21,03,06,,,,,,,,23.8,23.7,2.6*3F
Trace #64 at position 15.750000
$GPZDA,131116.03,06,10,2011,00,00*65
$GPRMC,131116.00,A,4611.977935,N,01258.210592,E,001.0,170.3,061011,0.2$GPGGA,131117.00,4611.977786,N,01258.210683,E,1,05,23.7,134.05,M,46.25,M,,*5F
$GPGLL,4611.977786,N,01258.210683,E,131117.00,A,A*6F
$GPVTG,171.5,T,171.7,M,001.2,N,002.2,K,A*22
$GPGSV,3,1,09,16,53,299,41,31,07,209,,18,38,133,,29,23,091,33*7B
$GPGSV,3,2,09,30,26,161,34,21,72,068,37,22,15,171,,03,32,290,39*7B
$GPGSV,3,3,09,06,48,292,41,,,,,,,,,,,,*46
$GPGSA,M,3,16,29,21,03,06,,,,,,,,23.8,23.7,2.6*3F
Trace #65 at position 16.000000
$GPZDA,131117.03,06,10,2011,00,00*64
$GPRMC,131117.00,A,4611.977786,N,01258.210683,E,001.2,171.5,061011,0$GPGGA,131118.00,4611.976929,N,01258.210695,E,1,05,5.5,133.68,M,46.25,M,,*67
$GPGLL,4611.976929,N,01258.210695,E,131118.00,A,A*6D
$GPVTG,169.0,T,169.2,M,000.7,N,001.3,K,A*24
$GPGSV,3,1,09,16,53,299,41,31,07,209,36,18,38,133,,29,23,091,33*7E
$GPGSV,3,2,09,30,26,161,32,21,72,068,37,22,15,171,,03,32,290,39*7D
$GPGSV,3,3,09,06,48,292,41,,,,,,,,,,,,*46
$GPGSA,M,3,16,31,21,03,06,,,,,,,,9.5,5.5,7.7*31
Trace #66 at position 16.250000
$GPZDA,131118.04,06,10,2011,00,00*6C
$GPRMC,131118.00,A,4611.976929,N,01258.210695,E,000.7,169.0,061011,0.1258.210488,E,1,07,1.4,134.15,M,46.25,M,,*6A
$GPGLL,4611.975845,N,01258.210488,E,131119.00,A,A*6A
$GPVTG,166.9,T,167.0,M,000.4,N,000.8,K,A*27
$GPGSV,3,1,09,16,53,299,41,31,07,209,36,18,38,133,,29,23,091,34*79
$GPGSV,3,2,09,30,26,161,32,21,72,068,36,22,15,171,,03,32,290,38*7D
$GPGSV,3,3,09,06,48,292,40,,,,,,,,,,,,*47
$GPGSA,M,3,16,31,29,30,21,03,06,,,,,,2.5,1.4,2.1*34
Trace #67 at position 16.500000
$GPZDA,131119.04,06,10,2011,00,00*6D
$GPRMC,131119.00,A,4611.975845,N,01258.210488,E,000.4,166.9,061011,0.2,E,A*3F
$GPGGA,131120.00,4,01258.210380,E,131120.00,A,A*62
$GPVTG,164.3,T,164.5,M,001.1,N,002.1,K,A*26
$GPGSV,3,1,09,16,53,299,41,31,07,209,35,18,38,133,,29,23,091,34*7A
$GPGSV,3,2,09,30,26,161,33,21,72,068,37,22,15,171,,03,32,290,39*7C
$GPGSV,3,3,09,06,48,292,41,,,,,,,,,,,,*46
$GPGSA,M,3,16,31,29,30,21,03,06,,,,,,2.5,1.4,2.1*34
Trace #68 at position 16.750000
$GPZDA,131120.04,06,10,2011,00,00*67
$GPRMC,131120.00,A,4611.974959,N,01258.210380,E,001.1,164.3,061011,0.2,E,A*3B
$GPGGA,131121.00,4611.974934,N,01258.210440,E,1,05,24.1,134.51,M,46.25,M,,*53
$GPGL,29,23,091,34*7B
$GPGSV,3,2,09,30,26,161,33,21,72,068,37,22,15,171,,03,32,290,39*7C
$GPGSV,3,3,09,06,48,292,40,,,,,,,,,,,,*47
$GPGSA,M,3,16,29,21,03,06,,,,,,,,24.3,24.1,2.6*32
Trace #69 at position 17.000000
$GPZDA,131120.04,06,10,2011,00,00*67
$GPRMC,131120.00,A,4611.974959,N,01258.210380,E,001.1,164.3,061011,0.2,E,A*3B
$GPGGA,131121.00,4611.974934,N,01258.210440,E,1,05,24.1,134.51,M,46.25,M,,*53
$GPGL,29,23,091,34*7B
$GPGSV,3,2,09,30,26,161,33,21,72,068,37,22,15,171,,03,32,290,39*7C
$GPGSV,3,3,09,06,48,292,40,,,,,,,,,,,,*47
$GPGSA,M,3,16,29,21,03,06,,,,,,,,24.3,24.1,2.6*32
Trace #70 at position 17.250000
$GPZDA,131120.04,06,10,2011,00,00*67
$GPRMC,131120.00,A,4611.974959,N,01258.210380,E,001.1,164.3,061011,0.2,E,A*3B
$GPGGA,131121.00,4611.974934,N,01258.210440,E,1,05,24.1,134.51,M,46.25,M,,*53
$GPGL,29,23,091,34*7B
$GPGSV,3,2,09,30,26,161,33,21,72,068,37,22,15,171,,03,32,290,39*7C
$GPGSV,3,3,09,06,48,292,40,,,,,,,,,,,,*47
$GPGSA,M,3,16,29,21,03,06,,,,,,,,24.3,24.1,2.6*32
Trace #71 at position 17.500000
$GPZDA,131121.04,06,10,2011,00,00*66
$GPRMC,131121.00,A,4611.974934,N,01258.210440,E,001.6,191.5,061011,0.2,E,A*31
$GPGGA,131122.00,4611.973746,N,01258.210206,E,1,07,1.4,134.90,M,46.25,M,,*65
$GPGLL,4611.973746,N,01258.210206,E,131122.00,A,A*68
$GPVTG,177.1,T,177.3,M,001.6,N,003.0,K,A*25
$GPGSV,3,1,09,16,53,299,41,31,07,209,3
$GPZDA,131122.04,06,10,2011,00,00*65
$GPRMC,131122.00,A,4611.973746,N,01258.210206,E,001.6,177.1,061011,0.2,E,A*36
$GPGGA,131123.00,4611.973012,N,01258.210201,E,1,06,1.8,135.00,M,46.25,M,,*60
$GPGLL,4611.973012,N,01258.210201,E,131123.00,A,A*68
$GPVTG,159.8,T,159.9,M,001.2,N,002.3,K,A*20
$GPGSV,3,1,09,16,53,299,41,31,07,209,33,18,38,133,,29,23,091,33*7B
$GPGSV,3,2,09,30,26,161,32,21,72,068,36,22,15,171,,03,32,290,38*7D
$GPGSV,3,3,09,06,48,292,40,,,,,,,,,,,,*47
$GPGSA,M,3,16,31,29,21,03,06,,,,,,,3.$GPGGA,131124.00,4611.972388,N,01258.210205,E,1,06,1.8,135.00,M,46.25,M,,*62
Trace #72 at position 17.750000
$GPZDA,131121.04,06,10,2011,00,00*66
$GPRMC,131121.00,A,4611.974934,N,01258.210440,E,001.6,191.5,061011,0.2,E,A*31
$GPGGA,131122.00,4611.973746,N,01258.210206,E,1,07,1.4,134.90,M,46.25,M,,*65
$GPGLL,4611.973746,N,01258.210206,E,131122.00,A,A*68
$GPVTG,177.1,T,177.3,M,001.6,N,003.0,K,A*25
$GPGSV,3,1,09,16,53,299,41,31,07,209,3
$GPZDA,131122.04,06,10,2011,00,00*65
$GPRMC,131122.00,A,4611.973746,N,01258.210206,E,001.6,177.1,061011,0.2,E,A*36
$GPGGA,131123.00,4611.973012,N,01258.210201,E,1,06,1.8,135.00,M,46.25,M,,*60
$GPGLL,4611.973012,N,01258.210201,E,131123.00,A,A*68
$GPVTG,159.8,T,159.9,M,001.2,N,002.3,K,A*20
$GPGSV,3,1,09,16,53,299,41,31,07,209,33,18,38,133,,29,23,091,33*7B
$GPGSV,3,2,09,30,26,161,32,21,72,068,36,22,15,171,,03,32,290,38*7D
$GPGSV,3,3,09,06,48,292,40,,,,,,,,,,,,*47
$GPGSA,M,3,16,31,29,21,03,06,,,,,,,3.$GPGGA,131124.00,4611.972388,N,01258.210205,E,1,06,1.8,135.00,M,46.25,M,,*62
Trace #73 at position 18.000000
$GPGLL,4611.972388,N,01258.210205,E,131124.00,A,A*6A
$GPVTG,158.4,T,158.6,M,000.7,N,001.3,K,A*24
$GPGSV,3,1,09,16,53,299,41,31,07,209,34,18,38,133,,29,23,091,33*7C
$GPGSV,3,2,09,30,26,161,,21,72,068,37,22,15,171,,03,32,290,38*7D
$GPGSV,3,3,09,06,48,292,41,,,,,,,,,,,,*46
$GPGSA,M,3,16,31,29,21,03,06,,,,,,,3.0,1.8,2.4*3A
Trace #74 at position 18.250000
$GPGLL,4611.972388,N,01258.210205,E,131124.00,A,A*6A
$GPVTG,158.4,T,158.6,M,000.7,N,001.3,K,A*24
$GPGSV,3,1,09,16,53,299,41,31,07,209,34,18,38,133,,29,23,091,33*7C
$GPGSV,3,2,09,30,26,161,,21,72,068,37,22,15,171,,03,32,290,38*7D
$GPGSV,3,3,09,06,48,292,41,,,,,,,,,,,,*46
$GPGSA,M,3,16,31,29,21,03,06,,,,,,,3.0,1.8,2.4*3A
Trace #75 at position 18.500000
$GPZDA,131124.04,06,10,2011,00,00*63
$GPRMC,131124.00,A,4611.972388,N,01258.210205,E,000.7,158.4,061011,0.$GPGGA,131125.00,4611.971984,N,01258.210494,E,1,05,5.5,134.57,M,46.25,M,,*61
$GPGLL,4611.971984,N,01258.210494,E,131125.00,A,A*60
$GPVTG,144.0,T,144.2,M,001.6,N,002.9,K,A*2D
$GPGSV,3,1,09,16,53,299,42,31,07,209,33,18,38,133,,29,23,091,34*7F
$GPGSV,3,2,09,30,26,161,31,21,72,068,37,22,15,171,,03,32,290,39*7E
$GPGSV,3,3,09,06,48,292,42,,,,,,,,,,,,*45
$GPGSA,M,3,16,31,21,03,06,,,,,,,,9.4,5.5,7.6*31
Trace #76 at position 18.750000
$GPZDA,131125.04,06,10,2011,00,00*62
$GPRMC,131125.00,A,4611.971984,N,01258.210494,E,001.6,144.0,061011,0.$GPGGA,131126.00,4611.972486,N,01258.210846,E,1,05,24.4,134.66,M,46.25,M,,*5D
$GPGLL,4611.972486,N,01258.210846,E,131126.00,A,A*6C
$GPVTG,46.3,T,46.4,M,000.6,N,001.1,K,A*22
$GPGSV,3,1,09,16,53,299,42,31,07,209,28,18,38,133,,29,23,091,34*75
$GPGSV,3,2,09,30,26,161,31,21,72,068,36,22,15,171,,03,32,290,39*7F
$GPGSV,3,3,09,06,48,292,41,,,,,,,,,,,,*46
$GPGSA,M,3,16,29,21,03,06,,,,,,,,24.6,24.4,2.6*32
Trace #77 at position 19.000000
$GPZDA,131125.04,06,10,2011,00,00*62
$GPRMC,131125.00,A,4611.971984,N,01258.210494,E,001.6,144.0,061011,0.$GPGGA,131126.00,4611.972486,N,01258.210846,E,1,05,24.4,134.66,M,46.25,M,,*5D
$GPGLL,4611.972486,N,01258.210846,E,131126.00,A,A*6C
$GPVTG,46.3,T,46.4,M,000.6,N,001.1,K,A*22
$GPGSV,3,1,09,16,53,299,42,31,07,209,28,18,38,133,,29,23,091,34*75
$GPGSV,3,2,09,30,26,161,31,21,72,068,36,22,15,171,,03,32,290,39*7F
$GPGSV,3,3,09,06,48,292,41,,,,,,,,,,,,*46
$GPGSA,M,3,16,29,21,03,06,,,,,,,,24.6,24.4,2.6*32
Trace #78 at position 19.250000
$GPZDA,131125.04,06,10,2011,00,00*62
$GPRMC,131125.00,A,4611.971984,N,01258.210494,E,001.6,144.0,061011,0.$GPGGA,131126.00,4611.972486,N,01258.210846,E,1,05,24.4,134.66,M,46.25,M,,*5D
$GPGLL,4611.972486,N,01258.210846,E,131126.00,A,A*6C
$GPVTG,46.3,T,46.4,M,000.6,N,001.1,K,A*22
$GPGSV,3,1,09,16,53,299,42,31,07,209,28,18,38,133,,29,23,091,34*75
$GPGSV,3,2,09,30,26,161,31,21,72,068,36,22,15,171,,03,32,290,39*7F
$GPGSV,3,3,09,06,48,292,41,,,,,,,,,,,,*46
$GPGSA,M,3,16,29,21,03,06,,,,,,,,24.6,24.4,2.6*32
Trace #79 at position 19.500000
$GPZDA,131126.04,06,10,2011,00,00*61
$GPRMC,131126.00,A,4611.972486,N,01258.210846,E,000.6,46.3,061011,0.$GPGGA,131127.00,4611.972937,N,01258.211070,E,1,05,24.6,134.79,M,46.25,M,,*5B
$GPGLL,4611.972937,N,01258.211070,E,131127.00,A,A*66
$GPVTG,156.1,T,156.3,M,001.0,N,001.8,K,A*29
$GPGSV,3,1,09,16,53,299,42,31,07,209,32,18,38,133,,29,23,091,34*7E
$GPGSV,3,2,09,30,26,161,32,21,72,068,37,22,15,171,,03,32,290,39*7D
$GPGSV,3,3,09,06,48,292,41,,,,,,,,,,,,*46
$GPGSA,M,3,16,29,21,03,06,,,,,,,,24.7,24.6,2.6*31
Trace #80 at position 19.750000
$GPZDA,131126.04,06,10,2011,00,00*61
$GPRMC,131126.00,A,4611.972486,N,01258.210846,E,000.6,46.3,061011,0.$GPGGA,131127.00,4611.972937,N,01258.211070,E,1,05,24.6,134.79,M,46.25,M,,*5B
$GPGLL,4611.972937,N,01258.211070,E,131127.00,A,A*66
$GPVTG,156.1,T,156.3,M,001.0,N,001.8,K,A*29
$GPGSV,3,1,09,16,53,299,42,31,07,209,32,18,38,133,,29,23,091,34*7E
$GPGSV,3,2,09,30,26,161,32,21,72,068,37,22,15,171,,03,32,290,39*7D
$GPGSV,3,3,09,06,48,292,41,,,,,,,,,,,,*46
$GPGSA,M,3,16,29,21,03,06,,,,,,,,24.7,24.6,2.6*31
Trace #81 at position 20.000000
$GPZDA,131127.03,06,10,2011,00,00*67
$GPRMC,131127.00,A,4611.972937,N,01258.211070,E,001.0,156.1,061011$GPGGA,131128.00,4611.971945,N,01258.210916,E,1,06,1.5,134.93,M,46.25,M,,*69
$GPGLL,4611.971945,N,01258.210916,E,131128.00,A,A*67
$GPVTG,171.8,T,172.0,M,001.3,N,002.4,K,A*2C
$GPGSV,3,1,09,16,53,299,42,31,07,209,30,18,38,133,,29,23,091,34*7C
$GPGSV,3,2,09,30,26,161,32,21,72,068,37,22,15,171,,03,32,290,38*7C
$GPGSV,3,3,09,06,48,292,40,,,,,,,,,,,,*47
$GPGSA,M,3,16,29,30,21,03,06,,,,,,,2.8,1.5,2.4*3F
Trace #82 at position 20.250000
$GPZDA,131127.03,06,10,2011,00,00*67
$GPRMC,131127.00,A,4611.972937,N,01258.211070,E,001.0,156.1,061011$GPGGA,131128.00,4611.971945,N,01258.210916,E,1,06,1.5,134.93,M,46.25,M,,*69
$GPGLL,4611.971945,N,01258.210916,E,131128.00,A,A*67
$GPVTG,171.8,T,172.0,M,001.3,N,002.4,K,A*2C
$GPGSV,3,1,09,16,53,299,42,31,07,209,30,18,38,133,,29,23,091,34*7C
$GPGSV,3,2,09,30,26,161,32,21,72,068,37,22,15,171,,03,32,290,38*7C
$GPGSV,3,3,09,06,48,292,40,,,,,,,,,,,,*47
$GPGSA,M,3,16,29,30,21,03,06,,,,,,,2.8,1.5,2.4*3F
Trace #83 at position 20.500000
$GPZDA,131128.04,06,10,2011,00,00*6F
$GPRMC,131128.00,A,4611.971945,N,01258.210916,E,001.3,171.8,061011,$GPGGA,131129.00,4611.971083,N,01258.210708,E,1,06,1.5,135.02,M,46.25,M,,*63
$GPGLL,4611.971083,N,01258.210708,E,131129.00,A,A*64
$GPVTG,186.8,T,187.0,M,000.7,N,001.3,K,A*2F
$GPGSV,3,1,09,16,53,299,42,31,07,209,32,18,38,133,,29,23,091,35*7F
$GPGSV,3,2,09,30,26,161,33,21,72,068,38,22,15,171,,03,32,290,38*72
$GPGSV,3,3,09,06,48,292,41,,,,,,,,,,,,*46
$GPGSA,M,3,16,29,30,21,03,06,,,,,,,2.8,1.5,2.4*3F
Trace #84 at position 20.750000
$GPZDA,131129.03,06,10,2011,00,00*69
$GPRMC,131129.00,A,4611.971083,N,01258.210708,E,000.7,186.8,061011,46.25,M,,*62
$GPGLL,4611.970476,N,01258.210625,E,131130.00,A,A*6D
$GPVTG,77.5,T,77.7,M,000.7,N,001.3,K,A*24
$GPGSV,3,1,09,16,53,299,42,31,07,209,27,18,38,133,,29,23,091,33*7D
$GPGSV,3,2,09,30,26,161,32,21,72,068,38,22,15,171,,03,32,290,38*73
$GPGSV,3,3,09,06,48,292,41,,,,,,,,,,,,*46
$GPGSA,M,3,16,29,30,21,03,06,,,,,,,2.8,1.5,2.4*3F
Trace #85 at position 21.000000
$GPZDA,131129.03,06,10,2011,00,00*69
$GPRMC,131129.00,A,4611.971083,N,01258.210708,E,000.7,186.8,061011,46.25,M,,*62
$GPGLL,4611.970476,N,01258.210625,E,131130.00,A,A*6D
$GPVTG,77.5,T,77.7,M,000.7,N,001.3,K,A*24
$GPGSV,3,1,09,16,53,299,42,31,07,209,27,18,38,133,,29,23,091,33*7D
$GPGSV,3,2,09,30,26,161,32,21,72,068,38,22,15,171,,03,32,290,38*73
$GPGSV,3,3,09,06,48,292,41,,,,,,,,,,,,*46
$GPGSA,M,3,16,29,30,21,03,06,,,,,,,2.8,1.5,2.4*3F
Trace #86 at position 21.250000
$GPZDA,131130.03,06,10,2011,00,00*61
$GPRMC,131130.00,A,4611.970476,N,01258.210625,E,000.7,77.5,061011,0.2,E,A*06
$GPGGA,131131.00,4611.969794,N,01258.210648,E,1,06,1.5,1,M,001.5,N,002.9,K,A*27
$GPGSV,3,1,09,16,53,299,42,31,07,209,29,18,38,133,,29,23,091,32*72
$GPGSV,3,2,09,30,26,161,,21,72,068,38,22,15,171,,03,32,290,38*72
$GPGSV,3,3,09,06,48,292,41,,,,,,,,,,,,*46
$GPGSA,M,3,16,29,30,21,03,06,,,,,,,2.8,1.5,2.4*3F
Trace #87 at position 21.500000
$GPZDA,131131.03,06,10,2011,00,00*60
$GPRMC,131131.00,A,4611.969794,N,01258.210648,E,001.5,165.9,061011,0.2,E,A*36
$GPGGA,131132.00,4611.968926,N,01258.210524,E,1,06,1.5,135.14,M,46.25,M,,*6C
$GPGLL,4611.968926,N,01258.210524,E,131132.00,A,A*6C
$GPVTG,18*46
$GPGSA,M,3,16,29,30,21,03,06,,,,,,,2.8,1.5,2.4*3F
Trace #88 at position 21.750000
$GPZDA,131131.03,06,10,2011,00,00*60
$GPRMC,131131.00,A,4611.969794,N,01258.210648,E,001.5,165.9,061011,0.2,E,A*36
$GPGGA,131132.00,4611.968926,N,01258.210524,E,1,06,1.5,135.14,M,46.25,M,,*6C
$GPGLL,4611.968926,N,01258.210524,E,131132.00,A,A*6C
$GPVTG,18*46
$GPGSA,M,3,16,29,30,21,03,06,,,,,,,2.8,1.5,2.4*3F
Trace #89 at position 22.000000
$GPZDA,131131.03,06,10,2011,00,00*60
$GPRMC,131131.00,A,4611.969794,N,01258.210648,E,001.5,165.9,061011,0.2,E,A*36
$GPGGA,131132.00,4611.968926,N,01258.210524,E,1,06,1.5,135.14,M,46.25,M,,*6C
$GPGLL,4611.968926,N,01258.210524,E,131132.00,A,A*6C
$GPVTG,18*46
$GPGSA,M,3,16,29,30,21,03,06,,,,,,,2.8,1.5,2.4*3F
Trace #90 at position 22.250000
$GPZDA,131132.03,06,10,2011,00,00*63
$GPRMC,131132.00,A,4611.968926,N,01258.210524,E,001.5,183.8,061011,0.2,E,A*33
$GPGGA,131133.00,4611.969349,N,01258.210829,E,1,05,25.0,135.27,M,46.25,M,,*5F
$GPGLL,4611.969349,N,01258.210829,E,131133.00,A,A*6F
$GPVTG,158.3,T,158.4,M,001.9,N,003.5,K,A*2A
$GPGSV,3,1,09,16,53,299,42,31,07,209,29,18,38,133,,29,23,091,35*75
$GPGSV,3,2,09,30,26,161,,21,72,068,37,22,15,171,,03,32,290,38*7D
$GPGSV,3,3,09,06,48,292,41,0,00*65
$GPRMC,131133.00,A,4611.969349,N,01258.210829,E,001.9,158.3,061011,0.2,E,A*31
$GPGGA,131134.00,4611.969834,N,01258.211330,E,1,05,25.0,135.29,M,46.25,M,,*55
$GPGLL,4611.969834,N,01258.211330,E,131134.00,A,A*6B
$GPVTG,105.9,T,106.0,M,001.2,N,002.2,K,A*2A
$GPGSV,3,1,09,16,53,299,41,31,07,209,29,18,38,133,,29,23,091,34*77
$GPGSV,3,2,09,30,26,161,,21,72,068,37,22,15,171,,03,32,290,38*7D
$GPGSV,3,3,09,06,48,292,41,,,,,,,,,,,,*46
$GPGSA,M,3,16,29,21,03,06,,,,,,,,25.2,25.0,2.6*32
Trace #91 at position 22.500000
$GPZDA,131134.03,0061011,0.2,E,A*3C
$GPGGA,131135.00,4611.970420,N,01258.211768,E,1,05,25.2,135.17,M,46.25,M,,*53
$GPGLL,4611.970420,N,01258.211768,E,131135.00,A,A*62
$GPVTG,123.5,T,123.6,M,000.7,N,001.3,K,A*25
$GPGSV,3,1,09,16,53,299,41,31,07,209,32,18,38,133,,29,23,091,34*7D
$GPGSV,3,2,09,30,26,161,32,21,72,068,37,22,15,171,,03,32,290,39*7D
$GPGSV,3,3,09,06,48,292,41,,,,,,,,,,,,*46
$GPGSA,M,3,16,29,21,03,06,,,,,,,,25.3,25.2,2.6*31
Trace #92 at position 22.750000
$GPZDA,131134.03,0061011,0.2,E,A*3C
$GPGGA,131135.00,4611.970420,N,01258.211768,E,1,05,25.2,135.17,M,46.25,M,,*53
$GPGLL,4611.970420,N,01258.211768,E,131135.00,A,A*62
$GPVTG,123.5,T,123.6,M,000.7,N,001.3,K,A*25
$GPGSV,3,1,09,16,53,299,41,31,07,209,32,18,38,133,,29,23,091,34*7D
$GPGSV,3,2,09,30,26,161,32,21,72,068,37,22,15,171,,03,32,290,39*7D
$GPGSV,3,3,09,06,48,292,41,,,,,,,,,,,,*46
$GPGSA,M,3,16,29,21,03,06,,,,,,,,25.3,25.2,2.6*31
Trace #93 at position 23.000000
$GPZDA,131135.03,06,10,2011,00,00*64
$GPRMC,131135.00,A,4611.970420,N,01258.211768,E$GPGGA,131136.00,4611.970978,N,01258.212015,E,1,05,25.2,134.96,M,46.25,M,,*56
$GPGLL,4611.970978,N,01258.212015,E,131136.00,A,A*6F
$GPVTG,161.1,T,161.3,M,000.3,N,000.5,K,A*27
$GPGSV,3,1,09,16,53,299,41,31,07,209,32,18,38,133,,29,23,091,34*7D
$GPGSV,3,2,09,30,26,161,32,21,72,068,38,22,15,171,,03,32,290,39*72
$GPGSV,3,3,09,06,48,292,41,,,,,,,,,,,,*46
$GPGSA,M,3,16,29,21,03,06,,,,,,,,25.3,25.2,2.6*31
Trace #94 at position 23.250000
$GPZDA,131135.03,06,10,2011,00,00*64
$GPRMC,131135.00,A,4611.970420,N,01258.211768,E$GPGGA,131136.00,4611.970978,N,01258.212015,E,1,05,25.2,134.96,M,46.25,M,,*56
$GPGLL,4611.970978,N,01258.212015,E,131136.00,A,A*6F
$GPVTG,161.1,T,161.3,M,000.3,N,000.5,K,A*27
$GPGSV,3,1,09,16,53,299,41,31,07,209,32,18,38,133,,29,23,091,34*7D
$GPGSV,3,2,09,30,26,161,32,21,72,068,38,22,15,171,,03,32,290,39*72
$GPGSV,3,3,09,06,48,292,41,,,,,,,,,,,,*46
$GPGSA,M,3,16,29,21,03,06,,,,,,,,25.3,25.2,2.6*31
Trace #95 at position 23.500000
$GPZDA,131136.03,06,10,2011,00,00*67
$GPRMC,131136.00,A,4611.970978,N,01258.212015,E,000.3,161.1,061011$GPGGA,131137.00,4611.971363,N,01258.212160,E,1,05,25.4,134.94,M,46.25,M,,*51
$GPGLL,4611.971363,N,01258.212160,E,131137.00,A,A*6C
$GPVTG,171.4,T,171.5,M,000.9,N,001.7,K,A*2D
$GPGSV,3,1,09,16,53,299,41,31,07,209,30,18,38,133,,29,23,091,35*7E
$GPGSV,3,2,09,30,26,161,32,21,72,068,37,22,15,171,,03,32,290,39*7D
$GPGSV,3,3,09,06,48,292,41,,,,,,,,,,,,*46
$GPGSA,M,3,16,29,21,03,06,,,,,,,,25.5,25.4,2.6*31
Trace #96 at position 23.750000
$GPZDA,131137.03,06,10,2011,00,00*66
$GPRMC,131137.00,A,4611.971363,N,01258.212160,E,000.9,171.4,061011$GPGGA,131138.00,4611.971573,N,01258.212225,E,1,05,25.4,134.96,M,46.25,M,,*59
$GPGLL,4611.971573,N,01258.212225,E,131138.00,A,A*66
$GPVTG,191.9,T,192.1,M,001.2,N,002.2,K,A*2B
$GPGSV,3,1,09,16,53,299,41,31,07,209,30,18,38,133,,29,23,091,34*7F
$GPGSV,3,2,09,30,26,161,30,21,72,068,37,22,15,171,,03,32,290,39*7F
$GPGSV,3,3,09,06,48,292,41,,,,,,,,,,,,*46
$GPGSA,M,3,16,29,21,03,06,,,,,,,,25.5,25.4,2.6*31
Trace #97 at position 24.000000
$GPZDA,131137.03,06,10,2011,00,00*66
$GPRMC,131137.00,A,4611.971363,N,01258.212160,E,000.9,171.4,061011$GPGGA,131138.00,4611.971573,N,01258.212225,E,1,05,25.4,134.96,M,46.25,M,,*59
$GPGLL,4611.971573,N,01258.212225,E,131138.00,A,A*66
$GPVTG,191.9,T,192.1,M,001.2,N,002.2,K,A*2B
$GPGSV,3,1,09,16,53,299,41,31,07,209,30,18,38,133,,29,23,091,34*7F
$GPGSV,3,2,09,30,26,161,30,21,72,068,37,22,15,171,,03,32,290,39*7F
$GPGSV,3,3,09,06,48,292,41,,,,,,,,,,,,*46
$GPGSA,M,3,16,29,21,03,06,,,,,,,,25.5,25.4,2.6*31
Trace #98 at position 24.250000
$GPZDA,131138.04,06,10,2011,00,00*6E
$GPRMC,131138.00,A,4611.971573,N,01258.212225,E,001.2,191.9,061011$GPGGA,131139.00,4611.972293,N,01258.212608,E,1,04,27.0,134.28,M,46.25,M,,*5B
$GPGLL,4611.972293,N,01258.212608,E,131139.00,A,A*66
$GPVTG,46.2,T,46.3,M,000.4,N,000.8,K,A*2E
$GPGSV,3,1,09,16,53,299,42,31,07,209,31,18,38,133,,29,23,091,34*7D
$GPGSV,3,2,09,30,26,161,32,21,72,068,38,22,15,171,,03,32,290,39*72
$GPGSV,3,3,09,06,48,292,40,,,,,,,,,,,,*47
$GPGSA,M,3,16,21,03,06,,,,,,,,,28.1,27.0,7.9*3F
Trace #99 at position 24.500000
$GPZDA,131138.04,06,10,2011,00,00*6E
$GPRMC,131138.00,A,4611.971573,N,01258.212225,E,001.2,191.9,061011$GPGGA,131139.00,4611.972293,N,01258.212608,E,1,04,27.0,134.28,M,46.25,M,,*5B
$GPGLL,4611.972293,N,01258.212608,E,131139.00,A,A*66
$GPVTG,46.2,T,46.3,M,000.4,N,000.8,K,A*2E
$GPGSV,3,1,09,16,53,299,42,31,07,209,31,18,38,133,,29,23,091,34*7D
$GPGSV,3,2,09,30,26,161,32,21,72,068,38,22,15,171,,03,32,290,39*72
$GPGSV,3,3,09,06,48,292,40,,,,,,,,,,,,*47
$GPGSA,M,3,16,21,03,06,,,,,,,,,28.1,27.0,7.9*3F
Trace #100 at position 24.750000
$GPZDA,131143.04,06,10,2011,00,00*62
$GPRMC,131143.00,A,4611.972900,N,01258.213412,E,002.5,164.8,061011,0.2,E,A*37
$GPGGA,131144.00,4611.972742,N,01258.213495,E,1,05,25.8,134.11,M,46.25,M,,,1,09,16,54,299,40,31,07,209,33,18,38,133,,29,23,091,34*7A
$GPGSV,3,2,09,30,26,161,32,21,72,068,37,22,15,171,,03,32,290,39*7D
$GPGSV,3,3,09,06,48,292,40,,,,,,,,,,,,*47
$GPGSA,M,3,16,29,21,03,06,,,,,,,,26.0,25.8,2.6*3B
Trace #101 at position 25.000000
$GPZDA,131144.03,06,10,2011,00,00*62
$GPRMC,131144.00,A,4611.972742,N,01258.213495,E,000.3,234.3,061011,0.2,E,A*3E
$GPGGA,131145.00,4611.971680,N,01258.213229,E,1,06,1.8,134.37,M,46.25,M,,*63
$GPGLL,4611.971680,N,01258.213229,E,131145.00,A,A*6E
$GPVTG,157.5,T,157.6,M,001.0,N,001.8,K,A*8,2.4*3A
$GPZDA,131145.04,06,10,2011,00,00*64
$GPRMC,131145.00,A,4611.971680,N,01258.213229,E,001.0,157.5,061011,0.2,E,A*30
$GPGGA,131146.00,4611.971477,N,01258.213253,E,1,05,26.0,134.50,M,46.25,M,,*58
$GPGLL,4611.971477,N,01258.213253,E,131146.00,A,A*6A
$GPVTG,191.2,T,191.3,M,002.4,N,004.4,K,A*24
$GPGSV,3,1,09,16,54,299,41,31,07,209,27,18,38,133,,29,23,091,34*7E
$GPGSV,3,2,09,30,26,161,28,21,72,068,36,22,15,171,,03,32,290,39*77
$GPGSV,3,3,09,06,48,292,41,,,,,,,,,,,,*46
$GPGSA,M,3,16,29,21,03,06,,,4611.971477,N,01258.213253,E,002.4,191.2,061011,0.2,E,A*3E
Trace #102 at position 25.250000
$GPGGA,131147.00,4611.971596,N,01258.213253,E,1,05,26.2,134.66,M,46.25,M,,*50
$GPGLL,4611.971596,N,01258.213253,E,131147.00,A,A*65
$GPVTG,9.0,T,9.2,M,000.9,N,001.8,K,A*21
$GPGSV,3,1,09,16,54,299,40,31,07,209,26,18,38,133,,29,23,091,32*78
$GPGSV,3,2,09,30,26,161,30,21,72,068,36,22,15,171,,03,32,290,38*7F
$GPGSV,3,3,09,06,48,292,41,,,,,,,,,,,,*46
$GPGSA,M,3,16,29,21,03,06,,,,,,,,26.3,26.2,2.7*30
Trace #103 at position 25.500000
$GPGGA,131147.00,4611.971596,N,01258.213253,E,1,05,26.2,134.66,M,46.25,M,,*50
$GPGLL,4611.971596,N,01258.213253,E,131147.00,A,A*65
$GPVTG,9.0,T,9.2,M,000.9,N,001.8,K,A*21
$GPGSV,3,1,09,16,54,299,40,31,07,209,26,18,38,133,,29,23,091,32*78
$GPGSV,3,2,09,30,26,161,30,21,72,068,36,22,15,171,,03,32,290,38*7F
$GPGSV,3,3,09,06,48,292,41,,,,,,,,,,,,*46
$GPGSA,M,3,16,29,21,03,06,,,,,,,,26.3,26.2,2.7*30
Trace #104 at position 25.750000
$GPZDA,131147.03,06,10,2011,00,00*61
$GPRMC,131$GPGGA,131148.00,4611.972253,N,01258.213564,E,1,04,27.5,134.13,M,46.25,M,,*54
$GPGLL,4611.972253,N,01258.213564,E,131148.00,A,A*64
$GPVTG,194.8,T,195.0,M,001.1,N,002.0,K,A*28
$GPGSV,3,1,09,16,54,299,41,31,07,209,25,18,38,133,,29,23,091,29*70
$GPGSV,3,2,09,30,26,161,29,21,72,068,38,22,15,171,,03,32,290,37*76
$GPGSV,3,3,09,06,48,292,41,,,,,,,,,,,,*46
$GPGSA,M,3,16,21,03,06,,,,,,,,,28.6,27.5,7.9*3D
Trace #105 at position 26.000000
$GPZDA,131147.03,06,10,2011,00,00*61
$GPRMC,131$GPGGA,131148.00,4611.972253,N,01258.213564,E,1,04,27.5,134.13,M,46.25,M,,*54
$GPGLL,4611.972253,N,01258.213564,E,131148.00,A,A*64
$GPVTG,194.8,T,195.0,M,001.1,N,002.0,K,A*28
$GPGSV,3,1,09,16,54,299,41,31,07,209,25,18,38,133,,29,23,091,29*70
$GPGSV,3,2,09,30,26,161,29,21,72,068,38,22,15,171,,03,32,290,37*76
$GPGSV,3,3,09,06,48,292,41,,,,,,,,,,,,*46
$GPGSA,M,3,16,21,03,06,,,,,,,,,28.6,27.5,7.9*3D
Trace #106 at position 26.250000
$GPZDA,131148.04,06,10,2011,00,00*69
$GPRMC,131148.00,A,4611.972253,N,01258.213564,E,001.1,194.8,061011,0$GPGGA,131149.00,4611.972873,N,01258.213881,E,1,04,27.7,133.45,M,46.25,M,,*5D
$GPGLL,4611.972873,N,01258.213881,E,131149.00,A,A*6B
$GPVTG,17.8,T,18.0,M,001.3,N,002.3,K,A*27
$GPGSV,3,1,09,16,54,299,40,31,07,209,27,18,38,133,,29,23,091,29*73
$GPGSV,3,2,09,30,26,161,29,21,72,068,37,22,15,171,,03,32,290,37*79
$GPGSV,3,3,09,06,48,292,41,,,,,,,,,,,,*46
$GPGSA,M,3,16,21,03,06,,,,,,,,,28.8,27.7,7.9*31
Trace #107 at position 26.500000
$GPZDA,131148.04,06,10,2011,00,00*69
$GPRMC,131148.00,A,4611.972253,N,01258.213564,E,001.1,194.8,061011,0$GPGGA,131149.00,4611.972873,N,01258.213881,E,1,04,27.7,133.45,M,46.25,M,,*5D
$GPGLL,4611.972873,N,01258.213881,E,131149.00,A,A*6B
$GPVTG,17.8,T,18.0,M,001.3,N,002.3,K,A*27
$GPGSV,3,1,09,16,54,299,40,31,07,209,27,18,38,133,,29,23,091,29*73
$GPGSV,3,2,09,30,26,161,29,21,72,068,37,22,15,171,,03,32,290,37*79
$GPGSV,3,3,09,06,48,292,41,,,,,,,,,,,,*46
$GPGSA,M,3,16,21,03,06,,,,,,,,,28.8,27.7,7.9*31
Trace #108 at position 26.750000
$GPZDA,131148.04,06,10,2011,00,00*69
$GPRMC,131148.00,A,4611.972253,N,01258.213564,E,001.1,194.8,061011,0$GPGGA,131149.00,4611.972873,N,01258.213881,E,1,04,27.7,133.45,M,46.25,M,,*5D
$GPGLL,4611.972873,N,01258.213881,E,131149.00,A,A*6B
$GPVTG,17.8,T,18.0,M,001.3,N,002.3,K,A*27
$GPGSV,3,1,09,16,54,299,40,31,07,209,27,18,38,133,,29,23,091,29*73
$GPGSV,3,2,09,30,26,161,29,21,72,068,37,22,15,171,,03,32,290,37*79
$GPGSV,3,3,09,06,48,292,41,,,,,,,,,,,,*46
$GPGSA,M,3,16,21,03,06,,,,,,,,,28.8,27.7,7.9*31
Trace #109 at position 27.000000
$GPZDA,131149.03,06,10,2011,00,00*6F
$GPRMC,131149.00,A,4611.972873,N,01258.213881,E,001.3,17.8,061011,0.2,$GPGGA,131150.00,4611.973585,N,01258.214239,E,1,04,27.7,132.70,M,46.25,M,,*59
$GPGLL,4611.973585,N,01258.214239,E,131150.00,A,A*68
$GPVTG,28.9,T,29.0,M,000.3,N,000.6,K,A*2E
$GPGSV,3,1,10,19,05,278,,16,54,299,41,31,07,209,27,18,38,133,*73
$GPGSV,3,2,10,29,23,091,32,30,26,161,32,21,72,068,37,22,15,171,*75
$GPGSV,3,3,10,03,32,290,38,06,48,292,41,,,,,,,,*7C
$GPGSA,M,3,16,21,03,06,,,,,,,,,28.8,27.7,7.9*31
Trace #110 at position 27.250000
$GPZDA,131149.03,06,10,2011,00,00*6F
$GPRMC,131149.00,A,4611.972873,N,01258.213881,E,001.3,17.8,061011,0.2,$GPGGA,131150.00,4611.973585,N,01258.214239,E,1,04,27.7,132.70,M,46.25,M,,*59
$GPGLL,4611.973585,N,01258.214239,E,131150.00,A,A*68
$GPVTG,28.9,T,29.0,M,000.3,N,000.6,K,A*2E
$GPGSV,3,1,10,19,05,278,,16,54,299,41,31,07,209,27,18,38,133,*73
$GPGSV,3,2,10,29,23,091,32,30,26,161,32,21,72,068,37,22,15,171,*75
