Trace #1 at position 0.000000
$GPZDA,102238.03,08,10,2011,00,00*64
$GPRMC,102238.00,A,4611.973586,N,01258.211850,E,000.4,323.4,081011,0.2,E,A*33
$GPGGA,102239.00,4611.974048,N,01258.211710,E,1,05,2.0,133.86,M,46.25,M,,*64
$GPGLL,4611.974048,N,01258.211710,E,102239.00,A,A*6C
$GPVTG,93.5,T,93.7,M,000.1,N,000.2,K,A*22
$GPGSV,2,1,07,21,26,186,40,02,21,045,40,12,26,110,,25,60,106,*74
$GPGSV,2,2,07,29,84,344,44,30,71,307,44,31,52,283,45,,,,*46
$GPGSA,M,3,21,02,29,30,31,,,,,,,,3.2,2.0,2.5*31
Trace #2 at position 0.250000
$GPZDA,102245.03,08,10,2011,00,00*6E
$GPRMC,102245.00,A,4611.972054,N,01258.210497,E,000.2,5.9,081011,0.2,E,A*38
$GPGGA,102246.00,4611.972804,N,01258.210586,E,1,05,5.8,138.21,M,46.25,M,,*6F
$GPGLL,4611.972804,N,01258.210586,E,102246.00,A,A*6E
$GPVTG,215.0,T,215.2,M,000.2,N,000.4,K,A*27
$GPGSV,2,1,07,21,26,186,39,02,20,045,33,12,26,110,33,25,60,106,41*7A
$GPGSV,2,2,07,29,84,344,45,30,71,307,44,31,52,283,45,,,,*47
$GPGSA,M,3,21,25,29,30,31,,,,,,,,12.1,5.8,10.6*38
Trace #3 at position 0.500000
$GPZDA,102246.03,08,10,2011,00,00*6D
$GPRMC,102246.00,A,4611.972804,N,01258.210586,E,000.2,215.0,081011,0.2,E,A*3D
$GPGGA,102247.00,4611.973384,N,01258.210700,E,1,05,5.8,138.28,M,46.25,M,,*69
$GPGLL,4611.973384,N,01258.210700,E,102247.00,A,A*61
$GPVTG,153.8,T,154.0,M,000.5,N,000.9,K,A*20
$GPGSV,2,1,07,21,26,186,39,02,20,045,36,12,26,110,34,25,60,106,46*7F
$GPGSV,2,2,07,29,84,344,45,30,71,307,43,31,52,283,45,,,,*40
$GPGSA,M,3,21,25,29,30,31,,,,,,,,12.1,5.8,10.6*38
Trace #4 at position 0.750000
$GPZDA,102247.03,08,10,2011,00,00*6C
$GPRMC,102247.00,A,4611.973384,N,01258.210700,E,000.5,153.8,081011,0.2,E,A*3C
$GPGGA,102248.00,4611.973829,N,01258.210824,E,1,05,5.8,138.26,M,46.25,M,,*6D
$GPGLL,4611.973829,N,01258.210824,E,102248.00,A,A*6B
$GPVTG,184.8,T,185.0,M,000.7,N,001.2,K,A*2E
$GPGSV,2,1,07,21,26,186,39,02,20,045,38,12,26,110,32,25,60,106,46*77
$GPGSV,2,2,07,29,84,344,45,30,71,307,42,31,52,283,45,,,,*41
$GPGSA,M,3,21,25,29,30,31,,,,,,,,12.1,5.8,10.6*38
Trace #5 at position 1.000000
$GPZDA,102247.03,08,10,2011,00,00*6C
$GPRMC,102247.00,A,4611.973384,N,01258.210700,E,000.5,153.8,081011,0.2,E,A*3C
$GPGGA,102248.00,4611.973829,N,01258.210824,E,1,05,5.8,138.26,M,46.25,M,,*6D
$GPGLL,4611.973829,N,01258.210824,E,102248.00,A,A*6B
$GPVTG,184.8,T,185.0,M,000.7,N,001.2,K,A*2E
$GPGSV,2,1,07,21,26,186,39,02,20,045,38,12,26,110,32,25,60,106,46*77
$GPGSV,2,2,07,29,84,344,45,30,71,307,42,31,52,283,45,,,,*41
$GPGSA,M,3,21,25,29,30,31,,,,,,,,12.1,5.8,10.6*38
Trace #6 at position 1.250000
$GPZDA,102248.03,08,10,2011,00,00*63
$GPRMC,102248.00,A,4611.973829,N,01258.210824,E,000.7,184.8,081011,0.2,E,A*3E
$GPGGA,102249.00,4611.974129,N,01258.210933,E,1,05,5.8,138.04,M,46.25,M,,*65
$GPGLL,4611.974129,N,01258.210933,E,102249.00,A,A*63
$GPVTG,173.4,T,173.6,M,001.0,N,001.8,K,A*29
$GPGSV,2,1,07,21,26,186,38,02,20,045,39,12,26,110,32,25,60,106,45*74
$GPGSV,2,2,07,29,84,344,45,30,71,307,42,31,52,283,45,,,,*41
$GPGSA,M,3,21,25,29,30,31,,,,,,,,12.1,5.8,10.6*38
Trace #7 at position 1.500000
$GPZDA,102248.03,08,10,2011,00,00*63
$GPRMC,102248.00,A,4611.973829,N,01258.210824,E,000.7,184.8,081011,0.2,E,A*3E
$GPGGA,102249.00,4611.974129,N,01258.210933,E,1,05,5.8,138.04,M,46.25,M,,*65
$GPGLL,4611.974129,N,01258.210933,E,102249.00,A,A*63
$GPVTG,173.4,T,173.6,M,001.0,N,001.8,K,A*29
$GPGSV,2,1,07,21,26,186,38,02,20,045,39,12,26,110,32,25,60,106,45*74
$GPGSV,2,2,07,29,84,344,45,30,71,307,42,31,52,283,45,,,,*41
$GPGSA,M,3,21,25,29,30,31,,,,,,,,12.1,5.8,10.6*38
Trace #8 at position 1.750000
$GPZDA,102249.03,08,10,2011,00,00*62
$GPRMC,102249.00,A,4611.974129,N,01258.210933,E,001.0,173.4,081011,0.2,E,A*34
$GPGGA,102250.00,4611.974279,N,01258.211100,E,1,06,1.4,138.10,M,46.25,M,,*6C
$GPGLL,4611.974279,N,01258.211100,E,102250.00,A,A*64
$GPVTG,141.1,T,141.2,M,000.9,N,001.7,K,A*2F
$GPGSV,2,1,07,21,26,186,40,02,20,045,42,12,26,110,31,25,60,106,45*74
$GPGSV,2,2,07,29,84,345,44,30,71,307,44,31,52,283,45,,,,*47
$GPGSA,M,3,21,02,25,29,30,31,,,,,,,2.4,1.4,1.9*39
Trace #9 at position 2.000000
$GPZDA,102249.03,08,10,2011,00,00*62
$GPRMC,102249.00,A,4611.974129,N,01258.210933,E,001.0,173.4,081011,0.2,E,A*34
$GPGGA,102250.00,4611.974279,N,01258.211100,E,1,06,1.4,138.10,M,46.25,M,,*6C
$GPGLL,4611.974279,N,01258.211100,E,102250.00,A,A*64
$GPVTG,141.1,T,141.2,M,000.9,N,001.7,K,A*2F
$GPGSV,2,1,07,21,26,186,40,02,20,045,42,12,26,110,31,25,60,106,45*74
$GPGSV,2,2,07,29,84,345,44,30,71,307,44,31,52,283,45,,,,*47
$GPGSA,M,3,21,02,25,29,30,31,,,,,,,2.4,1.4,1.9*39
Trace #10 at position 2.250000
$GPZDA,102250.04,08,10,2011,00,00*6D
$GPRMC,102250.00,A,4611.974279,N,01258.211100,E,000.9,141.1,081011,0.2,E,A*3F
$GPGGA,102251.00,4611.974428,N,01258.211379,E,1,06,1.4,138.25,M,46.25,M,,*65
$GPGLL,4611.974428,N,01258.211379,E,102251.00,A,A*6B
$GPVTG,126.9,T,127.0,M,001.0,N,001.8,K,A*23
$GPGSV,2,1,07,21,26,186,41,02,20,045,42,12,26,110,29,25,60,106,45*7C
$GPGSV,2,2,07,29,84,345,45,30,71,307,45,31,52,283,46,,,,*44
$GPGSA,M,3,21,02,25,29,30,31,,,,,,,2.4,1.4,1.9*39
Trace #11 at position 2.500000
$GPZDA,102250.04,08,10,2011,00,00*6D
$GPRMC,102250.00,A,4611.974279,N,01258.211100,E,000.9,141.1,081011,0.2,E,A*3F
$GPGGA,102251.00,4611.974428,N,01258.211379,E,1,06,1.4,138.25,M,46.25,M,,*65
$GPGLL,4611.974428,N,01258.211379,E,102251.00,A,A*6B
$GPVTG,126.9,T,127.0,M,001.0,N,001.8,K,A*23
$GPGSV,2,1,07,21,26,186,41,02,20,045,42,12,26,110,29,25,60,106,45*7C
$GPGSV,2,2,07,29,84,345,45,30,71,307,45,31,52,283,46,,,,*44
$GPGSA,M,3,21,02,25,29,30,31,,,,,,,2.4,1.4,1.9*39
Trace #12 at position 2.750000
$GPZDA,102250.04,08,10,2011,00,00*6D
$GPRMC,102250.00,A,4611.974279,N,01258.211100,E,000.9,141.1,081011,0.2,E,A*3F
$GPGGA,102251.00,4611.974428,N,01258.211379,E,1,06,1.4,138.25,M,46.25,M,,*65
$GPGLL,4611.974428,N,01258.211379,E,102251.00,A,A*6B
$GPVTG,126.9,T,127.0,M,001.0,N,001.8,K,A*23
$GPGSV,2,1,07,21,26,186,41,02,20,045,42,12,26,110,29,25,60,106,45*7C
$GPGSV,2,2,07,29,84,345,45,30,71,307,45,31,52,283,46,,,,*44
$GPGSA,M,3,21,02,25,29,30,31,,,,,,,2.4,1.4,1.9*39
Trace #13 at position 3.000000
$GPZDA,102251.03,08,10,2011,00,00*6B
$GPRMC,102251.00,A,4611.974428,N,01258.211379,E,001.0,126.9,081011,0.2,E,A*31
$GPGGA,102252.00,4611.974482,N,01258.211565,E,1,06,1.4,138.38,M,46.25,M,,*61
$GPGLL,4611.974482,N,01258.211565,E,102252.00,A,A*63
$GPVTG,171.7,T,171.9,M,001.1,N,002.1,K,A*2E
$GPGSV,2,1,07,21,26,186,41,02,20,045,41,12,26,110,,25,59,106,46*7D
$GPGSV,2,2,07,29,84,345,45,30,71,307,45,31,52,283,47,,,,*45
$GPGSA,M,3,21,02,25,29,30,31,,,,,,,2.4,1.4,1.9*39
Trace #14 at position 3.250000
$GPZDA,102251.03,08,10,2011,00,00*6B
$GPRMC,102251.00,A,4611.974428,N,01258.211379,E,001.0,126.9,081011,0.2,E,A*31
$GPGGA,102252.00,4611.974482,N,01258.211565,E,1,06,1.4,138.38,M,46.25,M,,*61
$GPGLL,4611.974482,N,01258.211565,E,102252.00,A,A*63
$GPVTG,171.7,T,171.9,M,001.1,N,002.1,K,A*2E
$GPGSV,2,1,07,21,26,186,41,02,20,045,41,12,26,110,,25,59,106,46*7D
$GPGSV,2,2,07,29,84,345,45,30,71,307,45,31,52,283,47,,,,*45
$GPGSA,M,3,21,02,25,29,30,31,,,,,,,2.4,1.4,1.9*39
Trace #15 at position 3.500000
$GPZDA,102251.03,08,10,2011,00,00*6B
$GPRMC,102251.00,A,4611.974428,N,01258.211379,E,001.0,126.9,081011,0.2,E,A*31
$GPGGA,102252.00,4611.974482,N,01258.211565,E,1,06,1.4,138.38,M,46.25,M,,*61
$GPGLL,4611.974482,N,01258.211565,E,102252.00,A,A*63
$GPVTG,171.7,T,171.9,M,001.1,N,002.1,K,A*2E
$GPGSV,2,1,07,21,26,186,41,02,20,045,41,12,26,110,,25,59,106,46*7D
$GPGSV,2,2,07,29,84,345,45,30,71,307,45,31,52,283,47,,,,*45
$GPGSA,M,3,21,02,25,29,30,31,,,,,,,2.4,1.4,1.9*39
Trace #16 at position 3.750000
$GPZDA,102252.03,08,10,2011,00,00*68
$GPRMC,102252.00,A,4611.974482,N,01258.211565,E,001.1,171.7,081011,0.2,E,A*34
$GPGGA,102253.00,4611.974371,N,01258.211572,E,1,06,1.4,138.45,M,46.25,M,,*67
$GPGLL,4611.974371,N,01258.211572,E,102253.00,A,A*6F
$GPVTG,188.4,T,188.5,M,001.5,N,002.9,K,A*2D
$GPGSV,2,1,07,21,26,186,42,02,20,045,41,12,26,110,30,25,59,106,46*7D
$GPGSV,2,2,07,29,84,345,43,30,71,307,44,31,52,283,47,,,,*42
$GPGSA,M,3,21,02,25,29,30,31,,,,,,,2.4,1.4,1.9*39
Trace #17 at position 4.000000
$GPZDA,102252.03,08,10,2011,00,00*68
$GPRMC,102252.00,A,4611.974482,N,01258.211565,E,001.1,171.7,081011,0.2,E,A*34
$GPGGA,102253.00,4611.974371,N,01258.211572,E,1,06,1.4,138.45,M,46.25,M,,*67
$GPGLL,4611.974371,N,01258.211572,E,102253.00,A,A*6F
$GPVTG,188.4,T,188.5,M,001.5,N,002.9,K,A*2D
$GPGSV,2,1,07,21,26,186,42,02,20,045,41,12,26,110,30,25,59,106,46*7D
$GPGSV,2,2,07,29,84,345,43,30,71,307,44,31,52,283,47,,,,*42
$GPGSA,M,3,21,02,25,29,30,31,,,,,,,2.4,1.4,1.9*39
Trace #18 at position 4.250000
$GPZDA,102252.03,08,10,2011,00,00*68
$GPRMC,102252.00,A,4611.974482,N,01258.211565,E,001.1,171.7,081011,0.2,E,A*34
$GPGGA,102253.00,4611.974371,N,01258.211572,E,1,06,1.4,138.45,M,46.25,M,,*67
$GPGLL,4611.974371,N,01258.211572,E,102253.00,A,A*6F
$GPVTG,188.4,T,188.5,M,001.5,N,002.9,K,A*2D
$GPGSV,2,1,07,21,26,186,42,02,20,045,41,12,26,110,30,25,59,106,46*7D
$GPGSV,2,2,07,29,84,345,43,30,71,307,44,31,52,283,47,,,,*42
$GPGSA,M,3,21,02,25,29,30,31,,,,,,,2.4,1.4,1.9*39
Trace #19 at position 4.500000
$GPZDA,102253.04,08,10,2011,00,00*6E
$GPRMC,102253.00,A,4611.974371,N,01258.211572,E,001.5,188.4,081011,0.2,E,A*39
$GPGGA,102254.00,4611.974210,N,01258.211679,E,1,06,1.4,138.50,M,46.25,M,,*6A
$GPGLL,4611.974210,N,01258.211679,E,102254.00,A,A*66
$GPVTG,153.4,T,153.6,M,001.4,N,002.7,K,A*21
$GPGSV,2,1,07,21,26,186,41,02,20,045,40,12,26,110,27,25,59,106,45*7A
$GPGSV,2,2,07,29,84,345,45,30,71,307,45,31,52,282,47,,,,*44
$GPGSA,M,3,21,02,25,29,30,31,,,,,,,2.4,1.4,1.9*39
Trace #20 at position 4.750000
$GPZDA,102253.04,08,10,2011,00,00*6E
$GPRMC,102253.00,A,4611.974371,N,01258.211572,E,001.5,188.4,081011,0.2,E,A*39
$GPGGA,102254.00,4611.974210,N,01258.211679,E,1,06,1.4,138.50,M,46.25,M,,*6A
$GPGLL,4611.974210,N,01258.211679,E,102254.00,A,A*66
$GPVTG,153.4,T,153.6,M,001.4,N,002.7,K,A*21
$GPGSV,2,1,07,21,26,186,41,02,20,045,40,12,26,110,27,25,59,106,45*7A
$GPGSV,2,2,07,29,84,345,45,30,71,307,45,31,52,282,47,,,,*44
$GPGSA,M,3,21,02,25,29,30,31,,,,,,,2.4,1.4,1.9*39
Trace #21 at position 5.000000
$GPZDA,102254.04,08,10,2011,00,00*69
$GPRMC,102254.00,A,4611.974210,N,01258.211679,E,001.4,153.4,081011,0.2,E,A*37
$GPGGA,102255.00,4611.974031,N,01258.212013,E,1,06,1.4,138.59,M,46.25,M,,*6A
$GPGLL,4611.974031,N,01258.212013,E,102255.00,A,A*6F
$GPVTG,146.0,T,146.2,M,001.8,N,003.3,K,A*28
$GPGSV,2,1,07,21,26,186,40,02,20,045,41,12,26,110,31,25,59,106,45*7D
$GPGSV,2,2,07,29,84,345,44,30,71,307,45,31,52,282,46,,,,*44
$GPGSA,M,3,21,02,25,29,30,31,,,,,,,2.4,1.4,1.9*39
Trace #22 at position 5.250000
$GPZDA,102254.04,08,10,2011,00,00*69
$GPRMC,102254.00,A,4611.974210,N,01258.211679,E,001.4,153.4,081011,0.2,E,A*37
$GPGGA,102255.00,4611.974031,N,01258.212013,E,1,06,1.4,138.59,M,46.25,M,,*6A
$GPGLL,4611.974031,N,01258.212013,E,102255.00,A,A*6F
$GPVTG,146.0,T,146.2,M,001.8,N,003.3,K,A*28
$GPGSV,2,1,07,21,26,186,40,02,20,045,41,12,26,110,31,25,59,106,45*7D
$GPGSV,2,2,07,29,84,345,44,30,71,307,45,31,52,282,46,,,,*44
$GPGSA,M,3,21,02,25,29,30,31,,,,,,,2.4,1.4,1.9*39
Trace #23 at position 5.500000
$GPZDA,102254.04,08,10,2011,00,00*69
$GPRMC,102254.00,A,4611.974210,N,01258.211679,E,001.4,153.4,081011,0.2,E,A*37
$GPGGA,102255.00,4611.974031,N,01258.212013,E,1,06,1.4,138.59,M,46.25,M,,*6A
$GPGLL,4611.974031,N,01258.212013,E,102255.00,A,A*6F
$GPVTG,146.0,T,146.2,M,001.8,N,003.3,K,A*28
$GPGSV,2,1,07,21,26,186,40,02,20,045,41,12,26,110,31,25,59,106,45*7D
$GPGSV,2,2,07,29,84,345,44,30,71,307,45,31,52,282,46,,,,*44
$GPGSA,M,3,21,02,25,29,30,31,,,,,,,2.4,1.4,1.9*39
Trace #24 at position 5.750000
$GPZDA,102255.03,08,10,2011,00,00*6F
$GPRMC,102255.00,A,4611.974031,N,01258.212013,E,001.8,146.0,081011,0.2,E,A*32
$GPGGA,102256.00,4611.973938,N,01258.212278,E,1,06,1.4,138.72,M,46.25,M,,*68
$GPGLL,4611.973938,N,01258.212278,E,102256.00,A,A*64
$GPVTG,141.7,T,141.9,M,000.6,N,001.1,K,A*2B
$GPGSV,2,1,07,21,26,186,41,02,20,045,42,12,26,110,30,25,59,106,46*7D
$GPGSV,2,2,07,29,84,345,45,30,71,307,45,31,52,282,45,,,,*46
$GPGSA,M,3,21,02,25,29,30,31,,,,,,,2.4,1.4,1.9*39
Trace #25 at position 6.000000
$GPZDA,102255.03,08,10,2011,00,00*6F
$GPRMC,102255.00,A,4611.974031,N,01258.212013,E,001.8,146.0,081011,0.2,E,A*32
$GPGGA,102256.00,4611.973938,N,01258.212278,E,1,06,1.4,138.72,M,46.25,M,,*68
$GPGLL,4611.973938,N,01258.212278,E,102256.00,A,A*64
$GPVTG,141.7,T,141.9,M,000.6,N,001.1,K,A*2B
$GPGSV,2,1,07,21,26,186,41,02,20,045,42,12,26,110,30,25,59,106,46*7D
$GPGSV,2,2,07,29,84,345,45,30,71,307,45,31,52,282,45,,,,*46
$GPGSA,M,3,21,02,25,29,30,31,,,,,,,2.4,1.4,1.9*39
Trace #26 at position 6.250000
$GPZDA,102256.03,08,10,2011,00,00*6C
$GPRMC,102256.00,A,4611.973938,N,01258.212278,E,000.6,141.7,081011,0.2,E,A*36
$GPGGA,102257.00,4611.973727,N,01258.212459,E,1,06,1.4,138.78,M,46.25,M,,*66
$GPGLL,4611.973727,N,01258.212459,E,102257.00,A,A*60
$GPVTG,163.8,T,163.9,M,002.2,N,004.1,K,A*27
$GPGSV,2,1,07,21,26,186,39,02,20,045,42,12,26,110,,25,59,106,45*72
$GPGSV,2,2,07,29,84,345,44,30,71,307,44,31,52,282,46,,,,*45
$GPGSA,M,3,21,02,25,29,30,31,,,,,,,2.4,1.4,1.9*39
Trace #27 at position 6.500000
$GPZDA,102256.03,08,10,2011,00,00*6C
$GPRMC,102256.00,A,4611.973938,N,01258.212278,E,000.6,141.7,081011,0.2,E,A*36
$GPGGA,102257.00,4611.973727,N,01258.212459,E,1,06,1.4,138.78,M,46.25,M,,*66
$GPGLL,4611.973727,N,01258.212459,E,102257.00,A,A*60
$GPVTG,163.8,T,163.9,M,002.2,N,004.1,K,A*27
$GPGSV,2,1,07,21,26,186,39,02,20,045,42,12,26,110,,25,59,106,45*72
$GPGSV,2,2,07,29,84,345,44,30,71,307,44,31,52,282,46,,,,*45
$GPGSA,M,3,21,02,25,29,30,31,,,,,,,2.4,1.4,1.9*39
Trace #28 at position 6.750000
$GPZDA,102256.03,08,10,2011,00,00*6C
$GPRMC,102256.00,A,4611.973938,N,01258.212278,E,000.6,141.7,081011,0.2,E,A*36
$GPGGA,102257.00,4611.973727,N,01258.212459,E,1,06,1.4,138.78,M,46.25,M,,*66
$GPGLL,4611.973727,N,01258.212459,E,102257.00,A,A*60
$GPVTG,163.8,T,163.9,M,002.2,N,004.1,K,A*27
$GPGSV,2,1,07,21,26,186,39,02,20,045,42,12,26,110,,25,59,106,45*72
$GPGSV,2,2,07,29,84,345,44,30,71,307,44,31,52,282,46,,,,*45
$GPGSA,M,3,21,02,25,29,30,31,,,,,,,2.4,1.4,1.9*39
Trace #29 at position 7.000000
$GPZDA,102257.03,08,10,2011,00,00*6D
$GPRMC,102257.00,A,4611.973727,N,01258.212459,E,002.2,163.8,081011,0.2,E,A*3B
$GPGGA,102258.00,4611.973515,N,01258.212531,E,1,05,5.9,138.71,M,46.25,M,,*66
$GPGLL,4611.973515,N,01258.212531,E,102258.00,A,A*63
$GPVTG,205.1,T,205.3,M,001.3,N,002.3,K,A*22
$GPGSV,2,1,07,21,26,186,42,02,20,045,36,12,26,110,,25,59,106,45*7D
$GPGSV,2,2,07,29,84,345,44,30,71,307,45,31,52,282,48,,,,*4A
$GPGSA,M,3,21,25,29,30,31,,,,,,,,12.2,5.9,10.6*3A
Trace #30 at position 7.250000
$GPZDA,102257.03,08,10,2011,00,00*6D
$GPRMC,102257.00,A,4611.973727,N,01258.212459,E,002.2,163.8,081011,0.2,E,A*3B
$GPGGA,102258.00,4611.973515,N,01258.212531,E,1,05,5.9,138.71,M,46.25,M,,*66
$GPGLL,4611.973515,N,01258.212531,E,102258.00,A,A*63
$GPVTG,205.1,T,205.3,M,001.3,N,002.3,K,A*22
$GPGSV,2,1,07,21,26,186,42,02,20,045,36,12,26,110,,25,59,106,45*7D
$GPGSV,2,2,07,29,84,345,44,30,71,307,45,31,52,282,48,,,,*4A
$GPGSA,M,3,21,25,29,30,31,,,,,,,,12.2,5.9,10.6*3A
Trace #31 at position 7.500000
$GPZDA,102257.03,08,10,2011,00,00*6D
$GPRMC,102257.00,A,4611.973727,N,01258.212459,E,002.2,163.8,081011,0.2,E,A*3B
$GPGGA,102258.00,4611.973515,N,01258.212531,E,1,05,5.9,138.71,M,46.25,M,,*66
$GPGLL,4611.973515,N,01258.212531,E,102258.00,A,A*63
$GPVTG,205.1,T,205.3,M,001.3,N,002.3,K,A*22
$GPGSV,2,1,07,21,26,186,42,02,20,045,36,12,26,110,,25,59,106,45*7D
$GPGSV,2,2,07,29,84,345,44,30,71,307,45,31,52,282,48,,,,*4A
$GPGSA,M,3,21,25,29,30,31,,,,,,,,12.2,5.9,10.6*3A
Trace #32 at position 7.750000
$GPZDA,102258.04,08,10,2011,00,00*65
$GPRMC,102258.00,A,4611.973515,N,01258.212531,E,001.3,205.1,081011,0.2,E,A*30
$GPGGA,102259.00,4611.973318,N,01258.212429,E,1,05,5.9,138.76,M,46.25,M,,*63
$GPGLL,4611.973318,N,01258.212429,E,102259.00,A,A*61
$GPVTG,192.6,T,192.7,M,001.9,N,003.6,K,A*2F
$GPGSV,2,1,07,21,26,186,40,02,20,045,39,12,26,110,,25,59,106,47*72
$GPGSV,2,2,07,29,84,345,45,30,71,307,45,31,52,282,48,,,,*4B
$GPGSA,M,3,21,25,29,30,31,,,,,,,,12.2,5.9,10.6*3A
Trace #33 at position 8.000000
$GPZDA,102258.04,08,10,2011,00,00*65
$GPRMC,102258.00,A,4611.973515,N,01258.212531,E,001.3,205.1,081011,0.2,E,A*30
$GPGGA,102259.00,4611.973318,N,01258.212429,E,1,05,5.9,138.76,M,46.25,M,,*63
$GPGLL,4611.973318,N,01258.212429,E,102259.00,A,A*61
$GPVTG,192.6,T,192.7,M,001.9,N,003.6,K,A*2F
$GPGSV,2,1,07,21,26,186,40,02,20,045,39,12,26,110,,25,59,106,47*72
$GPGSV,2,2,07,29,84,345,45,30,71,307,45,31,52,282,48,,,,*4B
$GPGSA,M,3,21,25,29,30,31,,,,,,,,12.2,5.9,10.6*3A
Trace #34 at position 8.250000
$GPZDA,102259.03,08,10,2011,00,00*63
$GPRMC,102259.00,A,4611.973318,N,01258.212429,E,001.9,192.6,081011,0.2,E,A*32
$GPGGA,102300.00,4611.973176,N,01258.212486,E,1,05,5.9,138.56,M,46.25,M,,*63
$GPGLL,4611.973176,N,01258.212486,E,102300.00,A,A*63
$GPVTG,164.6,T,164.7,M,000.6,N,001.1,K,A*24
$GPGSV,2,1,07,21,26,186,43,02,20,045,36,12,26,110,,25,59,106,44*7D
$GPGSV,2,2,07,29,84,345,45,30,71,307,45,31,52,282,48,,,,*4B
$GPGSA,M,3,21,25,29,30,31,,,,,,,,12.2,5.9,10.7*3B
Trace #35 at position 8.500000
$GPZDA,102259.03,08,10,2011,00,00*63
$GPRMC,102259.00,A,4611.973318,N,01258.212429,E,001.9,192.6,081011,0.2,E,A*32
$GPGGA,102300.00,4611.973176,N,01258.212486,E,1,05,5.9,138.56,M,46.25,M,,*63
$GPGLL,4611.973176,N,01258.212486,E,102300.00,A,A*63
$GPVTG,164.6,T,164.7,M,000.6,N,001.1,K,A*24
$GPGSV,2,1,07,21,26,186,43,02,20,045,36,12,26,110,,25,59,106,44*7D
$GPGSV,2,2,07,29,84,345,45,30,71,307,45,31,52,282,48,,,,*4B
$GPGSA,M,3,21,25,29,30,31,,,,,,,,12.2,5.9,10.7*3B
Trace #36 at position 8.750000
$GPZDA,102259.03,08,10,2011,00,00*63
$GPRMC,102259.00,A,4611.973318,N,01258.212429,E,001.9,192.6,081011,0.2,E,A*32
$GPGGA,102300.00,4611.973176,N,01258.212486,E,1,05,5.9,138.56,M,46.25,M,,*63
$GPGLL,4611.973176,N,01258.212486,E,102300.00,A,A*63
$GPVTG,164.6,T,164.7,M,000.6,N,001.1,K,A*24
$GPGSV,2,1,07,21,26,186,43,02,20,045,36,12,26,110,,25,59,106,44*7D
$GPGSV,2,2,07,29,84,345,45,30,71,307,45,31,52,282,48,,,,*4B
$GPGSA,M,3,21,25,29,30,31,,,,,,,,12.2,5.9,10.7*3B
Trace #37 at position 9.000000
$GPZDA,102300.03,08,10,2011,00,00*6E
$GPRMC,102300.00,A,4611.973176,N,01258.212486,E,000.6,164.6,081011,0.2,E,A*37
$GPGGA,102301.00,4611.973168,N,01258.212762,E,1,05,5.9,138.16,M,46.25,M,,*60
$GPGLL,4611.973168,N,01258.212762,E,102301.00,A,A*64
$GPVTG,130.3,T,130.5,M,001.0,N,001.8,K,A*2D
$GPGSV,2,1,07,21,26,186,44,02,20,045,36,12,26,110,,25,59,106,45*7B
$GPGSV,2,2,07,29,84,345,45,30,71,307,45,31,52,282,48,,,,*4B
$GPGSA,M,3,21,25,29,30,31,,,,,,,,12.2,5.9,10.7*3B
Trace #38 at position 9.250000
$GPZDA,102300.03,08,10,2011,00,00*6E
$GPRMC,102300.00,A,4611.973176,N,01258.212486,E,000.6,164.6,081011,0.2,E,A*37
$GPGGA,102301.00,4611.973168,N,01258.212762,E,1,05,5.9,138.16,M,46.25,M,,*60
$GPGLL,4611.973168,N,01258.212762,E,102301.00,A,A*64
$GPVTG,130.3,T,130.5,M,001.0,N,001.8,K,A*2D
$GPGSV,2,1,07,21,26,186,44,02,20,045,36,12,26,110,,25,59,106,45*7B
$GPGSV,2,2,07,29,84,345,45,30,71,307,45,31,52,282,48,,,,*4B
$GPGSA,M,3,21,25,29,30,31,,,,,,,,12.2,5.9,10.7*3B
Trace #39 at position 9.500000
$GPZDA,102301.03,08,10,2011,00,00*6F
$GPRMC,102301.00,A,4611.973168,N,01258.212762,E,001.0,130.3,081011,0.2,E,A*33
$GPGGA,102302.00,4611.973056,N,01258.213154,E,1,05,5.9,137.85,M,46.25,M,,*68
$GPGLL,4611.973056,N,01258.213154,E,102302.00,A,A*69
$GPVTG,140.6,T,140.7,M,001.4,N,002.6,K,A*23
$GPGSV,2,1,07,21,26,186,44,02,20,045,,12,26,110,,25,59,106,45*7E
$GPGSV,2,2,07,29,84,346,44,30,71,307,45,31,52,282,48,,,,*49
$GPGSA,M,3,21,25,29,30,31,,,,,,,,12.2,5.9,10.7*3B
Trace #40 at position 9.750000
$GPZDA,102301.03,08,10,2011,00,00*6F
$GPRMC,102301.00,A,4611.973168,N,01258.212762,E,001.0,130.3,081011,0.2,E,A*33
$GPGGA,102302.00,4611.973056,N,01258.213154,E,1,05,5.9,137.85,M,46.25,M,,*68
$GPGLL,4611.973056,N,01258.213154,E,102302.00,A,A*69
$GPVTG,140.6,T,140.7,M,001.4,N,002.6,K,A*23
$GPGSV,2,1,07,21,26,186,44,02,20,045,,12,26,110,,25,59,106,45*7E
$GPGSV,2,2,07,29,84,346,44,30,71,307,45,31,52,282,48,,,,*49
$GPGSA,M,3,21,25,29,30,31,,,,,,,,12.2,5.9,10.7*3B
Trace #41 at position 10.000000
$GPZDA,102301.03,08,10,2011,00,00*6F
$GPRMC,102301.00,A,4611.973168,N,01258.212762,E,001.0,130.3,081011,0.2,E,A*33
$GPGGA,102302.00,4611.973056,N,01258.213154,E,1,05,5.9,137.85,M,46.25,M,,*68
$GPGLL,4611.973056,N,01258.213154,E,102302.00,A,A*69
$GPVTG,140.6,T,140.7,M,001.4,N,002.6,K,A*23
$GPGSV,2,1,07,21,26,186,44,02,20,045,,12,26,110,,25,59,106,45*7E
$GPGSV,2,2,07,29,84,346,44,30,71,307,45,31,52,282,48,,,,*49
$GPGSA,M,3,21,25,29,30,31,,,,,,,,12.2,5.9,10.7*3B
Trace #42 at position 10.250000
$GPZDA,102302.03,08,10,2011,00,00*6C
$GPRMC,102302.00,A,4611.973056,N,01258.213154,E,001.4,140.6,081011,0.2,E,A*38
$GPGGA,102303.00,4611.972889,N,01258.213471,E,1,05,5.9,137.78,M,46.25,M,,*62
$GPGLL,4611.972889,N,01258.213471,E,102303.00,A,A*61
$GPVTG,151.0,T,151.2,M,001.1,N,001.9,K,A*29
$GPGSV,2,1,07,21,26,186,43,02,20,045,38,12,26,110,,25,59,106,45*72
$GPGSV,2,2,07,29,84,346,45,30,71,307,45,31,52,282,48,,,,*48
$GPGSA,M,3,21,25,29,30,31,,,,,,,,12.2,5.9,10.7*3B
Trace #43 at position 10.500000
$GPZDA,102302.03,08,10,2011,00,00*6C
$GPRMC,102302.00,A,4611.973056,N,01258.213154,E,001.4,140.6,081011,0.2,E,A*38
$GPGGA,102303.00,4611.972889,N,01258.213471,E,1,05,5.9,137.78,M,46.25,M,,*62
$GPGLL,4611.972889,N,01258.213471,E,102303.00,A,A*61
$GPVTG,151.0,T,151.2,M,001.1,N,001.9,K,A*29
$GPGSV,2,1,07,21,26,186,43,02,20,045,38,12,26,110,,25,59,106,45*72
$GPGSV,2,2,07,29,84,346,45,30,71,307,45,31,52,282,48,,,,*48
$GPGSA,M,3,21,25,29,30,31,,,,,,,,12.2,5.9,10.7*3B
Trace #44 at position 10.750000
$GPZDA,102302.03,08,10,2011,00,00*6C
$GPRMC,102302.00,A,4611.973056,N,01258.213154,E,001.4,140.6,081011,0.2,E,A*38
$GPGGA,102303.00,4611.972889,N,01258.213471,E,1,05,5.9,137.78,M,46.25,M,,*62
$GPGLL,4611.972889,N,01258.213471,E,102303.00,A,A*61
$GPVTG,151.0,T,151.2,M,001.1,N,001.9,K,A*29
$GPGSV,2,1,07,21,26,186,43,02,20,045,38,12,26,110,,25,59,106,45*72
$GPGSV,2,2,07,29,84,346,45,30,71,307,45,31,52,282,48,,,,*48
$GPGSA,M,3,21,25,29,30,31,,,,,,,,12.2,5.9,10.7*3B
Trace #45 at position 11.000000
$GPZDA,102303.03,08,10,2011,00,00*6D
$GPRMC,102303.00,A,4611.972889,N,01258.213471,E,001.1,151.0,081011,0.2,E,A*33
$GPGGA,102304.00,4611.972659,N,01258.213654,E,1,05,5.9,137.74,M,46.25,M,,*6F
$GPGLL,4611.972659,N,01258.213654,E,102304.00,A,A*60
$GPVTG,170.1,T,170.2,M,001.4,N,002.7,K,A*20
$GPGSV,2,1,07,21,26,186,44,02,20,045,,12,26,110,,25,59,106,45*7E
$GPGSV,2,2,07,29,84,346,44,30,71,307,45,31,52,282,49,,,,*48
$GPGSA,M,3,21,25,29,30,31,,,,,,,,12.2,5.9,10.7*3B
Trace #46 at position 11.250000
$GPZDA,102303.03,08,10,2011,00,00*6D
$GPRMC,102303.00,A,4611.972889,N,01258.213471,E,001.1,151.0,081011,0.2,E,A*33
$GPGGA,102304.00,4611.972659,N,01258.213654,E,1,05,5.9,137.74,M,46.25,M,,*6F
$GPGLL,4611.972659,N,01258.213654,E,102304.00,A,A*60
$GPVTG,170.1,T,170.2,M,001.4,N,002.7,K,A*20
$GPGSV,2,1,07,21,26,186,44,02,20,045,,12,26,110,,25,59,106,45*7E
$GPGSV,2,2,07,29,84,346,44,30,71,307,45,31,52,282,49,,,,*48
$GPGSA,M,3,21,25,29,30,31,,,,,,,,12.2,5.9,10.7*3B
Trace #47 at position 11.500000
$GPZDA,102304.03,08,10,2011,00,00*6A
$GPRMC,102304.00,A,4611.972659,N,01258.213654,E,001.4,170.1,081011,0.2,E,A*35
$GPGGA,102305.00,4611.972326,N,01258.213605,E,1,05,5.9,137.83,M,46.25,M,,*6F
$GPGLL,4611.972326,N,01258.213605,E,102305.00,A,A*68
$GPVTG,206.2,T,206.3,M,001.8,N,003.3,K,A*2B
$GPGSV,2,1,07,21,26,186,44,02,20,045,37,12,26,110,,25,59,106,45*7A
$GPGSV,2,2,07,29,84,346,45,30,71,307,45,31,52,282,49,,,,*49
$GPGSA,M,3,21,25,29,30,31,,,,,,,,12.2,5.9,10.7*3B
Trace #48 at position 11.750000
$GPZDA,102304.03,08,10,2011,00,00*6A
$GPRMC,102304.00,A,4611.972659,N,01258.213654,E,001.4,170.1,081011,0.2,E,A*35
$GPGGA,102305.00,4611.972326,N,01258.213605,E,1,05,5.9,137.83,M,46.25,M,,*6F
$GPGLL,4611.972326,N,01258.213605,E,102305.00,A,A*68
$GPVTG,206.2,T,206.3,M,001.8,N,003.3,K,A*2B
$GPGSV,2,1,07,21,26,186,44,02,20,045,37,12,26,110,,25,59,106,45*7A
$GPGSV,2,2,07,29,84,346,45,30,71,307,45,31,52,282,49,,,,*49
$GPGSA,M,3,21,25,29,30,31,,,,,,,,12.2,5.9,10.7*3B
Trace #49 at position 12.000000
$GPZDA,102304.03,08,10,2011,00,00*6A
$GPRMC,102304.00,A,4611.972659,N,01258.213654,E,001.4,170.1,081011,0.2,E,A*35
$GPGGA,102305.00,4611.972326,N,01258.213605,E,1,05,5.9,137.83,M,46.25,M,,*6F
$GPGLL,4611.972326,N,01258.213605,E,102305.00,A,A*68
$GPVTG,206.2,T,206.3,M,001.8,N,003.3,K,A*2B
$GPGSV,2,1,07,21,26,186,44,02,20,045,37,12,26,110,,25,59,106,45*7A
$GPGSV,2,2,07,29,84,346,45,30,71,307,45,31,52,282,49,,,,*49
$GPGSA,M,3,21,25,29,30,31,,,,,,,,12.2,5.9,10.7*3B
Trace #50 at position 12.250000
$GPZDA,102304.03,08,10,2011,00,00*6A
$GPRMC,102304.00,A,4611.972659,N,01258.213654,E,001.4,170.1,081011,0.2,E,A*35
$GPGGA,102305.00,4611.972326,N,01258.213605,E,1,05,5.9,137.83,M,46.25,M,,*6F
$GPGLL,4611.972326,N,01258.213605,E,102305.00,A,A*68
$GPVTG,206.2,T,206.3,M,001.8,N,003.3,K,A*2B
$GPGSV,2,1,07,21,26,186,44,02,20,045,37,12,26,110,,25,59,106,45*7A
$GPGSV,2,2,07,29,84,346,45,30,71,307,45,31,52,282,49,,,,*49
$GPGSA,M,3,21,25,29,30,31,,,,,,,,12.2,5.9,10.7*3B
Trace #51 at position 12.500000
$GPZDA,102305.03,08,10,2011,00,00*6B
$GPRMC,102305.00,A,4611.972326,N,01258.213605,E,001.8,206.2,081011,0.2,E,A*30
$GPGGA,102306.00,4611.971964,N,01258.213613,E,1,05,5.9,137.43,M,46.25,M,,*68
$GPGLL,4611.971964,N,01258.213613,E,102306.00,A,A*63
$GPVTG,167.1,T,167.2,M,001.7,N,003.2,K,A*27
$GPGSV,2,1,07,21,26,186,43,02,20,045,37,12,26,110,,25,59,106,45*7D
$GPGSV,2,2,07,29,84,346,44,30,71,307,45,31,52,282,48,,,,*49
$GPGSA,M,3,21,25,29,30,31,,,,,,,,12.2,5.9,10.7*3B
Trace #52 at position 12.750000
$GPZDA,102305.03,08,10,2011,00,00*6B
$GPRMC,102305.00,A,4611.972326,N,01258.213605,E,001.8,206.2,081011,0.2,E,A*30
$GPGGA,102306.00,4611.971964,N,01258.213613,E,1,05,5.9,137.43,M,46.25,M,,*68
$GPGLL,4611.971964,N,01258.213613,E,102306.00,A,A*63
$GPVTG,167.1,T,167.2,M,001.7,N,003.2,K,A*27
$GPGSV,2,1,07,21,26,186,43,02,20,045,37,12,26,110,,25,59,106,45*7D
$GPGSV,2,2,07,29,84,346,44,30,71,307,45,31,52,282,48,,,,*49
$GPGSA,M,3,21,25,29,30,31,,,,,,,,12.2,5.9,10.7*3B
Trace #53 at position 13.000000
$GPZDA,102305.03,08,10,2011,00,00*6B
$GPRMC,102305.00,A,4611.972326,N,01258.213605,E,001.8,206.2,081011,0.2,E,A*30
$GPGGA,102306.00,4611.971964,N,01258.213613,E,1,05,5.9,137.43,M,46.25,M,,*68
$GPGLL,4611.971964,N,01258.213613,E,102306.00,A,A*63
$GPVTG,167.1,T,167.2,M,001.7,N,003.2,K,A*27
$GPGSV,2,1,07,21,26,186,43,02,20,045,37,12,26,110,,25,59,106,45*7D
$GPGSV,2,2,07,29,84,346,44,30,71,307,45,31,52,282,48,,,,*49
$GPGSA,M,3,21,25,29,30,31,,,,,,,,12.2,5.9,10.7*3B
Trace #54 at position 13.250000
$GPZDA,102306.03,08,10,2011,00,00*68
$GPRMC,102306.00,A,4611.971964,N,01258.213613,E,001.7,167.1,081011,0.2,E,A*33
$GPGGA,102307.00,4611.971580,N,01258.213809,E,1,05,5.9,137.11,M,46.25,M,,*6D
$GPGLL,4611.971580,N,01258.213809,E,102307.00,A,A*61
$GPVTG,174.0,T,174.1,M,001.7,N,003.2,K,A*25
$GPGSV,2,1,07,21,26,186,45,02,20,045,,12,26,110,,25,59,106,44*7E
$GPGSV,2,2,07,29,84,346,43,30,71,307,44,31,52,282,49,,,,*4E
$GPGSA,M,3,21,25,29,30,31,,,,,,,,12.2,5.9,10.7*3B
Trace #55 at position 13.500000
$GPZDA,102306.03,08,10,2011,00,00*68
$GPRMC,102306.00,A,4611.971964,N,01258.213613,E,001.7,167.1,081011,0.2,E,A*33
$GPGGA,102307.00,4611.971580,N,01258.213809,E,1,05,5.9,137.11,M,46.25,M,,*6D
$GPGLL,4611.971580,N,01258.213809,E,102307.00,A,A*61
$GPVTG,174.0,T,174.1,M,001.7,N,003.2,K,A*25
$GPGSV,2,1,07,21,26,186,45,02,20,045,,12,26,110,,25,59,106,44*7E
$GPGSV,2,2,07,29,84,346,43,30,71,307,44,31,52,282,49,,,,*4E
$GPGSA,M,3,21,25,29,30,31,,,,,,,,12.2,5.9,10.7*3B
Trace #56 at position 13.750000
$GPZDA,102306.03,08,10,2011,00,00*68
$GPRMC,102306.00,A,4611.971964,N,01258.213613,E,001.7,167.1,081011,0.2,E,A*33
$GPGGA,102307.00,4611.971580,N,01258.213809,E,1,05,5.9,137.11,M,46.25,M,,*6D
$GPGLL,4611.971580,N,01258.213809,E,102307.00,A,A*61
$GPVTG,174.0,T,174.1,M,001.7,N,003.2,K,A*25
$GPGSV,2,1,07,21,26,186,45,02,20,045,,12,26,110,,25,59,106,44*7E
$GPGSV,2,2,07,29,84,346,43,30,71,307,44,31,52,282,49,,,,*4E
$GPGSA,M,3,21,25,29,30,31,,,,,,,,12.2,5.9,10.7*3B
Trace #57 at position 14.000000
$GPZDA,102306.03,08,10,2011,00,00*68
$GPRMC,102306.00,A,4611.971964,N,01258.213613,E,001.7,167.1,081011,0.2,E,A*33
$GPGGA,102307.00,4611.971580,N,01258.213809,E,1,05,5.9,137.11,M,46.25,M,,*6D
$GPGLL,4611.971580,N,01258.213809,E,102307.00,A,A*61
$GPVTG,174.0,T,174.1,M,001.7,N,003.2,K,A*25
$GPGSV,2,1,07,21,26,186,45,02,20,045,,12,26,110,,25,59,106,44*7E
$GPGSV,2,2,07,29,84,346,43,30,71,307,44,31,52,282,49,,,,*4E
$GPGSA,M,3,21,25,29,30,31,,,,,,,,12.2,5.9,10.7*3B
Trace #58 at position 14.250000
$GPZDA,102307.03,08,10,2011,00,00*69
$GPRMC,102307.00,A,4611.971580,N,01258.213809,E,001.7,174.0,081011,0.2,E,A*32
$GPGGA,102308.00,4611.971252,N,01258.214023,E,1,05,5.9,136.98,M,46.25,M,,*6D
$GPGLL,4611.971252,N,01258.214023,E,102308.00,A,A*61
$GPVTG,158.8,T,159.0,M,001.3,N,002.4,K,A*2E
$GPGSV,2,1,07,21,26,186,45,02,20,045,,12,26,110,,25,59,106,43*79
$GPGSV,2,2,07,29,84,346,41,30,71,307,43,31,52,282,48,,,,*4A
$GPGSA,M,3,21,25,29,30,31,,,,,,,,12.2,5.9,10.7*3B
Trace #59 at position 14.500000
$GPZDA,102307.03,08,10,2011,00,00*69
$GPRMC,102307.00,A,4611.971580,N,01258.213809,E,001.7,174.0,081011,0.2,E,A*32
$GPGGA,102308.00,4611.971252,N,01258.214023,E,1,05,5.9,136.98,M,46.25,M,,*6D
$GPGLL,4611.971252,N,01258.214023,E,102308.00,A,A*61
$GPVTG,158.8,T,159.0,M,001.3,N,002.4,K,A*2E
$GPGSV,2,1,07,21,26,186,45,02,20,045,,12,26,110,,25,59,106,43*79
$GPGSV,2,2,07,29,84,346,41,30,71,307,43,31,52,282,48,,,,*4A
$GPGSA,M,3,21,25,29,30,31,,,,,,,,12.2,5.9,10.7*3B
Trace #60 at position 14.750000
$GPZDA,102307.03,08,10,2011,00,00*69
$GPRMC,102307.00,A,4611.971580,N,01258.213809,E,001.7,174.0,081011,0.2,E,A*32
$GPGGA,102308.00,4611.971252,N,01258.214023,E,1,05,5.9,136.98,M,46.25,M,,*6D
$GPGLL,4611.971252,N,01258.214023,E,102308.00,A,A*61
$GPVTG,158.8,T,159.0,M,001.3,N,002.4,K,A*2E
$GPGSV,2,1,07,21,26,186,45,02,20,045,,12,26,110,,25,59,106,43*79
$GPGSV,2,2,07,29,84,346,41,30,71,307,43,31,52,282,48,,,,*4A
$GPGSA,M,3,21,25,29,30,31,,,,,,,,12.2,5.9,10.7*3B
Trace #61 at position 15.000000
$GPZDA,102308.03,08,10,2011,00,00*66
$GPRMC,102308.00,A,4611.971252,N,01258.214023,E,001.3,158.8,081011,0.2,E,A*30
$GPGGA,102309.00,4611.970954,N,01258.214251,E,1,05,5.9,136.33,M,46.25,M,,*66
$GPGLL,4611.970954,N,01258.214251,E,102309.00,A,A*6B
$GPVTG,167.2,T,167.4,M,001.4,N,002.6,K,A*24
$GPGSV,2,1,07,21,26,186,45,02,20,045,32,12,26,110,,25,59,106,44*7F
$GPGSV,2,2,07,29,84,346,43,30,71,307,44,31,52,282,49,,,,*4E
$GPGSA,M,3,21,25,29,30,31,,,,,,,,12.2,5.9,10.7*3B
Trace #62 at position 15.250000
$GPZDA,102308.03,08,10,2011,00,00*66
$GPRMC,102308.00,A,4611.971252,N,01258.214023,E,001.3,158.8,081011,0.2,E,A*30
$GPGGA,102309.00,4611.970954,N,01258.214251,E,1,05,5.9,136.33,M,46.25,M,,*66
$GPGLL,4611.970954,N,01258.214251,E,102309.00,A,A*6B
$GPVTG,167.2,T,167.4,M,001.4,N,002.6,K,A*24
$GPGSV,2,1,07,21,26,186,45,02,20,045,32,12,26,110,,25,59,106,44*7F
$GPGSV,2,2,07,29,84,346,43,30,71,307,44,31,52,282,49,,,,*4E
$GPGSA,M,3,21,25,29,30,31,,,,,,,,12.2,5.9,10.7*3B
Trace #63 at position 15.500000
$GPZDA,102308.03,08,10,2011,00,00*66
$GPRMC,102308.00,A,4611.971252,N,01258.214023,E,001.3,158.8,081011,0.2,E,A*30
$GPGGA,102309.00,4611.970954,N,01258.214251,E,1,05,5.9,136.33,M,46.25,M,,*66
$GPGLL,4611.970954,N,01258.214251,E,102309.00,A,A*6B
$GPVTG,167.2,T,167.4,M,001.4,N,002.6,K,A*24
$GPGSV,2,1,07,21,26,186,45,02,20,045,32,12,26,110,,25,59,106,44*7F
$GPGSV,2,2,07,29,84,346,43,30,71,307,44,31,52,282,49,,,,*4E
$GPGSA,M,3,21,25,29,30,31,,,,,,,,12.2,5.9,10.7*3B
Trace #64 at position 15.750000
$GPZDA,102309.03,08,10,2011,00,00*67
$GPRMC,102309.00,A,4611.970954,N,01258.214251,E,001.4,167.2,081011,0.2,E,A*3B
$GPGGA,102310.00,4611.970592,N,01258.214560,E,1,05,5.9,135.85,M,46.25,M,,*63
$GPGLL,4611.970592,N,01258.214560,E,102310.00,A,A*60
$GPVTG,150.6,T,150.8,M,001.9,N,003.5,K,A*23
$GPGSV,2,1,07,21,26,186,45,02,20,045,31,12,26,110,,25,59,106,44*7C
$GPGSV,2,2,07,29,84,346,42,30,71,307,45,31,52,282,48,,,,*4F
$GPGSA,M,3,21,25,29,30,31,,,,,,,,12.2,5.9,10.7*3B
Trace #65 at position 16.000000
$GPZDA,102309.03,08,10,2011,00,00*67
$GPRMC,102309.00,A,4611.970954,N,01258.214251,E,001.4,167.2,081011,0.2,E,A*3B
$GPGGA,102310.00,4611.970592,N,01258.214560,E,1,05,5.9,135.85,M,46.25,M,,*63
$GPGLL,4611.970592,N,01258.214560,E,102310.00,A,A*60
$GPVTG,150.6,T,150.8,M,001.9,N,003.5,K,A*23
$GPGSV,2,1,07,21,26,186,45,02,20,045,31,12,26,110,,25,59,106,44*7C
$GPGSV,2,2,07,29,84,346,42,30,71,307,45,31,52,282,48,,,,*4F
$GPGSA,M,3,21,25,29,30,31,,,,,,,,12.2,5.9,10.7*3B
Trace #66 at position 16.250000
$GPZDA,102309.03,08,10,2011,00,00*67
$GPRMC,102309.00,A,4611.970954,N,01258.214251,E,001.4,167.2,081011,0.2,E,A*3B
$GPGGA,102310.00,4611.970592,N,01258.214560,E,1,05,5.9,135.85,M,46.25,M,,*63
$GPGLL,4611.970592,N,01258.214560,E,102310.00,A,A*60
$GPVTG,150.6,T,150.8,M,001.9,N,003.5,K,A*23
$GPGSV,2,1,07,21,26,186,45,02,20,045,31,12,26,110,,25,59,106,44*7C
$GPGSV,2,2,07,29,84,346,42,30,71,307,45,31,52,282,48,,,,*4F
$GPGSA,M,3,21,25,29,30,31,,,,,,,,12.2,5.9,10.7*3B
Trace #67 at position 16.500000
$GPZDA,102310.03,08,10,2011,00,00*6F
$GPRMC,102310.00,A,4611.970592,N,01258.214560,E,001.9,150.6,081011,0.2,E,A*3D
$GPGGA,102311.00,4611.969842,N,01258.214691,E,1,05,5.9,136.97,M,46.25,M,,*67
$GPGLL,4611.969842,N,01258.214691,E,102311.00,A,A*64
$GPVTG,188.3,T,188.5,M,004.7,N,008.7,K,A*29
$GPGSV,2,1,07,21,26,186,44,02,20,045,35,12,26,110,,25,59,106,46*7B
$GPGSV,2,2,07,29,84,346,45,30,71,307,45,31,52,282,48,,,,*48
$GPGSA,M,3,21,25,29,30,31,,,,,,,,12.2,5.9,10.7*3B
Trace #68 at position 16.750000
$GPZDA,102310.03,08,10,2011,00,00*6F
$GPRMC,102310.00,A,4611.970592,N,01258.214560,E,001.9,150.6,081011,0.2,E,A*3D
$GPGGA,102311.00,4611.969842,N,01258.214691,E,1,05,5.9,136.97,M,46.25,M,,*67
$GPGLL,4611.969842,N,01258.214691,E,102311.00,A,A*64
$GPVTG,188.3,T,188.5,M,004.7,N,008.7,K,A*29
$GPGSV,2,1,07,21,26,186,44,02,20,045,35,12,26,110,,25,59,106,46*7B
$GPGSV,2,2,07,29,84,346,45,30,71,307,45,31,52,282,48,,,,*48
$GPGSA,M,3,21,25,29,30,31,,,,,,,,12.2,5.9,10.7*3B
Trace #69 at position 17.000000
$GPZDA,102311.03,08,10,2011,00,00*6E
$GPRMC,102311.00,A,4611.969842,N,01258.214691,E,004.7,188.3,081011,0.2,E,A*32
$GPGGA,102312.00,4611.969176,N,01258.214680,E,1,05,5.9,138.12,M,46.25,M,,*69
$GPGLL,4611.969176,N,01258.214680,E,102312.00,A,A*69
$GPVTG,175.0,T,175.2,M,001.3,N,002.4,K,A*25
$GPGSV,2,1,07,21,26,186,45,02,20,045,31,12,26,110,,25,59,106,44*7C
$GPGSV,2,2,07,29,84,346,42,30,71,307,44,31,52,282,48,,,,*4E
$GPGSA,M,3,21,25,29,30,31,,,,,,,,12.3,5.9,10.7*3A
Trace #70 at position 17.250000
$GPZDA,102311.03,08,10,2011,00,00*6E
$GPRMC,102311.00,A,4611.969842,N,01258.214691,E,004.7,188.3,081011,0.2,E,A*32
$GPGGA,102312.00,4611.969176,N,01258.214680,E,1,05,5.9,138.12,M,46.25,M,,*69
$GPGLL,4611.969176,N,01258.214680,E,102312.00,A,A*69
$GPVTG,175.0,T,175.2,M,001.3,N,002.4,K,A*25
$GPGSV,2,1,07,21,26,186,45,02,20,045,31,12,26,110,,25,59,106,44*7C
$GPGSV,2,2,07,29,84,346,42,30,71,307,44,31,52,282,48,,,,*4E
$GPGSA,M,3,21,25,29,30,31,,,,,,,,12.3,5.9,10.7*3A
Trace #71 at position 17.500000
$GPZDA,102311.03,08,10,2011,00,00*6E
$GPRMC,102311.00,A,4611.969842,N,01258.214691,E,004.7,188.3,081011,0.2,E,A*32
$GPGGA,102312.00,4611.969176,N,01258.214680,E,1,05,5.9,138.12,M,46.25,M,,*69
$GPGLL,4611.969176,N,01258.214680,E,102312.00,A,A*69
$GPVTG,175.0,T,175.2,M,001.3,N,002.4,K,A*25
$GPGSV,2,1,07,21,26,186,45,02,20,045,31,12,26,110,,25,59,106,44*7C
$GPGSV,2,2,07,29,84,346,42,30,71,307,44,31,52,282,48,,,,*4E
$GPGSA,M,3,21,25,29,30,31,,,,,,,,12.3,5.9,10.7*3A
Trace #72 at position 17.750000
$GPZDA,102312.03,08,10,2011,00,00*6D
$GPRMC,102312.00,A,4611.969176,N,01258.214680,E,001.3,175.0,081011,0.2,E,A*3F
$GPGGA,102313.00,4611.968941,N,01258.214895,E,1,05,5.9,137.68,M,46.25,M,,*6D
$GPGLL,4611.968941,N,01258.214895,E,102313.00,A,A*6F
$GPVTG,160.2,T,160.3,M,001.4,N,002.7,K,A*22
$GPGSV,2,1,07,21,26,186,44,02,20,045,32,12,26,110,,25,59,106,44*7E
$GPGSV,2,2,07,29,84,346,43,30,71,307,44,31,52,282,48,,,,*4F
$GPGSA,M,3,21,25,29,30,31,,,,,,,,12.3,5.9,10.7*3A
Trace #73 at position 18.000000
$GPZDA,102312.03,08,10,2011,00,00*6D
$GPRMC,102312.00,A,4611.969176,N,01258.214680,E,001.3,175.0,081011,0.2,E,A*3F
$GPGGA,102313.00,4611.968941,N,01258.214895,E,1,05,5.9,137.68,M,46.25,M,,*6D
$GPGLL,4611.968941,N,01258.214895,E,102313.00,A,A*6F
$GPVTG,160.2,T,160.3,M,001.4,N,002.7,K,A*22
$GPGSV,2,1,07,21,26,186,44,02,20,045,32,12,26,110,,25,59,106,44*7E
$GPGSV,2,2,07,29,84,346,43,30,71,307,44,31,52,282,48,,,,*4F
$GPGSA,M,3,21,25,29,30,31,,,,,,,,12.3,5.9,10.7*3A
Trace #74 at position 18.250000
$GPZDA,102312.03,08,10,2011,00,00*6D
$GPRMC,102312.00,A,4611.969176,N,01258.214680,E,001.3,175.0,081011,0.2,E,A*3F
$GPGGA,102313.00,4611.968941,N,01258.214895,E,1,05,5.9,137.68,M,46.25,M,,*6D
$GPGLL,4611.968941,N,01258.214895,E,102313.00,A,A*6F
$GPVTG,160.2,T,160.3,M,001.4,N,002.7,K,A*22
$GPGSV,2,1,07,21,26,186,44,02,20,045,32,12,26,110,,25,59,106,44*7E
$GPGSV,2,2,07,29,84,346,43,30,71,307,44,31,52,282,48,,,,*4F
$GPGSA,M,3,21,25,29,30,31,,,,,,,,12.3,5.9,10.7*3A
Trace #75 at position 18.500000
$GPZDA,102313.03,08,10,2011,00,00*6C
$GPRMC,102313.00,A,4611.968941,N,01258.214895,E,001.4,160.2,081011,0.2,E,A*38
$GPGGA,102314.00,4611.968686,N,01258.215280,E,1,05,5.9,137.21,M,46.25,M,,*6C
$GPGLL,4611.968686,N,01258.215280,E,102314.00,A,A*63
$GPVTG,141.0,T,141.1,M,001.7,N,003.2,K,A*25
$GPGSV,2,1,07,21,26,186,46,02,20,045,27,12,26,110,,25,59,106,44*78
$GPGSV,2,2,07,29,84,347,43,30,71,307,44,31,52,282,48,,,,*4E
$GPGSA,M,3,21,25,29,30,31,,,,,,,,12.3,5.9,10.8*35
Trace #76 at position 18.750000
$GPZDA,102313.03,08,10,2011,00,00*6C
$GPRMC,102313.00,A,4611.968941,N,01258.214895,E,001.4,160.2,081011,0.2,E,A*38
$GPGGA,102314.00,4611.968686,N,01258.215280,E,1,05,5.9,137.21,M,46.25,M,,*6C
$GPGLL,4611.968686,N,01258.215280,E,102314.00,A,A*63
$GPVTG,141.0,T,141.1,M,001.7,N,003.2,K,A*25
$GPGSV,2,1,07,21,26,186,46,02,20,045,27,12,26,110,,25,59,106,44*78
$GPGSV,2,2,07,29,84,347,43,30,71,307,44,31,52,282,48,,,,*4E
$GPGSA,M,3,21,25,29,30,31,,,,,,,,12.3,5.9,10.8*35
Trace #77 at position 19.000000
$GPZDA,102313.03,08,10,2011,00,00*6C
$GPRMC,102313.00,A,4611.968941,N,01258.214895,E,001.4,160.2,081011,0.2,E,A*38
$GPGGA,102314.00,4611.968686,N,01258.215280,E,1,05,5.9,137.21,M,46.25,M,,*6C
$GPGLL,4611.968686,N,01258.215280,E,102314.00,A,A*63
$GPVTG,141.0,T,141.1,M,001.7,N,003.2,K,A*25
$GPGSV,2,1,07,21,26,186,46,02,20,045,27,12,26,110,,25,59,106,44*78
$GPGSV,2,2,07,29,84,347,43,30,71,307,44,31,52,282,48,,,,*4E
$GPGSA,M,3,21,25,29,30,31,,,,,,,,12.3,5.9,10.8*35
Trace #78 at position 19.250000
$GPZDA,102314.03,08,10,2011,00,00*6B
$GPRMC,102314.00,A,4611.968686,N,01258.215280,E,001.7,141.0,081011,0.2,E,A*36
$GPGGA,102315.00,4611.968309,N,01258.215549,E,1,05,5.9,137.37,M,46.25,M,,*6A
$GPGLL,4611.968309,N,01258.215549,E,102315.00,A,A*62
$GPVTG,180.7,T,180.8,M,002.2,N,004.1,K,A*29
$GPGSV,2,1,07,21,26,186,45,02,20,045,31,12,26,110,,25,59,106,44*7C
$GPGSV,2,2,07,29,84,347,43,30,71,307,45,31,52,282,48,,,,*4F
$GPGSA,M,3,21,25,29,30,31,,,,,,,,12.3,5.9,10.8*35
Trace #79 at position 19.500000
$GPZDA,102314.03,08,10,2011,00,00*6B
$GPRMC,102314.00,A,4611.968686,N,01258.215280,E,001.7,141.0,081011,0.2,E,A*36
$GPGGA,102315.00,4611.968309,N,01258.215549,E,1,05,5.9,137.37,M,46.25,M,,*6A
$GPGLL,4611.968309,N,01258.215549,E,102315.00,A,A*62
$GPVTG,180.7,T,180.8,M,002.2,N,004.1,K,A*29
$GPGSV,2,1,07,21,26,186,45,02,20,045,31,12,26,110,,25,59,106,44*7C
$GPGSV,2,2,07,29,84,347,43,30,71,307,45,31,52,282,48,,,,*4F
$GPGSA,M,3,21,25,29,30,31,,,,,,,,12.3,5.9,10.8*35
Trace #80 at position 19.750000
$GPZDA,102315.03,08,10,2011,00,00*6A
$GPRMC,102315.00,A,4611.968309,N,01258.215549,E,002.2,180.7,081011,0.2,E,A*3B
$GPGGA,102316.00,4611.967965,N,01258.215670,E,1,05,5.9,137.33,M,46.25,M,,*6B
$GPGLL,4611.967965,N,01258.215670,E,102316.00,A,A*67
$GPVTG,165.9,T,166.0,M,001.3,N,002.3,K,A*2A
$GPGSV,2,1,07,21,26,186,46,02,20,045,29,12,26,110,,25,59,106,42*70
$GPGSV,2,2,07,29,84,347,43,30,71,307,44,31,52,282,48,,,,*4E
$GPGSA,M,3,21,25,29,30,31,,,,,,,,12.3,5.9,10.8*35
Trace #81 at position 20.000000
$GPZDA,102315.03,08,10,2011,00,00*6A
$GPRMC,102315.00,A,4611.968309,N,01258.215549,E,002.2,180.7,081011,0.2,E,A*3B
$GPGGA,102316.00,4611.967965,N,01258.215670,E,1,05,5.9,137.33,M,46.25,M,,*6B
$GPGLL,4611.967965,N,01258.215670,E,102316.00,A,A*67
$GPVTG,165.9,T,166.0,M,001.3,N,002.3,K,A*2A
$GPGSV,2,1,07,21,26,186,46,02,20,045,29,12,26,110,,25,59,106,42*70
$GPGSV,2,2,07,29,84,347,43,30,71,307,44,31,52,282,48,,,,*4E
$GPGSA,M,3,21,25,29,30,31,,,,,,,,12.3,5.9,10.8*35
Trace #82 at position 20.250000
$GPZDA,102315.03,08,10,2011,00,00*6A
$GPRMC,102315.00,A,4611.968309,N,01258.215549,E,002.2,180.7,081011,0.2,E,A*3B
$GPGGA,102316.00,4611.967965,N,01258.215670,E,1,05,5.9,137.33,M,46.25,M,,*6B
$GPGLL,4611.967965,N,01258.215670,E,102316.00,A,A*67
$GPVTG,165.9,T,166.0,M,001.3,N,002.3,K,A*2A
$GPGSV,2,1,07,21,26,186,46,02,20,045,29,12,26,110,,25,59,106,42*70
$GPGSV,2,2,07,29,84,347,43,30,71,307,44,31,52,282,48,,,,*4E
$GPGSA,M,3,21,25,29,30,31,,,,,,,,12.3,5.9,10.8*35
Trace #83 at position 20.500000
$GPZDA,102316.03,08,10,2011,00,00*69
$GPRMC,102316.00,A,4611.967965,N,01258.215670,E,001.3,165.9,081011,0.2,E,A*39
$GPGGA,102317.00,4611.967653,N,01258.215742,E,1,05,5.9,137.20,M,46.25,M,,*62
$GPGLL,4611.967653,N,01258.215742,E,102317.00,A,A*6C
$GPVTG,188.0,T,188.1,M,001.9,N,003.5,K,A*2C
$GPGSV,2,1,07,21,26,186,47,02,20,045,,12,26,110,,25,59,106,39*76
$GPGSV,2,2,07,29,84,347,39,30,71,307,43,31,52,282,48,,,,*44
$GPGSA,M,3,21,25,29,30,31,,,,,,,,12.3,5.9,10.8*35
Trace #84 at position 20.750000
$GPZDA,102316.03,08,10,2011,00,00*69
$GPRMC,102316.00,A,4611.967965,N,01258.215670,E,001.3,165.9,081011,0.2,E,A*39
$GPGGA,102317.00,4611.967653,N,01258.215742,E,1,05,5.9,137.20,M,46.25,M,,*62
$GPGLL,4611.967653,N,01258.215742,E,102317.00,A,A*6C
$GPVTG,188.0,T,188.1,M,001.9,N,003.5,K,A*2C
$GPGSV,2,1,07,21,26,186,47,02,20,045,,12,26,110,,25,59,106,39*76
$GPGSV,2,2,07,29,84,347,39,30,71,307,43,31,52,282,48,,,,*44
$GPGSA,M,3,21,25,29,30,31,,,,,,,,12.3,5.9,10.8*35
Trace #85 at position 21.000000
$GPZDA,102317.03,08,10,2011,00,00*68
$GPRMC,102317.00,A,4611.967653,N,01258.215742,E,001.9,188.0,081011,0.2,E,A*32
$GPGGA,102318.00,4611.967446,N,01258.215826,E,1,05,5.9,136.89,M,46.25,M,,*64
$GPGLL,4611.967446,N,01258.215826,E,102318.00,A,A*68
$GPVTG,140.0,T,140.2,M,000.4,N,000.8,K,A*2D
$GPGSV,2,1,07,21,26,186,46,02,20,045,,12,26,110,,25,59,106,43*7A
$GPGSV,2,2,07,29,84,347,40,30,71,307,43,31,52,282,49,,,,*4B
$GPGSA,M,3,21,25,29,30,31,,,,,,,,12.3,5.9,10.8*35
Trace #86 at position 21.250000
$GPZDA,102317.03,08,10,2011,00,00*68
$GPRMC,102317.00,A,4611.967653,N,01258.215742,E,001.9,188.0,081011,0.2,E,A*32
$GPGGA,102318.00,4611.967446,N,01258.215826,E,1,05,5.9,136.89,M,46.25,M,,*64
$GPGLL,4611.967446,N,01258.215826,E,102318.00,A,A*68
$GPVTG,140.0,T,140.2,M,000.4,N,000.8,K,A*2D
$GPGSV,2,1,07,21,26,186,46,02,20,045,,12,26,110,,25,59,106,43*7A
$GPGSV,2,2,07,29,84,347,40,30,71,307,43,31,52,282,49,,,,*4B
$GPGSA,M,3,21,25,29,30,31,,,,,,,,12.3,5.9,10.8*35
Trace #87 at position 21.500000
$GPZDA,102317.03,08,10,2011,00,00*68
$GPRMC,102317.00,A,4611.967653,N,01258.215742,E,001.9,188.0,081011,0.2,E,A*32
$GPGGA,102318.00,4611.967446,N,01258.215826,E,1,05,5.9,136.89,M,46.25,M,,*64
$GPGLL,4611.967446,N,01258.215826,E,102318.00,A,A*68
$GPVTG,140.0,T,140.2,M,000.4,N,000.8,K,A*2D
$GPGSV,2,1,07,21,26,186,46,02,20,045,,12,26,110,,25,59,106,43*7A
$GPGSV,2,2,07,29,84,347,40,30,71,307,43,31,52,282,49,,,,*4B
$GPGSA,M,3,21,25,29,30,31,,,,,,,,12.3,5.9,10.8*35
Trace #88 at position 21.750000
$GPZDA,102318.03,08,10,2011,00,00*67
$GPRMC,102318.00,A,4611.967446,N,01258.215826,E,000.4,140.0,081011,0.2,E,A*3E
$GPGGA,102319.00,4611.967291,N,01258.216046,E,1,05,5.9,136.45,M,46.25,M,,*64
$GPGLL,4611.967291,N,01258.216046,E,102319.00,A,A*68
$GPVTG,161.0,T,161.1,M,001.4,N,002.6,K,A*23
$GPGSV,2,1,07,21,26,186,47,02,20,045,,12,26,110,,25,59,106,43*7B
$GPGSV,2,2,07,29,84,347,42,30,71,307,44,31,52,282,49,,,,*4E
$GPGSA,M,3,21,25,29,30,31,,,,,,,,12.3,5.9,10.8*35
Trace #89 at position 22.000000
$GPZDA,102318.03,08,10,2011,00,00*67
$GPRMC,102318.00,A,4611.967446,N,01258.215826,E,000.4,140.0,081011,0.2,E,A*3E
$GPGGA,102319.00,4611.967291,N,01258.216046,E,1,05,5.9,136.45,M,46.25,M,,*64
$GPGLL,4611.967291,N,01258.216046,E,102319.00,A,A*68
$GPVTG,161.0,T,161.1,M,001.4,N,002.6,K,A*23
$GPGSV,2,1,07,21,26,186,47,02,20,045,,12,26,110,,25,59,106,43*7B
$GPGSV,2,2,07,29,84,347,42,30,71,307,44,31,52,282,49,,,,*4E
$GPGSA,M,3,21,25,29,30,31,,,,,,,,12.3,5.9,10.8*35
Trace #90 at position 22.250000
$GPZDA,102319.03,08,10,2011,00,00*66
$GPRMC,102319.00,A,4611.967291,N,01258.216046,E,001.4,161.0,081011,0.2,E,A*3C
$GPGGA,102320.00,4611.966874,N,01258.216110,E,1,05,5.9,136.43,M,46.25,M,,*6A
$GPGLL,4611.966874,N,01258.216110,E,102320.00,A,A*60
$GPVTG,194.1,T,194.2,M,002.6,N,004.9,K,A*29
$GPGSV,2,1,07,21,26,186,45,02,20,045,,12,26,110,,25,59,106,45*7F
$GPGSV,2,2,07,29,84,347,45,30,71,307,45,31,52,282,48,,,,*49
$GPGSA,M,3,21,25,29,30,31,,,,,,,,12.3,5.9,10.8*35
Trace #91 at position 22.500000
$GPZDA,102319.03,08,10,2011,00,00*66
$GPRMC,102319.00,A,4611.967291,N,01258.216046,E,001.4,161.0,081011,0.2,E,A*3C
$GPGGA,102320.00,4611.966874,N,01258.216110,E,1,05,5.9,136.43,M,46.25,M,,*6A
$GPGLL,4611.966874,N,01258.216110,E,102320.00,A,A*60
$GPVTG,194.1,T,194.2,M,002.6,N,004.9,K,A*29
$GPGSV,2,1,07,21,26,186,45,02,20,045,,12,26,110,,25,59,106,45*7F
$GPGSV,2,2,07,29,84,347,45,30,71,307,45,31,52,282,48,,,,*49
$GPGSA,M,3,21,25,29,30,31,,,,,,,,12.3,5.9,10.8*35
Trace #92 at position 22.750000
$GPZDA,102319.03,08,10,2011,00,00*66
$GPRMC,102319.00,A,4611.967291,N,01258.216046,E,001.4,161.0,081011,0.2,E,A*3C
$GPGGA,102320.00,4611.966874,N,01258.216110,E,1,05,5.9,136.43,M,46.25,M,,*6A
$GPGLL,4611.966874,N,01258.216110,E,102320.00,A,A*60
$GPVTG,194.1,T,194.2,M,002.6,N,004.9,K,A*29
$GPGSV,2,1,07,21,26,186,45,02,20,045,,12,26,110,,25,59,106,45*7F
$GPGSV,2,2,07,29,84,347,45,30,71,307,45,31,52,282,48,,,,*49
$GPGSA,M,3,21,25,29,30,31,,,,,,,,12.3,5.9,10.8*35
Trace #93 at position 23.000000
$GPZDA,102320.03,08,10,2011,00,00*6C
$GPRMC,102320.00,A,4611.966874,N,01258.216110,E,002.6,194.1,081011,0.2,E,A*3E
$GPGGA,102321.00,4611.966226,N,01258.215828,E,1,05,5.9,138.09,M,46.25,M,,*67
$GPGLL,4611.966226,N,01258.215828,E,102321.00,A,A*6D
$GPVTG,205.6,T,205.8,M,002.7,N,005.0,K,A*2D
$GPGSV,2,1,07,21,26,186,47,02,20,045,,12,26,110,,25,59,106,41*79
$GPGSV,2,2,07,29,84,347,,30,71,307,42,31,52,282,47,,,,*40
$GPGSA,M,3,21,25,29,30,31,,,,,,,,12.3,5.9,10.8*35
Trace #94 at position 23.250000
$GPZDA,102320.03,08,10,2011,00,00*6C
$GPRMC,102320.00,A,4611.966874,N,01258.216110,E,002.6,194.1,081011,0.2,E,A*3E
$GPGGA,102321.00,4611.966226,N,01258.215828,E,1,05,5.9,138.09,M,46.25,M,,*67
$GPGLL,4611.966226,N,01258.215828,E,102321.00,A,A*6D
$GPVTG,205.6,T,205.8,M,002.7,N,005.0,K,A*2D
$GPGSV,2,1,07,21,26,186,47,02,20,045,,12,26,110,,25,59,106,41*79
$GPGSV,2,2,07,29,84,347,,30,71,307,42,31,52,282,47,,,,*40
$GPGSA,M,3,21,25,29,30,31,,,,,,,,12.3,5.9,10.8*35
Trace #95 at position 23.500000
$GPZDA,102321.03,08,10,2011,00,00*6D
$GPRMC,102321.00,A,4611.966226,N,01258.215828,E,002.7,205.6,081011,0.2,E,A*3E
$GPGGA,102322.00,4611.965676,N,01258.215379,E,1,05,5.9,139.94,M,46.25,M,,*6C
$GPGLL,4611.965676,N,01258.215379,E,102322.00,A,A*63
$GPVTG,233.6,T,233.8,M,001.7,N,003.2,K,A*2A
$GPGSV,2,1,07,21,26,186,47,02,20,045,27,12,26,110,,25,59,106,38*72
$GPGSV,2,2,07,29,84,347,39,30,71,307,40,31,52,282,47,,,,*48
$GPGSA,M,3,21,25,29,30,31,,,,,,,,12.3,5.9,10.8*35
Trace #96 at position 23.750000
$GPZDA,102321.03,08,10,2011,00,00*6D
$GPRMC,102321.00,A,4611.966226,N,01258.215828,E,002.7,205.6,081011,0.2,E,A*3E
$GPGGA,102322.00,4611.965676,N,01258.215379,E,1,05,5.9,139.94,M,46.25,M,,*6C
$GPGLL,4611.965676,N,01258.215379,E,102322.00,A,A*63
$GPVTG,233.6,T,233.8,M,001.7,N,003.2,K,A*2A
$GPGSV,2,1,07,21,26,186,47,02,20,045,27,12,26,110,,25,59,106,38*72
$GPGSV,2,2,07,29,84,347,39,30,71,307,40,31,52,282,47,,,,*48
$GPGSA,M,3,21,25,29,30,31,,,,,,,,12.3,5.9,10.8*35
Trace #97 at position 24.000000
$GPZDA,102321.03,08,10,2011,00,00*6D
$GPRMC,102321.00,A,4611.966226,N,01258.215828,E,002.7,205.6,081011,0.2,E,A*3E
$GPGGA,102322.00,4611.965676,N,01258.215379,E,1,05,5.9,139.94,M,46.25,M,,*6C
$GPGLL,4611.965676,N,01258.215379,E,102322.00,A,A*63
$GPVTG,233.6,T,233.8,M,001.7,N,003.2,K,A*2A
$GPGSV,2,1,07,21,26,186,47,02,20,045,27,12,26,110,,25,59,106,38*72
$GPGSV,2,2,07,29,84,347,39,30,71,307,40,31,52,282,47,,,,*48
$GPGSA,M,3,21,25,29,30,31,,,,,,,,12.3,5.9,10.8*35
Trace #98 at position 24.250000
$GPZDA,102322.03,08,10,2011,00,00*6E
$GPRMC,102322.00,A,4611.965676,N,01258.215379,E,001.7,233.6,081011,0.2,E,A*36
$GPGGA,102323.00,4611.965303,N,01258.215348,E,1,05,5.9,140.15,M,46.25,M,,*6F
$GPGLL,4611.965303,N,01258.215348,E,102323.00,A,A*67
$GPVTG,155.8,T,155.9,M,001.6,N,003.0,K,A*26
$GPGSV,2,1,07,21,26,186,46,02,20,045,33,12,26,110,,25,59,106,40*79
$GPGSV,2,2,07,29,84,347,40,30,71,307,42,31,52,282,48,,,,*4B
$GPGSA,M,3,21,25,29,30,31,,,,,,,,12.3,5.9,10.8*35
Trace #99 at position 24.500000
$GPZDA,102323.03,08,10,2011,00,00*6F
$GPRMC,102323.00,A,4611.965303,N,01258.215348,E,001.6,155.8,081011,0.2,E,A*3E
$GPGGA,102324.00,4611.964990,N,01258.215747,E,1,05,5.9,140.04,M,46.25,M,,*62
$GPGLL,4611.964990,N,01258.215747,E,102324.00,A,A*6A
$GPVTG,140.2,T,140.3,M,001.2,N,002.3,K,A*20
$GPGSV,2,1,07,21,26,186,47,02,20,045,30,12,25,110,,25,59,106,43*7B
$GPGSV,2,2,07,29,84,347,42,30,71,307,42,31,52,282,49,,,,*48
$GPGSA,M,3,21,25,29,30,31,,,,,,,,12.3,5.9,10.8*35
Trace #100 at position 24.750000
$GPZDA,102328.02,08,10,2011,00,00*65
$GPRMC,102326.00,V,,,,,,,,,,N*79
$GPGGA,,,,,,0,04,,,M,,M,,*62
$GPGLL,,,,,,V,N*64
$GPVTG,,T,,,,N,,K,N*61
$GPGSV,2,1,07,21,26,186,46,02,20,045,,12,25,110,,25,59,106,36*7B
$GPGSV,2,2,07,29,84,347,41,30,71,307,42,31,52,282,49,,,,*4B
$GPGSA,M,1,,,,,,,,,,,,,12.4,5.9,10.8*3E
Trace #101 at position 25.000000
$GPZDA,102328.02,08,10,2011,00,00*65
$GPRMC,102326.00,V,,,,,,,,,,N*79
$GPGGA,,,,,,0,04,,,M,,M,,*62
$GPGLL,,,,,,V,N*64
$GPVTG,,T,,,,N,,K,N*61
$GPGSV,2,1,07,21,26,186,46,02,20,045,,12,25,110,,25,59,106,36*7B
$GPGSV,2,2,07,29,84,347,41,30,71,307,42,31,52,282,49,,,,*4B
$GPGSA,M,1,,,,,,,,,,,,,12.4,5.9,10.8*3E
Trace #102 at position 25.250000
$GPZDA,102329.02,08,10,2011,00,00*64
$GPRMC,102326.00,V,,,,,,,,,,N*79
$GPGGA,,,,,,0,04,,,M,,M,,*62
$GPGLL,,,,,,V,N*64
$GPVTG,,T,,,,N,,K,N*61
$GPGSV,2,1,07,21,26,186,46,02,20,045,34,12,25,110,,25,59,106,38*72
$GPGSV,2,2,07,29,84,348,40,30,71,307,42,31,52,282,47,,,,*4B
$GPGSA,M,1,,,,,,,,,,,,,12.4,5.9,10.8*3E
Trace #103 at position 25.500000
$GPZDA,102329.02,08,10,2011,00,00*64
$GPRMC,102326.00,V,,,,,,,,,,N*79
$GPGGA,,,,,,0,04,,,M,,M,,*62
$GPGLL,,,,,,V,N*64
$GPVTG,,T,,,,N,,K,N*61
$GPGSV,2,1,07,21,26,186,46,02,20,045,34,12,25,110,,25,59,106,38*72
$GPGSV,2,2,07,29,84,348,40,30,71,307,42,31,52,282,47,,,,*4B
$GPGSA,M,1,,,,,,,,,,,,,12.4,5.9,10.8*3E
Trace #104 at position 25.750000
$GPZDA,102329.02,08,10,2011,00,00*64
$GPRMC,102326.00,V,,,,,,,,,,N*79
$GPGGA,,,,,,0,04,,,M,,M,,*62
$GPGLL,,,,,,V,N*64
$GPVTG,,T,,,,N,,K,N*61
$GPGSV,2,1,07,21,26,186,46,02,20,045,34,12,25,110,,25,59,106,38*72
$GPGSV,2,2,07,29,84,348,40,30,71,307,42,31,52,282,47,,,,*4B
$GPGSA,M,1,,,,,,,,,,,,,12.4,5.9,10.8*3E
Trace #105 at position 26.000000
$GPZDA,102329.02,08,10,2011,00,00*64
$GPRMC,102326.00,V,,,,,,,,,,N*79
$GPGGA,,,,,,0,04,,,M,,M,,*62
$GPGLL,,,,,,V,N*64
$GPVTG,,T,,,,N,,K,N*61
$GPGSV,2,1,07,21,26,186,46,02,20,045,34,12,25,110,,25,59,106,38*72
$GPGSV,2,2,07,29,84,348,40,30,71,307,42,31,52,282,47,,,,*4B
$GPGSA,M,1,,,,,,,,,,,,,12.4,5.9,10.8*3E
Trace #106 at position 26.250000
$GPZDA,102330.02,08,10,2011,00,00*6C
$GPRMC,102326.00,V,,,,,,,,,,N*79
$GPGGA,102331.00,4611.964424,N,01258.218375,E,1,05,5.9,134.71,M,46.25,M,,*6D
$GPGLL,4611.964424,N,01258.218375,E,102331.00,A,A*64
$GPVTG,105.5,T,105.7,M,001.5,N,002.8,K,A*2F
$GPGSV,2,1,07,21,26,186,45,02,20,045,30,12,25,110,,25,59,106,39*74
$GPGSV,2,2,07,29,84,348,40,30,71,307,42,31,52,282,48,,,,*44
$GPGSA,M,3,21,25,29,30,31,,,,,,,,12.4,5.9,10.9*33
Trace #107 at position 26.500000
$GPZDA,102330.02,08,10,2011,00,00*6C
$GPRMC,102326.00,V,,,,,,,,,,N*79
$GPGGA,102331.00,4611.964424,N,01258.218375,E,1,05,5.9,134.71,M,46.25,M,,*6D
$GPGLL,4611.964424,N,01258.218375,E,102331.00,A,A*64
$GPVTG,105.5,T,105.7,M,001.5,N,002.8,K,A*2F
$GPGSV,2,1,07,21,26,186,45,02,20,045,30,12,25,110,,25,59,106,39*74
$GPGSV,2,2,07,29,84,348,40,30,71,307,42,31,52,282,48,,,,*44
$GPGSA,M,3,21,25,29,30,31,,,,,,,,12.4,5.9,10.9*33
Trace #108 at position 26.750000
$GPZDA,102330.02,08,10,2011,00,00*6C
$GPRMC,102326.00,V,,,,,,,,,,N*79
$GPGGA,102331.00,4611.964424,N,01258.218375,E,1,05,5.9,134.71,M,46.25,M,,*6D
$GPGLL,4611.964424,N,01258.218375,E,102331.00,A,A*64
$GPVTG,105.5,T,105.7,M,001.5,N,002.8,K,A*2F
$GPGSV,2,1,07,21,26,186,45,02,20,045,30,12,25,110,,25,59,106,39*74
$GPGSV,2,2,07,29,84,348,40,30,71,307,42,31,52,282,48,,,,*44
$GPGSA,M,3,21,25,29,30,31,,,,,,,,12.4,5.9,10.9*33
Trace #109 at position 27.000000
$GPZDA,102330.02,08,10,2011,00,00*6C
$GPRMC,102326.00,V,,,,,,,,,,N*79
$GPGGA,102331.00,4611.964424,N,01258.218375,E,1,05,5.9,134.71,M,46.25,M,,*6D
$GPGLL,4611.964424,N,01258.218375,E,102331.00,A,A*64
$GPVTG,105.5,T,105.7,M,001.5,N,002.8,K,A*2F
$GPGSV,2,1,07,21,26,186,45,02,20,045,30,12,25,110,,25,59,106,39*74
$GPGSV,2,2,07,29,84,348,40,30,71,307,42,31,52,282,48,,,,*44
$GPGSA,M,3,21,25,29,30,31,,,,,,,,12.4,5.9,10.9*33
Trace #110 at position 27.250000
$GPZDA,102331.03,08,10,2011,00,00*6C
$GPRMC,102331.00,A,4611.964424,N,01258.218375,E,001.5,105.5,081011,0.2,E,A*36
$GPGGA,102332.00,4611.964214,N,01258.218620,E,1,05,6.0,134.25,M,46.25,M,,*65
$GPGLL,4611.964214,N,01258.218620,E,102332.00,A,A*67
$GPVTG,153.9,T,154.0,M,001.4,N,002.6,K,A*2C
$GPGSV,2,1,07,21,26,186,46,02,20,045,32,12,25,110,,25,59,106,40*7B
$GPGSV,2,2,07,29,84,348,41,30,71,307,43,31,52,282,48,,,,*44
$GPGSA,M,3,21,25,29,30,31,,,,,,,,12.4,6.0,10.9*39
Trace #111 at position 27.500000
$GPZDA,102331.03,08,10,2011,00,00*6C
$GPRMC,102331.00,A,4611.964424,N,01258.218375,E,001.5,105.5,081011,0.2,E,A*36
$GPGGA,102332.00,4611.964214,N,01258.218620,E,1,05,6.0,134.25,M,46.25,M,,*65
$GPGLL,4611.964214,N,01258.218620,E,102332.00,A,A*67
$GPVTG,153.9,T,154.0,M,001.4,N,002.6,K,A*2C
$GPGSV,2,1,07,21,26,186,46,02,20,045,32,12,25,110,,25,59,106,40*7B
$GPGSV,2,2,07,29,84,348,41,30,71,307,43,31,52,282,48,,,,*44
$GPGSA,M,3,21,25,29,30,31,,,,,,,,12.4,6.0,10.9*39
Trace #112 at position 27.750000
$GPZDA,102331.03,08,10,2011,00,00*6C
$GPRMC,102331.00,A,4611.964424,N,01258.218375,E,001.5,105.5,081011,0.2,E,A*36
$GPGGA,102332.00,4611.964214,N,01258.218620,E,1,05,6.0,134.25,M,46.25,M,,*65
$GPGLL,4611.964214,N,01258.218620,E,102332.00,A,A*67
$GPVTG,153.9,T,154.0,M,001.4,N,002.6,K,A*2C
$GPGSV,2,1,07,21,26,186,46,02,20,045,32,12,25,110,,25,59,106,40*7B
$GPGSV,2,2,07,29,84,348,41,30,71,307,43,31,52,282,48,,,,*44
$GPGSA,M,3,21,25,29,30,31,,,,,,,,12.4,6.0,10.9*39
Trace #113 at position 28.000000
$GPZDA,102331.03,08,10,2011,00,00*6C
$GPRMC,102331.00,A,4611.964424,N,01258.218375,E,001.5,105.5,081011,0.2,E,A*36
$GPGGA,102332.00,4611.964214,N,01258.218620,E,1,05,6.0,134.25,M,46.25,M,,*65
$GPGLL,4611.964214,N,01258.218620,E,102332.00,A,A*67
$GPVTG,153.9,T,154.0,M,001.4,N,002.6,K,A*2C
$GPGSV,2,1,07,21,26,186,46,02,20,045,32,12,25,110,,25,59,106,40*7B
$GPGSV,2,2,07,29,84,348,41,30,71,307,43,31,52,282,48,,,,*44
$GPGSA,M,3,21,25,29,30,31,,,,,,,,12.4,6.0,10.9*39
Trace #114 at position 28.250000
$GPZDA,102331.03,08,10,2011,00,00*6C
$GPRMC,102331.00,A,4611.964424,N,01258.218375,E,001.5,105.5,081011,0.2,E,A*36
$GPGGA,102332.00,4611.964214,N,01258.218620,E,1,05,6.0,134.25,M,46.25,M,,*65
$GPGLL,4611.964214,N,01258.218620,E,102332.00,A,A*67
$GPVTG,153.9,T,154.0,M,001.4,N,002.6,K,A*2C
$GPGSV,2,1,07,21,26,186,46,02,20,045,32,12,25,110,,25,59,106,40*7B
$GPGSV,2,2,07,29,84,348,41,30,71,307,43,31,52,282,48,,,,*44
$GPGSA,M,3,21,25,29,30,31,,,,,,,,12.4,6.0,10.9*39
Trace #115 at position 28.500000
$GPZDA,102332.03,08,10,2011,00,00*6F
$GPRMC,102332.00,A,4611.964214,N,01258.218620,E,001.4,153.9,081011,0.2,E,A*3B
$GPGGA,102333.00,4611.963778,N,01258.218820,E,1,05,6.0,134.06,M,46.25,M,,*63
$GPGLL,4611.963778,N,01258.218820,E,102333.00,A,A*60
$GPVTG,148.7,T,148.9,M,002.3,N,004.3,K,A*2B
$GPGSV,2,1,07,21,26,186,47,02,20,045,31,12,25,110,,25,59,106,42*7B
$GPGSV,2,2,07,29,84,348,39,30,71,307,43,31,52,282,47,,,,*44
$GPGSA,M,3,21,25,29,30,31,,,,,,,,12.4,6.0,10.9*39
Trace #116 at position 28.750000
$GPZDA,102332.03,08,10,2011,00,00*6F
$GPRMC,102332.00,A,4611.964214,N,01258.218620,E,001.4,153.9,081011,0.2,E,A*3B
$GPGGA,102333.00,4611.963778,N,01258.218820,E,1,05,6.0,134.06,M,46.25,M,,*63
$GPGLL,4611.963778,N,01258.218820,E,102333.00,A,A*60
$GPVTG,148.7,T,148.9,M,002.3,N,004.3,K,A*2B
$GPGSV,2,1,07,21,26,186,47,02,20,045,31,12,25,110,,25,59,106,42*7B
$GPGSV,2,2,07,29,84,348,39,30,71,307,43,31,52,282,47,,,,*44
$GPGSA,M,3,21,25,29,30,31,,,,,,,,12.4,6.0,10.9*39
Trace #117 at position 29.000000
$GPZDA,102332.03,08,10,2011,00,00*6F
$GPRMC,102332.00,A,4611.964214,N,01258.218620,E,001.4,153.9,081011,0.2,E,A*3B
$GPGGA,102333.00,4611.963778,N,01258.218820,E,1,05,6.0,134.06,M,46.25,M,,*63
$GPGLL,4611.963778,N,01258.218820,E,102333.00,A,A*60
$GPVTG,148.7,T,148.9,M,002.3,N,004.3,K,A*2B
$GPGSV,2,1,07,21,26,186,47,02,20,045,31,12,25,110,,25,59,106,42*7B
$GPGSV,2,2,07,29,84,348,39,30,71,307,43,31,52,282,47,,,,*44
$GPGSA,M,3,21,25,29,30,31,,,,,,,,12.4,6.0,10.9*39
Trace #118 at position 29.250000
$GPZDA,102332.03,08,10,2011,00,00*6F
$GPRMC,102332.00,A,4611.964214,N,01258.218620,E,001.4,153.9,081011,0.2,E,A*3B
$GPGGA,102333.00,4611.963778,N,01258.218820,E,1,05,6.0,134.06,M,46.25,M,,*63
$GPGLL,4611.963778,N,01258.218820,E,102333.00,A,A*60
$GPVTG,148.7,T,148.9,M,002.3,N,004.3,K,A*2B
$GPGSV,2,1,07,21,26,186,47,02,20,045,31,12,25,110,,25,59,106,42*7B
$GPGSV,2,2,07,29,84,348,39,30,71,307,43,31,52,282,47,,,,*44
$GPGSA,M,3,21,25,29,30,31,,,,,,,,12.4,6.0,10.9*39
Trace #119 at position 29.500000
$GPZDA,102333.03,08,10,2011,00,00*6E
$GPRMC,102333.00,A,4611.963778,N,01258.218820,E,002.3,148.7,081011,0.2,E,A*3C
$GPGGA,102334.00,4611.963075,N,01258.218988,E,1,05,6.0,134.82,M,46.25,M,,*61
$GPGLL,4611.963075,N,01258.218988,E,102334.00,A,A*6E
$GPVTG,173.8,T,173.9,M,003.4,N,006.3,K,A*20
$GPGSV,2,1,07,21,26,186,47,02,20,045,31,12,25,110,,25,59,106,41*78
