Trace #1 at position 0.000000
$GPZDA,100803.03,08,10,2011,00,00*64
$GPRMC,100803.00,A,4611.951978,N,01258.221303,E,000.0,223.5,081011,0.2,E,A*34
$GPGGA,100804.00,4611.951980,N,01258.221314,E,1,04,4.4,138.66,M,46.25,M,,*6D
$GPGLL,4611.951980,N,01258.221314,E,100804.00,A,A*63
$GPVTG,56.5,T,56.7,M,000.3,N,000.5,K,A*27
$GPGSV,2,1,07,21,19,186,32,02,25,048,40,12,31,105,39,25,65,097,44*70
$GPGSV,2,2,07,29,82,278,40,30,64,305,37,31,49,292,,,,,*43
$GPGSA,M,3,02,12,25,29,,,,,,,,,7.5,4.4,6.1*36
Trace #2 at position 0.250000
$GPZDA,100805.03,08,10,2011,00,00*62
$GPRMC,100805.00,A,4611.951989,N,01258.221379,E,000.2,91.9,081011,0.2,E,A*04
$GPGGA,100806.00,4611.951974,N,01258.221367,E,1,04,4.4,138.76,M,46.25,M,,*61
$GPGLL,4611.951974,N,01258.221367,E,100806.00,A,A*6E
$GPVTG,251.4,T,251.6,M,000.3,N,000.5,K,A*27
$GPGSV,2,1,07,21,19,186,33,02,25,048,40,12,31,105,40,25,65,097,43*78
$GPGSV,2,2,07,29,82,278,38,30,64,305,35,31,49,292,,,,,*4E
$GPGSA,M,3,02,12,25,29,,,,,,,,,7.5,4.4,6.1*36
Trace #3 at position 0.500000
$GPZDA,100806.03,08,10,2011,00,00*61
$GPRMC,100806.00,A,4611.951974,N,01258.221367,E,000.3,251.4,081011,0.2,E,A*38
$GPGGA,100807.00,4611.952010,N,01258.221310,E,1,04,4.4,138.70,M,46.25,M,,*6E
$GPGLL,4611.952010,N,01258.221310,E,100807.00,A,A*67
$GPVTG,348.8,T,349.0,M,000.4,N,000.7,K,A*29
$GPGSV,2,1,07,21,19,186,35,02,25,048,39,12,31,105,40,25,65,097,43*70
$GPGSV,2,2,07,29,82,278,39,30,64,305,36,31,49,292,,,,,*4C
$GPGSA,M,3,02,12,25,29,,,,,,,,,7.5,4.4,6.1*36
Trace #4 at position 0.750000
$GPZDA,100807.03,08,10,2011,00,00*60
$GPRMC,100807.00,A,4611.952010,N,01258.221310,E,000.4,348.8,081011,0.2,E,A*33
$GPGGA,100808.00,4611.952189,N,01258.221261,E,1,04,4.4,138.79,M,46.25,M,,*6E
$GPGLL,4611.952189,N,01258.221261,E,100808.00,A,A*6E
$GPVTG,348.6,T,348.7,M,001.0,N,001.8,K,A*2A
$GPGSV,2,1,07,21,19,186,36,02,25,048,39,12,31,105,40,25,65,097,45*75
$GPGSV,2,2,07,29,82,278,41,30,64,305,38,31,49,292,,,,,*4D
$GPGSA,M,3,02,12,25,29,,,,,,,,,7.5,4.4,6.1*36
Trace #5 at position 1.000000
$GPZDA,100807.03,08,10,2011,00,00*60
$GPRMC,100807.00,A,4611.952010,N,01258.221310,E,000.4,348.8,081011,0.2,E,A*33
$GPGGA,100808.00,4611.952189,N,01258.221261,E,1,04,4.4,138.79,M,46.25,M,,*6E
$GPGLL,4611.952189,N,01258.221261,E,100808.00,A,A*6E
$GPVTG,348.6,T,348.7,M,001.0,N,001.8,K,A*2A
$GPGSV,2,1,07,21,19,186,36,02,25,048,39,12,31,105,40,25,65,097,45*75
$GPGSV,2,2,07,29,82,278,41,30,64,305,38,31,49,292,,,,,*4D
$GPGSA,M,3,02,12,25,29,,,,,,,,,7.5,4.4,6.1*36
Trace #6 at position 1.250000
$GPZDA,100808.03,08,10,2011,00,00*6F
$GPRMC,100808.00,A,4611.952189,N,01258.221261,E,001.0,348.6,081011,0.2,E,A*31
$GPGGA,100809.00,4611.952448,N,01258.221163,E,1,04,4.4,138.90,M,46.25,M,,*61
$GPGLL,4611.952448,N,01258.221163,E,100809.00,A,A*66
$GPVTG,342.2,T,342.4,M,001.0,N,001.8,K,A*2D
$GPGSV,2,1,07,21,19,186,38,02,25,048,37,12,31,105,39,25,65,097,44*7A
$GPGSV,2,2,07,29,82,278,40,30,64,305,37,31,49,292,,,,,*43
$GPGSA,M,3,02,12,25,29,,,,,,,,,7.5,4.4,6.1*36
Trace #7 at position 1.500000
$GPZDA,100808.03,08,10,2011,00,00*6F
$GPRMC,100808.00,A,4611.952189,N,01258.221261,E,001.0,348.6,081011,0.2,E,A*31
$GPGGA,100809.00,4611.952448,N,01258.221163,E,1,04,4.4,138.90,M,46.25,M,,*61
$GPGLL,4611.952448,N,01258.221163,E,100809.00,A,A*66
$GPVTG,342.2,T,342.4,M,001.0,N,001.8,K,A*2D
$GPGSV,2,1,07,21,19,186,38,02,25,048,37,12,31,105,39,25,65,097,44*7A
$GPGSV,2,2,07,29,82,278,40,30,64,305,37,31,49,292,,,,,*43
$GPGSA,M,3,02,12,25,29,,,,,,,,,7.5,4.4,6.1*36
Trace #8 at position 1.750000
$GPZDA,100808.03,08,10,2011,00,00*6F
$GPRMC,100808.00,A,4611.952189,N,01258.221261,E,001.0,348.6,081011,0.2,E,A*31
$GPGGA,100809.00,4611.952448,N,01258.221163,E,1,04,4.4,138.90,M,46.25,M,,*61
$GPGLL,4611.952448,N,01258.221163,E,100809.00,A,A*66
$GPVTG,342.2,T,342.4,M,001.0,N,001.8,K,A*2D
$GPGSV,2,1,07,21,19,186,38,02,25,048,37,12,31,105,39,25,65,097,44*7A
$GPGSV,2,2,07,29,82,278,40,30,64,305,37,31,49,292,,,,,*43
$GPGSA,M,3,02,12,25,29,,,,,,,,,7.5,4.4,6.1*36
Trace #9 at position 2.000000
$GPZDA,100809.03,08,10,2011,00,00*6E
$GPRMC,100809.00,A,4611.952448,N,01258.221163,E,001.0,342.2,081011,0.2,E,A*37
$GPGGA,100810.00,4611.952668,N,01258.220938,E,1,04,4.4,138.83,M,46.25,M,,*6C
$GPGLL,4611.952668,N,01258.220938,E,100810.00,A,A*69
$GPVTG,306.6,T,306.8,M,001.1,N,002.0,K,A*2F
$GPGSV,2,1,07,21,19,186,39,02,25,048,38,12,31,106,41,25,65,097,45*79
$GPGSV,2,2,07,29,83,278,40,30,64,305,36,31,49,292,,,,,*43
$GPGSA,M,3,02,12,25,29,,,,,,,,,7.5,4.4,6.1*36
Trace #10 at position 2.250000
$GPZDA,100809.03,08,10,2011,00,00*6E
$GPRMC,100809.00,A,4611.952448,N,01258.221163,E,001.0,342.2,081011,0.2,E,A*37
$GPGGA,100810.00,4611.952668,N,01258.220938,E,1,04,4.4,138.83,M,46.25,M,,*6C
$GPGLL,4611.952668,N,01258.220938,E,100810.00,A,A*69
$GPVTG,306.6,T,306.8,M,001.1,N,002.0,K,A*2F
$GPGSV,2,1,07,21,19,186,39,02,25,048,38,12,31,106,41,25,65,097,45*79
$GPGSV,2,2,07,29,83,278,40,30,64,305,36,31,49,292,,,,,*43
$GPGSA,M,3,02,12,25,29,,,,,,,,,7.5,4.4,6.1*36
Trace #11 at position 2.500000
$GPZDA,100809.03,08,10,2011,00,00*6E
$GPRMC,100809.00,A,4611.952448,N,01258.221163,E,001.0,342.2,081011,0.2,E,A*37
$GPGGA,100810.00,4611.952668,N,01258.220938,E,1,04,4.4,138.83,M,46.25,M,,*6C
$GPGLL,4611.952668,N,01258.220938,E,100810.00,A,A*69
$GPVTG,306.6,T,306.8,M,001.1,N,002.0,K,A*2F
$GPGSV,2,1,07,21,19,186,39,02,25,048,38,12,31,106,41,25,65,097,45*79
$GPGSV,2,2,07,29,83,278,40,30,64,305,36,31,49,292,,,,,*43
$GPGSA,M,3,02,12,25,29,,,,,,,,,7.5,4.4,6.1*36
Trace #12 at position 2.750000
$GPZDA,100810.03,08,10,2011,00,00*66
$GPRMC,100810.00,A,4611.952668,N,01258.220938,E,001.1,306.6,081011,0.2,E,A*3D
$GPGGA,100811.00,4611.952917,N,01258.220839,E,1,05,2.0,138.73,M,46.25,M,,*66
$GPGLL,4611.952917,N,01258.220839,E,100811.00,A,A*6F
$GPVTG,9.0,T,9.2,M,001.0,N,001.8,K,A*29
$GPGSV,2,1,07,21,19,186,40,02,25,048,38,12,31,106,40,25,65,097,46*75
$GPGSV,2,2,07,29,83,278,39,30,64,305,37,31,49,292,,,,,*4C
$GPGSA,M,3,21,02,12,25,29,,,,,,,,2.8,2.0,2.0*3A
Trace #13 at position 3.000000
$GPZDA,100810.03,08,10,2011,00,00*66
$GPRMC,100810.00,A,4611.952668,N,01258.220938,E,001.1,306.6,081011,0.2,E,A*3D
$GPGGA,100811.00,4611.952917,N,01258.220839,E,1,05,2.0,138.73,M,46.25,M,,*66
$GPGLL,4611.952917,N,01258.220839,E,100811.00,A,A*6F
$GPVTG,9.0,T,9.2,M,001.0,N,001.8,K,A*29
$GPGSV,2,1,07,21,19,186,40,02,25,048,38,12,31,106,40,25,65,097,46*75
$GPGSV,2,2,07,29,83,278,39,30,64,305,37,31,49,292,,,,,*4C
$GPGSA,M,3,21,02,12,25,29,,,,,,,,2.8,2.0,2.0*3A
Trace #14 at position 3.250000
$GPZDA,100811.03,08,10,2011,00,00*67
$GPRMC,100811.00,A,4611.952917,N,01258.220839,E,001.0,9.0,081011,0.2,E,A*30
$GPGGA,100812.00,4611.953155,N,01258.220870,E,1,05,2.0,138.85,M,46.25,M,,*6E
$GPGLL,4611.953155,N,01258.220870,E,100812.00,A,A*6E
$GPVTG,349.9,T,350.1,M,000.6,N,001.0,K,A*24
$GPGSV,2,1,07,21,19,186,41,02,25,048,38,12,31,106,40,25,65,097,43*71
$GPGSV,2,2,07,29,83,278,39,30,64,305,36,31,49,292,,,,,*4D
$GPGSA,M,3,21,02,12,25,29,,,,,,,,2.8,2.0,2.0*3A
Trace #15 at position 3.500000
$GPZDA,100811.03,08,10,2011,00,00*67
$GPRMC,100811.00,A,4611.952917,N,01258.220839,E,001.0,9.0,081011,0.2,E,A*30
$GPGGA,100812.00,4611.953155,N,01258.220870,E,1,05,2.0,138.85,M,46.25,M,,*6E
$GPGLL,4611.953155,N,01258.220870,E,100812.00,A,A*6E
$GPVTG,349.9,T,350.1,M,000.6,N,001.0,K,A*24
$GPGSV,2,1,07,21,19,186,41,02,25,048,38,12,31,106,40,25,65,097,43*71
$GPGSV,2,2,07,29,83,278,39,30,64,305,36,31,49,292,,,,,*4D
$GPGSA,M,3,21,02,12,25,29,,,,,,,,2.8,2.0,2.0*3A
Trace #16 at position 3.750000
$GPZDA,100811.03,08,10,2011,00,00*67
$GPRMC,100811.00,A,4611.952917,N,01258.220839,E,001.0,9.0,081011,0.2,E,A*30
$GPGGA,100812.00,4611.953155,N,01258.220870,E,1,05,2.0,138.85,M,46.25,M,,*6E
$GPGLL,4611.953155,N,01258.220870,E,100812.00,A,A*6E
$GPVTG,349.9,T,350.1,M,000.6,N,001.0,K,A*24
$GPGSV,2,1,07,21,19,186,41,02,25,048,38,12,31,106,40,25,65,097,43*71
$GPGSV,2,2,07,29,83,278,39,30,64,305,36,31,49,292,,,,,*4D
$GPGSA,M,3,21,02,12,25,29,,,,,,,,2.8,2.0,2.0*3A
Trace #17 at position 4.000000
$GPZDA,100812.03,08,10,2011,00,00*64
$GPRMC,100812.00,A,4611.953155,N,01258.220870,E,000.6,349.9,081011,0.2,E,A*38
$GPGGA,100813.00,4611.953391,N,01258.220879,E,1,04,7.7,139.00,M,46.25,M,,*63
$GPGLL,4611.953391,N,01258.220879,E,100813.00,A,A*6C
$GPVTG,31.8,T,32.0,M,000.5,N,000.9,K,A*24
$GPGSV,2,1,07,21,19,186,39,02,25,048,35,12,31,106,42,25,65,097,42*70
$GPGSV,2,2,07,29,83,278,41,30,64,305,38,31,49,292,,,,,*4C
$GPGSA,M,3,21,12,25,29,,,,,,,,,12.1,7.7,9.4*0D
Trace #18 at position 4.250000
$GPZDA,100812.03,08,10,2011,00,00*64
$GPRMC,100812.00,A,4611.953155,N,01258.220870,E,000.6,349.9,081011,0.2,E,A*38
$GPGGA,100813.00,4611.953391,N,01258.220879,E,1,04,7.7,139.00,M,46.25,M,,*63
$GPGLL,4611.953391,N,01258.220879,E,100813.00,A,A*6C
$GPVTG,31.8,T,32.0,M,000.5,N,000.9,K,A*24
$GPGSV,2,1,07,21,19,186,39,02,25,048,35,12,31,106,42,25,65,097,42*70
$GPGSV,2,2,07,29,83,278,41,30,64,305,38,31,49,292,,,,,*4C
$GPGSA,M,3,21,12,25,29,,,,,,,,,12.1,7.7,9.4*0D
Trace #19 at position 4.500000
$GPZDA,100812.03,08,10,2011,00,00*64
$GPRMC,100812.00,A,4611.953155,N,01258.220870,E,000.6,349.9,081011,0.2,E,A*38
$GPGGA,100813.00,4611.953391,N,01258.220879,E,1,04,7.7,139.00,M,46.25,M,,*63
$GPGLL,4611.953391,N,01258.220879,E,100813.00,A,A*6C
$GPVTG,31.8,T,32.0,M,000.5,N,000.9,K,A*24
$GPGSV,2,1,07,21,19,186,39,02,25,048,35,12,31,106,42,25,65,097,42*70
$GPGSV,2,2,07,29,83,278,41,30,64,305,38,31,49,292,,,,,*4C
$GPGSA,M,3,21,12,25,29,,,,,,,,,12.1,7.7,9.4*0D
Trace #20 at position 4.750000
$GPZDA,100813.03,08,10,2011,00,00*65
$GPRMC,100813.00,A,4611.953391,N,01258.220879,E,000.5,31.8,081011,0.2,E,A*04
$GPGGA,100814.00,4611.953612,N,01258.220747,E,1,05,2.0,139.27,M,46.25,M,,*6E
$GPGLL,4611.953612,N,01258.220747,E,100814.00,A,A*67
$GPVTG,312.2,T,312.3,M,001.2,N,002.2,K,A*21
$GPGSV,2,1,07,21,19,186,42,02,25,048,39,12,31,106,40,25,65,097,44*74
$GPGSV,2,2,07,29,83,279,41,30,64,305,36,31,49,292,,,,,*43
$GPGSA,M,3,21,02,12,25,29,,,,,,,,2.8,2.0,2.0*3A
Trace #21 at position 5.000000
$GPZDA,100813.03,08,10,2011,00,00*65
$GPRMC,100813.00,A,4611.953391,N,01258.220879,E,000.5,31.8,081011,0.2,E,A*04
$GPGGA,100814.00,4611.953612,N,01258.220747,E,1,05,2.0,139.27,M,46.25,M,,*6E
$GPGLL,4611.953612,N,01258.220747,E,100814.00,A,A*67
$GPVTG,312.2,T,312.3,M,001.2,N,002.2,K,A*21
$GPGSV,2,1,07,21,19,186,42,02,25,048,39,12,31,106,40,25,65,097,44*74
$GPGSV,2,2,07,29,83,279,41,30,64,305,36,31,49,292,,,,,*43
$GPGSA,M,3,21,02,12,25,29,,,,,,,,2.8,2.0,2.0*3A
Trace #22 at position 5.250000
$GPZDA,100813.03,08,10,2011,00,00*65
$GPRMC,100813.00,A,4611.953391,N,01258.220879,E,000.5,31.8,081011,0.2,E,A*04
$GPGGA,100814.00,4611.953612,N,01258.220747,E,1,05,2.0,139.27,M,46.25,M,,*6E
$GPGLL,4611.953612,N,01258.220747,E,100814.00,A,A*67
$GPVTG,312.2,T,312.3,M,001.2,N,002.2,K,A*21
$GPGSV,2,1,07,21,19,186,42,02,25,048,39,12,31,106,40,25,65,097,44*74
$GPGSV,2,2,07,29,83,279,41,30,64,305,36,31,49,292,,,,,*43
$GPGSA,M,3,21,02,12,25,29,,,,,,,,2.8,2.0,2.0*3A
Trace #23 at position 5.500000
$GPZDA,100814.03,08,10,2011,00,00*62
$GPRMC,100814.00,A,4611.953612,N,01258.220747,E,001.2,312.2,081011,0.2,E,A*31
$GPGGA,100815.00,4611.953903,N,01258.220562,E,1,05,2.0,139.38,M,46.25,M,,*6B
$GPGLL,4611.953903,N,01258.220562,E,100815.00,A,A*6C
$GPVTG,357.5,T,357.6,M,000.9,N,001.7,K,A*2F
$GPGSV,2,1,07,21,19,186,43,02,25,048,40,12,31,106,39,25,65,097,44*75
$GPGSV,2,2,07,29,83,279,40,30,64,305,35,31,49,292,,,,,*41
$GPGSA,M,3,21,02,12,25,29,,,,,,,,2.8,2.0,2.0*3A
Trace #24 at position 5.750000
$GPZDA,100814.03,08,10,2011,00,00*62
$GPRMC,100814.00,A,4611.953612,N,01258.220747,E,001.2,312.2,081011,0.2,E,A*31
$GPGGA,100815.00,4611.953903,N,01258.220562,E,1,05,2.0,139.38,M,46.25,M,,*6B
$GPGLL,4611.953903,N,01258.220562,E,100815.00,A,A*6C
$GPVTG,357.5,T,357.6,M,000.9,N,001.7,K,A*2F
$GPGSV,2,1,07,21,19,186,43,02,25,048,40,12,31,106,39,25,65,097,44*75
$GPGSV,2,2,07,29,83,279,40,30,64,305,35,31,49,292,,,,,*41
$GPGSA,M,3,21,02,12,25,29,,,,,,,,2.8,2.0,2.0*3A
Trace #25 at position 6.000000
$GPZDA,100815.03,08,10,2011,00,00*63
$GPRMC,100815.00,A,4611.953903,N,01258.220562,E,000.9,357.5,081011,0.2,E,A*36
$GPGGA,100816.00,4611.954301,N,01258.220485,E,1,05,2.0,139.46,M,46.25,M,,*66
$GPGLL,4611.954301,N,01258.220485,E,100816.00,A,A*68
$GPVTG,350.6,T,350.7,M,001.6,N,003.0,K,A*26
$GPGSV,2,1,07,21,19,186,40,02,25,048,38,12,31,106,39,25,65,097,43*7E
$GPGSV,2,2,07,29,83,279,41,30,64,305,35,31,49,292,,,,,*40
$GPGSA,M,3,21,02,12,25,29,,,,,,,,2.8,2.0,2.0*3A
Trace #26 at position 6.250000
$GPZDA,100815.03,08,10,2011,00,00*63
$GPRMC,100815.00,A,4611.953903,N,01258.220562,E,000.9,357.5,081011,0.2,E,A*36
$GPGGA,100816.00,4611.954301,N,01258.220485,E,1,05,2.0,139.46,M,46.25,M,,*66
$GPGLL,4611.954301,N,01258.220485,E,100816.00,A,A*68
$GPVTG,350.6,T,350.7,M,001.6,N,003.0,K,A*26
$GPGSV,2,1,07,21,19,186,40,02,25,048,38,12,31,106,39,25,65,097,43*7E
$GPGSV,2,2,07,29,83,279,41,30,64,305,35,31,49,292,,,,,*40
$GPGSA,M,3,21,02,12,25,29,,,,,,,,2.8,2.0,2.0*3A
Trace #27 at position 6.500000
$GPZDA,100815.03,08,10,2011,00,00*63
$GPRMC,100815.00,A,4611.953903,N,01258.220562,E,000.9,357.5,081011,0.2,E,A*36
$GPGGA,100816.00,4611.954301,N,01258.220485,E,1,05,2.0,139.46,M,46.25,M,,*66
$GPGLL,4611.954301,N,01258.220485,E,100816.00,A,A*68
$GPVTG,350.6,T,350.7,M,001.6,N,003.0,K,A*26
$GPGSV,2,1,07,21,19,186,40,02,25,048,38,12,31,106,39,25,65,097,43*7E
$GPGSV,2,2,07,29,83,279,41,30,64,305,35,31,49,292,,,,,*40
$GPGSA,M,3,21,02,12,25,29,,,,,,,,2.8,2.0,2.0*3A
Trace #28 at position 6.750000
$GPZDA,100815.03,08,10,2011,00,00*63
$GPRMC,100815.00,A,4611.953903,N,01258.220562,E,000.9,357.5,081011,0.2,E,A*36
$GPGGA,100816.00,4611.954301,N,01258.220485,E,1,05,2.0,139.46,M,46.25,M,,*66
$GPGLL,4611.954301,N,01258.220485,E,100816.00,A,A*68
$GPVTG,350.6,T,350.7,M,001.6,N,003.0,K,A*26
$GPGSV,2,1,07,21,19,186,40,02,25,048,38,12,31,106,39,25,65,097,43*7E
$GPGSV,2,2,07,29,83,279,41,30,64,305,35,31,49,292,,,,,*40
$GPGSA,M,3,21,02,12,25,29,,,,,,,,2.8,2.0,2.0*3A
Trace #29 at position 7.000000
$GPZDA,100816.03,08,10,2011,00,00*60
$GPRMC,100816.00,A,4611.954301,N,01258.220485,E,001.6,350.6,081011,0.2,E,A*38
$GPGGA,100817.00,4611.954797,N,01258.220290,E,1,05,2.0,139.46,M,46.25,M,,*6E
$GPGLL,4611.954797,N,01258.220290,E,100817.00,A,A*60
$GPVTG,339.3,T,339.5,M,001.8,N,003.4,K,A*2B
$GPGSV,2,1,07,21,19,186,41,02,25,048,37,12,31,106,41,25,65,097,42*7E
$GPGSV,2,2,07,29,83,279,39,30,64,305,34,31,49,292,,,,,*4E
$GPGSA,M,3,21,02,12,25,29,,,,,,,,2.8,2.0,2.0*3A
Trace #30 at position 7.250000
$GPZDA,100816.03,08,10,2011,00,00*60
$GPRMC,100816.00,A,4611.954301,N,01258.220485,E,001.6,350.6,081011,0.2,E,A*38
$GPGGA,100817.00,4611.954797,N,01258.220290,E,1,05,2.0,139.46,M,46.25,M,,*6E
$GPGLL,4611.954797,N,01258.220290,E,100817.00,A,A*60
$GPVTG,339.3,T,339.5,M,001.8,N,003.4,K,A*2B
$GPGSV,2,1,07,21,19,186,41,02,25,048,37,12,31,106,41,25,65,097,42*7E
$GPGSV,2,2,07,29,83,279,39,30,64,305,34,31,49,292,,,,,*4E
$GPGSA,M,3,21,02,12,25,29,,,,,,,,2.8,2.0,2.0*3A
Trace #31 at position 7.500000
$GPZDA,100816.03,08,10,2011,00,00*60
$GPRMC,100816.00,A,4611.954301,N,01258.220485,E,001.6,350.6,081011,0.2,E,A*38
$GPGGA,100817.00,4611.954797,N,01258.220290,E,1,05,2.0,139.46,M,46.25,M,,*6E
$GPGLL,4611.954797,N,01258.220290,E,100817.00,A,A*60
$GPVTG,339.3,T,339.5,M,001.8,N,003.4,K,A*2B
$GPGSV,2,1,07,21,19,186,41,02,25,048,37,12,31,106,41,25,65,097,42*7E
$GPGSV,2,2,07,29,83,279,39,30,64,305,34,31,49,292,,,,,*4E
$GPGSA,M,3,21,02,12,25,29,,,,,,,,2.8,2.0,2.0*3A
Trace #32 at position 7.750000
$GPZDA,100817.03,08,10,2011,00,00*61
$GPRMC,100817.00,A,4611.954797,N,01258.220290,E,001.8,339.3,081011,0.2,E,A*34
$GPGGA,100818.00,4611.955313,N,01258.219970,E,1,05,2.0,139.37,M,46.25,M,,*61
$GPGLL,4611.955313,N,01258.219970,E,100818.00,A,A*69
$GPVTG,331.8,T,332.0,M,002.1,N,003.9,K,A*21
$GPGSV,2,1,07,21,19,186,41,02,25,048,37,12,31,106,40,25,65,097,42*7F
$GPGSV,2,2,07,29,83,279,40,30,64,306,35,31,49,292,,,,,*42
$GPGSA,M,3,21,02,12,25,29,,,,,,,,2.8,2.0,2.0*3A
Trace #33 at position 8.000000
$GPZDA,100817.03,08,10,2011,00,00*61
$GPRMC,100817.00,A,4611.954797,N,01258.220290,E,001.8,339.3,081011,0.2,E,A*34
$GPGGA,100818.00,4611.955313,N,01258.219970,E,1,05,2.0,139.37,M,46.25,M,,*61
$GPGLL,4611.955313,N,01258.219970,E,100818.00,A,A*69
$GPVTG,331.8,T,332.0,M,002.1,N,003.9,K,A*21
$GPGSV,2,1,07,21,19,186,41,02,25,048,37,12,31,106,40,25,65,097,42*7F
$GPGSV,2,2,07,29,83,279,40,30,64,306,35,31,49,292,,,,,*42
$GPGSA,M,3,21,02,12,25,29,,,,,,,,2.8,2.0,2.0*3A
Trace #34 at position 8.250000
$GPZDA,100817.03,08,10,2011,00,00*61
$GPRMC,100817.00,A,4611.954797,N,01258.220290,E,001.8,339.3,081011,0.2,E,A*34
$GPGGA,100818.00,4611.955313,N,01258.219970,E,1,05,2.0,139.37,M,46.25,M,,*61
$GPGLL,4611.955313,N,01258.219970,E,100818.00,A,A*69
$GPVTG,331.8,T,332.0,M,002.1,N,003.9,K,A*21
$GPGSV,2,1,07,21,19,186,41,02,25,048,37,12,31,106,40,25,65,097,42*7F
$GPGSV,2,2,07,29,83,279,40,30,64,306,35,31,49,292,,,,,*42
$GPGSA,M,3,21,02,12,25,29,,,,,,,,2.8,2.0,2.0*3A
Trace #35 at position 8.500000
$GPZDA,100818.03,08,10,2011,00,00*6E
$GPRMC,100818.00,A,4611.955313,N,01258.219970,E,002.1,331.8,081011,0.2,E,A*34
$GPGGA,100819.00,4611.955721,N,01258.219714,E,1,04,7.7,139.47,M,46.25,M,,*6D
$GPGLL,4611.955721,N,01258.219714,E,100819.00,A,A*61
$GPVTG,325.1,T,325.3,M,000.4,N,000.8,K,A*2D
$GPGSV,2,1,07,21,19,186,42,02,25,048,33,12,31,106,39,25,65,097,42*76
$GPGSV,2,2,07,29,83,279,40,30,64,306,35,31,49,292,,,,,*42
$GPGSA,M,3,21,12,25,29,,,,,,,,,12.1,7.7,9.4*0D
Trace #36 at position 8.750000
$GPZDA,100818.03,08,10,2011,00,00*6E
$GPRMC,100818.00,A,4611.955313,N,01258.219970,E,002.1,331.8,081011,0.2,E,A*34
$GPGGA,100819.00,4611.955721,N,01258.219714,E,1,04,7.7,139.47,M,46.25,M,,*6D
$GPGLL,4611.955721,N,01258.219714,E,100819.00,A,A*61
$GPVTG,325.1,T,325.3,M,000.4,N,000.8,K,A*2D
$GPGSV,2,1,07,21,19,186,42,02,25,048,33,12,31,106,39,25,65,097,42*76
$GPGSV,2,2,07,29,83,279,40,30,64,306,35,31,49,292,,,,,*42
$GPGSA,M,3,21,12,25,29,,,,,,,,,12.1,7.7,9.4*0D
Trace #37 at position 9.000000
$GPZDA,100818.03,08,10,2011,00,00*6E
$GPRMC,100818.00,A,4611.955313,N,01258.219970,E,002.1,331.8,081011,0.2,E,A*34
$GPGGA,100819.00,4611.955721,N,01258.219714,E,1,04,7.7,139.47,M,46.25,M,,*6D
$GPGLL,4611.955721,N,01258.219714,E,100819.00,A,A*61
$GPVTG,325.1,T,325.3,M,000.4,N,000.8,K,A*2D
$GPGSV,2,1,07,21,19,186,42,02,25,048,33,12,31,106,39,25,65,097,42*76
$GPGSV,2,2,07,29,83,279,40,30,64,306,35,31,49,292,,,,,*42
$GPGSA,M,3,21,12,25,29,,,,,,,,,12.1,7.7,9.4*0D
Trace #38 at position 9.250000
$GPZDA,100818.03,08,10,2011,00,00*6E
$GPRMC,100818.00,A,4611.955313,N,01258.219970,E,002.1,331.8,081011,0.2,E,A*34
$GPGGA,100819.00,4611.955721,N,01258.219714,E,1,04,7.7,139.47,M,46.25,M,,*6D
$GPGLL,4611.955721,N,01258.219714,E,100819.00,A,A*61
$GPVTG,325.1,T,325.3,M,000.4,N,000.8,K,A*2D
$GPGSV,2,1,07,21,19,186,42,02,25,048,33,12,31,106,39,25,65,097,42*76
$GPGSV,2,2,07,29,83,279,40,30,64,306,35,31,49,292,,,,,*42
$GPGSA,M,3,21,12,25,29,,,,,,,,,12.1,7.7,9.4*0D
Trace #39 at position 9.500000
$GPZDA,100819.03,08,10,2011,00,00*6F
$GPRMC,100819.00,A,4611.955721,N,01258.219714,E,000.4,325.1,081011,0.2,E,A*37
$GPGGA,100820.00,4611.956070,N,01258.219498,E,1,04,7.6,139.71,M,46.25,M,,*64
$GPGLL,4611.956070,N,01258.219498,E,100820.00,A,A*6C
$GPVTG,330.3,T,330.4,M,001.5,N,002.8,K,A*2A
$GPGSV,2,1,07,21,19,186,41,02,25,048,35,12,31,106,39,25,65,097,42*73
$GPGSV,2,2,07,29,83,279,40,30,64,306,34,31,49,292,,,,,*43
$GPGSA,M,3,21,12,25,29,,,,,,,,,12.1,7.6,9.3*0B
Trace #40 at position 9.750000
$GPZDA,100819.03,08,10,2011,00,00*6F
$GPRMC,100819.00,A,4611.955721,N,01258.219714,E,000.4,325.1,081011,0.2,E,A*37
$GPGGA,100820.00,4611.956070,N,01258.219498,E,1,04,7.6,139.71,M,46.25,M,,*64
$GPGLL,4611.956070,N,01258.219498,E,100820.00,A,A*6C
$GPVTG,330.3,T,330.4,M,001.5,N,002.8,K,A*2A
$GPGSV,2,1,07,21,19,186,41,02,25,048,35,12,31,106,39,25,65,097,42*73
$GPGSV,2,2,07,29,83,279,40,30,64,306,34,31,49,292,,,,,*43
$GPGSA,M,3,21,12,25,29,,,,,,,,,12.1,7.6,9.3*0B
Trace #41 at position 10.000000
$GPZDA,100819.03,08,10,2011,00,00*6F
$GPRMC,100819.00,A,4611.955721,N,01258.219714,E,000.4,325.1,081011,0.2,E,A*37
$GPGGA,100820.00,4611.956070,N,01258.219498,E,1,04,7.6,139.71,M,46.25,M,,*64
$GPGLL,4611.956070,N,01258.219498,E,100820.00,A,A*6C
$GPVTG,330.3,T,330.4,M,001.5,N,002.8,K,A*2A
$GPGSV,2,1,07,21,19,186,41,02,25,048,35,12,31,106,39,25,65,097,42*73
$GPGSV,2,2,07,29,83,279,40,30,64,306,34,31,49,292,,,,,*43
$GPGSA,M,3,21,12,25,29,,,,,,,,,12.1,7.6,9.3*0B
Trace #42 at position 10.250000
$GPZDA,100820.03,08,10,2011,00,00*65
$GPRMC,100820.00,A,4611.956070,N,01258.219498,E,001.5,330.3,081011,0.2,E,A*3C
$GPGGA,100821.00,4611.956546,N,01258.219330,E,1,04,7.6,139.77,M,46.25,M,,*66
$GPGLL,4611.956546,N,01258.219330,E,100821.00,A,A*68
$GPVTG,0.1,T,0.2,M,001.2,N,002.3,K,A*22
$GPGSV,2,1,07,21,19,186,42,02,25,048,36,12,31,106,38,25,65,097,43*73
$GPGSV,2,2,07,29,83,279,40,30,64,306,35,31,49,292,,,,,*42
$GPGSA,M,3,21,12,25,29,,,,,,,,,12.1,7.6,9.3*0B
Trace #43 at position 10.500000
$GPZDA,100820.03,08,10,2011,00,00*65
$GPRMC,100820.00,A,4611.956070,N,01258.219498,E,001.5,330.3,081011,0.2,E,A*3C
$GPGGA,100821.00,4611.956546,N,01258.219330,E,1,04,7.6,139.77,M,46.25,M,,*66
$GPGLL,4611.956546,N,01258.219330,E,100821.00,A,A*68
$GPVTG,0.1,T,0.2,M,001.2,N,002.3,K,A*22
$GPGSV,2,1,07,21,19,186,42,02,25,048,36,12,31,106,38,25,65,097,43*73
$GPGSV,2,2,07,29,83,279,40,30,64,306,35,31,49,292,,,,,*42
$GPGSA,M,3,21,12,25,29,,,,,,,,,12.1,7.6,9.3*0B
Trace #44 at position 10.750000
$GPZDA,100820.03,08,10,2011,00,00*65
$GPRMC,100820.00,A,4611.956070,N,01258.219498,E,001.5,330.3,081011,0.2,E,A*3C
$GPGGA,100821.00,4611.956546,N,01258.219330,E,1,04,7.6,139.77,M,46.25,M,,*66
$GPGLL,4611.956546,N,01258.219330,E,100821.00,A,A*68
$GPVTG,0.1,T,0.2,M,001.2,N,002.3,K,A*22
$GPGSV,2,1,07,21,19,186,42,02,25,048,36,12,31,106,38,25,65,097,43*73
$GPGSV,2,2,07,29,83,279,40,30,64,306,35,31,49,292,,,,,*42
$GPGSA,M,3,21,12,25,29,,,,,,,,,12.1,7.6,9.3*0B
Trace #45 at position 11.000000
$GPZDA,100821.03,08,10,2011,00,00*64
$GPRMC,100821.00,A,4611.956546,N,01258.219330,E,001.2,0.1,081011,0.2,E,A*3D
$GPGGA,100822.00,4611.957033,N,01258.219255,E,1,04,7.6,139.64,M,46.25,M,,*63
$GPGLL,4611.957033,N,01258.219255,E,100822.00,A,A*6F
$GPVTG,350.8,T,351.0,M,001.5,N,002.8,K,A*24
$GPGSV,2,1,07,21,19,186,41,02,25,048,37,12,31,106,39,25,65,097,43*70
$GPGSV,2,2,07,29,83,279,41,30,64,306,36,31,49,292,,,,,*40
$GPGSA,M,3,21,12,25,29,,,,,,,,,12.1,7.6,9.3*0B
Trace #46 at position 11.250000
$GPZDA,100821.03,08,10,2011,00,00*64
$GPRMC,100821.00,A,4611.956546,N,01258.219330,E,001.2,0.1,081011,0.2,E,A*3D
$GPGGA,100822.00,4611.957033,N,01258.219255,E,1,04,7.6,139.64,M,46.25,M,,*63
$GPGLL,4611.957033,N,01258.219255,E,100822.00,A,A*6F
$GPVTG,350.8,T,351.0,M,001.5,N,002.8,K,A*24
$GPGSV,2,1,07,21,19,186,41,02,25,048,37,12,31,106,39,25,65,097,43*70
$GPGSV,2,2,07,29,83,279,41,30,64,306,36,31,49,292,,,,,*40
$GPGSA,M,3,21,12,25,29,,,,,,,,,12.1,7.6,9.3*0B
Trace #47 at position 11.500000
$GPZDA,100821.03,08,10,2011,00,00*64
$GPRMC,100821.00,A,4611.956546,N,01258.219330,E,001.2,0.1,081011,0.2,E,A*3D
$GPGGA,100822.00,4611.957033,N,01258.219255,E,1,04,7.6,139.64,M,46.25,M,,*63
$GPGLL,4611.957033,N,01258.219255,E,100822.00,A,A*6F
$GPVTG,350.8,T,351.0,M,001.5,N,002.8,K,A*24
$GPGSV,2,1,07,21,19,186,41,02,25,048,37,12,31,106,39,25,65,097,43*70
$GPGSV,2,2,07,29,83,279,41,30,64,306,36,31,49,292,,,,,*40
$GPGSA,M,3,21,12,25,29,,,,,,,,,12.1,7.6,9.3*0B
Trace #48 at position 11.750000
$GPZDA,100821.03,08,10,2011,00,00*64
$GPRMC,100821.00,A,4611.956546,N,01258.219330,E,001.2,0.1,081011,0.2,E,A*3D
$GPGGA,100822.00,4611.957033,N,01258.219255,E,1,04,7.6,139.64,M,46.25,M,,*63
$GPGLL,4611.957033,N,01258.219255,E,100822.00,A,A*6F
$GPVTG,350.8,T,351.0,M,001.5,N,002.8,K,A*24
$GPGSV,2,1,07,21,19,186,41,02,25,048,37,12,31,106,39,25,65,097,43*70
$GPGSV,2,2,07,29,83,279,41,30,64,306,36,31,49,292,,,,,*40
$GPGSA,M,3,21,12,25,29,,,,,,,,,12.1,7.6,9.3*0B
Trace #49 at position 12.000000
$GPZDA,100822.03,08,10,2011,00,00*67
$GPRMC,100822.00,A,4611.957033,N,01258.219255,E,001.5,350.8,081011,0.2,E,A*32
$GPGGA,100823.00,4611.957523,N,01258.219050,E,1,04,7.6,139.44,M,46.25,M,,*63
$GPGLL,4611.957523,N,01258.219050,E,100823.00,A,A*6D
$GPVTG,334.0,T,334.1,M,001.4,N,002.6,K,A*23
$GPGSV,2,1,07,21,19,186,39,02,25,048,36,12,31,106,38,25,65,097,43*7F
$GPGSV,2,2,07,29,83,279,40,30,64,306,36,31,49,292,,,,,*41
$GPGSA,M,3,21,12,25,29,,,,,,,,,12.1,7.6,9.3*0B
Trace #50 at position 12.250000
$GPZDA,100822.03,08,10,2011,00,00*67
$GPRMC,100822.00,A,4611.957033,N,01258.219255,E,001.5,350.8,081011,0.2,E,A*32
$GPGGA,100823.00,4611.957523,N,01258.219050,E,1,04,7.6,139.44,M,46.25,M,,*63
$GPGLL,4611.957523,N,01258.219050,E,100823.00,A,A*6D
$GPVTG,334.0,T,334.1,M,001.4,N,002.6,K,A*23
$GPGSV,2,1,07,21,19,186,39,02,25,048,36,12,31,106,38,25,65,097,43*7F
$GPGSV,2,2,07,29,83,279,40,30,64,306,36,31,49,292,,,,,*41
$GPGSA,M,3,21,12,25,29,,,,,,,,,12.1,7.6,9.3*0B
Trace #51 at position 12.500000
$GPZDA,100822.03,08,10,2011,00,00*67
$GPRMC,100822.00,A,4611.957033,N,01258.219255,E,001.5,350.8,081011,0.2,E,A*32
$GPGGA,100823.00,4611.957523,N,01258.219050,E,1,04,7.6,139.44,M,46.25,M,,*63
$GPGLL,4611.957523,N,01258.219050,E,100823.00,A,A*6D
$GPVTG,334.0,T,334.1,M,001.4,N,002.6,K,A*23
$GPGSV,2,1,07,21,19,186,39,02,25,048,36,12,31,106,38,25,65,097,43*7F
$GPGSV,2,2,07,29,83,279,40,30,64,306,36,31,49,292,,,,,*41
$GPGSA,M,3,21,12,25,29,,,,,,,,,12.1,7.6,9.3*0B
Trace #52 at position 12.750000
$GPZDA,100823.03,08,10,2011,00,00*66
$GPRMC,100823.00,A,4611.957523,N,01258.219050,E,001.4,334.0,081011,0.2,E,A*3B
$GPGGA,100824.00,4611.958012,N,01258.218710,E,1,04,7.6,139.31,M,46.25,M,,*6C
$GPGLL,4611.958012,N,01258.218710,E,100824.00,A,A*60
$GPVTG,325.9,T,326.0,M,001.8,N,003.4,K,A*27
$GPGSV,2,1,07,21,19,186,41,02,25,048,36,12,31,106,39,25,65,097,42*70
$GPGSV,2,2,07,29,83,279,40,30,64,306,36,31,49,292,,,,,*41
$GPGSA,M,3,21,12,25,29,,,,,,,,,12.0,7.6,9.3*0A
Trace #53 at position 13.000000
$GPZDA,100823.03,08,10,2011,00,00*66
$GPRMC,100823.00,A,4611.957523,N,01258.219050,E,001.4,334.0,081011,0.2,E,A*3B
$GPGGA,100824.00,4611.958012,N,01258.218710,E,1,04,7.6,139.31,M,46.25,M,,*6C
$GPGLL,4611.958012,N,01258.218710,E,100824.00,A,A*60
$GPVTG,325.9,T,326.0,M,001.8,N,003.4,K,A*27
$GPGSV,2,1,07,21,19,186,41,02,25,048,36,12,31,106,39,25,65,097,42*70
$GPGSV,2,2,07,29,83,279,40,30,64,306,36,31,49,292,,,,,*41
$GPGSA,M,3,21,12,25,29,,,,,,,,,12.0,7.6,9.3*0A
Trace #54 at position 13.250000
$GPZDA,100823.03,08,10,2011,00,00*66
$GPRMC,100823.00,A,4611.957523,N,01258.219050,E,001.4,334.0,081011,0.2,E,A*3B
$GPGGA,100824.00,4611.958012,N,01258.218710,E,1,04,7.6,139.31,M,46.25,M,,*6C
$GPGLL,4611.958012,N,01258.218710,E,100824.00,A,A*60
$GPVTG,325.9,T,326.0,M,001.8,N,003.4,K,A*27
$GPGSV,2,1,07,21,19,186,41,02,25,048,36,12,31,106,39,25,65,097,42*70
$GPGSV,2,2,07,29,83,279,40,30,64,306,36,31,49,292,,,,,*41
$GPGSA,M,3,21,12,25,29,,,,,,,,,12.0,7.6,9.3*0A
Trace #55 at position 13.500000
$GPZDA,100824.03,08,10,2011,00,00*61
$GPRMC,100824.00,A,4611.958012,N,01258.218710,E,001.8,325.9,081011,0.2,E,A*33
$GPGGA,100825.00,4611.958476,N,01258.218450,E,1,04,7.6,139.11,M,46.25,M,,*6E
$GPGLL,4611.958476,N,01258.218450,E,100825.00,A,A*60
$GPVTG,346.0,T,346.2,M,001.2,N,002.2,K,A*22
$GPGSV,2,1,07,21,19,186,39,02,25,048,37,12,31,106,40,25,65,097,42*70
$GPGSV,2,2,07,29,83,279,41,30,64,306,35,31,49,292,,,,,*43
$GPGSA,M,3,21,12,25,29,,,,,,,,,12.0,7.6,9.3*0A
Trace #56 at position 13.750000
$GPZDA,100824.03,08,10,2011,00,00*61
$GPRMC,100824.00,A,4611.958012,N,01258.218710,E,001.8,325.9,081011,0.2,E,A*33
$GPGGA,100825.00,4611.958476,N,01258.218450,E,1,04,7.6,139.11,M,46.25,M,,*6E
$GPGLL,4611.958476,N,01258.218450,E,100825.00,A,A*60
$GPVTG,346.0,T,346.2,M,001.2,N,002.2,K,A*22
$GPGSV,2,1,07,21,19,186,39,02,25,048,37,12,31,106,40,25,65,097,42*70
$GPGSV,2,2,07,29,83,279,41,30,64,306,35,31,49,292,,,,,*43
$GPGSA,M,3,21,12,25,29,,,,,,,,,12.0,7.6,9.3*0A
Trace #57 at position 14.000000
$GPZDA,100824.03,08,10,2011,00,00*61
$GPRMC,100824.00,A,4611.958012,N,01258.218710,E,001.8,325.9,081011,0.2,E,A*33
$GPGGA,100825.00,4611.958476,N,01258.218450,E,1,04,7.6,139.11,M,46.25,M,,*6E
$GPGLL,4611.958476,N,01258.218450,E,100825.00,A,A*60
$GPVTG,346.0,T,346.2,M,001.2,N,002.2,K,A*22
$GPGSV,2,1,07,21,19,186,39,02,25,048,37,12,31,106,40,25,65,097,42*70
$GPGSV,2,2,07,29,83,279,41,30,64,306,35,31,49,292,,,,,*43
$GPGSA,M,3,21,12,25,29,,,,,,,,,12.0,7.6,9.3*0A
Trace #58 at position 14.250000
$GPZDA,100825.03,08,10,2011,00,00*60
$GPRMC,100825.00,A,4611.958476,N,01258.218450,E,001.2,346.0,081011,0.2,E,A*35
$GPGGA,100826.00,4611.958887,N,01258.218198,E,1,04,7.6,139.07,M,46.25,M,,*69
$GPGLL,4611.958887,N,01258.218198,E,100826.00,A,A*60
$GPVTG,319.9,T,320.0,M,001.5,N,002.8,K,A*2E
$GPGSV,2,1,07,21,19,186,40,02,25,048,38,12,31,106,41,25,65,097,43*71
$GPGSV,2,2,07,29,83,279,40,30,64,306,35,31,49,292,,,,,*42
$GPGSA,M,3,21,12,25,29,,,,,,,,,12.0,7.6,9.3*0A
Trace #59 at position 14.500000
$GPZDA,100825.03,08,10,2011,00,00*60
$GPRMC,100825.00,A,4611.958476,N,01258.218450,E,001.2,346.0,081011,0.2,E,A*35
$GPGGA,100826.00,4611.958887,N,01258.218198,E,1,04,7.6,139.07,M,46.25,M,,*69
$GPGLL,4611.958887,N,01258.218198,E,100826.00,A,A*60
$GPVTG,319.9,T,320.0,M,001.5,N,002.8,K,A*2E
$GPGSV,2,1,07,21,19,186,40,02,25,048,38,12,31,106,41,25,65,097,43*71
$GPGSV,2,2,07,29,83,279,40,30,64,306,35,31,49,292,,,,,*42
$GPGSA,M,3,21,12,25,29,,,,,,,,,12.0,7.6,9.3*0A
Trace #60 at position 14.750000
$GPZDA,100825.03,08,10,2011,00,00*60
$GPRMC,100825.00,A,4611.958476,N,01258.218450,E,001.2,346.0,081011,0.2,E,A*35
$GPGGA,100826.00,4611.958887,N,01258.218198,E,1,04,7.6,139.07,M,46.25,M,,*69
$GPGLL,4611.958887,N,01258.218198,E,100826.00,A,A*60
$GPVTG,319.9,T,320.0,M,001.5,N,002.8,K,A*2E
$GPGSV,2,1,07,21,19,186,40,02,25,048,38,12,31,106,41,25,65,097,43*71
$GPGSV,2,2,07,29,83,279,40,30,64,306,35,31,49,292,,,,,*42
$GPGSA,M,3,21,12,25,29,,,,,,,,,12.0,7.6,9.3*0A
Trace #61 at position 15.000000
$GPZDA,100826.03,08,10,2011,00,00*63
$GPRMC,100826.00,A,4611.958887,N,01258.218198,E,001.5,319.9,081011,0.2,E,A*31
$GPGGA,100827.00,4611.959311,N,01258.217987,E,1,04,7.6,139.19,M,46.25,M,,*6B
$GPGLL,4611.959311,N,01258.217987,E,100827.00,A,A*6D
$GPVTG,354.1,T,354.2,M,001.3,N,002.5,K,A*25
$GPGSV,2,1,07,21,19,186,40,02,25,048,36,12,31,106,41,25,65,097,43*7F
$GPGSV,2,2,07,29,83,279,40,30,64,306,36,31,49,292,,,,,*41
$GPGSA,M,3,21,12,25,29,,,,,,,,,12.0,7.6,9.3*0A
Trace #62 at position 15.250000
$GPZDA,100826.03,08,10,2011,00,00*63
$GPRMC,100826.00,A,4611.958887,N,01258.218198,E,001.5,319.9,081011,0.2,E,A*31
$GPGGA,100827.00,4611.959311,N,01258.217987,E,1,04,7.6,139.19,M,46.25,M,,*6B
$GPGLL,4611.959311,N,01258.217987,E,100827.00,A,A*6D
$GPVTG,354.1,T,354.2,M,001.3,N,002.5,K,A*25
$GPGSV,2,1,07,21,19,186,40,02,25,048,36,12,31,106,41,25,65,097,43*7F
$GPGSV,2,2,07,29,83,279,40,30,64,306,36,31,49,292,,,,,*41
$GPGSA,M,3,21,12,25,29,,,,,,,,,12.0,7.6,9.3*0A
Trace #63 at position 15.500000
$GPZDA,100826.03,08,10,2011,00,00*63
$GPRMC,100826.00,A,4611.958887,N,01258.218198,E,001.5,319.9,081011,0.2,E,A*31
$GPGGA,100827.00,4611.959311,N,01258.217987,E,1,04,7.6,139.19,M,46.25,M,,*6B
$GPGLL,4611.959311,N,01258.217987,E,100827.00,A,A*6D
$GPVTG,354.1,T,354.2,M,001.3,N,002.5,K,A*25
$GPGSV,2,1,07,21,19,186,40,02,25,048,36,12,31,106,41,25,65,097,43*7F
$GPGSV,2,2,07,29,83,279,40,30,64,306,36,31,49,292,,,,,*41
$GPGSA,M,3,21,12,25,29,,,,,,,,,12.0,7.6,9.3*0A
Trace #64 at position 15.750000
$GPZDA,100826.03,08,10,2011,00,00*63
$GPRMC,100826.00,A,4611.958887,N,01258.218198,E,001.5,319.9,081011,0.2,E,A*31
$GPGGA,100827.00,4611.959311,N,01258.217987,E,1,04,7.6,139.19,M,46.25,M,,*6B
$GPGLL,4611.959311,N,01258.217987,E,100827.00,A,A*6D
$GPVTG,354.1,T,354.2,M,001.3,N,002.5,K,A*25
$GPGSV,2,1,07,21,19,186,40,02,25,048,36,12,31,106,41,25,65,097,43*7F
$GPGSV,2,2,07,29,83,279,40,30,64,306,36,31,49,292,,,,,*41
$GPGSA,M,3,21,12,25,29,,,,,,,,,12.0,7.6,9.3*0A
Trace #65 at position 16.000000
$GPZDA,100827.03,08,10,2011,00,00*62
$GPRMC,100827.00,A,4611.959311,N,01258.217987,E,001.3,354.1,081011,0.2,E,A*3B
$GPGGA,100828.00,4611.959930,N,01258.217792,E,1,04,7.6,138.84,M,46.25,M,,*62
$GPGLL,4611.959930,N,01258.217792,E,100828.00,A,A*61
$GPVTG,341.9,T,342.1,M,002.9,N,005.4,K,A*22
$GPGSV,2,1,07,21,19,186,39,02,25,048,35,12,31,106,40,25,65,097,43*73
$GPGSV,2,2,07,29,83,279,41,30,64,306,36,31,49,292,,,,,*40
$GPGSA,M,3,21,12,25,29,,,,,,,,,12.0,7.6,9.3*0A
Trace #66 at position 16.250000
$GPZDA,100827.03,08,10,2011,00,00*62
$GPRMC,100827.00,A,4611.959311,N,01258.217987,E,001.3,354.1,081011,0.2,E,A*3B
$GPGGA,100828.00,4611.959930,N,01258.217792,E,1,04,7.6,138.84,M,46.25,M,,*62
$GPGLL,4611.959930,N,01258.217792,E,100828.00,A,A*61
$GPVTG,341.9,T,342.1,M,002.9,N,005.4,K,A*22
$GPGSV,2,1,07,21,19,186,39,02,25,048,35,12,31,106,40,25,65,097,43*73
$GPGSV,2,2,07,29,83,279,41,30,64,306,36,31,49,292,,,,,*40
$GPGSA,M,3,21,12,25,29,,,,,,,,,12.0,7.6,9.3*0A
Trace #67 at position 16.500000
$GPZDA,100827.03,08,10,2011,00,00*62
$GPRMC,100827.00,A,4611.959311,N,01258.217987,E,001.3,354.1,081011,0.2,E,A*3B
$GPGGA,100828.00,4611.959930,N,01258.217792,E,1,04,7.6,138.84,M,46.25,M,,*62
$GPGLL,4611.959930,N,01258.217792,E,100828.00,A,A*61
$GPVTG,341.9,T,342.1,M,002.9,N,005.4,K,A*22
$GPGSV,2,1,07,21,19,186,39,02,25,048,35,12,31,106,40,25,65,097,43*73
$GPGSV,2,2,07,29,83,279,41,30,64,306,36,31,49,292,,,,,*40
$GPGSA,M,3,21,12,25,29,,,,,,,,,12.0,7.6,9.3*0A
Trace #68 at position 16.750000
$GPZDA,100828.03,08,10,2011,00,00*6D
$GPRMC,100828.00,A,4611.959930,N,01258.217792,E,002.9,341.9,081011,0.2,E,A*32
$GPGGA,100829.00,4611.960606,N,01258.217559,E,1,04,7.6,138.29,M,46.25,M,,*61
$GPGLL,4611.960606,N,01258.217559,E,100829.00,A,A*65
$GPVTG,349.5,T,349.7,M,002.0,N,003.8,K,A*28
$GPGSV,2,1,07,21,19,186,41,02,25,048,35,12,31,106,40,25,65,097,42*7D
$GPGSV,2,2,07,29,83,279,41,30,64,306,33,31,49,292,,,,,*45
$GPGSA,M,3,21,12,25,29,,,,,,,,,12.0,7.6,9.3*0A
Trace #69 at position 17.000000
$GPZDA,100828.03,08,10,2011,00,00*6D
$GPRMC,100828.00,A,4611.959930,N,01258.217792,E,002.9,341.9,081011,0.2,E,A*32
$GPGGA,100829.00,4611.960606,N,01258.217559,E,1,04,7.6,138.29,M,46.25,M,,*61
$GPGLL,4611.960606,N,01258.217559,E,100829.00,A,A*65
$GPVTG,349.5,T,349.7,M,002.0,N,003.8,K,A*28
$GPGSV,2,1,07,21,19,186,41,02,25,048,35,12,31,106,40,25,65,097,42*7D
$GPGSV,2,2,07,29,83,279,41,30,64,306,33,31,49,292,,,,,*45
$GPGSA,M,3,21,12,25,29,,,,,,,,,12.0,7.6,9.3*0A
Trace #70 at position 17.250000
$GPZDA,100828.03,08,10,2011,00,00*6D
$GPRMC,100828.00,A,4611.959930,N,01258.217792,E,002.9,341.9,081011,0.2,E,A*32
$GPGGA,100829.00,4611.960606,N,01258.217559,E,1,04,7.6,138.29,M,46.25,M,,*61
$GPGLL,4611.960606,N,01258.217559,E,100829.00,A,A*65
$GPVTG,349.5,T,349.7,M,002.0,N,003.8,K,A*28
$GPGSV,2,1,07,21,19,186,41,02,25,048,35,12,31,106,40,25,65,097,42*7D
$GPGSV,2,2,07,29,83,279,41,30,64,306,33,31,49,292,,,,,*45
$GPGSA,M,3,21,12,25,29,,,,,,,,,12.0,7.6,9.3*0A
Trace #71 at position 17.500000
$GPZDA,100828.03,08,10,2011,00,00*6D
$GPRMC,100828.00,A,4611.959930,N,01258.217792,E,002.9,341.9,081011,0.2,E,A*32
$GPGGA,100829.00,4611.960606,N,01258.217559,E,1,04,7.6,138.29,M,46.25,M,,*61
$GPGLL,4611.960606,N,01258.217559,E,100829.00,A,A*65
$GPVTG,349.5,T,349.7,M,002.0,N,003.8,K,A*28
$GPGSV,2,1,07,21,19,186,41,02,25,048,35,12,31,106,40,25,65,097,42*7D
$GPGSV,2,2,07,29,83,279,41,30,64,306,33,31,49,292,,,,,*45
$GPGSA,M,3,21,12,25,29,,,,,,,,,12.0,7.6,9.3*0A
Trace #72 at position 17.750000
$GPZDA,100829.03,08,10,2011,00,00*6C
$GPRMC,100829.00,A,4611.960606,N,01258.217559,E,002.0,349.5,081011,0.2,E,A*3B
$GPGGA,100830.00,4611.961141,N,01258.217393,E,1,04,7.6,138.18,M,46.25,M,,*6E
$GPGLL,4611.961141,N,01258.217393,E,100830.00,A,A*68
$GPVTG,342.4,T,342.5,M,001.9,N,003.5,K,A*2C
$GPGSV,2,1,07,21,19,186,43,02,25,048,36,12,31,106,40,25,65,097,43*7D
$GPGSV,2,2,07,29,83,280,40,30,64,306,34,31,49,292,,,,,*45
$GPGSA,M,3,21,12,25,29,,,,,,,,,12.0,7.6,9.3*0A
Trace #73 at position 18.000000
$GPZDA,100829.03,08,10,2011,00,00*6C
$GPRMC,100829.00,A,4611.960606,N,01258.217559,E,002.0,349.5,081011,0.2,E,A*3B
$GPGGA,100830.00,4611.961141,N,01258.217393,E,1,04,7.6,138.18,M,46.25,M,,*6E
$GPGLL,4611.961141,N,01258.217393,E,100830.00,A,A*68
$GPVTG,342.4,T,342.5,M,001.9,N,003.5,K,A*2C
$GPGSV,2,1,07,21,19,186,43,02,25,048,36,12,31,106,40,25,65,097,43*7D
$GPGSV,2,2,07,29,83,280,40,30,64,306,34,31,49,292,,,,,*45
$GPGSA,M,3,21,12,25,29,,,,,,,,,12.0,7.6,9.3*0A
Trace #74 at position 18.250000
$GPZDA,100829.03,08,10,2011,00,00*6C
$GPRMC,100829.00,A,4611.960606,N,01258.217559,E,002.0,349.5,081011,0.2,E,A*3B
$GPGGA,100830.00,4611.961141,N,01258.217393,E,1,04,7.6,138.18,M,46.25,M,,*6E
$GPGLL,4611.961141,N,01258.217393,E,100830.00,A,A*68
$GPVTG,342.4,T,342.5,M,001.9,N,003.5,K,A*2C
$GPGSV,2,1,07,21,19,186,43,02,25,048,36,12,31,106,40,25,65,097,43*7D
$GPGSV,2,2,07,29,83,280,40,30,64,306,34,31,49,292,,,,,*45
$GPGSA,M,3,21,12,25,29,,,,,,,,,12.0,7.6,9.3*0A
Trace #75 at position 18.500000
$GPZDA,100830.03,08,10,2011,00,00*64
$GPRMC,100830.00,A,4611.961141,N,01258.217393,E,001.9,342.4,081011,0.2,E,A*36
$GPGGA,100831.00,4611.961663,N,01258.217293,E,1,04,7.6,138.10,M,46.25,M,,*61
$GPGLL,4611.961663,N,01258.217293,E,100831.00,A,A*6F
$GPVTG,0.0,T,0.2,M,002.0,N,003.6,K,A*26
$GPGSV,2,1,07,21,19,186,41,02,25,048,37,12,31,106,39,25,65,097,41*72
$GPGSV,2,2,07,29,83,280,41,30,64,306,33,31,49,292,35,,,,*45
$GPGSA,M,3,21,12,25,29,,,,,,,,,12.0,7.6,9.3*0A
Trace #76 at position 18.750000
$GPZDA,100830.03,08,10,2011,00,00*64
$GPRMC,100830.00,A,4611.961141,N,01258.217393,E,001.9,342.4,081011,0.2,E,A*36
$GPGGA,100831.00,4611.961663,N,01258.217293,E,1,04,7.6,138.10,M,46.25,M,,*61
$GPGLL,4611.961663,N,01258.217293,E,100831.00,A,A*6F
$GPVTG,0.0,T,0.2,M,002.0,N,003.6,K,A*26
$GPGSV,2,1,07,21,19,186,41,02,25,048,37,12,31,106,39,25,65,097,41*72
$GPGSV,2,2,07,29,83,280,41,30,64,306,33,31,49,292,35,,,,*45
$GPGSA,M,3,21,12,25,29,,,,,,,,,12.0,7.6,9.3*0A
Trace #77 at position 19.000000
$GPZDA,100830.03,08,10,2011,00,00*64
$GPRMC,100830.00,A,4611.961141,N,01258.217393,E,001.9,342.4,081011,0.2,E,A*36
$GPGGA,100831.00,4611.961663,N,01258.217293,E,1,04,7.6,138.10,M,46.25,M,,*61
$GPGLL,4611.961663,N,01258.217293,E,100831.00,A,A*6F
$GPVTG,0.0,T,0.2,M,002.0,N,003.6,K,A*26
$GPGSV,2,1,07,21,19,186,41,02,25,048,37,12,31,106,39,25,65,097,41*72
$GPGSV,2,2,07,29,83,280,41,30,64,306,33,31,49,292,35,,,,*45
$GPGSA,M,3,21,12,25,29,,,,,,,,,12.0,7.6,9.3*0A
Trace #78 at position 19.250000
$GPZDA,100831.03,08,10,2011,00,00*65
$GPRMC,100831.00,A,4611.961663,N,01258.217293,E,002.0,0.0,081011,0.2,E,A*3A
$GPGGA,100832.00,4611.962036,N,01258.217183,E,1,04,7.6,138.13,M,46.25,M,,*66
$GPGLL,4611.962036,N,01258.217183,E,100832.00,A,A*6B
$GPVTG,320.7,T,320.8,M,000.8,N,001.5,K,A*20
$GPGSV,2,1,07,21,19,186,40,02,25,048,38,12,31,106,40,25,65,097,43*70
$GPGSV,2,2,07,29,83,280,40,30,64,306,36,31,49,292,34,,,,*40
$GPGSA,M,3,21,12,25,29,,,,,,,,,12.0,7.6,9.3*0A
Trace #79 at position 19.500000
$GPZDA,100831.03,08,10,2011,00,00*65
$GPRMC,100831.00,A,4611.961663,N,01258.217293,E,002.0,0.0,081011,0.2,E,A*3A
$GPGGA,100832.00,4611.962036,N,01258.217183,E,1,04,7.6,138.13,M,46.25,M,,*66
$GPGLL,4611.962036,N,01258.217183,E,100832.00,A,A*6B
$GPVTG,320.7,T,320.8,M,000.8,N,001.5,K,A*20
$GPGSV,2,1,07,21,19,186,40,02,25,048,38,12,31,106,40,25,65,097,43*70
$GPGSV,2,2,07,29,83,280,40,30,64,306,36,31,49,292,34,,,,*40
$GPGSA,M,3,21,12,25,29,,,,,,,,,12.0,7.6,9.3*0A
Trace #80 at position 19.750000
$GPZDA,100831.03,08,10,2011,00,00*65
$GPRMC,100831.00,A,4611.961663,N,01258.217293,E,002.0,0.0,081011,0.2,E,A*3A
$GPGGA,100832.00,4611.962036,N,01258.217183,E,1,04,7.6,138.13,M,46.25,M,,*66
$GPGLL,4611.962036,N,01258.217183,E,100832.00,A,A*6B
$GPVTG,320.7,T,320.8,M,000.8,N,001.5,K,A*20
$GPGSV,2,1,07,21,19,186,40,02,25,048,38,12,31,106,40,25,65,097,43*70
$GPGSV,2,2,07,29,83,280,40,30,64,306,36,31,49,292,34,,,,*40
$GPGSA,M,3,21,12,25,29,,,,,,,,,12.0,7.6,9.3*0A
Trace #81 at position 20.000000
$GPZDA,100832.03,08,10,2011,00,00*66
$GPRMC,100832.00,A,4611.962036,N,01258.217183,E,000.8,320.7,081011,0.2,E,A*32
$GPGGA,100833.00,4611.962398,N,01258.216929,E,1,04,7.6,138.14,M,46.25,M,,*6E
$GPGLL,4611.962398,N,01258.216929,E,100833.00,A,A*64
$GPVTG,336.9,T,337.1,M,001.9,N,003.6,K,A*27
$GPGSV,2,1,07,21,19,186,42,02,25,048,38,12,31,106,41,25,65,097,43*73
$GPGSV,2,2,07,29,83,280,40,30,64,306,34,31,49,292,,,,,*45
$GPGSA,M,3,21,12,25,29,,,,,,,,,12.0,7.6,9.3*0A
Trace #82 at position 20.250000
$GPZDA,100832.03,08,10,2011,00,00*66
$GPRMC,100832.00,A,4611.962036,N,01258.217183,E,000.8,320.7,081011,0.2,E,A*32
$GPGGA,100833.00,4611.962398,N,01258.216929,E,1,04,7.6,138.14,M,46.25,M,,*6E
$GPGLL,4611.962398,N,01258.216929,E,100833.00,A,A*64
$GPVTG,336.9,T,337.1,M,001.9,N,003.6,K,A*27
$GPGSV,2,1,07,21,19,186,42,02,25,048,38,12,31,106,41,25,65,097,43*73
$GPGSV,2,2,07,29,83,280,40,30,64,306,34,31,49,292,,,,,*45
$GPGSA,M,3,21,12,25,29,,,,,,,,,12.0,7.6,9.3*0A
Trace #83 at position 20.500000
$GPZDA,100832.03,08,10,2011,00,00*66
$GPRMC,100832.00,A,4611.962036,N,01258.217183,E,000.8,320.7,081011,0.2,E,A*32
$GPGGA,100833.00,4611.962398,N,01258.216929,E,1,04,7.6,138.14,M,46.25,M,,*6E
$GPGLL,4611.962398,N,01258.216929,E,100833.00,A,A*64
$GPVTG,336.9,T,337.1,M,001.9,N,003.6,K,A*27
$GPGSV,2,1,07,21,19,186,42,02,25,048,38,12,31,106,41,25,65,097,43*73
$GPGSV,2,2,07,29,83,280,40,30,64,306,34,31,49,292,,,,,*45
$GPGSA,M,3,21,12,25,29,,,,,,,,,12.0,7.6,9.3*0A
Trace #84 at position 20.750000
$GPZDA,100832.03,08,10,2011,00,00*66
$GPRMC,100832.00,A,4611.962036,N,01258.217183,E,000.8,320.7,081011,0.2,E,A*32
$GPGGA,100833.00,4611.962398,N,01258.216929,E,1,04,7.6,138.14,M,46.25,M,,*6E
$GPGLL,4611.962398,N,01258.216929,E,100833.00,A,A*64
$GPVTG,336.9,T,337.1,M,001.9,N,003.6,K,A*27
$GPGSV,2,1,07,21,19,186,42,02,25,048,38,12,31,106,41,25,65,097,43*73
$GPGSV,2,2,07,29,83,280,40,30,64,306,34,31,49,292,,,,,*45
$GPGSA,M,3,21,12,25,29,,,,,,,,,12.0,7.6,9.3*0A
Trace #85 at position 21.000000
$GPZDA,100833.03,08,10,2011,00,00*67
$GPRMC,100833.00,A,4611.962398,N,01258.216929,E,001.9,336.9,081011,0.2,E,A*34
$GPGGA,100834.00,4611.962912,N,01258.216601,E,1,04,7.6,137.88,M,46.25,M,,*6E
$GPGLL,4611.962912,N,01258.216601,E,100834.00,A,A*6E
$GPVTG,332.5,T,332.6,M,002.2,N,004.0,K,A*24
$GPGSV,2,1,07,21,19,186,40,02,25,048,37,12,31,106,41,25,65,097,42*7F
$GPGSV,2,2,07,29,83,280,41,30,64,306,37,31,49,292,33,,,,*47
$GPGSA,M,3,21,12,25,29,,,,,,,,,12.0,7.6,9.3*0A
Trace #86 at position 21.250000
$GPZDA,100833.03,08,10,2011,00,00*67
$GPRMC,100833.00,A,4611.962398,N,01258.216929,E,001.9,336.9,081011,0.2,E,A*34
$GPGGA,100834.00,4611.962912,N,01258.216601,E,1,04,7.6,137.88,M,46.25,M,,*6E
$GPGLL,4611.962912,N,01258.216601,E,100834.00,A,A*6E
$GPVTG,332.5,T,332.6,M,002.2,N,004.0,K,A*24
$GPGSV,2,1,07,21,19,186,40,02,25,048,37,12,31,106,41,25,65,097,42*7F
$GPGSV,2,2,07,29,83,280,41,30,64,306,37,31,49,292,33,,,,*47
$GPGSA,M,3,21,12,25,29,,,,,,,,,12.0,7.6,9.3*0A
Trace #87 at position 21.500000
$GPZDA,100833.03,08,10,2011,00,00*67
$GPRMC,100833.00,A,4611.962398,N,01258.216929,E,001.9,336.9,081011,0.2,E,A*34
$GPGGA,100834.00,4611.962912,N,01258.216601,E,1,04,7.6,137.88,M,46.25,M,,*6E
$GPGLL,4611.962912,N,01258.216601,E,100834.00,A,A*6E
$GPVTG,332.5,T,332.6,M,002.2,N,004.0,K,A*24
$GPGSV,2,1,07,21,19,186,40,02,25,048,37,12,31,106,41,25,65,097,42*7F
$GPGSV,2,2,07,29,83,280,41,30,64,306,37,31,49,292,33,,,,*47
$GPGSA,M,3,21,12,25,29,,,,,,,,,12.0,7.6,9.3*0A
Trace #88 at position 21.750000
$GPZDA,100833.03,08,10,2011,00,00*67
$GPRMC,100833.00,A,4611.962398,N,01258.216929,E,001.9,336.9,081011,0.2,E,A*34
$GPGGA,100834.00,4611.962912,N,01258.216601,E,1,04,7.6,137.88,M,46.25,M,,*6E
$GPGLL,4611.962912,N,01258.216601,E,100834.00,A,A*6E
$GPVTG,332.5,T,332.6,M,002.2,N,004.0,K,A*24
$GPGSV,2,1,07,21,19,186,40,02,25,048,37,12,31,106,41,25,65,097,42*7F
$GPGSV,2,2,07,29,83,280,41,30,64,306,37,31,49,292,33,,,,*47
$GPGSA,M,3,21,12,25,29,,,,,,,,,12.0,7.6,9.3*0A
Trace #89 at position 22.000000
$GPZDA,100834.03,08,10,2011,00,00*60
$GPRMC,100834.00,A,4611.962912,N,01258.216601,E,002.2,332.5,081011,0.2,E,A*3E
$GPGGA,100835.00,4611.963357,N,01258.216380,E,1,04,7.6,137.90,M,46.25,M,,*60
$GPGLL,4611.963357,N,01258.216380,E,100835.00,A,A*69
$GPVTG,350.3,T,350.5,M,001.3,N,002.4,K,A*21
$GPGSV,2,1,07,21,19,186,41,02,25,048,37,12,31,106,40,25,65,097,42*7F
$GPGSV,2,2,07,29,83,280,41,30,64,306,36,31,49,292,33,,,,*46
$GPGSA,M,3,21,12,25,29,,,,,,,,,12.0,7.6,9.3*0A
Trace #90 at position 22.250000
$GPZDA,100834.03,08,10,2011,00,00*60
$GPRMC,100834.00,A,4611.962912,N,01258.216601,E,002.2,332.5,081011,0.2,E,A*3E
$GPGGA,100835.00,4611.963357,N,01258.216380,E,1,04,7.6,137.90,M,46.25,M,,*60
$GPGLL,4611.963357,N,01258.216380,E,100835.00,A,A*69
$GPVTG,350.3,T,350.5,M,001.3,N,002.4,K,A*21
$GPGSV,2,1,07,21,19,186,41,02,25,048,37,12,31,106,40,25,65,097,42*7F
$GPGSV,2,2,07,29,83,280,41,30,64,306,36,31,49,292,33,,,,*46
$GPGSA,M,3,21,12,25,29,,,,,,,,,12.0,7.6,9.3*0A
Trace #91 at position 22.500000
$GPZDA,100834.03,08,10,2011,00,00*60
$GPRMC,100834.00,A,4611.962912,N,01258.216601,E,002.2,332.5,081011,0.2,E,A*3E
$GPGGA,100835.00,4611.963357,N,01258.216380,E,1,04,7.6,137.90,M,46.25,M,,*60
$GPGLL,4611.963357,N,01258.216380,E,100835.00,A,A*69
$GPVTG,350.3,T,350.5,M,001.3,N,002.4,K,A*21
$GPGSV,2,1,07,21,19,186,41,02,25,048,37,12,31,106,40,25,65,097,42*7F
$GPGSV,2,2,07,29,83,280,41,30,64,306,36,31,49,292,33,,,,*46
$GPGSA,M,3,21,12,25,29,,,,,,,,,12.0,7.6,9.3*0A
Trace #92 at position 22.750000
$GPZDA,100835.03,08,10,2011,00,00*61
$GPRMC,100835.00,A,4611.963357,N,01258.216380,E,001.3,350.3,081011,0.2,E,A*39
$GPGGA,100836.00,4611.963818,N,01258.216337,E,1,04,7.6,138.01,M,46.25,M,,*68
$GPGLL,4611.963818,N,01258.216337,E,100836.00,A,A*66
$GPVTG,0.0,T,0.2,M,002.0,N,003.8,K,A*28
$GPGSV,2,1,07,21,19,186,42,02,25,048,37,12,31,106,39,25,65,097,43*73
$GPGSV,2,2,07,29,83,280,41,30,64,306,36,31,49,292,34,,,,*41
$GPGSA,M,3,21,12,25,29,,,,,,,,,12.0,7.6,9.3*0A
Trace #93 at position 23.000000
$GPZDA,100835.03,08,10,2011,00,00*61
$GPRMC,100835.00,A,4611.963357,N,01258.216380,E,001.3,350.3,081011,0.2,E,A*39
$GPGGA,100836.00,4611.963818,N,01258.216337,E,1,04,7.6,138.01,M,46.25,M,,*68
$GPGLL,4611.963818,N,01258.216337,E,100836.00,A,A*66
$GPVTG,0.0,T,0.2,M,002.0,N,003.8,K,A*28
$GPGSV,2,1,07,21,19,186,42,02,25,048,37,12,31,106,39,25,65,097,43*73
$GPGSV,2,2,07,29,83,280,41,30,64,306,36,31,49,292,34,,,,*41
$GPGSA,M,3,21,12,25,29,,,,,,,,,12.0,7.6,9.3*0A
Trace #94 at position 23.250000
$GPZDA,100835.03,08,10,2011,00,00*61
$GPRMC,100835.00,A,4611.963357,N,01258.216380,E,001.3,350.3,081011,0.2,E,A*39
$GPGGA,100836.00,4611.963818,N,01258.216337,E,1,04,7.6,138.01,M,46.25,M,,*68
$GPGLL,4611.963818,N,01258.216337,E,100836.00,A,A*66
$GPVTG,0.0,T,0.2,M,002.0,N,003.8,K,A*28
$GPGSV,2,1,07,21,19,186,42,02,25,048,37,12,31,106,39,25,65,097,43*73
$GPGSV,2,2,07,29,83,280,41,30,64,306,36,31,49,292,34,,,,*41
$GPGSA,M,3,21,12,25,29,,,,,,,,,12.0,7.6,9.3*0A
Trace #95 at position 23.500000
$GPZDA,100836.03,08,10,2011,00,00*62
$GPRMC,100836.00,A,4611.963818,N,01258.216337,E,002.0,0.0,081011,0.2,E,A*33
$GPGGA,100837.00,4611.964411,N,01258.216025,E,1,04,7.6,137.74,M,46.25,M,,*66
$GPGLL,4611.964411,N,01258.216025,E,100837.00,A,A*65
$GPVTG,325.2,T,325.4,M,002.8,N,005.2,K,A*28
$GPGSV,2,1,07,21,19,186,41,02,25,048,37,12,31,106,39,25,65,097,43*70
$GPGSV,2,2,07,29,83,280,41,30,64,306,35,31,49,292,35,,,,*43
$GPGSA,M,3,21,12,25,29,,,,,,,,,12.0,7.6,9.3*0A
Trace #96 at position 23.750000
$GPZDA,100836.03,08,10,2011,00,00*62
$GPRMC,100836.00,A,4611.963818,N,01258.216337,E,002.0,0.0,081011,0.2,E,A*33
$GPGGA,100837.00,4611.964411,N,01258.216025,E,1,04,7.6,137.74,M,46.25,M,,*66
$GPGLL,4611.964411,N,01258.216025,E,100837.00,A,A*65
$GPVTG,325.2,T,325.4,M,002.8,N,005.2,K,A*28
$GPGSV,2,1,07,21,19,186,41,02,25,048,37,12,31,106,39,25,65,097,43*70
$GPGSV,2,2,07,29,83,280,41,30,64,306,35,31,49,292,35,,,,*43
$GPGSA,M,3,21,12,25,29,,,,,,,,,12.0,7.6,9.3*0A
Trace #97 at position 24.000000
$GPZDA,100836.03,08,10,2011,00,00*62
$GPRMC,100836.00,A,4611.963818,N,01258.216337,E,002.0,0.0,081011,0.2,E,A*33
$GPGGA,100837.00,4611.964411,N,01258.216025,E,1,04,7.6,137.74,M,46.25,M,,*66
$GPGLL,4611.964411,N,01258.216025,E,100837.00,A,A*65
$GPVTG,325.2,T,325.4,M,002.8,N,005.2,K,A*28
$GPGSV,2,1,07,21,19,186,41,02,25,048,37,12,31,106,39,25,65,097,43*70
$GPGSV,2,2,07,29,83,280,41,30,64,306,35,31,49,292,35,,,,*43
$GPGSA,M,3,21,12,25,29,,,,,,,,,12.0,7.6,9.3*0A
Trace #98 at position 24.250000
$GPZDA,100837.03,08,10,2011,00,00*63
$GPRMC,100837.00,A,4611.964411,N,01258.216025,E,002.8,325.2,081011,0.2,E,A*3E
$GPGGA,100838.00,4611.964888,N,01258.215824,E,1,04,7.6,137.71,M,46.25,M,,*6A
$GPGLL,4611.964888,N,01258.215824,E,100838.00,A,A*6C
$GPVTG,21.5,T,21.6,M,001.3,N,002.5,K,A*25
$GPGSV,2,1,07,21,19,186,42,02,25,048,36,12,31,106,38,25,65,097,42*72
$GPGSV,2,2,07,29,83,280,41,30,64,306,32,31,49,292,35,,,,*44
$GPGSA,M,3,21,12,25,29,,,,,,,,,11.9,7.6,9.2*01
Trace #99 at position 24.500000
$GPZDA,100837.03,08,10,2011,00,00*63
$GPRMC,100837.00,A,4611.964411,N,01258.216025,E,002.8,325.2,081011,0.2,E,A*3E
$GPGGA,100838.00,4611.964888,N,01258.215824,E,1,04,7.6,137.71,M,46.25,M,,*6A
$GPGLL,4611.964888,N,01258.215824,E,100838.00,A,A*6C
$GPVTG,21.5,T,21.6,M,001.3,N,002.5,K,A*25
$GPGSV,2,1,07,21,19,186,42,02,25,048,36,12,31,106,38,25,65,097,42*72
$GPGSV,2,2,07,29,83,280,41,30,64,306,32,31,49,292,35,,,,*44
$GPGSA,M,3,21,12,25,29,,,,,,,,,11.9,7.6,9.2*01
Trace #100 at position 24.750000
$GPZDA,100839.03,08,10,2011,00,00*6D
$GPRMC,100839.00,A,4611.965291,N,01258.215728,E,002.0,331.3,081011,0.2,E,A*3A
$GPGGA,100840.00,4611.965552,N,01258.215653,E,1,04,7.5,137.94,M,46.25,M,,*68
$GPGLL,4611.965552,N,01258.215653,E,100840.00,A,A*66
$GPVTG,63.7,T,63.9,M,000.7,N,001.2,K,A*29
$GPGSV,2,1,07,21,19,186,40,02,25,048,37,12,31,106,40,25,65,097,43*7F
$GPGSV,2,2,07,29,83,280,41,30,64,306,34,31,49,292,32,,,,*45
$GPGSA,M,3,21,12,25,29,,,,,,,,,11.9,7.5,9.2*02
Trace #101 at position 25.000000
$GPZDA,100842.02,08,10,2011,00,00*60
$GPRMC,100841.00,V,,,,,,,,,,N*71
$GPGGA,100843.00,4611.965798,N,01258.215638,E,1,04,7.5,137.96,M,46.25,M,,*60
$GPGLL,4611.965798,N,01258.215638,E,100843.00,A,A*6C
$GPVTG,348.7,T,348.9,M,000.1,N,000.3,K,A*2F
$GPGSV,2,1,07,21,19,186,39,02,25,048,35,12,31,106,41,25,65,097,43*72
$GPGSV,2,2,07,29,83,280,37,30,64,306,31,31,49,292,,,,,*40
$GPGSA,M,3,21,12,25,29,,,,,,,,,11.9,7.5,9.2*02
Trace #102 at position 25.250000
$GPZDA,100842.02,08,10,2011,00,00*60
$GPRMC,100841.00,V,,,,,,,,,,N*71
$GPGGA,100843.00,4611.965798,N,01258.215638,E,1,04,7.5,137.96,M,46.25,M,,*60
$GPGLL,4611.965798,N,01258.215638,E,100843.00,A,A*6C
$GPVTG,348.7,T,348.9,M,000.1,N,000.3,K,A*2F
$GPGSV,2,1,07,21,19,186,39,02,25,048,35,12,31,106,41,25,65,097,43*72
$GPGSV,2,2,07,29,83,280,37,30,64,306,31,31,49,292,,,,,*40
$GPGSA,M,3,21,12,25,29,,,,,,,,,11.9,7.5,9.2*02
Trace #103 at position 25.500000
$GPZDA,100843.03,08,10,2011,00,00*60
$GPRMC,100843.00,A,4611.965798,N,01258.215638,E,000.1,348.7,081011,0.2,E,A*32
$GPGGA,100844.00,4611.965816,N,01258.215588,E,1,04,7.5,137.96,M,46.25,M,,*66
$GPGLL,4611.965816,N,01258.215588,E,100844.00,A,A*6A
$GPVTG,309.1,T,309.2,M,000.2,N,000.4,K,A*26
$GPGSV,2,1,07,21,19,186,37,02,25,048,35,12,31,106,40,25,65,097,43*7D
$GPGSV,2,2,07,29,83,280,37,30,64,306,31,31,49,292,,,,,*40
$GPGSA,M,3,21,12,25,29,,,,,,,,,11.9,7.5,9.2*02
Trace #104 at position 25.750000
$GPZDA,100843.03,08,10,2011,00,00*60
$GPRMC,100843.00,A,4611.965798,N,01258.215638,E,000.1,348.7,081011,0.2,E,A*32
$GPGGA,100844.00,4611.965816,N,01258.215588,E,1,04,7.5,137.96,M,46.25,M,,*66
$GPGLL,4611.965816,N,01258.215588,E,100844.00,A,A*6A
$GPVTG,309.1,T,309.2,M,000.2,N,000.4,K,A*26
$GPGSV,2,1,07,21,19,186,37,02,25,048,35,12,31,106,40,25,65,097,43*7D
$GPGSV,2,2,07,29,83,280,37,30,64,306,31,31,49,292,,,,,*40
$GPGSA,M,3,21,12,25,29,,,,,,,,,11.9,7.5,9.2*02
Trace #105 at position 26.000000
$GPZDA,100843.03,08,10,2011,00,00*60
$GPRMC,100843.00,A,4611.965798,N,01258.215638,E,000.1,348.7,081011,0.2,E,A*32
$GPGGA,100844.00,4611.965816,N,01258.215588,E,1,04,7.5,137.96,M,46.25,M,,*66
$GPGLL,4611.965816,N,01258.215588,E,100844.00,A,A*6A
$GPVTG,309.1,T,309.2,M,000.2,N,000.4,K,A*26
$GPGSV,2,1,07,21,19,186,37,02,25,048,35,12,31,106,40,25,65,097,43*7D
$GPGSV,2,2,07,29,83,280,37,30,64,306,31,31,49,292,,,,,*40
$GPGSA,M,3,21,12,25,29,,,,,,,,,11.9,7.5,9.2*02
Trace #106 at position 26.250000
$GPZDA,100843.03,08,10,2011,00,00*60
$GPRMC,100843.00,A,4611.965798,N,01258.215638,E,000.1,348.7,081011,0.2,E,A*32
$GPGGA,100844.00,4611.965816,N,01258.215588,E,1,04,7.5,137.96,M,46.25,M,,*66
$GPGLL,4611.965816,N,01258.215588,E,100844.00,A,A*6A
$GPVTG,309.1,T,309.2,M,000.2,N,000.4,K,A*26
$GPGSV,2,1,07,21,19,186,37,02,25,048,35,12,31,106,40,25,65,097,43*7D
$GPGSV,2,2,07,29,83,280,37,30,64,306,31,31,49,292,,,,,*40
$GPGSA,M,3,21,12,25,29,,,,,,,,,11.9,7.5,9.2*02
Trace #107 at position 26.500000
$GPZDA,100844.03,08,10,2011,00,00*67
$GPRMC,100844.00,A,4611.965816,N,01258.215588,E,000.2,309.1,081011,0.2,E,A*34
$GPGGA,100845.00,4611.965749,N,01258.215695,E,1,05,2.8,138.75,M,46.25,M,,*66
$GPGLL,4611.965749,N,01258.215695,E,100845.00,A,A*61
$GPVTG,358.9,T,359.1,M,001.7,N,003.2,K,A*2D
$GPGSV,2,1,07,21,19,186,40,02,25,048,35,12,31,106,39,25,65,097,43*73
$GPGSV,2,2,07,29,83,280,43,30,64,306,40,31,49,292,,,,,*45
$GPGSA,M,3,21,12,25,29,30,,,,,,,,4.9,2.8,4.1*33
Trace #108 at position 26.750000
$GPZDA,100844.03,08,10,2011,00,00*67
$GPRMC,100844.00,A,4611.965816,N,01258.215588,E,000.2,309.1,081011,0.2,E,A*34
$GPGGA,100845.00,4611.965749,N,01258.215695,E,1,05,2.8,138.75,M,46.25,M,,*66
$GPGLL,4611.965749,N,01258.215695,E,100845.00,A,A*61
$GPVTG,358.9,T,359.1,M,001.7,N,003.2,K,A*2D
$GPGSV,2,1,07,21,19,186,40,02,25,048,35,12,31,106,39,25,65,097,43*73
$GPGSV,2,2,07,29,83,280,43,30,64,306,40,31,49,292,,,,,*45
$GPGSA,M,3,21,12,25,29,30,,,,,,,,4.9,2.8,4.1*33
Trace #109 at position 27.000000
$GPZDA,100844.03,08,10,2011,00,00*67
$GPRMC,100844.00,A,4611.965816,N,01258.215588,E,000.2,309.1,081011,0.2,E,A*34
$GPGGA,100845.00,4611.965749,N,01258.215695,E,1,05,2.8,138.75,M,46.25,M,,*66
$GPGLL,4611.965749,N,01258.215695,E,100845.00,A,A*61
$GPVTG,358.9,T,359.1,M,001.7,N,003.2,K,A*2D
$GPGSV,2,1,07,21,19,186,40,02,25,048,35,12,31,106,39,25,65,097,43*73
$GPGSV,2,2,07,29,83,280,43,30,64,306,40,31,49,292,,,,,*45
$GPGSA,M,3,21,12,25,29,30,,,,,,,,4.9,2.8,4.1*33
Trace #110 at position 27.250000
$GPZDA,100845.04,08,10,2011,00,00*61
$GPRMC,100845.00,A,4611.965749,N,01258.215695,E,001.7,358.9,081011,0.2,E,A*37
$GPGGA,100846.00,4611.965887,N,01258.215798,E,1,05,2.8,139.44,M,46.25,M,,*67
$GPGLL,4611.965887,N,01258.215798,E,100846.00,A,A*63
$GPVTG,359.0,T,359.1,M,001.4,N,002.5,K,A*20
$GPGSV,2,1,07,21,19,186,40,02,25,048,37,12,31,106,40,25,65,097,44*78
$GPGSV,2,2,07,29,83,280,40,30,64,306,37,31,49,292,,,,,*46
$GPGSA,M,3,21,12,25,29,30,,,,,,,,4.9,2.8,4.1*33
Trace #111 at position 27.500000
$GPZDA,100845.04,08,10,2011,00,00*61
$GPRMC,100845.00,A,4611.965749,N,01258.215695,E,001.7,358.9,081011,0.2,E,A*37
$GPGGA,100846.00,4611.965887,N,01258.215798,E,1,05,2.8,139.44,M,46.25,M,,*67
$GPGLL,4611.965887,N,01258.215798,E,100846.00,A,A*63
$GPVTG,359.0,T,359.1,M,001.4,N,002.5,K,A*20
$GPGSV,2,1,07,21,19,186,40,02,25,048,37,12,31,106,40,25,65,097,44*78
$GPGSV,2,2,07,29,83,280,40,30,64,306,37,31,49,292,,,,,*46
$GPGSA,M,3,21,12,25,29,30,,,,,,,,4.9,2.8,4.1*33
Trace #112 at position 27.750000
$GPZDA,100845.04,08,10,2011,00,00*61
$GPRMC,100845.00,A,4611.965749,N,01258.215695,E,001.7,358.9,081011,0.2,E,A*37
$GPGGA,100846.00,4611.965887,N,01258.215798,E,1,05,2.8,139.44,M,46.25,M,,*67
$GPGLL,4611.965887,N,01258.215798,E,100846.00,A,A*63
$GPVTG,359.0,T,359.1,M,001.4,N,002.5,K,A*20
$GPGSV,2,1,07,21,19,186,40,02,25,048,37,12,31,106,40,25,65,097,44*78
$GPGSV,2,2,07,29,83,280,40,30,64,306,37,31,49,292,,,,,*46
$GPGSA,M,3,21,12,25,29,30,,,,,,,,4.9,2.8,4.1*33
Trace #113 at position 28.000000
$GPZDA,100846.03,08,10,2011,00,00*65
$GPRMC,100846.00,A,4611.965887,N,01258.215798,E,001.4,359.0,081011,0.2,E,A*3E
$GPGGA,100847.00,4611.966113,N,01258.215836,E,1,05,2.8,140.14,M,46.25,M,,*61
$GPGLL,4611.966113,N,01258.215836,E,100847.00,A,A*6E
$GPVTG,354.8,T,354.9,M,002.2,N,004.1,K,A*27
$GPGSV,2,1,07,21,19,186,36,02,25,048,32,12,31,106,40,25,65,097,42*7A
$GPGSV,2,2,07,29,83,280,40,30,64,306,39,31,49,292,34,,,,*4F
$GPGSA,M,3,21,12,25,29,30,,,,,,,,4.9,2.8,4.1*33
Trace #114 at position 28.250000
$GPZDA,100846.03,08,10,2011,00,00*65
$GPRMC,100846.00,A,4611.965887,N,01258.215798,E,001.4,359.0,081011,0.2,E,A*3E
$GPGGA,100847.00,4611.966113,N,01258.215836,E,1,05,2.8,140.14,M,46.25,M,,*61
$GPGLL,4611.966113,N,01258.215836,E,100847.00,A,A*6E
$GPVTG,354.8,T,354.9,M,002.2,N,004.1,K,A*27
$GPGSV,2,1,07,21,19,186,36,02,25,048,32,12,31,106,40,25,65,097,42*7A
$GPGSV,2,2,07,29,83,280,40,30,64,306,39,31,49,292,34,,,,*4F
$GPGSA,M,3,21,12,25,29,30,,,,,,,,4.9,2.8,4.1*33
Trace #115 at position 28.500000
$GPZDA,100846.03,08,10,2011,00,00*65
$GPRMC,100846.00,A,4611.965887,N,01258.215798,E,001.4,359.0,081011,0.2,E,A*3E
$GPGGA,100847.00,4611.966113,N,01258.215836,E,1,05,2.8,140.14,M,46.25,M,,*61
$GPGLL,4611.966113,N,01258.215836,E,100847.00,A,A*6E
$GPVTG,354.8,T,354.9,M,002.2,N,004.1,K,A*27
$GPGSV,2,1,07,21,19,186,36,02,25,048,32,12,31,106,40,25,65,097,42*7A
$GPGSV,2,2,07,29,83,280,40,30,64,306,39,31,49,292,34,,,,*4F
$GPGSA,M,3,21,12,25,29,30,,,,,,,,4.9,2.8,4.1*33
Trace #116 at position 28.750000
$GPZDA,100846.03,08,10,2011,00,00*65
$GPRMC,100846.00,A,4611.965887,N,01258.215798,E,001.4,359.0,081011,0.2,E,A*3E
$GPGGA,100847.00,4611.966113,N,01258.215836,E,1,05,2.8,140.14,M,46.25,M,,*61
$GPGLL,4611.966113,N,01258.215836,E,100847.00,A,A*6E
$GPVTG,354.8,T,354.9,M,002.2,N,004.1,K,A*27
$GPGSV,2,1,07,21,19,186,36,02,25,048,32,12,31,106,40,25,65,097,42*7A
$GPGSV,2,2,07,29,83,280,40,30,64,306,39,31,49,292,34,,,,*4F
$GPGSA,M,3,21,12,25,29,30,,,,,,,,4.9,2.8,4.1*33
Trace #117 at position 29.000000
$GPZDA,100847.03,08,10,2011,00,00*64
$GPRMC,100847.00,A,4611.966113,N,01258.215836,E,002.2,354.8,081011,0.2,E,A*33
$GPGGA,100848.00,4611.966440,N,01258.215777,E,1,05,2.8,140.72,M,46.25,M,,*67
$GPGLL,4611.966440,N,01258.215777,E,100848.00,A,A*68
$GPVTG,348.7,T,348.8,M,002.0,N,003.7,K,A*2A
$GPGSV,2,1,07,21,19,186,39,02,25,048,33,12,31,106,40,25,65,097,43*75
$GPGSV,2,2,07,29,83,280,41,30,64,306,38,31,49,292,34,,,,*4F
$GPGSA,M,3,21,12,25,29,30,,,,,,,,4.9,2.8,4.1*33
Trace #118 at position 29.250000
$GPZDA,100847.03,08,10,2011,00,00*64
$GPRMC,100847.00,A,4611.966113,N,01258.215836,E,002.2,354.8,081011,0.2,E,A*33
