Trace #1 at position 0.000000
$GPZDA,113201.03,08,10,2011,00,00*6E
$GPRMC,113201.00,A,4611.976639,N,01258.214709,E,000.0,226.3,081011,0.2,E,A*3A
$GPGGA,113202.00,4611.976679,N,01258.214702,E,1,06,1.9,137.85,M,46.25,M,,*62
$GPGLL,4611.976679,N,01258.214702,E,113202.00,A,A*64
$GPVTG,6.3,T,6.5,M,000.1,N,000.1,K,A*25
$GPGSV,2,1,07,16,16,306,41,21,58,182,41,05,18,053,40,25,30,130,*75
$GPGSV,2,2,07,29,57,061,41,30,73,155,41,31,42,235,45,,,,*47
$GPGSA,M,3,16,21,05,29,30,31,,,,,,,3.4,1.9,2.8*30
Trace #2 at position 0.250000
$GPZDA,113205.03,08,10,2011,00,00*6A
$GPRMC,113205.00,A,4611.977258,N,01258.214103,E,000.1,144.2,081011,0.2,E,A*37
$GPGGA,113206.00,4611.977521,N,01258.213795,E,1,05,3.6,137.63,M,46.25,M,,*66
$GPGLL,4611.977521,N,01258.213795,E,113206.00,A,A*66
$GPVTG,321.3,T,321.5,M,000.7,N,001.4,K,A*27
$GPGSV,2,1,07,16,16,306,37,21,58,182,38,05,18,053,38,25,30,130,29*7E
$GPGSV,2,2,07,29,57,061,43,30,73,155,43,31,42,235,44,,,,*46
$GPGSA,M,3,21,05,29,30,31,,,,,,,,4.6,3.6,2.9*3E
Trace #3 at position 0.500000
$GPZDA,113206.03,08,10,2011,00,00*69
$GPRMC,113206.00,A,4611.977521,N,01258.213795,E,000.7,321.3,081011,0.2,E,A*35
$GPGGA,,,,,,0,03,,,M,,M,,*65
$GPGLL,,,,,,V,N*64
$GPVTG,,T,,,,N,,K,N*61
$GPGSV,2,1,07,16,16,306,38,21,58,182,,05,18,053,35,25,30,130,32*7D
$GPGSV,2,2,07,29,57,061,46,30,73,155,43,31,42,235,45,,,,*42
$GPGSA,M,1,,,,,,,,,,,,,4.6,3.6,2.9*30
Trace #4 at position 0.750000
$GPZDA,113206.03,08,10,2011,00,00*69
$GPRMC,113206.00,A,4611.977521,N,01258.213795,E,000.7,321.3,081011,0.2,E,A*35
$GPGGA,,,,,,0,03,,,M,,M,,*65
$GPGLL,,,,,,V,N*64
$GPVTG,,T,,,,N,,K,N*61
$GPGSV,2,1,07,16,16,306,38,21,58,182,,05,18,053,35,25,30,130,32*7D
$GPGSV,2,2,07,29,57,061,46,30,73,155,43,31,42,235,45,,,,*42
$GPGSA,M,1,,,,,,,,,,,,,4.6,3.6,2.9*30
Trace #5 at position 1.000000
$GPZDA,113207.02,08,10,2011,00,00*69
$GPRMC,113206.00,V,,,,,,,,,,N*7A
$GPGGA,113208.00,4611.978249,N,01258.212900,E,1,04,6.9,138.19,M,46.25,M,,*64
$GPGLL,4611.978249,N,01258.212900,E,113208.00,A,A*6D
$GPVTG,169.8,T,170.0,M,000.9,N,001.6,K,A*2D
$GPGSV,2,1,07,16,16,306,38,21,58,182,36,05,18,053,40,25,30,130,34*7C
$GPGSV,2,2,07,29,57,061,46,30,73,155,43,31,42,235,44,,,,*43
$GPGSA,M,3,05,29,30,31,,,,,,,,,7.9,6.9,3.8*3B
Trace #6 at position 1.250000
$GPZDA,113207.02,08,10,2011,00,00*69
$GPRMC,113206.00,V,,,,,,,,,,N*7A
$GPGGA,113208.00,4611.978249,N,01258.212900,E,1,04,6.9,138.19,M,46.25,M,,*64
$GPGLL,4611.978249,N,01258.212900,E,113208.00,A,A*6D
$GPVTG,169.8,T,170.0,M,000.9,N,001.6,K,A*2D
$GPGSV,2,1,07,16,16,306,38,21,58,182,36,05,18,053,40,25,30,130,34*7C
$GPGSV,2,2,07,29,57,061,46,30,73,155,43,31,42,235,44,,,,*43
$GPGSA,M,3,05,29,30,31,,,,,,,,,7.9,6.9,3.8*3B
Trace #7 at position 1.500000
$GPZDA,113208.04,08,10,2011,00,00*60
$GPRMC,113208.00,A,4611.978249,N,01258.212900,E,000.9,169.8,081011,0.2,E,A*35
$GPGGA,113209.00,4611.978075,N,01258.212875,E,1,05,3.6,138.01,M,46.25,M,,*69
$GPGLL,4611.978075,N,01258.212875,E,113209.00,A,A*62
$GPVTG,184.2,T,184.4,M,000.6,N,001.2,K,A*20
$GPGSV,2,1,07,16,16,306,39,21,58,182,40,05,18,053,39,25,30,130,34*72
$GPGSV,2,2,07,29,57,061,47,30,73,155,42,31,42,235,44,,,,*43
$GPGSA,M,3,21,05,29,30,31,,,,,,,,4.6,3.6,2.9*3E
Trace #8 at position 1.750000
$GPZDA,113210.04,08,10,2011,00,00*69
$GPRMC,113210.00,A,4611.977622,N,01258.213184,E,001.2,164.9,081011,0.2,E,A*39
$GPGGA,113211.00,4611.977283,N,01258.213518,E,1,06,1.9,137.69,M,46.25,M,,*6C
$GPGLL,4611.977283,N,01258.213518,E,113211.00,A,A*68
$GPVTG,78.7,T,78.9,M,000.2,N,000.5,K,A*2A
$GPGSV,2,1,07,16,16,306,40,21,58,182,40,05,18,053,40,25,30,130,30*76
$GPGSV,2,2,07,29,57,061,45,30,73,155,43,31,42,235,43,,,,*47
$GPGSA,M,3,16,21,05,29,30,31,,,,,,,3.4,1.9,2.8*30
Trace #9 at position 2.000000
$GPZDA,113211.03,08,10,2011,00,00*6F
$GPRMC,113211.00,A,4611.977283,N,01258.213518,E,000.2,78.7,081011,0.2,E,A*05
$GPGGA,113212.00,4611.977137,N,01258.213732,E,1,06,1.9,137.55,M,46.25,M,,*66
$GPGLL,4611.977137,N,01258.213732,E,113212.00,A,A*6D
$GPVTG,299.3,T,299.5,M,000.1,N,000.3,K,A*27
$GPGSV,2,1,07,16,16,306,40,21,58,182,42,05,18,053,41,25,30,130,29*7D
$GPGSV,2,2,07,29,57,061,44,30,73,155,44,31,42,235,43,,,,*41
$GPGSA,M,3,16,21,05,29,30,31,,,,,,,3.4,1.9,2.8*30
Trace #10 at position 2.250000
$GPZDA,113212.04,08,10,2011,00,00*6B
$GPRMC,113212.00,A,4611.977137,N,01258.213732,E,000.1,299.3,081011,0.2,E,A*3A
$GPGGA,113213.00,4611.976917,N,01258.213883,E,1,06,1.9,137.42,M,46.25,M,,*6F
$GPGLL,4611.976917,N,01258.213883,E,113213.00,A,A*62
$GPVTG,178.9,T,179.1,M,000.6,N,001.1,K,A*2C
$GPGSV,2,1,07,16,16,306,39,21,58,182,41,05,18,053,42,25,30,130,32*79
$GPGSV,2,2,07,29,57,061,46,30,73,155,43,31,42,235,44,,,,*43
$GPGSA,M,3,16,21,05,29,30,31,,,,,,,3.4,1.9,2.8*30
Trace #11 at position 2.500000
$GPZDA,113212.04,08,10,2011,00,00*6B
$GPRMC,113212.00,A,4611.977137,N,01258.213732,E,000.1,299.3,081011,0.2,E,A*3A
$GPGGA,113213.00,4611.976917,N,01258.213883,E,1,06,1.9,137.42,M,46.25,M,,*6F
$GPGLL,4611.976917,N,01258.213883,E,113213.00,A,A*62
$GPVTG,178.9,T,179.1,M,000.6,N,001.1,K,A*2C
$GPGSV,2,1,07,16,16,306,39,21,58,182,41,05,18,053,42,25,30,130,32*79
$GPGSV,2,2,07,29,57,061,46,30,73,155,43,31,42,235,44,,,,*43
$GPGSA,M,3,16,21,05,29,30,31,,,,,,,3.4,1.9,2.8*30
Trace #12 at position 2.750000
$GPZDA,113212.04,08,10,2011,00,00*6B
$GPRMC,113212.00,A,4611.977137,N,01258.213732,E,000.1,299.3,081011,0.2,E,A*3A
$GPGGA,113213.00,4611.976917,N,01258.213883,E,1,06,1.9,137.42,M,46.25,M,,*6F
$GPGLL,4611.976917,N,01258.213883,E,113213.00,A,A*62
$GPVTG,178.9,T,179.1,M,000.6,N,001.1,K,A*2C
$GPGSV,2,1,07,16,16,306,39,21,58,182,41,05,18,053,42,25,30,130,32*79
$GPGSV,2,2,07,29,57,061,46,30,73,155,43,31,42,235,44,,,,*43
$GPGSA,M,3,16,21,05,29,30,31,,,,,,,3.4,1.9,2.8*30
Trace #13 at position 3.000000
$GPZDA,113213.04,08,10,2011,00,00*6A
$GPRMC,113213.00,A,4611.976917,N,01258.213883,E,000.6,178.9,081011,0.2,E,A*34
$GPGGA,113214.00,4611.976622,N,01258.214089,E,1,06,1.9,137.34,M,46.25,M,,*65
$GPGLL,4611.976622,N,01258.214089,E,113214.00,A,A*69
$GPVTG,158.5,T,158.7,M,000.7,N,001.2,K,A*25
$GPGSV,2,1,07,16,16,306,39,21,58,182,42,05,18,053,42,25,30,130,35*7D
$GPGSV,2,2,07,29,57,061,45,30,73,155,43,31,42,235,43,,,,*47
$GPGSA,M,3,16,21,05,29,30,31,,,,,,,3.4,1.9,2.8*30
Trace #14 at position 3.250000
$GPZDA,113213.04,08,10,2011,00,00*6A
$GPRMC,113213.00,A,4611.976917,N,01258.213883,E,000.6,178.9,081011,0.2,E,A*34
$GPGGA,113214.00,4611.976622,N,01258.214089,E,1,06,1.9,137.34,M,46.25,M,,*65
$GPGLL,4611.976622,N,01258.214089,E,113214.00,A,A*69
$GPVTG,158.5,T,158.7,M,000.7,N,001.2,K,A*25
$GPGSV,2,1,07,16,16,306,39,21,58,182,42,05,18,053,42,25,30,130,35*7D
$GPGSV,2,2,07,29,57,061,45,30,73,155,43,31,42,235,43,,,,*47
$GPGSA,M,3,16,21,05,29,30,31,,,,,,,3.4,1.9,2.8*30
Trace #15 at position 3.500000
$GPZDA,113213.04,08,10,2011,00,00*6A
$GPRMC,113213.00,A,4611.976917,N,01258.213883,E,000.6,178.9,081011,0.2,E,A*34
$GPGGA,113214.00,4611.976622,N,01258.214089,E,1,06,1.9,137.34,M,46.25,M,,*65
$GPGLL,4611.976622,N,01258.214089,E,113214.00,A,A*69
$GPVTG,158.5,T,158.7,M,000.7,N,001.2,K,A*25
$GPGSV,2,1,07,16,16,306,39,21,58,182,42,05,18,053,42,25,30,130,35*7D
$GPGSV,2,2,07,29,57,061,45,30,73,155,43,31,42,235,43,,,,*47
$GPGSA,M,3,16,21,05,29,30,31,,,,,,,3.4,1.9,2.8*30
Trace #16 at position 3.750000
$GPZDA,113214.03,08,10,2011,00,00*6A
$GPRMC,113214.00,A,4611.976622,N,01258.214089,E,000.7,158.5,081011,0.2,E,A*30
$GPGGA,113215.00,4611.976255,N,01258.214281,E,1,06,1.9,137.26,M,46.25,M,,*69
$GPGLL,4611.976255,N,01258.214281,E,113215.00,A,A*66
$GPVTG,179.1,T,179.3,M,001.2,N,002.3,K,A*23
$GPGSV,2,1,07,16,16,306,40,21,58,182,43,05,18,053,42,25,30,130,34*73
$GPGSV,2,2,07,29,57,061,45,30,73,155,41,31,42,235,44,,,,*42
$GPGSA,M,3,16,21,05,29,30,31,,,,,,,3.4,1.9,2.8*30
Trace #17 at position 4.000000
$GPZDA,113214.03,08,10,2011,00,00*6A
$GPRMC,113214.00,A,4611.976622,N,01258.214089,E,000.7,158.5,081011,0.2,E,A*30
$GPGGA,113215.00,4611.976255,N,01258.214281,E,1,06,1.9,137.26,M,46.25,M,,*69
$GPGLL,4611.976255,N,01258.214281,E,113215.00,A,A*66
$GPVTG,179.1,T,179.3,M,001.2,N,002.3,K,A*23
$GPGSV,2,1,07,16,16,306,40,21,58,182,43,05,18,053,42,25,30,130,34*73
$GPGSV,2,2,07,29,57,061,45,30,73,155,41,31,42,235,44,,,,*42
$GPGSA,M,3,16,21,05,29,30,31,,,,,,,3.4,1.9,2.8*30
Trace #18 at position 4.250000
$GPZDA,113214.03,08,10,2011,00,00*6A
$GPRMC,113214.00,A,4611.976622,N,01258.214089,E,000.7,158.5,081011,0.2,E,A*30
$GPGGA,113215.00,4611.976255,N,01258.214281,E,1,06,1.9,137.26,M,46.25,M,,*69
$GPGLL,4611.976255,N,01258.214281,E,113215.00,A,A*66
$GPVTG,179.1,T,179.3,M,001.2,N,002.3,K,A*23
$GPGSV,2,1,07,16,16,306,40,21,58,182,43,05,18,053,42,25,30,130,34*73
$GPGSV,2,2,07,29,57,061,45,30,73,155,41,31,42,235,44,,,,*42
$GPGSA,M,3,16,21,05,29,30,31,,,,,,,3.4,1.9,2.8*30
Trace #19 at position 4.500000
$GPZDA,113215.03,08,10,2011,00,00*6B
$GPRMC,113215.00,A,4611.976255,N,01258.214281,E,001.2,179.1,081011,0.2,E,A*3C
$GPGGA,113216.00,4611.975811,N,01258.214489,E,1,06,1.9,137.17,M,46.25,M,,*6F
$GPGLL,4611.975811,N,01258.214489,E,113216.00,A,A*62
$GPVTG,164.8,T,165.0,M,001.3,N,002.4,K,A*2E
$GPGSV,2,1,07,16,16,306,38,21,58,182,42,05,18,053,41,25,30,130,35*7F
$GPGSV,2,2,07,29,57,061,46,30,73,155,43,31,42,235,44,,,,*43
$GPGSA,M,3,16,21,05,29,30,31,,,,,,,3.4,1.9,2.8*30
Trace #20 at position 4.750000
$GPZDA,113215.03,08,10,2011,00,00*6B
$GPRMC,113215.00,A,4611.976255,N,01258.214281,E,001.2,179.1,081011,0.2,E,A*3C
$GPGGA,113216.00,4611.975811,N,01258.214489,E,1,06,1.9,137.17,M,46.25,M,,*6F
$GPGLL,4611.975811,N,01258.214489,E,113216.00,A,A*62
$GPVTG,164.8,T,165.0,M,001.3,N,002.4,K,A*2E
$GPGSV,2,1,07,16,16,306,38,21,58,182,42,05,18,053,41,25,30,130,35*7F
$GPGSV,2,2,07,29,57,061,46,30,73,155,43,31,42,235,44,,,,*43
$GPGSA,M,3,16,21,05,29,30,31,,,,,,,3.4,1.9,2.8*30
Trace #21 at position 5.000000
$GPZDA,113215.03,08,10,2011,00,00*6B
$GPRMC,113215.00,A,4611.976255,N,01258.214281,E,001.2,179.1,081011,0.2,E,A*3C
$GPGGA,113216.00,4611.975811,N,01258.214489,E,1,06,1.9,137.17,M,46.25,M,,*6F
$GPGLL,4611.975811,N,01258.214489,E,113216.00,A,A*62
$GPVTG,164.8,T,165.0,M,001.3,N,002.4,K,A*2E
$GPGSV,2,1,07,16,16,306,38,21,58,182,42,05,18,053,41,25,30,130,35*7F
$GPGSV,2,2,07,29,57,061,46,30,73,155,43,31,42,235,44,,,,*43
$GPGSA,M,3,16,21,05,29,30,31,,,,,,,3.4,1.9,2.8*30
Trace #22 at position 5.250000
$GPZDA,113216.03,08,10,2011,00,00*68
$GPRMC,113216.00,A,4611.975811,N,01258.214489,E,001.3,164.8,081011,0.2,E,A*3C
$GPGGA,113217.00,4611.975407,N,01258.214681,E,1,06,1.9,137.14,M,46.25,M,,*6C
$GPGLL,4611.975407,N,01258.214681,E,113217.00,A,A*62
$GPVTG,183.7,T,183.8,M,001.0,N,001.8,K,A*24
$GPGSV,2,1,07,16,16,306,39,21,58,182,41,05,18,053,41,25,30,130,37*7F
$GPGSV,2,2,07,29,57,061,44,30,73,155,40,31,42,235,43,,,,*45
$GPGSA,M,3,16,21,05,29,30,31,,,,,,,3.4,1.9,2.8*30
Trace #23 at position 5.500000
$GPZDA,113216.03,08,10,2011,00,00*68
$GPRMC,113216.00,A,4611.975811,N,01258.214489,E,001.3,164.8,081011,0.2,E,A*3C
$GPGGA,113217.00,4611.975407,N,01258.214681,E,1,06,1.9,137.14,M,46.25,M,,*6C
$GPGLL,4611.975407,N,01258.214681,E,113217.00,A,A*62
$GPVTG,183.7,T,183.8,M,001.0,N,001.8,K,A*24
$GPGSV,2,1,07,16,16,306,39,21,58,182,41,05,18,053,41,25,30,130,37*7F
$GPGSV,2,2,07,29,57,061,44,30,73,155,40,31,42,235,43,,,,*45
$GPGSA,M,3,16,21,05,29,30,31,,,,,,,3.4,1.9,2.8*30
Trace #24 at position 5.750000
$GPZDA,113216.03,08,10,2011,00,00*68
$GPRMC,113216.00,A,4611.975811,N,01258.214489,E,001.3,164.8,081011,0.2,E,A*3C
$GPGGA,113217.00,4611.975407,N,01258.214681,E,1,06,1.9,137.14,M,46.25,M,,*6C
$GPGLL,4611.975407,N,01258.214681,E,113217.00,A,A*62
$GPVTG,183.7,T,183.8,M,001.0,N,001.8,K,A*24
$GPGSV,2,1,07,16,16,306,39,21,58,182,41,05,18,053,41,25,30,130,37*7F
$GPGSV,2,2,07,29,57,061,44,30,73,155,40,31,42,235,43,,,,*45
$GPGSA,M,3,16,21,05,29,30,31,,,,,,,3.4,1.9,2.8*30
Trace #25 at position 6.000000
$GPZDA,113217.03,08,10,2011,00,00*69
$GPRMC,113217.00,A,4611.975407,N,01258.214681,E,001.0,183.7,081011,0.2,E,A*39
$GPGGA,113218.00,4611.974947,N,01258.214925,E,1,06,1.9,137.13,M,46.25,M,,*6D
$GPGLL,4611.974947,N,01258.214925,E,113218.00,A,A*64
$GPVTG,159.8,T,160.0,M,001.8,N,003.4,K,A*2F
$GPGSV,2,1,07,16,16,306,40,21,58,182,41,05,18,053,43,25,30,130,37*73
$GPGSV,2,2,07,29,57,061,44,30,73,155,40,31,42,235,42,,,,*44
$GPGSA,M,3,16,21,05,29,30,31,,,,,,,3.4,1.9,2.8*30
Trace #26 at position 6.250000
$GPZDA,113217.03,08,10,2011,00,00*69
$GPRMC,113217.00,A,4611.975407,N,01258.214681,E,001.0,183.7,081011,0.2,E,A*39
$GPGGA,113218.00,4611.974947,N,01258.214925,E,1,06,1.9,137.13,M,46.25,M,,*6D
$GPGLL,4611.974947,N,01258.214925,E,113218.00,A,A*64
$GPVTG,159.8,T,160.0,M,001.8,N,003.4,K,A*2F
$GPGSV,2,1,07,16,16,306,40,21,58,182,41,05,18,053,43,25,30,130,37*73
$GPGSV,2,2,07,29,57,061,44,30,73,155,40,31,42,235,42,,,,*44
$GPGSA,M,3,16,21,05,29,30,31,,,,,,,3.4,1.9,2.8*30
Trace #27 at position 6.500000
$GPZDA,113217.03,08,10,2011,00,00*69
$GPRMC,113217.00,A,4611.975407,N,01258.214681,E,001.0,183.7,081011,0.2,E,A*39
$GPGGA,113218.00,4611.974947,N,01258.214925,E,1,06,1.9,137.13,M,46.25,M,,*6D
$GPGLL,4611.974947,N,01258.214925,E,113218.00,A,A*64
$GPVTG,159.8,T,160.0,M,001.8,N,003.4,K,A*2F
$GPGSV,2,1,07,16,16,306,40,21,58,182,41,05,18,053,43,25,30,130,37*73
$GPGSV,2,2,07,29,57,061,44,30,73,155,40,31,42,235,42,,,,*44
$GPGSA,M,3,16,21,05,29,30,31,,,,,,,3.4,1.9,2.8*30
Trace #28 at position 6.750000
$GPZDA,113218.04,08,10,2011,00,00*61
$GPRMC,113218.00,A,4611.974947,N,01258.214925,E,001.8,159.8,081011,0.2,E,A*3F
$GPGGA,113219.00,4611.974370,N,01258.215251,E,1,06,1.9,137.02,M,46.25,M,,*6B
$GPGLL,4611.974370,N,01258.215251,E,113219.00,A,A*62
$GPVTG,167.0,T,167.2,M,002.1,N,003.8,K,A*29
$GPGSV,2,1,07,16,16,306,38,21,58,182,40,05,18,053,43,25,30,130,37*7D
$GPGSV,2,2,07,29,57,061,46,30,73,155,42,31,42,235,43,,,,*45
$GPGSA,M,3,16,21,05,29,30,31,,,,,,,3.4,1.9,2.8*30
Trace #29 at position 7.000000
$GPZDA,113218.04,08,10,2011,00,00*61
$GPRMC,113218.00,A,4611.974947,N,01258.214925,E,001.8,159.8,081011,0.2,E,A*3F
$GPGGA,113219.00,4611.974370,N,01258.215251,E,1,06,1.9,137.02,M,46.25,M,,*6B
$GPGLL,4611.974370,N,01258.215251,E,113219.00,A,A*62
$GPVTG,167.0,T,167.2,M,002.1,N,003.8,K,A*29
$GPGSV,2,1,07,16,16,306,38,21,58,182,40,05,18,053,43,25,30,130,37*7D
$GPGSV,2,2,07,29,57,061,46,30,73,155,42,31,42,235,43,,,,*45
$GPGSA,M,3,16,21,05,29,30,31,,,,,,,3.4,1.9,2.8*30
Trace #30 at position 7.250000
$GPZDA,113218.04,08,10,2011,00,00*61
$GPRMC,113218.00,A,4611.974947,N,01258.214925,E,001.8,159.8,081011,0.2,E,A*3F
$GPGGA,113219.00,4611.974370,N,01258.215251,E,1,06,1.9,137.02,M,46.25,M,,*6B
$GPGLL,4611.974370,N,01258.215251,E,113219.00,A,A*62
$GPVTG,167.0,T,167.2,M,002.1,N,003.8,K,A*29
$GPGSV,2,1,07,16,16,306,38,21,58,182,40,05,18,053,43,25,30,130,37*7D
$GPGSV,2,2,07,29,57,061,46,30,73,155,42,31,42,235,43,,,,*45
$GPGSA,M,3,16,21,05,29,30,31,,,,,,,3.4,1.9,2.8*30
Trace #31 at position 7.500000
$GPZDA,113219.03,08,10,2011,00,00*67
$GPRMC,113219.00,A,4611.974370,N,01258.215251,E,002.1,167.0,081011,0.2,E,A*36
$GPGGA,113220.00,4611.973900,N,01258.215423,E,1,06,1.9,136.97,M,46.25,M,,*65
$GPGLL,4611.973900,N,01258.215423,E,113220.00,A,A*61
$GPVTG,187.2,T,187.3,M,001.1,N,002.0,K,A*20
$GPGSV,2,1,07,16,16,306,39,21,58,182,40,05,18,053,42,25,30,130,37*7D
$GPGSV,2,2,07,29,57,061,46,30,73,155,42,31,42,235,43,,,,*45
$GPGSA,M,3,16,21,05,29,30,31,,,,,,,3.4,1.9,2.8*30
Trace #32 at position 7.750000
$GPZDA,113219.03,08,10,2011,00,00*67
$GPRMC,113219.00,A,4611.974370,N,01258.215251,E,002.1,167.0,081011,0.2,E,A*36
$GPGGA,113220.00,4611.973900,N,01258.215423,E,1,06,1.9,136.97,M,46.25,M,,*65
$GPGLL,4611.973900,N,01258.215423,E,113220.00,A,A*61
$GPVTG,187.2,T,187.3,M,001.1,N,002.0,K,A*20
$GPGSV,2,1,07,16,16,306,39,21,58,182,40,05,18,053,42,25,30,130,37*7D
$GPGSV,2,2,07,29,57,061,46,30,73,155,42,31,42,235,43,,,,*45
$GPGSA,M,3,16,21,05,29,30,31,,,,,,,3.4,1.9,2.8*30
Trace #33 at position 8.000000
$GPZDA,113219.03,08,10,2011,00,00*67
$GPRMC,113219.00,A,4611.974370,N,01258.215251,E,002.1,167.0,081011,0.2,E,A*36
$GPGGA,113220.00,4611.973900,N,01258.215423,E,1,06,1.9,136.97,M,46.25,M,,*65
$GPGLL,4611.973900,N,01258.215423,E,113220.00,A,A*61
$GPVTG,187.2,T,187.3,M,001.1,N,002.0,K,A*20
$GPGSV,2,1,07,16,16,306,39,21,58,182,40,05,18,053,42,25,30,130,37*7D
$GPGSV,2,2,07,29,57,061,46,30,73,155,42,31,42,235,43,,,,*45
$GPGSA,M,3,16,21,05,29,30,31,,,,,,,3.4,1.9,2.8*30
Trace #34 at position 8.250000
$GPZDA,113220.04,08,10,2011,00,00*6A
$GPRMC,113220.00,A,4611.973900,N,01258.215423,E,001.1,187.2,081011,0.2,E,A*3A
$GPGGA,113221.00,4611.973517,N,01258.215595,E,1,06,1.9,137.08,M,46.25,M,,*65
$GPGLL,4611.973517,N,01258.215595,E,113221.00,A,A*66
$GPVTG,160.8,T,160.9,M,001.4,N,002.6,K,A*23
$GPGSV,2,1,07,16,16,306,37,21,58,182,42,05,18,053,42,25,30,130,36*70
$GPGSV,2,2,07,29,57,061,44,30,73,155,42,31,42,235,43,,,,*47
$GPGSA,M,3,16,21,05,29,30,31,,,,,,,3.4,1.9,2.8*30
Trace #35 at position 8.500000
$GPZDA,113220.04,08,10,2011,00,00*6A
$GPRMC,113220.00,A,4611.973900,N,01258.215423,E,001.1,187.2,081011,0.2,E,A*3A
$GPGGA,113221.00,4611.973517,N,01258.215595,E,1,06,1.9,137.08,M,46.25,M,,*65
$GPGLL,4611.973517,N,01258.215595,E,113221.00,A,A*66
$GPVTG,160.8,T,160.9,M,001.4,N,002.6,K,A*23
$GPGSV,2,1,07,16,16,306,37,21,58,182,42,05,18,053,42,25,30,130,36*70
$GPGSV,2,2,07,29,57,061,44,30,73,155,42,31,42,235,43,,,,*47
$GPGSA,M,3,16,21,05,29,30,31,,,,,,,3.4,1.9,2.8*30
Trace #36 at position 8.750000
$GPZDA,113220.04,08,10,2011,00,00*6A
$GPRMC,113220.00,A,4611.973900,N,01258.215423,E,001.1,187.2,081011,0.2,E,A*3A
$GPGGA,113221.00,4611.973517,N,01258.215595,E,1,06,1.9,137.08,M,46.25,M,,*65
$GPGLL,4611.973517,N,01258.215595,E,113221.00,A,A*66
$GPVTG,160.8,T,160.9,M,001.4,N,002.6,K,A*23
$GPGSV,2,1,07,16,16,306,37,21,58,182,42,05,18,053,42,25,30,130,36*70
$GPGSV,2,2,07,29,57,061,44,30,73,155,42,31,42,235,43,,,,*47
$GPGSA,M,3,16,21,05,29,30,31,,,,,,,3.4,1.9,2.8*30
Trace #37 at position 9.000000
$GPZDA,113221.03,08,10,2011,00,00*6C
$GPRMC,113221.00,A,4611.973517,N,01258.215595,E,001.4,160.8,081011,0.2,E,A*3B
$GPGGA,113222.00,4611.973102,N,01258.215840,E,1,06,1.9,137.17,M,46.25,M,,*6D
$GPGLL,4611.973102,N,01258.215840,E,113222.00,A,A*60
$GPVTG,167.2,T,167.4,M,001.3,N,002.4,K,A*21
$GPGSV,2,1,07,16,16,306,38,21,58,182,43,05,18,053,41,25,30,130,35*7E
$GPGSV,2,2,07,29,57,061,44,30,73,155,42,31,42,235,43,,,,*47
$GPGSA,M,3,16,21,05,29,30,31,,,,,,,3.4,1.9,2.8*30
Trace #38 at position 9.250000
$GPZDA,113221.03,08,10,2011,00,00*6C
$GPRMC,113221.00,A,4611.973517,N,01258.215595,E,001.4,160.8,081011,0.2,E,A*3B
$GPGGA,113222.00,4611.973102,N,01258.215840,E,1,06,1.9,137.17,M,46.25,M,,*6D
$GPGLL,4611.973102,N,01258.215840,E,113222.00,A,A*60
$GPVTG,167.2,T,167.4,M,001.3,N,002.4,K,A*21
$GPGSV,2,1,07,16,16,306,38,21,58,182,43,05,18,053,41,25,30,130,35*7E
$GPGSV,2,2,07,29,57,061,44,30,73,155,42,31,42,235,43,,,,*47
$GPGSA,M,3,16,21,05,29,30,31,,,,,,,3.4,1.9,2.8*30
Trace #39 at position 9.500000
$GPZDA,113221.03,08,10,2011,00,00*6C
$GPRMC,113221.00,A,4611.973517,N,01258.215595,E,001.4,160.8,081011,0.2,E,A*3B
$GPGGA,113222.00,4611.973102,N,01258.215840,E,1,06,1.9,137.17,M,46.25,M,,*6D
$GPGLL,4611.973102,N,01258.215840,E,113222.00,A,A*60
$GPVTG,167.2,T,167.4,M,001.3,N,002.4,K,A*21
$GPGSV,2,1,07,16,16,306,38,21,58,182,43,05,18,053,41,25,30,130,35*7E
$GPGSV,2,2,07,29,57,061,44,30,73,155,42,31,42,235,43,,,,*47
$GPGSA,M,3,16,21,05,29,30,31,,,,,,,3.4,1.9,2.8*30
Trace #40 at position 9.750000
$GPZDA,113222.03,08,10,2011,00,00*6F
$GPRMC,113222.00,A,4611.973102,N,01258.215840,E,001.3,167.2,081011,0.2,E,A*37
$GPGGA,113223.00,4611.972701,N,01258.216051,E,1,06,1.9,137.17,M,46.25,M,,*63
$GPGLL,4611.972701,N,01258.216051,E,113223.00,A,A*6E
$GPVTG,165.4,T,165.6,M,001.3,N,002.3,K,A*22
$GPGSV,2,1,07,16,16,306,38,21,58,182,43,05,18,053,41,25,30,130,36*7D
$GPGSV,2,2,07,29,57,061,45,30,73,155,42,31,42,235,44,,,,*41
$GPGSA,M,3,16,21,05,29,30,31,,,,,,,3.4,1.9,2.8*30
Trace #41 at position 10.000000
$GPZDA,113222.03,08,10,2011,00,00*6F
$GPRMC,113222.00,A,4611.973102,N,01258.215840,E,001.3,167.2,081011,0.2,E,A*37
$GPGGA,113223.00,4611.972701,N,01258.216051,E,1,06,1.9,137.17,M,46.25,M,,*63
$GPGLL,4611.972701,N,01258.216051,E,113223.00,A,A*6E
$GPVTG,165.4,T,165.6,M,001.3,N,002.3,K,A*22
$GPGSV,2,1,07,16,16,306,38,21,58,182,43,05,18,053,41,25,30,130,36*7D
$GPGSV,2,2,07,29,57,061,45,30,73,155,42,31,42,235,44,,,,*41
$GPGSA,M,3,16,21,05,29,30,31,,,,,,,3.4,1.9,2.8*30
Trace #42 at position 10.250000
$GPZDA,113222.03,08,10,2011,00,00*6F
$GPRMC,113222.00,A,4611.973102,N,01258.215840,E,001.3,167.2,081011,0.2,E,A*37
$GPGGA,113223.00,4611.972701,N,01258.216051,E,1,06,1.9,137.17,M,46.25,M,,*63
$GPGLL,4611.972701,N,01258.216051,E,113223.00,A,A*6E
$GPVTG,165.4,T,165.6,M,001.3,N,002.3,K,A*22
$GPGSV,2,1,07,16,16,306,38,21,58,182,43,05,18,053,41,25,30,130,36*7D
$GPGSV,2,2,07,29,57,061,45,30,73,155,42,31,42,235,44,,,,*41
$GPGSA,M,3,16,21,05,29,30,31,,,,,,,3.4,1.9,2.8*30
Trace #43 at position 10.500000
$GPZDA,113223.04,08,10,2011,00,00*69
$GPRMC,113223.00,A,4611.972701,N,01258.216051,E,001.3,165.4,081011,0.2,E,A*3D
$GPGGA,113224.00,4611.972167,N,01258.216172,E,1,06,1.9,136.99,M,46.25,M,,*65
$GPGLL,4611.972167,N,01258.216172,E,113224.00,A,A*6F
$GPVTG,183.9,T,184.1,M,002.4,N,004.4,K,A*2A
$GPGSV,2,1,07,16,16,306,38,21,58,182,41,05,18,053,41,25,30,130,32*7B
$GPGSV,2,2,07,29,57,061,44,30,73,155,42,31,42,235,43,,,,*47
$GPGSA,M,3,16,21,05,29,30,31,,,,,,,3.4,1.9,2.8*30
Trace #44 at position 10.750000
$GPZDA,113223.04,08,10,2011,00,00*69
$GPRMC,113223.00,A,4611.972701,N,01258.216051,E,001.3,165.4,081011,0.2,E,A*3D
$GPGGA,113224.00,4611.972167,N,01258.216172,E,1,06,1.9,136.99,M,46.25,M,,*65
$GPGLL,4611.972167,N,01258.216172,E,113224.00,A,A*6F
$GPVTG,183.9,T,184.1,M,002.4,N,004.4,K,A*2A
$GPGSV,2,1,07,16,16,306,38,21,58,182,41,05,18,053,41,25,30,130,32*7B
$GPGSV,2,2,07,29,57,061,44,30,73,155,42,31,42,235,43,,,,*47
$GPGSA,M,3,16,21,05,29,30,31,,,,,,,3.4,1.9,2.8*30
Trace #45 at position 11.000000
$GPZDA,113223.04,08,10,2011,00,00*69
$GPRMC,113223.00,A,4611.972701,N,01258.216051,E,001.3,165.4,081011,0.2,E,A*3D
$GPGGA,113224.00,4611.972167,N,01258.216172,E,1,06,1.9,136.99,M,46.25,M,,*65
$GPGLL,4611.972167,N,01258.216172,E,113224.00,A,A*6F
$GPVTG,183.9,T,184.1,M,002.4,N,004.4,K,A*2A
$GPGSV,2,1,07,16,16,306,38,21,58,182,41,05,18,053,41,25,30,130,32*7B
$GPGSV,2,2,07,29,57,061,44,30,73,155,42,31,42,235,43,,,,*47
$GPGSA,M,3,16,21,05,29,30,31,,,,,,,3.4,1.9,2.8*30
Trace #46 at position 11.250000
$GPZDA,113224.03,08,10,2011,00,00*69
$GPRMC,113224.00,A,4611.972167,N,01258.216172,E,002.4,183.9,081011,0.2,E,A*3D
$GPGGA,113225.00,4611.971594,N,01258.216146,E,1,06,1.9,136.70,M,46.25,M,,*6F
$GPGLL,4611.971594,N,01258.216146,E,113225.00,A,A*62
$GPVTG,197.5,T,197.7,M,001.8,N,003.3,K,A*28
$GPGSV,2,1,07,16,16,306,38,21,58,182,41,05,18,053,42,25,30,130,34*7E
$GPGSV,2,2,07,29,57,061,45,30,73,155,42,31,42,235,43,,,,*46
$GPGSA,M,3,16,21,05,29,30,31,,,,,,,3.4,1.9,2.8*30
Trace #47 at position 11.500000
$GPZDA,113224.03,08,10,2011,00,00*69
$GPRMC,113224.00,A,4611.972167,N,01258.216172,E,002.4,183.9,081011,0.2,E,A*3D
$GPGGA,113225.00,4611.971594,N,01258.216146,E,1,06,1.9,136.70,M,46.25,M,,*6F
$GPGLL,4611.971594,N,01258.216146,E,113225.00,A,A*62
$GPVTG,197.5,T,197.7,M,001.8,N,003.3,K,A*28
$GPGSV,2,1,07,16,16,306,38,21,58,182,41,05,18,053,42,25,30,130,34*7E
$GPGSV,2,2,07,29,57,061,45,30,73,155,42,31,42,235,43,,,,*46
$GPGSA,M,3,16,21,05,29,30,31,,,,,,,3.4,1.9,2.8*30
Trace #48 at position 11.750000
$GPZDA,113224.03,08,10,2011,00,00*69
$GPRMC,113224.00,A,4611.972167,N,01258.216172,E,002.4,183.9,081011,0.2,E,A*3D
$GPGGA,113225.00,4611.971594,N,01258.216146,E,1,06,1.9,136.70,M,46.25,M,,*6F
$GPGLL,4611.971594,N,01258.216146,E,113225.00,A,A*62
$GPVTG,197.5,T,197.7,M,001.8,N,003.3,K,A*28
$GPGSV,2,1,07,16,16,306,38,21,58,182,41,05,18,053,42,25,30,130,34*7E
$GPGSV,2,2,07,29,57,061,45,30,73,155,42,31,42,235,43,,,,*46
$GPGSA,M,3,16,21,05,29,30,31,,,,,,,3.4,1.9,2.8*30
Trace #49 at position 12.000000
$GPZDA,113224.03,08,10,2011,00,00*69
$GPRMC,113224.00,A,4611.972167,N,01258.216172,E,002.4,183.9,081011,0.2,E,A*3D
$GPGGA,113225.00,4611.971594,N,01258.216146,E,1,06,1.9,136.70,M,46.25,M,,*6F
$GPGLL,4611.971594,N,01258.216146,E,113225.00,A,A*62
$GPVTG,197.5,T,197.7,M,001.8,N,003.3,K,A*28
$GPGSV,2,1,07,16,16,306,38,21,58,182,41,05,18,053,42,25,30,130,34*7E
$GPGSV,2,2,07,29,57,061,45,30,73,155,42,31,42,235,43,,,,*46
$GPGSA,M,3,16,21,05,29,30,31,,,,,,,3.4,1.9,2.8*30
Trace #50 at position 12.250000
$GPZDA,113225.03,08,10,2011,00,00*68
$GPRMC,113225.00,A,4611.971594,N,01258.216146,E,001.8,197.5,081011,0.2,E,A*36
$GPGGA,113226.00,4611.971127,N,01258.216308,E,1,06,1.9,136.47,M,46.25,M,,*6C
$GPGLL,4611.971127,N,01258.216308,E,113226.00,A,A*65
$GPVTG,156.9,T,157.0,M,001.8,N,003.3,K,A*22
$GPGSV,2,1,07,16,16,306,38,21,58,182,42,05,18,053,43,25,30,130,35*7D
$GPGSV,2,2,07,29,57,061,44,30,73,155,43,31,42,235,43,,,,*46
$GPGSA,M,3,16,21,05,29,30,31,,,,,,,3.4,1.9,2.8*30
Trace #51 at position 12.500000
$GPZDA,113225.03,08,10,2011,00,00*68
$GPRMC,113225.00,A,4611.971594,N,01258.216146,E,001.8,197.5,081011,0.2,E,A*36
$GPGGA,113226.00,4611.971127,N,01258.216308,E,1,06,1.9,136.47,M,46.25,M,,*6C
$GPGLL,4611.971127,N,01258.216308,E,113226.00,A,A*65
$GPVTG,156.9,T,157.0,M,001.8,N,003.3,K,A*22
$GPGSV,2,1,07,16,16,306,38,21,58,182,42,05,18,053,43,25,30,130,35*7D
$GPGSV,2,2,07,29,57,061,44,30,73,155,43,31,42,235,43,,,,*46
$GPGSA,M,3,16,21,05,29,30,31,,,,,,,3.4,1.9,2.8*30
Trace #52 at position 12.750000
$GPZDA,113225.03,08,10,2011,00,00*68
$GPRMC,113225.00,A,4611.971594,N,01258.216146,E,001.8,197.5,081011,0.2,E,A*36
$GPGGA,113226.00,4611.971127,N,01258.216308,E,1,06,1.9,136.47,M,46.25,M,,*6C
$GPGLL,4611.971127,N,01258.216308,E,113226.00,A,A*65
$GPVTG,156.9,T,157.0,M,001.8,N,003.3,K,A*22
$GPGSV,2,1,07,16,16,306,38,21,58,182,42,05,18,053,43,25,30,130,35*7D
$GPGSV,2,2,07,29,57,061,44,30,73,155,43,31,42,235,43,,,,*46
$GPGSA,M,3,16,21,05,29,30,31,,,,,,,3.4,1.9,2.8*30
Trace #53 at position 13.000000
$GPZDA,113225.03,08,10,2011,00,00*68
$GPRMC,113225.00,A,4611.971594,N,01258.216146,E,001.8,197.5,081011,0.2,E,A*36
$GPGGA,113226.00,4611.971127,N,01258.216308,E,1,06,1.9,136.47,M,46.25,M,,*6C
$GPGLL,4611.971127,N,01258.216308,E,113226.00,A,A*65
$GPVTG,156.9,T,157.0,M,001.8,N,003.3,K,A*22
$GPGSV,2,1,07,16,16,306,38,21,58,182,42,05,18,053,43,25,30,130,35*7D
$GPGSV,2,2,07,29,57,061,44,30,73,155,43,31,42,235,43,,,,*46
$GPGSA,M,3,16,21,05,29,30,31,,,,,,,3.4,1.9,2.8*30
Trace #54 at position 13.250000
$GPZDA,113226.03,08,10,2011,00,00*6B
$GPRMC,113226.00,A,4611.971127,N,01258.216308,E,001.8,156.9,081011,0.2,E,A*30
$GPGGA,113227.00,4611.970624,N,01258.216658,E,1,06,1.9,136.38,M,46.25,M,,*60
$GPGLL,4611.970624,N,01258.216658,E,113227.00,A,A*61
$GPVTG,166.3,T,166.4,M,002.0,N,003.8,K,A*2D
$GPGSV,2,1,07,16,16,306,38,21,58,182,42,05,18,053,42,25,30,130,34*7D
$GPGSV,2,2,07,29,57,061,45,30,73,155,43,31,42,235,43,,,,*47
$GPGSA,M,3,16,21,05,29,30,31,,,,,,,3.4,1.9,2.8*30
Trace #55 at position 13.500000
$GPZDA,113226.03,08,10,2011,00,00*6B
$GPRMC,113226.00,A,4611.971127,N,01258.216308,E,001.8,156.9,081011,0.2,E,A*30
$GPGGA,113227.00,4611.970624,N,01258.216658,E,1,06,1.9,136.38,M,46.25,M,,*60
$GPGLL,4611.970624,N,01258.216658,E,113227.00,A,A*61
$GPVTG,166.3,T,166.4,M,002.0,N,003.8,K,A*2D
$GPGSV,2,1,07,16,16,306,38,21,58,182,42,05,18,053,42,25,30,130,34*7D
$GPGSV,2,2,07,29,57,061,45,30,73,155,43,31,42,235,43,,,,*47
$GPGSA,M,3,16,21,05,29,30,31,,,,,,,3.4,1.9,2.8*30
Trace #56 at position 13.750000
$GPZDA,113226.03,08,10,2011,00,00*6B
$GPRMC,113226.00,A,4611.971127,N,01258.216308,E,001.8,156.9,081011,0.2,E,A*30
$GPGGA,113227.00,4611.970624,N,01258.216658,E,1,06,1.9,136.38,M,46.25,M,,*60
$GPGLL,4611.970624,N,01258.216658,E,113227.00,A,A*61
$GPVTG,166.3,T,166.4,M,002.0,N,003.8,K,A*2D
$GPGSV,2,1,07,16,16,306,38,21,58,182,42,05,18,053,42,25,30,130,34*7D
$GPGSV,2,2,07,29,57,061,45,30,73,155,43,31,42,235,43,,,,*47
$GPGSA,M,3,16,21,05,29,30,31,,,,,,,3.4,1.9,2.8*30
Trace #57 at position 14.000000
$GPZDA,113226.03,08,10,2011,00,00*6B
$GPRMC,113226.00,A,4611.971127,N,01258.216308,E,001.8,156.9,081011,0.2,E,A*30
$GPGGA,113227.00,4611.970624,N,01258.216658,E,1,06,1.9,136.38,M,46.25,M,,*60
$GPGLL,4611.970624,N,01258.216658,E,113227.00,A,A*61
$GPVTG,166.3,T,166.4,M,002.0,N,003.8,K,A*2D
$GPGSV,2,1,07,16,16,306,38,21,58,182,42,05,18,053,42,25,30,130,34*7D
$GPGSV,2,2,07,29,57,061,45,30,73,155,43,31,42,235,43,,,,*47
$GPGSA,M,3,16,21,05,29,30,31,,,,,,,3.4,1.9,2.8*30
Trace #58 at position 14.250000
$GPZDA,113227.04,08,10,2011,00,00*6D
$GPRMC,113227.00,A,4611.970624,N,01258.216658,E,002.0,166.3,081011,0.2,E,A*36
$GPGGA,113228.00,4611.970175,N,01258.217032,E,1,06,1.9,136.50,M,46.25,M,,*69
$GPGLL,4611.970175,N,01258.217032,E,113228.00,A,A*66
$GPVTG,143.2,T,143.3,M,001.5,N,002.7,K,A*23
$GPGSV,2,1,07,16,16,306,39,21,58,182,43,05,18,053,41,25,30,130,35*7F
$GPGSV,2,2,07,29,57,061,44,30,73,155,42,31,42,235,43,,,,*47
$GPGSA,M,3,16,21,05,29,30,31,,,,,,,3.4,1.9,2.8*30
Trace #59 at position 14.500000
$GPZDA,113227.04,08,10,2011,00,00*6D
$GPRMC,113227.00,A,4611.970624,N,01258.216658,E,002.0,166.3,081011,0.2,E,A*36
$GPGGA,113228.00,4611.970175,N,01258.217032,E,1,06,1.9,136.50,M,46.25,M,,*69
$GPGLL,4611.970175,N,01258.217032,E,113228.00,A,A*66
$GPVTG,143.2,T,143.3,M,001.5,N,002.7,K,A*23
$GPGSV,2,1,07,16,16,306,39,21,58,182,43,05,18,053,41,25,30,130,35*7F
$GPGSV,2,2,07,29,57,061,44,30,73,155,42,31,42,235,43,,,,*47
$GPGSA,M,3,16,21,05,29,30,31,,,,,,,3.4,1.9,2.8*30
Trace #60 at position 14.750000
$GPZDA,113227.04,08,10,2011,00,00*6D
$GPRMC,113227.00,A,4611.970624,N,01258.216658,E,002.0,166.3,081011,0.2,E,A*36
$GPGGA,113228.00,4611.970175,N,01258.217032,E,1,06,1.9,136.50,M,46.25,M,,*69
$GPGLL,4611.970175,N,01258.217032,E,113228.00,A,A*66
$GPVTG,143.2,T,143.3,M,001.5,N,002.7,K,A*23
$GPGSV,2,1,07,16,16,306,39,21,58,182,43,05,18,053,41,25,30,130,35*7F
$GPGSV,2,2,07,29,57,061,44,30,73,155,42,31,42,235,43,,,,*47
$GPGSA,M,3,16,21,05,29,30,31,,,,,,,3.4,1.9,2.8*30
Trace #61 at position 15.000000
$GPZDA,113227.04,08,10,2011,00,00*6D
$GPRMC,113227.00,A,4611.970624,N,01258.216658,E,002.0,166.3,081011,0.2,E,A*36
$GPGGA,113228.00,4611.970175,N,01258.217032,E,1,06,1.9,136.50,M,46.25,M,,*69
$GPGLL,4611.970175,N,01258.217032,E,113228.00,A,A*66
$GPVTG,143.2,T,143.3,M,001.5,N,002.7,K,A*23
$GPGSV,2,1,07,16,16,306,39,21,58,182,43,05,18,053,41,25,30,130,35*7F
$GPGSV,2,2,07,29,57,061,44,30,73,155,42,31,42,235,43,,,,*47
$GPGSA,M,3,16,21,05,29,30,31,,,,,,,3.4,1.9,2.8*30
Trace #62 at position 15.250000
$GPZDA,113228.04,08,10,2011,00,00*62
$GPRMC,113228.00,A,4611.970175,N,01258.217032,E,001.5,143.2,081011,0.2,E,A*31
$GPGGA,113229.00,4611.969747,N,01258.217304,E,1,06,1.9,136.64,M,46.25,M,,*66
$GPGLL,4611.969747,N,01258.217304,E,113229.00,A,A*6E
$GPVTG,178.3,T,178.5,M,001.7,N,003.2,K,A*22
$GPGSV,2,1,07,16,16,306,38,21,58,182,45,05,18,053,41,25,30,130,32*7F
$GPGSV,2,2,07,29,57,061,45,30,73,155,43,31,42,235,43,,,,*47
$GPGSA,M,3,16,21,05,29,30,31,,,,,,,3.4,1.9,2.8*30
Trace #63 at position 15.500000
$GPZDA,113228.04,08,10,2011,00,00*62
$GPRMC,113228.00,A,4611.970175,N,01258.217032,E,001.5,143.2,081011,0.2,E,A*31
$GPGGA,113229.00,4611.969747,N,01258.217304,E,1,06,1.9,136.64,M,46.25,M,,*66
$GPGLL,4611.969747,N,01258.217304,E,113229.00,A,A*6E
$GPVTG,178.3,T,178.5,M,001.7,N,003.2,K,A*22
$GPGSV,2,1,07,16,16,306,38,21,58,182,45,05,18,053,41,25,30,130,32*7F
$GPGSV,2,2,07,29,57,061,45,30,73,155,43,31,42,235,43,,,,*47
$GPGSA,M,3,16,21,05,29,30,31,,,,,,,3.4,1.9,2.8*30
Trace #64 at position 15.750000
$GPZDA,113228.04,08,10,2011,00,00*62
$GPRMC,113228.00,A,4611.970175,N,01258.217032,E,001.5,143.2,081011,0.2,E,A*31
$GPGGA,113229.00,4611.969747,N,01258.217304,E,1,06,1.9,136.64,M,46.25,M,,*66
$GPGLL,4611.969747,N,01258.217304,E,113229.00,A,A*6E
$GPVTG,178.3,T,178.5,M,001.7,N,003.2,K,A*22
$GPGSV,2,1,07,16,16,306,38,21,58,182,45,05,18,053,41,25,30,130,32*7F
$GPGSV,2,2,07,29,57,061,45,30,73,155,43,31,42,235,43,,,,*47
$GPGSA,M,3,16,21,05,29,30,31,,,,,,,3.4,1.9,2.8*30
Trace #65 at position 16.000000
$GPZDA,113228.04,08,10,2011,00,00*62
$GPRMC,113228.00,A,4611.970175,N,01258.217032,E,001.5,143.2,081011,0.2,E,A*31
$GPGGA,113229.00,4611.969747,N,01258.217304,E,1,06,1.9,136.64,M,46.25,M,,*66
$GPGLL,4611.969747,N,01258.217304,E,113229.00,A,A*6E
$GPVTG,178.3,T,178.5,M,001.7,N,003.2,K,A*22
$GPGSV,2,1,07,16,16,306,38,21,58,182,45,05,18,053,41,25,30,130,32*7F
$GPGSV,2,2,07,29,57,061,45,30,73,155,43,31,42,235,43,,,,*47
$GPGSA,M,3,16,21,05,29,30,31,,,,,,,3.4,1.9,2.8*30
Trace #66 at position 16.250000
$GPZDA,113229.03,08,10,2011,00,00*64
$GPRMC,113229.00,A,4611.969747,N,01258.217304,E,001.7,178.3,081011,0.2,E,A*32
$GPGGA,113230.00,4611.969243,N,01258.217501,E,1,06,1.9,136.63,M,46.25,M,,*6B
$GPGLL,4611.969243,N,01258.217501,E,113230.00,A,A*64
$GPVTG,162.6,T,162.7,M,001.8,N,003.3,K,A*2B
$GPGSV,2,1,07,16,16,306,38,21,58,182,44,05,18,053,40,25,30,130,32*7F
$GPGSV,2,2,07,29,57,061,46,30,73,155,43,31,42,235,43,,,,*44
$GPGSA,M,3,16,21,05,29,30,31,,,,,,,3.4,1.9,2.8*30
Trace #67 at position 16.500000
$GPZDA,113229.03,08,10,2011,00,00*64
$GPRMC,113229.00,A,4611.969747,N,01258.217304,E,001.7,178.3,081011,0.2,E,A*32
$GPGGA,113230.00,4611.969243,N,01258.217501,E,1,06,1.9,136.63,M,46.25,M,,*6B
$GPGLL,4611.969243,N,01258.217501,E,113230.00,A,A*64
$GPVTG,162.6,T,162.7,M,001.8,N,003.3,K,A*2B
$GPGSV,2,1,07,16,16,306,38,21,58,182,44,05,18,053,40,25,30,130,32*7F
$GPGSV,2,2,07,29,57,061,46,30,73,155,43,31,42,235,43,,,,*44
$GPGSA,M,3,16,21,05,29,30,31,,,,,,,3.4,1.9,2.8*30
Trace #68 at position 16.750000
$GPZDA,113229.03,08,10,2011,00,00*64
$GPRMC,113229.00,A,4611.969747,N,01258.217304,E,001.7,178.3,081011,0.2,E,A*32
$GPGGA,113230.00,4611.969243,N,01258.217501,E,1,06,1.9,136.63,M,46.25,M,,*6B
$GPGLL,4611.969243,N,01258.217501,E,113230.00,A,A*64
$GPVTG,162.6,T,162.7,M,001.8,N,003.3,K,A*2B
$GPGSV,2,1,07,16,16,306,38,21,58,182,44,05,18,053,40,25,30,130,32*7F
$GPGSV,2,2,07,29,57,061,46,30,73,155,43,31,42,235,43,,,,*44
$GPGSA,M,3,16,21,05,29,30,31,,,,,,,3.4,1.9,2.8*30
Trace #69 at position 17.000000
$GPZDA,113229.03,08,10,2011,00,00*64
$GPRMC,113229.00,A,4611.969747,N,01258.217304,E,001.7,178.3,081011,0.2,E,A*32
$GPGGA,113230.00,4611.969243,N,01258.217501,E,1,06,1.9,136.63,M,46.25,M,,*6B
$GPGLL,4611.969243,N,01258.217501,E,113230.00,A,A*64
$GPVTG,162.6,T,162.7,M,001.8,N,003.3,K,A*2B
$GPGSV,2,1,07,16,16,306,38,21,58,182,44,05,18,053,40,25,30,130,32*7F
$GPGSV,2,2,07,29,57,061,46,30,73,155,43,31,42,235,43,,,,*44
$GPGSA,M,3,16,21,05,29,30,31,,,,,,,3.4,1.9,2.8*30
Trace #70 at position 17.250000
$GPZDA,113230.03,08,10,2011,00,00*6C
$GPRMC,113230.00,A,4611.969243,N,01258.217501,E,001.8,162.6,081011,0.2,E,A*39
$GPGGA,113231.00,4611.968681,N,01258.217834,E,1,06,1.9,136.56,M,46.25,M,,*6C
$GPGLL,4611.968681,N,01258.217834,E,113231.00,A,A*65
$GPVTG,160.0,T,160.1,M,002.3,N,004.3,K,A*24
$GPGSV,2,1,07,16,16,306,40,21,58,182,41,05,18,053,41,25,30,130,33*75
$GPGSV,2,2,07,29,57,061,45,30,73,155,42,31,42,235,44,,,,*41
$GPGSA,M,3,16,21,05,29,30,31,,,,,,,3.4,1.9,2.8*30
Trace #71 at position 17.500000
$GPZDA,113230.03,08,10,2011,00,00*6C
$GPRMC,113230.00,A,4611.969243,N,01258.217501,E,001.8,162.6,081011,0.2,E,A*39
$GPGGA,113231.00,4611.968681,N,01258.217834,E,1,06,1.9,136.56,M,46.25,M,,*6C
$GPGLL,4611.968681,N,01258.217834,E,113231.00,A,A*65
$GPVTG,160.0,T,160.1,M,002.3,N,004.3,K,A*24
$GPGSV,2,1,07,16,16,306,40,21,58,182,41,05,18,053,41,25,30,130,33*75
$GPGSV,2,2,07,29,57,061,45,30,73,155,42,31,42,235,44,,,,*41
$GPGSA,M,3,16,21,05,29,30,31,,,,,,,3.4,1.9,2.8*30
Trace #72 at position 17.750000
$GPZDA,113230.03,08,10,2011,00,00*6C
$GPRMC,113230.00,A,4611.969243,N,01258.217501,E,001.8,162.6,081011,0.2,E,A*39
$GPGGA,113231.00,4611.968681,N,01258.217834,E,1,06,1.9,136.56,M,46.25,M,,*6C
$GPGLL,4611.968681,N,01258.217834,E,113231.00,A,A*65
$GPVTG,160.0,T,160.1,M,002.3,N,004.3,K,A*24
$GPGSV,2,1,07,16,16,306,40,21,58,182,41,05,18,053,41,25,30,130,33*75
$GPGSV,2,2,07,29,57,061,45,30,73,155,42,31,42,235,44,,,,*41
$GPGSA,M,3,16,21,05,29,30,31,,,,,,,3.4,1.9,2.8*30
Trace #73 at position 18.000000
$GPZDA,113231.03,08,10,2011,00,00*6D
$GPRMC,113231.00,A,4611.968681,N,01258.217834,E,002.3,160.0,081011,0.2,E,A*34
$GPGGA,113232.00,4611.968207,N,01258.218275,E,1,06,1.9,136.53,M,46.25,M,,*60
$GPGLL,4611.968207,N,01258.218275,E,113232.00,A,A*6C
$GPVTG,132.2,T,132.3,M,001.6,N,003.0,K,A*26
$GPGSV,2,1,07,16,16,306,40,21,58,182,42,05,18,053,41,25,30,130,30*75
$GPGSV,2,2,07,29,57,061,45,30,73,155,43,31,42,235,43,,,,*47
$GPGSA,M,3,16,21,05,29,30,31,,,,,,,3.4,1.9,2.8*30
Trace #74 at position 18.250000
$GPZDA,113231.03,08,10,2011,00,00*6D
$GPRMC,113231.00,A,4611.968681,N,01258.217834,E,002.3,160.0,081011,0.2,E,A*34
$GPGGA,113232.00,4611.968207,N,01258.218275,E,1,06,1.9,136.53,M,46.25,M,,*60
$GPGLL,4611.968207,N,01258.218275,E,113232.00,A,A*6C
$GPVTG,132.2,T,132.3,M,001.6,N,003.0,K,A*26
$GPGSV,2,1,07,16,16,306,40,21,58,182,42,05,18,053,41,25,30,130,30*75
$GPGSV,2,2,07,29,57,061,45,30,73,155,43,31,42,235,43,,,,*47
$GPGSA,M,3,16,21,05,29,30,31,,,,,,,3.4,1.9,2.8*30
Trace #75 at position 18.500000
$GPZDA,113231.03,08,10,2011,00,00*6D
$GPRMC,113231.00,A,4611.968681,N,01258.217834,E,002.3,160.0,081011,0.2,E,A*34
$GPGGA,113232.00,4611.968207,N,01258.218275,E,1,06,1.9,136.53,M,46.25,M,,*60
$GPGLL,4611.968207,N,01258.218275,E,113232.00,A,A*6C
$GPVTG,132.2,T,132.3,M,001.6,N,003.0,K,A*26
$GPGSV,2,1,07,16,16,306,40,21,58,182,42,05,18,053,41,25,30,130,30*75
$GPGSV,2,2,07,29,57,061,45,30,73,155,43,31,42,235,43,,,,*47
$GPGSA,M,3,16,21,05,29,30,31,,,,,,,3.4,1.9,2.8*30
Trace #76 at position 18.750000
$GPZDA,113231.03,08,10,2011,00,00*6D
$GPRMC,113231.00,A,4611.968681,N,01258.217834,E,002.3,160.0,081011,0.2,E,A*34
$GPGGA,113232.00,4611.968207,N,01258.218275,E,1,06,1.9,136.53,M,46.25,M,,*60
$GPGLL,4611.968207,N,01258.218275,E,113232.00,A,A*6C
$GPVTG,132.2,T,132.3,M,001.6,N,003.0,K,A*26
$GPGSV,2,1,07,16,16,306,40,21,58,182,42,05,18,053,41,25,30,130,30*75
$GPGSV,2,2,07,29,57,061,45,30,73,155,43,31,42,235,43,,,,*47
$GPGSA,M,3,16,21,05,29,30,31,,,,,,,3.4,1.9,2.8*30
Trace #77 at position 19.000000
$GPZDA,113232.03,08,10,2011,00,00*6E
$GPRMC,113232.00,A,4611.968207,N,01258.218275,E,001.6,132.2,081011,0.2,E,A*3E
$GPGGA,113233.00,4611.967834,N,01258.218652,E,1,06,1.9,136.49,M,46.25,M,,*6E
$GPGLL,4611.967834,N,01258.218652,E,113233.00,A,A*69
$GPVTG,155.1,T,155.2,M,001.6,N,002.9,K,A*2C
$GPGSV,2,1,07,16,16,306,40,21,58,182,42,05,18,053,42,25,30,130,33*75
$GPGSV,2,2,07,29,57,061,45,30,73,155,42,31,42,235,43,,,,*46
$GPGSA,M,3,16,21,05,29,30,31,,,,,,,3.4,1.9,2.8*30
Trace #78 at position 19.250000
$GPZDA,113232.03,08,10,2011,00,00*6E
$GPRMC,113232.00,A,4611.968207,N,01258.218275,E,001.6,132.2,081011,0.2,E,A*3E
$GPGGA,113233.00,4611.967834,N,01258.218652,E,1,06,1.9,136.49,M,46.25,M,,*6E
$GPGLL,4611.967834,N,01258.218652,E,113233.00,A,A*69
$GPVTG,155.1,T,155.2,M,001.6,N,002.9,K,A*2C
$GPGSV,2,1,07,16,16,306,40,21,58,182,42,05,18,053,42,25,30,130,33*75
$GPGSV,2,2,07,29,57,061,45,30,73,155,42,31,42,235,43,,,,*46
$GPGSA,M,3,16,21,05,29,30,31,,,,,,,3.4,1.9,2.8*30
Trace #79 at position 19.500000
$GPZDA,113232.03,08,10,2011,00,00*6E
$GPRMC,113232.00,A,4611.968207,N,01258.218275,E,001.6,132.2,081011,0.2,E,A*3E
$GPGGA,113233.00,4611.967834,N,01258.218652,E,1,06,1.9,136.49,M,46.25,M,,*6E
$GPGLL,4611.967834,N,01258.218652,E,113233.00,A,A*69
$GPVTG,155.1,T,155.2,M,001.6,N,002.9,K,A*2C
$GPGSV,2,1,07,16,16,306,40,21,58,182,42,05,18,053,42,25,30,130,33*75
$GPGSV,2,2,07,29,57,061,45,30,73,155,42,31,42,235,43,,,,*46
$GPGSA,M,3,16,21,05,29,30,31,,,,,,,3.4,1.9,2.8*30
Trace #80 at position 19.750000
$GPZDA,113233.04,08,10,2011,00,00*68
$GPRMC,113233.00,A,4611.967834,N,01258.218652,E,001.6,155.1,081011,0.2,E,A*39
$GPGGA,113234.00,4611.967302,N,01258.218731,E,1,06,1.9,136.39,M,46.25,M,,*64
$GPGLL,4611.967302,N,01258.218731,E,113234.00,A,A*64
$GPVTG,188.8,T,188.9,M,002.3,N,004.3,K,A*24
$GPGSV,2,1,07,16,16,306,41,21,58,182,42,05,18,053,41,25,30,130,*77
$GPGSV,2,2,07,29,57,061,45,30,73,155,41,31,42,235,44,,,,*42
$GPGSA,M,3,16,21,05,29,30,31,,,,,,,3.4,1.9,2.8*30
Trace #81 at position 20.000000
$GPZDA,113233.04,08,10,2011,00,00*68
$GPRMC,113233.00,A,4611.967834,N,01258.218652,E,001.6,155.1,081011,0.2,E,A*39
$GPGGA,113234.00,4611.967302,N,01258.218731,E,1,06,1.9,136.39,M,46.25,M,,*64
$GPGLL,4611.967302,N,01258.218731,E,113234.00,A,A*64
$GPVTG,188.8,T,188.9,M,002.3,N,004.3,K,A*24
$GPGSV,2,1,07,16,16,306,41,21,58,182,42,05,18,053,41,25,30,130,*77
$GPGSV,2,2,07,29,57,061,45,30,73,155,41,31,42,235,44,,,,*42
$GPGSA,M,3,16,21,05,29,30,31,,,,,,,3.4,1.9,2.8*30
Trace #82 at position 20.250000
$GPZDA,113233.04,08,10,2011,00,00*68
$GPRMC,113233.00,A,4611.967834,N,01258.218652,E,001.6,155.1,081011,0.2,E,A*39
$GPGGA,113234.00,4611.967302,N,01258.218731,E,1,06,1.9,136.39,M,46.25,M,,*64
$GPGLL,4611.967302,N,01258.218731,E,113234.00,A,A*64
$GPVTG,188.8,T,188.9,M,002.3,N,004.3,K,A*24
$GPGSV,2,1,07,16,16,306,41,21,58,182,42,05,18,053,41,25,30,130,*77
$GPGSV,2,2,07,29,57,061,45,30,73,155,41,31,42,235,44,,,,*42
$GPGSA,M,3,16,21,05,29,30,31,,,,,,,3.4,1.9,2.8*30
Trace #83 at position 20.500000
$GPZDA,113233.04,08,10,2011,00,00*68
$GPRMC,113233.00,A,4611.967834,N,01258.218652,E,001.6,155.1,081011,0.2,E,A*39
$GPGGA,113234.00,4611.967302,N,01258.218731,E,1,06,1.9,136.39,M,46.25,M,,*64
$GPGLL,4611.967302,N,01258.218731,E,113234.00,A,A*64
$GPVTG,188.8,T,188.9,M,002.3,N,004.3,K,A*24
$GPGSV,2,1,07,16,16,306,41,21,58,182,42,05,18,053,41,25,30,130,*77
$GPGSV,2,2,07,29,57,061,45,30,73,155,41,31,42,235,44,,,,*42
$GPGSA,M,3,16,21,05,29,30,31,,,,,,,3.4,1.9,2.8*30
Trace #84 at position 20.750000
$GPZDA,113234.03,08,10,2011,00,00*68
$GPRMC,113234.00,A,4611.967302,N,01258.218731,E,002.3,188.8,081011,0.2,E,A*3B
$GPGGA,113235.00,4611.966814,N,01258.218853,E,1,06,1.9,136.39,M,46.25,M,,*63
$GPGLL,4611.966814,N,01258.218853,E,113235.00,A,A*63
$GPVTG,145.6,T,145.8,M,001.4,N,002.6,K,A*2C
$GPGSV,2,1,07,16,16,306,42,21,58,182,43,05,18,053,41,25,30,130,33*75
$GPGSV,2,2,07,29,57,061,45,30,73,155,43,31,42,235,43,,,,*47
$GPGSA,M,3,16,21,05,29,30,31,,,,,,,3.4,1.9,2.8*30
Trace #85 at position 21.000000
$GPZDA,113234.03,08,10,2011,00,00*68
$GPRMC,113234.00,A,4611.967302,N,01258.218731,E,002.3,188.8,081011,0.2,E,A*3B
$GPGGA,113235.00,4611.966814,N,01258.218853,E,1,06,1.9,136.39,M,46.25,M,,*63
$GPGLL,4611.966814,N,01258.218853,E,113235.00,A,A*63
$GPVTG,145.6,T,145.8,M,001.4,N,002.6,K,A*2C
$GPGSV,2,1,07,16,16,306,42,21,58,182,43,05,18,053,41,25,30,130,33*75
$GPGSV,2,2,07,29,57,061,45,30,73,155,43,31,42,235,43,,,,*47
$GPGSA,M,3,16,21,05,29,30,31,,,,,,,3.4,1.9,2.8*30
Trace #86 at position 21.250000
$GPZDA,113234.03,08,10,2011,00,00*68
$GPRMC,113234.00,A,4611.967302,N,01258.218731,E,002.3,188.8,081011,0.2,E,A*3B
$GPGGA,113235.00,4611.966814,N,01258.218853,E,1,06,1.9,136.39,M,46.25,M,,*63
$GPGLL,4611.966814,N,01258.218853,E,113235.00,A,A*63
$GPVTG,145.6,T,145.8,M,001.4,N,002.6,K,A*2C
$GPGSV,2,1,07,16,16,306,42,21,58,182,43,05,18,053,41,25,30,130,33*75
$GPGSV,2,2,07,29,57,061,45,30,73,155,43,31,42,235,43,,,,*47
$GPGSA,M,3,16,21,05,29,30,31,,,,,,,3.4,1.9,2.8*30
Trace #87 at position 21.500000
$GPZDA,113235.04,08,10,2011,00,00*6E
$GPRMC,113235.00,A,4611.966814,N,01258.218853,E,001.4,145.6,081011,0.2,E,A*37
$GPGGA,113236.00,4611.966420,N,01258.219066,E,1,06,1.9,136.36,M,46.25,M,,*6B
$GPGLL,4611.966420,N,01258.219066,E,113236.00,A,A*64
$GPVTG,175.3,T,175.4,M,001.5,N,002.9,K,A*2B
$GPGSV,2,1,07,16,16,306,41,21,58,182,41,05,18,053,39,25,30,131,31*78
$GPGSV,2,2,07,29,57,061,44,30,73,155,43,31,42,235,42,,,,*47
$GPGSA,M,3,16,21,05,29,30,31,,,,,,,3.4,1.9,2.8*30
Trace #88 at position 21.750000
$GPZDA,113235.04,08,10,2011,00,00*6E
$GPRMC,113235.00,A,4611.966814,N,01258.218853,E,001.4,145.6,081011,0.2,E,A*37
$GPGGA,113236.00,4611.966420,N,01258.219066,E,1,06,1.9,136.36,M,46.25,M,,*6B
$GPGLL,4611.966420,N,01258.219066,E,113236.00,A,A*64
$GPVTG,175.3,T,175.4,M,001.5,N,002.9,K,A*2B
$GPGSV,2,1,07,16,16,306,41,21,58,182,41,05,18,053,39,25,30,131,31*78
$GPGSV,2,2,07,29,57,061,44,30,73,155,43,31,42,235,42,,,,*47
$GPGSA,M,3,16,21,05,29,30,31,,,,,,,3.4,1.9,2.8*30
Trace #89 at position 22.000000
$GPZDA,113235.04,08,10,2011,00,00*6E
$GPRMC,113235.00,A,4611.966814,N,01258.218853,E,001.4,145.6,081011,0.2,E,A*37
$GPGGA,113236.00,4611.966420,N,01258.219066,E,1,06,1.9,136.36,M,46.25,M,,*6B
$GPGLL,4611.966420,N,01258.219066,E,113236.00,A,A*64
$GPVTG,175.3,T,175.4,M,001.5,N,002.9,K,A*2B
$GPGSV,2,1,07,16,16,306,41,21,58,182,41,05,18,053,39,25,30,131,31*78
$GPGSV,2,2,07,29,57,061,44,30,73,155,43,31,42,235,42,,,,*47
$GPGSA,M,3,16,21,05,29,30,31,,,,,,,3.4,1.9,2.8*30
Trace #90 at position 22.250000
$GPZDA,113236.03,08,10,2011,00,00*6A
$GPRMC,113236.00,A,4611.966420,N,01258.219066,E,001.5,175.3,081011,0.2,E,A*37
$GPGGA,113237.00,4611.966028,N,01258.219114,E,1,06,1.9,136.25,M,46.25,M,,*60
$GPGLL,4611.966028,N,01258.219114,E,113237.00,A,A*6D
$GPVTG,185.1,T,185.3,M,001.1,N,002.0,K,A*23
$GPGSV,2,1,07,16,16,306,41,21,58,182,42,05,18,053,41,25,30,131,*76
$GPGSV,2,2,07,29,57,061,45,30,73,155,42,31,42,235,43,,,,*46
$GPGSA,M,3,16,21,05,29,30,31,,,,,,,3.4,1.9,2.8*30
Trace #91 at position 22.500000
$GPZDA,113236.03,08,10,2011,00,00*6A
$GPRMC,113236.00,A,4611.966420,N,01258.219066,E,001.5,175.3,081011,0.2,E,A*37
$GPGGA,113237.00,4611.966028,N,01258.219114,E,1,06,1.9,136.25,M,46.25,M,,*60
$GPGLL,4611.966028,N,01258.219114,E,113237.00,A,A*6D
$GPVTG,185.1,T,185.3,M,001.1,N,002.0,K,A*23
$GPGSV,2,1,07,16,16,306,41,21,58,182,42,05,18,053,41,25,30,131,*76
$GPGSV,2,2,07,29,57,061,45,30,73,155,42,31,42,235,43,,,,*46
$GPGSA,M,3,16,21,05,29,30,31,,,,,,,3.4,1.9,2.8*30
Trace #92 at position 22.750000
$GPZDA,113237.03,08,10,2011,00,00*6B
$GPRMC,113237.00,A,4611.966028,N,01258.219114,E,001.1,185.1,081011,0.2,E,A*37
$GPGGA,113238.00,4611.965660,N,01258.219337,E,1,06,1.9,136.17,M,46.25,M,,*64
$GPGLL,4611.965660,N,01258.219337,E,113238.00,A,A*68
$GPVTG,145.2,T,145.4,M,001.7,N,003.1,K,A*21
$GPGSV,2,1,07,16,16,306,41,21,58,182,44,05,18,053,41,25,30,131,31*72
$GPGSV,2,2,07,29,57,061,45,30,73,155,43,31,42,235,43,,,,*47
$GPGSA,M,3,16,21,05,29,30,31,,,,,,,3.4,1.9,2.8*30
Trace #93 at position 23.000000
$GPZDA,113237.03,08,10,2011,00,00*6B
$GPRMC,113237.00,A,4611.966028,N,01258.219114,E,001.1,185.1,081011,0.2,E,A*37
$GPGGA,113238.00,4611.965660,N,01258.219337,E,1,06,1.9,136.17,M,46.25,M,,*64
$GPGLL,4611.965660,N,01258.219337,E,113238.00,A,A*68
$GPVTG,145.2,T,145.4,M,001.7,N,003.1,K,A*21
$GPGSV,2,1,07,16,16,306,41,21,58,182,44,05,18,053,41,25,30,131,31*72
$GPGSV,2,2,07,29,57,061,45,30,73,155,43,31,42,235,43,,,,*47
$GPGSA,M,3,16,21,05,29,30,31,,,,,,,3.4,1.9,2.8*30
Trace #94 at position 23.250000
$GPZDA,113237.03,08,10,2011,00,00*6B
$GPRMC,113237.00,A,4611.966028,N,01258.219114,E,001.1,185.1,081011,0.2,E,A*37
$GPGGA,113238.00,4611.965660,N,01258.219337,E,1,06,1.9,136.17,M,46.25,M,,*64
$GPGLL,4611.965660,N,01258.219337,E,113238.00,A,A*68
$GPVTG,145.2,T,145.4,M,001.7,N,003.1,K,A*21
$GPGSV,2,1,07,16,16,306,41,21,58,182,44,05,18,053,41,25,30,131,31*72
$GPGSV,2,2,07,29,57,061,45,30,73,155,43,31,42,235,43,,,,*47
$GPGSA,M,3,16,21,05,29,30,31,,,,,,,3.4,1.9,2.8*30
Trace #95 at position 23.500000
$GPZDA,113238.04,08,10,2011,00,00*63
$GPRMC,113238.00,A,4611.965660,N,01258.219337,E,001.7,145.2,081011,0.2,E,A*3B
$GPGGA,113239.00,4611.965305,N,01258.219648,E,1,06,1.9,136.18,M,46.25,M,,*61
$GPGLL,4611.965305,N,01258.219648,E,113239.00,A,A*62
$GPVTG,155.1,T,155.2,M,001.1,N,002.1,K,A*23
$GPGSV,2,1,07,16,16,306,41,21,58,182,43,05,18,053,43,25,30,131,32*74
$GPGSV,2,2,07,29,57,061,45,30,73,155,43,31,42,235,45,,,,*41
$GPGSA,M,3,16,21,05,29,30,31,,,,,,,3.4,1.9,2.8*30
Trace #96 at position 23.750000
$GPZDA,113238.04,08,10,2011,00,00*63
$GPRMC,113238.00,A,4611.965660,N,01258.219337,E,001.7,145.2,081011,0.2,E,A*3B
$GPGGA,113239.00,4611.965305,N,01258.219648,E,1,06,1.9,136.18,M,46.25,M,,*61
$GPGLL,4611.965305,N,01258.219648,E,113239.00,A,A*62
$GPVTG,155.1,T,155.2,M,001.1,N,002.1,K,A*23
$GPGSV,2,1,07,16,16,306,41,21,58,182,43,05,18,053,43,25,30,131,32*74
$GPGSV,2,2,07,29,57,061,45,30,73,155,43,31,42,235,45,,,,*41
$GPGSA,M,3,16,21,05,29,30,31,,,,,,,3.4,1.9,2.8*30
Trace #97 at position 24.000000
$GPZDA,113238.04,08,10,2011,00,00*63
$GPRMC,113238.00,A,4611.965660,N,01258.219337,E,001.7,145.2,081011,0.2,E,A*3B
$GPGGA,113239.00,4611.965305,N,01258.219648,E,1,06,1.9,136.18,M,46.25,M,,*61
$GPGLL,4611.965305,N,01258.219648,E,113239.00,A,A*62
$GPVTG,155.1,T,155.2,M,001.1,N,002.1,K,A*23
$GPGSV,2,1,07,16,16,306,41,21,58,182,43,05,18,053,43,25,30,131,32*74
$GPGSV,2,2,07,29,57,061,45,30,73,155,43,31,42,235,45,,,,*41
$GPGSA,M,3,16,21,05,29,30,31,,,,,,,3.4,1.9,2.8*30
Trace #98 at position 24.250000
$GPZDA,113239.03,08,10,2011,00,00*65
$GPRMC,113239.00,A,4611.965305,N,01258.219648,E,001.1,155.1,081011,0.2,E,A*35
$GPGGA,113240.00,4611.964923,N,01258.219920,E,1,06,1.9,136.22,M,46.25,M,,*68
$GPGLL,4611.964923,N,01258.219920,E,113240.00,A,A*62
$GPVTG,152.6,T,152.8,M,001.8,N,003.4,K,A*23
$GPGSV,2,1,07,16,16,306,41,21,58,182,44,05,18,053,41,25,30,131,27*75
$GPGSV,2,2,07,29,57,061,46,30,73,155,42,31,42,235,44,,,,*42
$GPGSA,M,3,16,21,05,29,30,31,,,,,,,3.4,1.9,2.8*30
Trace #99 at position 24.500000
$GPZDA,113239.03,08,10,2011,00,00*65
$GPRMC,113239.00,A,4611.965305,N,01258.219648,E,001.1,155.1,081011,0.2,E,A*35
$GPGGA,113240.00,4611.964923,N,01258.219920,E,1,06,1.9,136.22,M,46.25,M,,*68
$GPGLL,4611.964923,N,01258.219920,E,113240.00,A,A*62
$GPVTG,152.6,T,152.8,M,001.8,N,003.4,K,A*23
$GPGSV,2,1,07,16,16,306,41,21,58,182,44,05,18,053,41,25,30,131,27*75
$GPGSV,2,2,07,29,57,061,46,30,73,155,42,31,42,235,44,,,,*42
$GPGSA,M,3,16,21,05,29,30,31,,,,,,,3.4,1.9,2.8*30
Trace #100 at position 24.750000
$GPZDA,113250.04,08,10,2011,00,00*6D
$GPRMC,113250.00,A,4611.963888,N,01258.220241,E,000.1,347.7,081011,0.2,E,A*33
$GPGGA,113251.00,4611.963897,N,01258.220244,E,1,06,1.9,136.30,M,46.25,M,,*61
$GPGLL,4611.963897,N,01258.220244,E,113251.00,A,A*68
$GPVTG,258.7,T,258.9,M,000.1,N,000.1,K,A*2D
$GPGSV,2,1,07,16,16,306,40,21,58,182,42,05,18,053,39,25,30,131,34*7F
$GPGSV,2,2,07,29,57,061,44,30,73,155,39,31,42,234,44,,,,*4D
$GPGSA,M,3,16,21,05,29,30,31,,,,,,,3.4,1.9,2.8*30
Trace #101 at position 25.000000
$GPZDA,113251.03,08,10,2011,00,00*6B
$GPRMC,113251.00,A,4611.963897,N,01258.220244,E,000.1,258.7,081011,0.2,E,A*36
$GPGGA,113252.00,4611.963907,N,01258.220248,E,1,06,1.9,136.30,M,46.25,M,,*66
$GPGLL,4611.963907,N,01258.220248,E,113252.00,A,A*6F
$GPVTG,1.8,T,1.9,M,000.1,N,000.1,K,A*22
$GPGSV,2,1,07,16,17,306,43,21,58,182,43,05,18,053,37,25,30,131,35*73
$GPGSV,2,2,07,29,57,061,46,30,73,155,42,31,42,234,44,,,,*43
$GPGSA,M,3,16,21,05,29,30,31,,,,,,,3.4,1.9,2.8*30
Trace #102 at position 25.250000
$GPZDA,113251.03,08,10,2011,00,00*6B
$GPRMC,113251.00,A,4611.963897,N,01258.220244,E,000.1,258.7,081011,0.2,E,A*36
$GPGGA,113252.00,4611.963907,N,01258.220248,E,1,06,1.9,136.30,M,46.25,M,,*66
$GPGLL,4611.963907,N,01258.220248,E,113252.00,A,A*6F
$GPVTG,1.8,T,1.9,M,000.1,N,000.1,K,A*22
$GPGSV,2,1,07,16,17,306,43,21,58,182,43,05,18,053,37,25,30,131,35*73
$GPGSV,2,2,07,29,57,061,46,30,73,155,42,31,42,234,44,,,,*43
$GPGSA,M,3,16,21,05,29,30,31,,,,,,,3.4,1.9,2.8*30
Trace #103 at position 25.500000
$GPZDA,113252.03,08,10,2011,00,00*68
$GPRMC,113252.00,A,4611.963907,N,01258.220248,E,000.1,1.8,081011,0.2,E,A*30
$GPGGA,113253.00,4611.963911,N,01258.220254,E,1,06,1.9,136.30,M,46.25,M,,*6D
$GPGLL,4611.963911,N,01258.220254,E,113253.00,A,A*64
$GPVTG,242.1,T,242.2,M,000.1,N,000.1,K,A*20
$GPGSV,2,1,07,16,17,306,42,21,58,182,41,05,18,053,40,25,30,131,32*77
$GPGSV,2,2,07,29,57,061,45,30,73,155,40,31,42,234,44,,,,*42
$GPGSA,M,3,16,21,05,29,30,31,,,,,,,3.4,1.9,2.8*30
Trace #104 at position 25.750000
$GPZDA,113252.03,08,10,2011,00,00*68
$GPRMC,113252.00,A,4611.963907,N,01258.220248,E,000.1,1.8,081011,0.2,E,A*30
$GPGGA,113253.00,4611.963911,N,01258.220254,E,1,06,1.9,136.30,M,46.25,M,,*6D
$GPGLL,4611.963911,N,01258.220254,E,113253.00,A,A*64
$GPVTG,242.1,T,242.2,M,000.1,N,000.1,K,A*20
$GPGSV,2,1,07,16,17,306,42,21,58,182,41,05,18,053,40,25,30,131,32*77
$GPGSV,2,2,07,29,57,061,45,30,73,155,40,31,42,234,44,,,,*42
$GPGSA,M,3,16,21,05,29,30,31,,,,,,,3.4,1.9,2.8*30
Trace #105 at position 26.000000
$GPZDA,113252.03,08,10,2011,00,00*68
$GPRMC,113252.00,A,4611.963907,N,01258.220248,E,000.1,1.8,081011,0.2,E,A*30
$GPGGA,113253.00,4611.963911,N,01258.220254,E,1,06,1.9,136.30,M,46.25,M,,*6D
$GPGLL,4611.963911,N,01258.220254,E,113253.00,A,A*64
$GPVTG,242.1,T,242.2,M,000.1,N,000.1,K,A*20
$GPGSV,2,1,07,16,17,306,42,21,58,182,41,05,18,053,40,25,30,131,32*77
$GPGSV,2,2,07,29,57,061,45,30,73,155,40,31,42,234,44,,,,*42
$GPGSA,M,3,16,21,05,29,30,31,,,,,,,3.4,1.9,2.8*30
Trace #106 at position 26.250000
$GPZDA,113252.03,08,10,2011,00,00*68
$GPRMC,113252.00,A,4611.963907,N,01258.220248,E,000.1,1.8,081011,0.2,E,A*30
$GPGGA,113253.00,4611.963911,N,01258.220254,E,1,06,1.9,136.30,M,46.25,M,,*6D
$GPGLL,4611.963911,N,01258.220254,E,113253.00,A,A*64
$GPVTG,242.1,T,242.2,M,000.1,N,000.1,K,A*20
$GPGSV,2,1,07,16,17,306,42,21,58,182,41,05,18,053,40,25,30,131,32*77
$GPGSV,2,2,07,29,57,061,45,30,73,155,40,31,42,234,44,,,,*42
$GPGSA,M,3,16,21,05,29,30,31,,,,,,,3.4,1.9,2.8*30
Trace #107 at position 26.500000
$GPZDA,113253.04,08,10,2011,00,00*6E
$GPRMC,113253.00,A,4611.963911,N,01258.220254,E,000.1,242.1,081011,0.2,E,A*37
$GPGGA,113254.00,4611.963729,N,01258.220399,E,1,06,1.9,136.28,M,46.25,M,,*66
$GPGLL,4611.963729,N,01258.220399,E,113254.00,A,A*66
$GPVTG,149.4,T,149.6,M,001.4,N,002.6,K,A*20
$GPGSV,2,1,07,16,17,306,41,21,58,182,43,05,18,053,40,25,30,131,36*72
$GPGSV,2,2,07,29,57,061,45,30,73,155,42,31,42,234,43,,,,*47
$GPGSA,M,3,16,21,05,29,30,31,,,,,,,3.4,1.9,2.9*31
Trace #108 at position 26.750000
$GPZDA,113253.04,08,10,2011,00,00*6E
$GPRMC,113253.00,A,4611.963911,N,01258.220254,E,000.1,242.1,081011,0.2,E,A*37
$GPGGA,113254.00,4611.963729,N,01258.220399,E,1,06,1.9,136.28,M,46.25,M,,*66
$GPGLL,4611.963729,N,01258.220399,E,113254.00,A,A*66
$GPVTG,149.4,T,149.6,M,001.4,N,002.6,K,A*20
$GPGSV,2,1,07,16,17,306,41,21,58,182,43,05,18,053,40,25,30,131,36*72
$GPGSV,2,2,07,29,57,061,45,30,73,155,42,31,42,234,43,,,,*47
$GPGSA,M,3,16,21,05,29,30,31,,,,,,,3.4,1.9,2.9*31
Trace #109 at position 27.000000
$GPZDA,113253.04,08,10,2011,00,00*6E
$GPRMC,113253.00,A,4611.963911,N,01258.220254,E,000.1,242.1,081011,0.2,E,A*37
$GPGGA,113254.00,4611.963729,N,01258.220399,E,1,06,1.9,136.28,M,46.25,M,,*66
$GPGLL,4611.963729,N,01258.220399,E,113254.00,A,A*66
$GPVTG,149.4,T,149.6,M,001.4,N,002.6,K,A*20
$GPGSV,2,1,07,16,17,306,41,21,58,182,43,05,18,053,40,25,30,131,36*72
$GPGSV,2,2,07,29,57,061,45,30,73,155,42,31,42,234,43,,,,*47
$GPGSA,M,3,16,21,05,29,30,31,,,,,,,3.4,1.9,2.9*31
Trace #110 at position 27.250000
$GPZDA,113254.03,08,10,2011,00,00*6E
$GPRMC,113254.00,A,4611.963729,N,01258.220399,E,001.4,149.4,081011,0.2,E,A*3C
$GPGGA,113255.00,4611.963327,N,01258.220595,E,1,06,1.9,136.20,M,46.25,M,,*6F
$GPGLL,4611.963327,N,01258.220595,E,113255.00,A,A*67
$GPVTG,171.7,T,171.9,M,001.6,N,003.0,K,A*29
$GPGSV,2,1,07,16,17,306,42,21,58,182,40,05,18,053,39,25,30,131,35*7F
$GPGSV,2,2,07,29,57,061,45,30,73,155,43,31,42,234,43,,,,*46
$GPGSA,M,3,16,21,05,29,30,31,,,,,,,3.4,1.9,2.9*31
Trace #111 at position 27.500000
$GPZDA,113254.03,08,10,2011,00,00*6E
$GPRMC,113254.00,A,4611.963729,N,01258.220399,E,001.4,149.4,081011,0.2,E,A*3C
$GPGGA,113255.00,4611.963327,N,01258.220595,E,1,06,1.9,136.20,M,46.25,M,,*6F
$GPGLL,4611.963327,N,01258.220595,E,113255.00,A,A*67
$GPVTG,171.7,T,171.9,M,001.6,N,003.0,K,A*29
$GPGSV,2,1,07,16,17,306,42,21,58,182,40,05,18,053,39,25,30,131,35*7F
$GPGSV,2,2,07,29,57,061,45,30,73,155,43,31,42,234,43,,,,*46
$GPGSA,M,3,16,21,05,29,30,31,,,,,,,3.4,1.9,2.9*31
Trace #112 at position 27.750000
$GPZDA,113254.03,08,10,2011,00,00*6E
$GPRMC,113254.00,A,4611.963729,N,01258.220399,E,001.4,149.4,081011,0.2,E,A*3C
$GPGGA,113255.00,4611.963327,N,01258.220595,E,1,06,1.9,136.20,M,46.25,M,,*6F
$GPGLL,4611.963327,N,01258.220595,E,113255.00,A,A*67
$GPVTG,171.7,T,171.9,M,001.6,N,003.0,K,A*29
$GPGSV,2,1,07,16,17,306,42,21,58,182,40,05,18,053,39,25,30,131,35*7F
$GPGSV,2,2,07,29,57,061,45,30,73,155,43,31,42,234,43,,,,*46
$GPGSA,M,3,16,21,05,29,30,31,,,,,,,3.4,1.9,2.9*31
Trace #113 at position 28.000000
$GPZDA,113254.03,08,10,2011,00,00*6E
$GPRMC,113254.00,A,4611.963729,N,01258.220399,E,001.4,149.4,081011,0.2,E,A*3C
$GPGGA,113255.00,4611.963327,N,01258.220595,E,1,06,1.9,136.20,M,46.25,M,,*6F
$GPGLL,4611.963327,N,01258.220595,E,113255.00,A,A*67
$GPVTG,171.7,T,171.9,M,001.6,N,003.0,K,A*29
$GPGSV,2,1,07,16,17,306,42,21,58,182,40,05,18,053,39,25,30,131,35*7F
$GPGSV,2,2,07,29,57,061,45,30,73,155,43,31,42,234,43,,,,*46
$GPGSA,M,3,16,21,05,29,30,31,,,,,,,3.4,1.9,2.9*31
Trace #114 at position 28.250000
$GPZDA,113255.03,08,10,2011,00,00*6F
$GPRMC,113255.00,A,4611.963327,N,01258.220595,E,001.6,171.7,081011,0.2,E,A*37
$GPGGA,113256.00,4611.962932,N,01258.220796,E,1,06,1.9,136.24,M,46.25,M,,*66
$GPGLL,4611.962932,N,01258.220796,E,113256.00,A,A*6A
$GPVTG,147.0,T,147.1,M,001.4,N,002.5,K,A*20
$GPGSV,2,1,07,16,17,306,41,21,58,182,39,05,18,053,40,25,30,131,35*7C
$GPGSV,2,2,07,29,57,061,45,30,73,155,42,31,42,234,40,,,,*44
$GPGSA,M,3,16,21,05,29,30,31,,,,,,,3.4,1.9,2.9*31
Trace #115 at position 28.500000
$GPZDA,113255.03,08,10,2011,00,00*6F
$GPRMC,113255.00,A,4611.963327,N,01258.220595,E,001.6,171.7,081011,0.2,E,A*37
$GPGGA,113256.00,4611.962932,N,01258.220796,E,1,06,1.9,136.24,M,46.25,M,,*66
$GPGLL,4611.962932,N,01258.220796,E,113256.00,A,A*6A
$GPVTG,147.0,T,147.1,M,001.4,N,002.5,K,A*20
$GPGSV,2,1,07,16,17,306,41,21,58,182,39,05,18,053,40,25,30,131,35*7C
$GPGSV,2,2,07,29,57,061,45,30,73,155,42,31,42,234,40,,,,*44
$GPGSA,M,3,16,21,05,29,30,31,,,,,,,3.4,1.9,2.9*31
Trace #116 at position 28.750000
$GPZDA,113255.03,08,10,2011,00,00*6F
$GPRMC,113255.00,A,4611.963327,N,01258.220595,E,001.6,171.7,081011,0.2,E,A*37
$GPGGA,113256.00,4611.962932,N,01258.220796,E,1,06,1.9,136.24,M,46.25,M,,*66
$GPGLL,4611.962932,N,01258.220796,E,113256.00,A,A*6A
$GPVTG,147.0,T,147.1,M,001.4,N,002.5,K,A*20
$GPGSV,2,1,07,16,17,306,41,21,58,182,39,05,18,053,40,25,30,131,35*7C
$GPGSV,2,2,07,29,57,061,45,30,73,155,42,31,42,234,40,,,,*44
$GPGSA,M,3,16,21,05,29,30,31,,,,,,,3.4,1.9,2.9*31
Trace #117 at position 29.000000
$GPZDA,113255.03,08,10,2011,00,00*6F
$GPRMC,113255.00,A,4611.963327,N,01258.220595,E,001.6,171.7,081011,0.2,E,A*37
$GPGGA,113256.00,4611.962932,N,01258.220796,E,1,06,1.9,136.24,M,46.25,M,,*66
$GPGLL,4611.962932,N,01258.220796,E,113256.00,A,A*6A
$GPVTG,147.0,T,147.1,M,001.4,N,002.5,K,A*20
$GPGSV,2,1,07,16,17,306,41,21,58,182,39,05,18,053,40,25,30,131,35*7C
