Trace #1 at position 0.000000
$GPZDA,122027.02,06,10,2011,00,00*65
$GPRMC,122010.00,V,,,,,,,,,,N*7D
$GPGGA,,,,,,0,03,,,M,,M,,*65
$GPGLL,,,,,,V,N*64
$GPVTG,,T,,,,N,,K,N*61
$GPGSV,3,1,10,05,13,038,,16,32,309,,31,27,220,38,18,18,148,*7B
$GPGSV,3,2,10,29,41,075,,30,51,156,42,21,75,163,37,25,14,139,*7E
$GPGSV,3,3,10,03,13,278,,06,28,278,,,,,,,,,*75
$GPGSA,M,1,,,,,,,,,,,,,3.5,1.9,3.0*31
Trace #2 at position 0.250000
$GPZDA,122036.02,06,10,2011,00,00*65
$GPRMC,122010.00,V,,,,,,,,,,N*7D
$GPGGA,,,,,,0,03,,,M,,M,,*65
$GPGLL,,,,,,V,N*64
$GPVTG,,T,,,,N,,K,N*61
$GPGSV,3,1,10,05,12,038,,16,33,309,,31,27,220,37,18,18,148,*74
$GPGSV,3,2,10,29,41,075,,30,51,156,42,21,75,162,40,25,14,139,*7F
$GPGSV,3,3,10,03,13,278,,06,28,278,,,,,,,,,*75
$GPGSA,M,1,,,,,,,,,,,,,3.5,1.9,3.0*31
Trace #3 at position 0.500000
$GPZDA,122037.02,06,10,2011,00,00*64
$GPRMC,122010.00,V,,,,,,,,,,N*7D
$GPGGA,,,,,,0,03,,,M,,M,,*65
$GPGLL,,,,,,V,N*64
$GPVTG,,T,,,,N,,K,N*61
$GPGSV,3,1,10,05,12,038,,16,33,309,,31,27,220,38,18,18,148,*7B
$GPGSV,3,2,10,29,41,075,,30,51,156,41,21,75,162,40,25,14,139,*7C
$GPGSV,3,3,10,03,13,278,,06,28,278,,,,,,,,,*75
$GPGSA,M,1,,,,,,,,,,,,,3.5,1.9,3.0*31
Trace #4 at position 0.750000
$GPZDA,122038.02,06,10,2011,00,00*6B
$GPRMC,122010.00,V,,,,,,,,,,N*7D
$GPGGA,,,,,,0,03,,,M,,M,,*65
$GPGLL,,,,,,V,N*64
$GPVTG,,T,,,,N,,K,N*61
$GPGSV,3,1,10,05,12,038,,16,33,309,,31,27,220,39,18,18,148,*7A
$GPGSV,3,2,10,29,41,075,,30,51,156,43,21,75,162,41,25,14,139,*7F
$GPGSV,3,3,10,03,13,278,,06,28,278,,,,,,,,,*75
$GPGSA,M,1,,,,,,,,,,,,,3.5,1.9,3.0*31
Trace #5 at position 1.000000
$GPZDA,122039.02,06,10,2011,00,00*6A
$GPRMC,122010.00,V,,,,,,,,,,N*7D
$GPGGA,,,,,,0,03,,,M,,M,,*65
$GPGLL,,,,,,V,N*64
$GPVTG,,T,,,,N,,K,N*61
$GPGSV,3,1,10,05,12,038,,16,33,309,,31,27,220,38,18,18,148,*7B
$GPGSV,3,2,10,29,41,075,37,30,51,156,42,21,75,162,39,25,14,139,*75
$GPGSV,3,3,10,03,13,278,,06,28,278,,,,,,,,,*75
$GPGSA,M,1,,,,,,,,,,,,,3.5,1.9,3.0*31
Trace #6 at position 1.250000
$GPZDA,122040.02,06,10,2011,00,00*64
$GPRMC,122010.00,V,,,,,,,,,,N*7D
$GPGGA,,,,,,0,03,,,M,,M,,*65
$GPGLL,,,,,,V,N*64
$GPVTG,,T,,,,N,,K,N*61
$GPGSV,3,1,10,05,12,038,,16,33,309,,31,27,220,38,18,18,148,*7B
$GPGSV,3,2,10,29,41,075,38,30,51,156,42,21,75,162,40,25,14,139,*74
$GPGSV,3,3,10,03,13,278,,06,28,278,,,,,,,,,*75
$GPGSA,M,1,,,,,,,,,,,,,3.5,1.9,3.0*31
Trace #7 at position 1.500000
$GPZDA,122041.02,06,10,2011,00,00*65
$GPRMC,122010.00,V,,,,,,,,,,N*7D
$GPGGA,,,,,,0,03,,,M,,M,,*65
$GPGLL,,,,,,V,N*64
$GPVTG,,T,,,,N,,K,N*61
$GPGSV,3,1,10,05,12,038,,16,33,309,,31,27,220,37,18,18,148,*74
$GPGSV,3,2,10,29,41,075,38,30,51,156,43,21,75,162,40,25,14,139,*75
$GPGSV,3,3,10,03,13,278,,06,28,278,,,,,,,,,*75
$GPGSA,M,1,,,,,,,,,,,,,3.5,1.9,3.0*31
Trace #8 at position 1.750000
$GPZDA,122042.02,06,10,2011,00,00*66
$GPRMC,122010.00,V,,,,,,,,,,N*7D
$GPGGA,,,,,,0,03,,,M,,M,,*65
$GPGLL,,,,,,V,N*64
$GPVTG,,T,,,,N,,K,N*61
$GPGSV,3,1,10,05,12,037,,16,33,309,,31,27,220,37,18,18,148,*7B
$GPGSV,3,2,10,29,41,075,38,30,51,156,41,21,75,162,39,25,13,139,*7E
$GPGSV,3,3,10,03,13,278,,06,28,278,,,,,,,,,*75
$GPGSA,M,1,,,,,,,,,,,,,3.5,1.9,3.0*31
Trace #9 at position 2.000000
$GPZDA,122043.02,06,10,2011,00,00*67
$GPRMC,122010.00,V,,,,,,,,,,N*7D
$GPGGA,,,,,,0,03,,,M,,M,,*65
$GPGLL,,,,,,V,N*64
$GPVTG,,T,,,,N,,K,N*61
$GPGSV,3,1,10,05,12,037,,16,33,309,,31,27,220,37,18,18,148,*7B
$GPGSV,3,2,10,29,41,075,38,30,51,156,42,21,75,162,39,25,13,139,*7D
$GPGSV,3,3,10,03,13,278,,06,28,278,,,,,,,,,*75
$GPGSA,M,1,,,,,,,,,,,,,3.5,1.9,3.0*31
Trace #10 at position 2.250000
$GPZDA,122044.02,06,10,2011,00,00*60
$GPRMC,122010.00,V,,,,,,,,,,N*7D
$GPGGA,122045.00,4611.952274,N,01258.213886,E,1,04,3.3,135.77,M,46.25,M,,*6F
$GPGLL,4611.952274,N,01258.213886,E,122045.00,A,A*6C
$GPVTG,350.9,T,351.1,M,001.1,N,002.1,K,A*29
$GPGSV,3,1,10,05,12,037,,16,33,309,,31,27,220,36,18,18,148,*7A
$GPGSV,3,2,10,29,41,075,39,30,51,156,42,21,76,162,40,25,13,139,*71
$GPGSV,3,3,10,03,13,278,,06,28,278,,,,,,,,,*75
$GPGSA,M,3,31,29,30,21,,,,,,,,,4.4,3.3,3.0*34
Trace #11 at position 2.500000
$GPZDA,122044.02,06,10,2011,00,00*60
$GPRMC,122010.00,V,,,,,,,,,,N*7D
$GPGGA,122045.00,4611.952274,N,01258.213886,E,1,04,3.3,135.77,M,46.25,M,,*6F
$GPGLL,4611.952274,N,01258.213886,E,122045.00,A,A*6C
$GPVTG,350.9,T,351.1,M,001.1,N,002.1,K,A*29
$GPGSV,3,1,10,05,12,037,,16,33,309,,31,27,220,36,18,18,148,*7A
$GPGSV,3,2,10,29,41,075,39,30,51,156,42,21,76,162,40,25,13,139,*71
$GPGSV,3,3,10,03,13,278,,06,28,278,,,,,,,,,*75
$GPGSA,M,3,31,29,30,21,,,,,,,,,4.4,3.3,3.0*34
Trace #12 at position 2.750000
$GPZDA,122045.03,06,10,2011,00,00*60
$GPRMC,122045.00,A,4611.952274,N,01258.213886,E,001.1,350.9,061011,0.2,E,A*3A
$GPGGA,122046.00,4611.952442,N,01258.213944,E,1,04,3.3,135.88,M,46.25,M,,*60
$GPGLL,4611.952442,N,01258.213944,E,122046.00,A,A*63
$GPVTG,69.1,T,69.3,M,000.4,N,000.7,K,A*22
$GPGSV,3,1,10,05,12,037,,16,33,309,,31,27,220,32,18,18,148,*7E
$GPGSV,3,2,10,29,41,075,39,30,51,156,41,21,76,162,40,25,13,139,*72
$GPGSV,3,3,10,03,13,278,,06,28,278,,,,,,,,,*75
$GPGSA,M,3,31,29,30,21,,,,,,,,,4.4,3.3,3.0*34
Trace #13 at position 3.000000
$GPZDA,122046.03,06,10,2011,00,00*63
$GPRMC,122046.00,A,4611.952442,N,01258.213944,E,000.4,69.1,061011,0.2,E,A*00
$GPGGA,122047.00,4611.952576,N,01258.213998,E,1,04,3.3,135.96,M,46.25,M,,*69
$GPGLL,4611.952576,N,01258.213998,E,122047.00,A,A*65
$GPVTG,10.0,T,10.1,M,000.9,N,001.6,K,A*2C
$GPGSV,3,1,10,05,12,037,,16,33,309,,31,27,220,31,18,18,148,*7D
$GPGSV,3,2,10,29,41,075,40,30,51,156,41,21,76,162,41,25,13,139,*7D
$GPGSV,3,3,10,03,13,278,,06,28,278,,,,,,,,,*75
$GPGSA,M,3,31,29,30,21,,,,,,,,,4.4,3.3,3.0*34
Trace #14 at position 3.250000
$GPZDA,122047.03,06,10,2011,00,00*62
$GPRMC,122047.00,A,4611.952576,N,01258.213998,E,000.9,10.0,061011,0.2,E,A*04
$GPGGA,122048.00,4611.952757,N,01258.213928,E,1,04,3.3,135.94,M,46.25,M,,*6E
$GPGLL,4611.952757,N,01258.213928,E,122048.00,A,A*60
$GPVTG,323.8,T,323.9,M,000.5,N,000.9,K,A*2E
$GPGSV,3,1,10,05,12,037,,16,33,309,,31,27,220,34,18,18,148,*78
$GPGSV,3,2,10,29,41,075,40,30,51,156,42,21,76,162,40,25,13,139,*7F
$GPGSV,3,3,10,03,13,278,,06,28,278,,,,,,,,,*75
$GPGSA,M,3,31,29,30,21,,,,,,,,,4.4,3.3,3.0*34
Trace #15 at position 3.500000
$GPZDA,122048.03,06,10,2011,00,00*6D
$GPRMC,122048.00,A,4611.952757,N,01258.213928,E,000.5,323.8,061011,0.2,E,A*36
$GPGGA,122049.00,4611.952887,N,01258.213865,E,1,04,3.3,135.99,M,46.25,M,,*68
$GPGLL,4611.952887,N,01258.213865,E,122049.00,A,A*6B
$GPVTG,14.2,T,14.4,M,000.5,N,000.9,K,A*29
$GPGSV,3,1,10,05,12,037,,16,33,309,,31,27,220,35,18,19,148,*78
$GPGSV,3,2,10,29,41,075,39,30,51,156,41,21,76,162,39,25,13,139,*7C
$GPGSV,3,3,10,03,13,278,,06,28,278,,,,,,,,,*75
$GPGSA,M,3,31,29,30,21,,,,,,,,,4.4,3.3,3.0*34
Trace #16 at position 3.750000
$GPZDA,122050.03,06,10,2011,00,00*64
$GPRMC,122050.00,A,4611.952977,N,01258.213877,E,000.2,22.8,061011,0.2,E,A*0D
$GPGGA,122051.00,4611.953096,N,01258.213874,E,1,04,3.3,135.89,M,46.25,M,,*69
$GPGLL,4611.953096,N,01258.213874,E,122051.00,A,A*6B
$GPVTG,1.8,T,1.9,M,000.8,N,001.5,K,A*2E
$GPGSV,3,1,10,05,12,037,,16,33,309,,31,27,220,35,18,19,148,*78
$GPGSV,3,2,10,29,41,075,39,30,51,156,41,21,76,162,40,25,13,139,*72
$GPGSV,3,3,10,03,13,278,,06,28,278,31,,,,,,,,*77
$GPGSA,M,3,31,29,30,21,,,,,,,,,4.4,3.3,3.0*34
Trace #17 at position 4.000000
$GPZDA,122050.03,06,10,2011,00,00*64
$GPRMC,122050.00,A,4611.952977,N,01258.213877,E,000.2,22.8,061011,0.2,E,A*0D
$GPGGA,122051.00,4611.953096,N,01258.213874,E,1,04,3.3,135.89,M,46.25,M,,*69
$GPGLL,4611.953096,N,01258.213874,E,122051.00,A,A*6B
$GPVTG,1.8,T,1.9,M,000.8,N,001.5,K,A*2E
$GPGSV,3,1,10,05,12,037,,16,33,309,,31,27,220,35,18,19,148,*78
$GPGSV,3,2,10,29,41,075,39,30,51,156,41,21,76,162,40,25,13,139,*72
$GPGSV,3,3,10,03,13,278,,06,28,278,31,,,,,,,,*77
$GPGSA,M,3,31,29,30,21,,,,,,,,,4.4,3.3,3.0*34
Trace #18 at position 4.250000
$GPZDA,122051.03,06,10,2011,00,00*65
$GPRMC,122051.00,A,4611.953096,N,01258.213874,E,000.8,1.8,061011,0.2,E,A*33
$GPGGA,122052.00,4611.953179,N,01258.213837,E,1,04,3.3,135.86,M,46.25,M,,*62
$GPGLL,4611.953179,N,01258.213837,E,122052.00,A,A*6F
$GPVTG,196.3,T,196.4,M,000.2,N,000.3,K,A*25
$GPGSV,3,1,10,05,12,037,,16,33,309,,31,27,220,34,18,19,148,*79
$GPGSV,3,2,10,29,41,075,39,30,51,156,42,21,76,162,40,25,13,139,*71
$GPGSV,3,3,10,03,13,278,,06,28,278,30,,,,,,,,*76
$GPGSA,M,3,31,29,30,21,,,,,,,,,4.4,3.3,3.0*34
Trace #19 at position 4.500000
$GPZDA,122052.03,06,10,2011,00,00*66
$GPRMC,122052.00,A,4611.953179,N,01258.213837,E,000.2,196.3,061011,0.2,E,A*39
$GPGGA,122053.00,4611.953275,N,01258.213717,E,1,04,3.3,135.80,M,46.25,M,,*67
$GPGLL,4611.953275,N,01258.213717,E,122053.00,A,A*6C
$GPVTG,335.5,T,335.7,M,001.0,N,001.9,K,A*28
$GPGSV,3,1,10,05,12,037,,16,33,309,,31,27,220,35,18,19,148,*78
$GPGSV,3,2,10,29,41,075,40,30,51,156,41,21,76,162,40,25,13,139,*7C
$GPGSV,3,3,10,03,13,278,,06,28,278,32,,,,,,,,*74
$GPGSA,M,3,31,29,30,21,,,,,,,,,4.4,3.3,3.0*34
Trace #20 at position 4.750000
$GPZDA,122053.04,06,10,2011,00,00*60
$GPRMC,122053.00,A,4611.953275,N,01258.213717,E,001.0,335.5,061011,0.2,E,A*34
$GPGGA,122054.00,4611.953517,N,01258.213559,E,1,04,3.3,135.80,M,46.25,M,,*6B
$GPGLL,4611.953517,N,01258.213559,E,122054.00,A,A*60
$GPVTG,343.6,T,343.8,M,001.0,N,001.9,K,A*24
$GPGSV,3,1,10,05,12,037,,16,33,309,,31,27,220,36,18,19,148,*7B
$GPGSV,3,2,10,29,41,075,39,30,51,156,42,21,76,162,39,25,13,139,*7F
$GPGSV,3,3,10,03,13,278,,06,28,278,,,,,,,,,*75
$GPGSA,M,3,31,29,30,21,,,,,,,,,4.4,3.3,3.0*34
Trace #21 at position 5.000000
$GPZDA,122053.04,06,10,2011,00,00*60
$GPRMC,122053.00,A,4611.953275,N,01258.213717,E,001.0,335.5,061011,0.2,E,A*34
$GPGGA,122054.00,4611.953517,N,01258.213559,E,1,04,3.3,135.80,M,46.25,M,,*6B
$GPGLL,4611.953517,N,01258.213559,E,122054.00,A,A*60
$GPVTG,343.6,T,343.8,M,001.0,N,001.9,K,A*24
$GPGSV,3,1,10,05,12,037,,16,33,309,,31,27,220,36,18,19,148,*7B
$GPGSV,3,2,10,29,41,075,39,30,51,156,42,21,76,162,39,25,13,139,*7F
$GPGSV,3,3,10,03,13,278,,06,28,278,,,,,,,,,*75
$GPGSA,M,3,31,29,30,21,,,,,,,,,4.4,3.3,3.0*34
Trace #22 at position 5.250000
$GPZDA,122054.03,06,10,2011,00,00*60
$GPRMC,122054.00,A,4611.953517,N,01258.213559,E,001.0,343.6,061011,0.2,E,A*3A
$GPGGA,122055.00,4611.953689,N,01258.213516,E,1,04,3.3,135.84,M,46.25,M,,*61
$GPGLL,4611.953689,N,01258.213516,E,122055.00,A,A*6E
$GPVTG,15.1,T,15.3,M,000.5,N,000.9,K,A*2D
$GPGSV,3,1,10,05,12,037,,16,33,309,,31,27,220,38,18,19,148,*75
$GPGSV,3,2,10,29,41,075,39,30,51,156,42,21,76,162,39,25,13,139,*7F
$GPGSV,3,3,10,03,13,278,,06,28,278,29,,,,,,,,*7E
$GPGSA,M,3,31,29,30,21,,,,,,,,,4.4,3.3,3.0*34
Trace #23 at position 5.500000
$GPZDA,122054.03,06,10,2011,00,00*60
$GPRMC,122054.00,A,4611.953517,N,01258.213559,E,001.0,343.6,061011,0.2,E,A*3A
$GPGGA,122055.00,4611.953689,N,01258.213516,E,1,04,3.3,135.84,M,46.25,M,,*61
$GPGLL,4611.953689,N,01258.213516,E,122055.00,A,A*6E
$GPVTG,15.1,T,15.3,M,000.5,N,000.9,K,A*2D
$GPGSV,3,1,10,05,12,037,,16,33,309,,31,27,220,38,18,19,148,*75
$GPGSV,3,2,10,29,41,075,39,30,51,156,42,21,76,162,39,25,13,139,*7F
$GPGSV,3,3,10,03,13,278,,06,28,278,29,,,,,,,,*7E
$GPGSA,M,3,31,29,30,21,,,,,,,,,4.4,3.3,3.0*34
Trace #24 at position 5.750000
$GPZDA,122055.03,06,10,2011,00,00*61
$GPRMC,122055.00,A,4611.953689,N,01258.213516,E,000.5,15.1,061011,0.2,E,A*07
$GPGGA,122056.00,4611.953880,N,01258.213431,E,1,04,3.3,135.70,M,46.25,M,,*6A
$GPGLL,4611.953880,N,01258.213431,E,122056.00,A,A*6E
$GPVTG,336.3,T,336.5,M,001.2,N,002.3,K,A*27
$GPGSV,3,1,10,05,12,037,,16,33,309,,31,27,220,34,18,19,148,*79
$GPGSV,3,2,10,29,41,075,40,30,51,156,42,21,76,162,39,25,13,139,*71
$GPGSV,3,3,10,03,13,278,,06,28,278,32,,,,,,,,*74
$GPGSA,M,3,31,29,30,21,,,,,,,,,4.4,3.3,3.0*34
Trace #25 at position 6.000000
$GPZDA,122056.03,06,10,2011,00,00*62
$GPRMC,122056.00,A,4611.953880,N,01258.213431,E,001.2,336.3,061011,0.2,E,A*31
$GPGGA,122057.00,4611.954125,N,01258.213315,E,1,04,3.3,135.45,M,46.25,M,,*6D
$GPGLL,4611.954125,N,01258.213315,E,122057.00,A,A*6F
$GPVTG,356.8,T,357.0,M,000.9,N,001.7,K,A*25
$GPGSV,3,1,10,05,12,037,,16,33,309,,31,27,220,34,18,19,148,*79
$GPGSV,3,2,10,29,41,075,39,30,51,156,42,21,76,162,40,25,13,139,*71
$GPGSV,3,3,10,03,13,278,,06,28,278,31,,,,,,,,*77
$GPGSA,M,3,31,29,30,21,,,,,,,,,4.4,3.3,3.0*34
Trace #26 at position 6.250000
$GPZDA,122056.03,06,10,2011,00,00*62
$GPRMC,122056.00,A,4611.953880,N,01258.213431,E,001.2,336.3,061011,0.2,E,A*31
$GPGGA,122057.00,4611.954125,N,01258.213315,E,1,04,3.3,135.45,M,46.25,M,,*6D
$GPGLL,4611.954125,N,01258.213315,E,122057.00,A,A*6F
$GPVTG,356.8,T,357.0,M,000.9,N,001.7,K,A*25
$GPGSV,3,1,10,05,12,037,,16,33,309,,31,27,220,34,18,19,148,*79
$GPGSV,3,2,10,29,41,075,39,30,51,156,42,21,76,162,40,25,13,139,*71
$GPGSV,3,3,10,03,13,278,,06,28,278,31,,,,,,,,*77
$GPGSA,M,3,31,29,30,21,,,,,,,,,4.4,3.3,3.0*34
Trace #27 at position 6.500000
$GPZDA,122057.03,06,10,2011,00,00*63
$GPRMC,122057.00,A,4611.954125,N,01258.213315,E,000.9,356.8,061011,0.2,E,A*37
$GPGGA,122058.00,4611.954314,N,01258.213221,E,1,04,3.3,135.31,M,46.25,M,,*67
$GPGLL,4611.954314,N,01258.213221,E,122058.00,A,A*66
$GPVTG,331.1,T,331.3,M,000.9,N,001.6,K,A*2F
$GPGSV,3,1,10,05,12,037,,16,33,309,,31,27,220,33,18,19,148,*7E
$GPGSV,3,2,10,29,41,075,40,30,51,156,42,21,76,162,39,25,13,139,*71
$GPGSV,3,3,10,03,13,278,,06,28,278,31,,,,,,,,*77
$GPGSA,M,3,31,29,30,21,,,,,,,,,4.4,3.3,3.0*34
Trace #28 at position 6.750000
$GPZDA,122058.03,06,10,2011,00,00*6C
$GPRMC,122058.00,A,4611.954314,N,01258.213221,E,000.9,331.1,061011,0.2,E,A*36
$GPGGA,122059.00,4611.954451,N,01258.213130,E,1,04,3.3,135.26,M,46.25,M,,*65
$GPGLL,4611.954451,N,01258.213130,E,122059.00,A,A*62
$GPVTG,349.9,T,350.0,M,000.6,N,001.0,K,A*25
$GPGSV,3,1,10,05,12,037,,16,33,309,,31,27,220,34,18,19,148,*79
$GPGSV,3,2,10,29,41,075,39,30,51,156,42,21,76,162,40,25,13,139,*71
$GPGSV,3,3,10,03,13,278,,06,28,278,32,,,,,,,,*74
$GPGSA,M,3,31,29,30,21,,,,,,,,,4.4,3.3,3.0*34
Trace #29 at position 7.000000
$GPZDA,122059.03,06,10,2011,00,00*6D
$GPRMC,122059.00,A,4611.954451,N,01258.213130,E,000.6,349.9,061011,0.2,E,A*3A
$GPGGA,122100.00,4611.954602,N,01258.213193,E,1,04,3.3,135.28,M,46.25,M,,*6B
$GPGLL,4611.954602,N,01258.213193,E,122100.00,A,A*62
$GPVTG,28.3,T,28.5,M,000.9,N,001.7,K,A*2A
$GPGSV,3,1,10,05,12,037,,16,33,309,,31,27,220,36,18,19,148,*7B
$GPGSV,3,2,10,29,41,075,39,30,51,156,43,21,76,162,40,25,13,139,*70
$GPGSV,3,3,10,03,13,278,,06,28,278,31,,,,,,,,*77
$GPGSA,M,3,31,29,30,21,,,,,,,,,4.4,3.3,3.0*34
Trace #30 at position 7.250000
$GPZDA,122059.03,06,10,2011,00,00*6D
$GPRMC,122059.00,A,4611.954451,N,01258.213130,E,000.6,349.9,061011,0.2,E,A*3A
$GPGGA,122100.00,4611.954602,N,01258.213193,E,1,04,3.3,135.28,M,46.25,M,,*6B
$GPGLL,4611.954602,N,01258.213193,E,122100.00,A,A*62
$GPVTG,28.3,T,28.5,M,000.9,N,001.7,K,A*2A
$GPGSV,3,1,10,05,12,037,,16,33,309,,31,27,220,36,18,19,148,*7B
$GPGSV,3,2,10,29,41,075,39,30,51,156,43,21,76,162,40,25,13,139,*70
$GPGSV,3,3,10,03,13,278,,06,28,278,31,,,,,,,,*77
$GPGSA,M,3,31,29,30,21,,,,,,,,,4.4,3.3,3.0*34
Trace #31 at position 7.500000
$GPZDA,122100.03,06,10,2011,00,00*60
$GPRMC,122100.00,A,4611.954602,N,01258.213193,E,000.9,28.3,061011,0.2,E,A*0B
$GPGGA,122101.00,4611.954778,N,01258.213121,E,1,04,3.3,135.32,M,46.25,M,,*64
$GPGLL,4611.954778,N,01258.213121,E,122101.00,A,A*66
$GPVTG,313.6,T,313.7,M,001.1,N,002.0,K,A*20
$GPGSV,3,1,10,05,12,037,,16,33,309,,31,27,220,36,18,19,148,*7B
$GPGSV,3,2,10,29,41,075,40,30,51,156,40,21,76,162,40,25,13,139,*7D
$GPGSV,3,3,10,03,13,278,29,06,29,278,32,,,,,,,,*7E
$GPGSA,M,3,31,29,30,21,,,,,,,,,4.4,3.3,3.0*34
Trace #32 at position 7.750000
$GPZDA,122101.03,06,10,2011,00,00*61
$GPRMC,122101.00,A,4611.954778,N,01258.213121,E,001.1,313.6,061011,0.2,E,A*38
$GPGGA,122102.00,4611.954915,N,01258.212979,E,1,04,3.3,135.38,M,46.25,M,,*6C
$GPGLL,4611.954915,N,01258.212979,E,122102.00,A,A*64
$GPVTG,359.0,T,359.2,M,000.5,N,001.0,K,A*25
$GPGSV,3,1,10,05,12,037,,16,33,309,,31,27,220,36,18,19,148,*7B
$GPGSV,3,2,10,29,41,075,39,30,51,156,41,21,76,162,40,25,13,139,*72
$GPGSV,3,3,10,03,13,278,32,06,29,278,33,,,,,,,,*75
$GPGSA,M,3,31,29,30,21,,,,,,,,,4.4,3.3,3.0*34
Trace #33 at position 8.000000
$GPZDA,122102.03,06,10,2011,00,00*62
$GPRMC,122102.00,A,4611.954915,N,01258.212979,E,000.5,359.0,061011,0.2,E,A*37
$GPGGA,122103.00,4611.955107,N,01258.212850,E,1,04,3.3,135.31,M,46.25,M,,*64
$GPGLL,4611.955107,N,01258.212850,E,122103.00,A,A*65
$GPVTG,327.2,T,327.4,M,001.3,N,002.5,K,A*20
$GPGSV,3,1,10,05,12,037,,16,33,309,,31,27,220,33,18,19,148,*7E
$GPGSV,3,2,10,29,41,075,40,30,51,156,42,21,76,162,40,25,13,139,*7F
$GPGSV,3,3,10,03,13,278,,06,29,278,31,,,,,,,,*76
$GPGSA,M,3,31,29,30,21,,,,,,,,,4.4,3.3,3.0*34
Trace #34 at position 8.250000
$GPZDA,122102.03,06,10,2011,00,00*62
$GPRMC,122102.00,A,4611.954915,N,01258.212979,E,000.5,359.0,061011,0.2,E,A*37
$GPGGA,122103.00,4611.955107,N,01258.212850,E,1,04,3.3,135.31,M,46.25,M,,*64
$GPGLL,4611.955107,N,01258.212850,E,122103.00,A,A*65
$GPVTG,327.2,T,327.4,M,001.3,N,002.5,K,A*20
$GPGSV,3,1,10,05,12,037,,16,33,309,,31,27,220,33,18,19,148,*7E
$GPGSV,3,2,10,29,41,075,40,30,51,156,42,21,76,162,40,25,13,139,*7F
$GPGSV,3,3,10,03,13,278,,06,29,278,31,,,,,,,,*76
$GPGSA,M,3,31,29,30,21,,,,,,,,,4.4,3.3,3.0*34
Trace #35 at position 8.500000
$GPZDA,122103.04,06,10,2011,00,00*64
$GPRMC,122103.00,A,4611.955107,N,01258.212850,E,001.3,327.2,061011,0.2,E,A*3A
$GPGGA,122104.00,4611.955294,N,01258.212655,E,1,04,3.3,135.10,M,46.25,M,,*62
$GPGLL,4611.955294,N,01258.212655,E,122104.00,A,A*60
$GPVTG,322.9,T,323.0,M,000.7,N,001.3,K,A*2E
$GPGSV,3,1,10,05,12,037,,16,33,309,,31,27,220,35,18,19,148,*78
$GPGSV,3,2,10,29,41,075,39,30,51,156,41,21,76,162,40,25,13,139,*72
$GPGSV,3,3,10,03,13,278,30,06,29,278,33,,,,,,,,*77
$GPGSA,M,3,31,29,30,21,,,,,,,,,4.4,3.3,3.0*34
Trace #36 at position 8.750000
$GPZDA,122103.04,06,10,2011,00,00*64
$GPRMC,122103.00,A,4611.955107,N,01258.212850,E,001.3,327.2,061011,0.2,E,A*3A
$GPGGA,122104.00,4611.955294,N,01258.212655,E,1,04,3.3,135.10,M,46.25,M,,*62
$GPGLL,4611.955294,N,01258.212655,E,122104.00,A,A*60
$GPVTG,322.9,T,323.0,M,000.7,N,001.3,K,A*2E
$GPGSV,3,1,10,05,12,037,,16,33,309,,31,27,220,35,18,19,148,*78
$GPGSV,3,2,10,29,41,075,39,30,51,156,41,21,76,162,40,25,13,139,*72
$GPGSV,3,3,10,03,13,278,30,06,29,278,33,,,,,,,,*77
$GPGSA,M,3,31,29,30,21,,,,,,,,,4.4,3.3,3.0*34
Trace #37 at position 9.000000
$GPZDA,122104.03,06,10,2011,00,00*64
$GPRMC,122104.00,A,4611.955294,N,01258.212655,E,000.7,322.9,061011,0.2,E,A*34
$GPGGA,122105.00,4611.955409,N,01258.212532,E,1,04,3.2,135.01,M,46.25,M,,*62
$GPGLL,4611.955409,N,01258.212532,E,122105.00,A,A*61
$GPVTG,326.0,T,326.2,M,000.7,N,001.3,K,A*24
$GPGSV,3,1,10,05,12,037,,16,33,309,,31,27,220,34,18,19,148,*79
$GPGSV,3,2,10,29,41,075,39,30,51,156,42,21,76,162,40,25,13,139,*71
$GPGSV,3,3,10,03,13,278,30,06,29,278,33,,,,,,,,*77
$GPGSA,M,3,31,29,30,21,,,,,,,,,4.4,3.2,3.0*35
Trace #38 at position 9.250000
$GPZDA,122105.03,06,10,2011,00,00*65
$GPRMC,122105.00,A,4611.955409,N,01258.212532,E,000.7,326.0,061011,0.2,E,A*38
$GPGGA,122106.00,4611.955539,N,01258.212418,E,1,04,3.2,134.92,M,46.25,M,,*61
$GPGLL,4611.955539,N,01258.212418,E,122106.00,A,A*69
$GPVTG,328.9,T,329.1,M,000.7,N,001.3,K,A*2F
$GPGSV,3,1,10,05,12,037,,16,33,309,,31,27,220,32,18,19,148,*7F
$GPGSV,3,2,10,29,41,075,40,30,51,156,41,21,76,162,40,25,13,139,*7C
$GPGSV,3,3,10,03,13,278,,06,29,278,,,,,,,,,*74
$GPGSA,M,3,31,29,30,21,,,,,,,,,4.4,3.2,3.0*35
Trace #39 at position 9.500000
$GPZDA,122105.03,06,10,2011,00,00*65
$GPRMC,122105.00,A,4611.955409,N,01258.212532,E,000.7,326.0,061011,0.2,E,A*38
$GPGGA,122106.00,4611.955539,N,01258.212418,E,1,04,3.2,134.92,M,46.25,M,,*61
$GPGLL,4611.955539,N,01258.212418,E,122106.00,A,A*69
$GPVTG,328.9,T,329.1,M,000.7,N,001.3,K,A*2F
$GPGSV,3,1,10,05,12,037,,16,33,309,,31,27,220,32,18,19,148,*7F
$GPGSV,3,2,10,29,41,075,40,30,51,156,41,21,76,162,40,25,13,139,*7C
$GPGSV,3,3,10,03,13,278,,06,29,278,,,,,,,,,*74
$GPGSA,M,3,31,29,30,21,,,,,,,,,4.4,3.2,3.0*35
Trace #40 at position 9.750000
$GPZDA,122106.03,06,10,2011,00,00*66
$GPRMC,122106.00,A,4611.955539,N,01258.212418,E,000.7,328.9,061011,0.2,E,A*37
$GPGGA,122107.00,4611.955716,N,01258.212312,E,1,04,3.2,134.92,M,46.25,M,,*62
$GPGLL,4611.955716,N,01258.212312,E,122107.00,A,A*6A
$GPVTG,338.9,T,339.1,M,000.9,N,001.7,K,A*25
$GPGSV,3,1,10,05,12,037,,16,33,309,,31,27,220,33,18,19,148,*7E
$GPGSV,3,2,10,29,41,075,38,30,51,156,42,21,76,162,39,25,13,139,*7E
$GPGSV,3,3,10,03,13,278,29,06,29,278,,,,,,,,,*7F
$GPGSA,M,3,31,29,30,21,,,,,,,,,4.4,3.2,3.0*35
Trace #41 at position 10.000000
$GPZDA,122107.03,06,10,2011,00,00*67
$GPRMC,122107.00,A,4611.955716,N,01258.212312,E,000.9,338.9,061011,0.2,E,A*3B
$GPGGA,122108.00,4611.955879,N,01258.212226,E,1,04,3.2,134.98,M,46.25,M,,*67
$GPGLL,4611.955879,N,01258.212226,E,122108.00,A,A*65
$GPVTG,329.1,T,329.3,M,000.6,N,001.1,K,A*27
$GPGSV,3,1,10,05,12,037,,16,33,309,,31,27,220,34,18,19,148,*79
$GPGSV,3,2,10,29,41,075,38,30,51,156,41,21,76,162,39,25,13,139,*7D
$GPGSV,3,3,10,03,13,278,29,06,29,278,32,,,,,,,,*7E
$GPGSA,M,3,31,29,30,21,,,,,,,,,4.4,3.2,3.0*35
Trace #42 at position 10.250000
$GPZDA,122107.03,06,10,2011,00,00*67
$GPRMC,122107.00,A,4611.955716,N,01258.212312,E,000.9,338.9,061011,0.2,E,A*3B
$GPGGA,122108.00,4611.955879,N,01258.212226,E,1,04,3.2,134.98,M,46.25,M,,*67
$GPGLL,4611.955879,N,01258.212226,E,122108.00,A,A*65
$GPVTG,329.1,T,329.3,M,000.6,N,001.1,K,A*27
$GPGSV,3,1,10,05,12,037,,16,33,309,,31,27,220,34,18,19,148,*79
$GPGSV,3,2,10,29,41,075,38,30,51,156,41,21,76,162,39,25,13,139,*7D
$GPGSV,3,3,10,03,13,278,29,06,29,278,32,,,,,,,,*7E
$GPGSA,M,3,31,29,30,21,,,,,,,,,4.4,3.2,3.0*35
Trace #43 at position 10.500000
$GPZDA,122109.03,06,10,2011,00,00*69
$GPRMC,122109.00,A,4611.955934,N,01258.212257,E,000.3,96.9,061011,0.2,E,A*06
$GPGGA,122110.00,4611.956050,N,01258.212179,E,1,04,3.2,135.01,M,46.25,M,,*66
$GPGLL,4611.956050,N,01258.212179,E,122110.00,A,A*65
$GPVTG,317.2,T,317.3,M,001.2,N,002.2,K,A*21
$GPGSV,3,1,10,05,12,037,,16,33,309,,31,27,220,35,18,19,148,*78
$GPGSV,3,2,10,29,41,075,39,30,50,156,41,21,76,162,39,25,13,139,*7D
$GPGSV,3,3,10,03,13,278,29,06,29,278,30,,,,,,,,*7C
$GPGSA,M,3,31,29,30,21,,,,,,,,,4.4,3.2,3.0*35
Trace #44 at position 10.750000
$GPZDA,122109.03,06,10,2011,00,00*69
$GPRMC,122109.00,A,4611.955934,N,01258.212257,E,000.3,96.9,061011,0.2,E,A*06
$GPGGA,122110.00,4611.956050,N,01258.212179,E,1,04,3.2,135.01,M,46.25,M,,*66
$GPGLL,4611.956050,N,01258.212179,E,122110.00,A,A*65
$GPVTG,317.2,T,317.3,M,001.2,N,002.2,K,A*21
$GPGSV,3,1,10,05,12,037,,16,33,309,,31,27,220,35,18,19,148,*78
$GPGSV,3,2,10,29,41,075,39,30,50,156,41,21,76,162,39,25,13,139,*7D
$GPGSV,3,3,10,03,13,278,29,06,29,278,30,,,,,,,,*7C
$GPGSA,M,3,31,29,30,21,,,,,,,,,4.4,3.2,3.0*35
Trace #45 at position 11.000000
$GPZDA,122110.03,06,10,2011,00,00*61
$GPRMC,122110.00,A,4611.956050,N,01258.212179,E,001.2,317.2,061011,0.2,E,A*38
$GPGGA,122111.00,4611.956262,N,01258.212062,E,1,04,3.2,135.08,M,46.25,M,,*66
$GPGLL,4611.956262,N,01258.212062,E,122111.00,A,A*6C
$GPVTG,1.2,T,1.4,M,000.7,N,001.3,K,A*20
$GPGSV,3,1,10,05,12,037,,16,33,309,,31,27,220,36,18,19,147,*74
$GPGSV,3,2,10,29,41,075,39,30,50,156,41,21,76,162,39,25,13,139,*7D
$GPGSV,3,3,10,03,13,278,27,06,29,278,,,,,,,,,*71
$GPGSA,M,3,31,29,30,21,,,,,,,,,4.4,3.2,3.0*35
Trace #46 at position 11.250000
$GPZDA,122111.03,06,10,2011,00,00*60
$GPRMC,122111.00,A,4611.956262,N,01258.212062,E,000.7,1.2,061011,0.2,E,A*31
$GPGGA,122112.00,4611.956447,N,01258.211997,E,1,04,3.2,135.08,M,46.25,M,,*64
$GPGLL,4611.956447,N,01258.211997,E,122112.00,A,A*6E
$GPVTG,321.4,T,321.6,M,000.9,N,001.7,K,A*2E
$GPGSV,3,1,10,05,12,037,,16,33,309,,31,27,220,36,18,19,147,*74
$GPGSV,3,2,10,29,41,075,39,30,50,156,41,21,76,162,39,25,13,139,*7D
$GPGSV,3,3,10,03,13,278,28,06,29,278,32,,,,,,,,*7F
$GPGSA,M,3,31,29,30,21,,,,,,,,,4.4,3.2,3.0*35
Trace #47 at position 11.500000
$GPZDA,122112.03,06,10,2011,00,00*63
$GPRMC,122112.00,A,4611.956447,N,01258.211997,E,000.9,321.4,061011,0.2,E,A*3A
$GPGGA,122113.00,4611.956617,N,01258.212033,E,1,04,3.2,135.08,M,46.25,M,,*66
$GPGLL,4611.956617,N,01258.212033,E,122113.00,A,A*6C
$GPVTG,41.3,T,41.5,M,000.9,N,001.6,K,A*2B
$GPGSV,3,1,10,05,12,037,,16,33,309,,31,27,220,36,18,19,147,*74
$GPGSV,3,2,10,29,41,075,40,30,50,156,41,21,76,162,39,25,13,139,*73
$GPGSV,3,3,10,03,13,278,28,06,29,278,32,,,,,,,,*7F
$GPGSA,M,3,31,29,30,21,,,,,,,,,4.4,3.2,3.0*35
Trace #48 at position 11.750000
$GPZDA,122113.03,06,10,2011,00,00*62
$GPRMC,122113.00,A,4611.956617,N,01258.212033,E,000.9,41.3,061011,0.2,E,A*0A
$GPGGA,122114.00,4611.956773,N,01258.212118,E,1,04,3.2,135.10,M,46.25,M,,*63
$GPGLL,4611.956773,N,01258.212118,E,122114.00,A,A*60
$GPVTG,342.0,T,342.1,M,000.7,N,001.4,K,A*20
$GPGSV,3,1,10,05,12,037,,16,33,309,,31,27,220,37,18,19,147,*75
$GPGSV,3,2,10,29,41,075,40,30,50,156,41,21,76,162,39,25,13,139,*73
$GPGSV,3,3,10,03,13,278,29,06,29,278,31,,,,,,,,*7D
$GPGSA,M,3,31,29,30,21,,,,,,,,,4.4,3.2,3.0*35
Trace #49 at position 12.000000
$GPZDA,122114.03,06,10,2011,00,00*65
$GPRMC,122114.00,A,4611.956773,N,01258.212118,E,000.7,342.0,061011,0.2,E,A*3B
$GPGGA,122115.00,4611.956932,N,01258.212061,E,1,04,3.2,135.13,M,46.25,M,,*65
$GPGLL,4611.956932,N,01258.212061,E,122115.00,A,A*65
$GPVTG,349.1,T,349.2,M,000.7,N,001.3,K,A*25
$GPGSV,3,1,10,05,12,037,,16,33,309,,31,27,220,37,18,19,147,*75
$GPGSV,3,2,10,29,41,075,39,30,50,156,42,21,76,162,38,25,13,139,*7F
$GPGSV,3,3,10,03,13,278,28,06,29,278,31,,,,,,,,*7C
$GPGSA,M,3,31,29,30,21,,,,,,,,,4.4,3.2,3.0*35
Trace #50 at position 12.250000
$GPZDA,122114.03,06,10,2011,00,00*65
$GPRMC,122114.00,A,4611.956773,N,01258.212118,E,000.7,342.0,061011,0.2,E,A*3B
$GPGGA,122115.00,4611.956932,N,01258.212061,E,1,04,3.2,135.13,M,46.25,M,,*65
$GPGLL,4611.956932,N,01258.212061,E,122115.00,A,A*65
$GPVTG,349.1,T,349.2,M,000.7,N,001.3,K,A*25
$GPGSV,3,1,10,05,12,037,,16,33,309,,31,27,220,37,18,19,147,*75
$GPGSV,3,2,10,29,41,075,39,30,50,156,42,21,76,162,38,25,13,139,*7F
$GPGSV,3,3,10,03,13,278,28,06,29,278,31,,,,,,,,*7C
$GPGSA,M,3,31,29,30,21,,,,,,,,,4.4,3.2,3.0*35
Trace #51 at position 12.500000
$GPZDA,122116.03,06,10,2011,00,00*67
$GPRMC,122116.00,A,4611.957023,N,01258.212042,E,000.2,4.4,061011,0.2,E,A*34
$GPGGA,122117.00,4611.957108,N,01258.212003,E,1,04,3.2,135.13,M,46.25,M,,*63
$GPGLL,4611.957108,N,01258.212003,E,122117.00,A,A*63
$GPVTG,340.1,T,340.2,M,000.7,N,001.2,K,A*24
$GPGSV,3,1,10,05,12,037,31,16,33,309,,31,27,220,37,18,19,147,*77
$GPGSV,3,2,10,29,41,075,39,30,50,156,41,21,76,162,39,25,13,139,*7D
$GPGSV,3,3,10,03,13,278,26,06,29,278,32,,,,,,,,*71
$GPGSA,M,3,31,29,30,21,,,,,,,,,4.4,3.2,3.0*35
Trace #52 at position 12.750000
$GPZDA,122116.03,06,10,2011,00,00*67
$GPRMC,122116.00,A,4611.957023,N,01258.212042,E,000.2,4.4,061011,0.2,E,A*34
$GPGGA,122117.00,4611.957108,N,01258.212003,E,1,04,3.2,135.13,M,46.25,M,,*63
$GPGLL,4611.957108,N,01258.212003,E,122117.00,A,A*63
$GPVTG,340.1,T,340.2,M,000.7,N,001.2,K,A*24
$GPGSV,3,1,10,05,12,037,31,16,33,309,,31,27,220,37,18,19,147,*77
$GPGSV,3,2,10,29,41,075,39,30,50,156,41,21,76,162,39,25,13,139,*7D
$GPGSV,3,3,10,03,13,278,26,06,29,278,32,,,,,,,,*71
$GPGSA,M,3,31,29,30,21,,,,,,,,,4.4,3.2,3.0*35
Trace #53 at position 13.000000
$GPZDA,122117.03,06,10,2011,00,00*66
$GPRMC,122117.00,A,4611.957108,N,01258.212003,E,000.7,340.1,061011,0.2,E,A*3B
$GPGGA,122118.00,4611.957227,N,01258.211953,E,1,04,3.2,135.14,M,46.25,M,,*6A
$GPGLL,4611.957227,N,01258.211953,E,122118.00,A,A*6D
$GPVTG,350.9,T,351.0,M,000.5,N,000.9,K,A*27
$GPGSV,3,1,10,05,12,037,32,16,33,309,,31,27,220,36,18,19,147,*75
$GPGSV,3,2,10,29,41,075,39,30,50,156,42,21,76,162,39,25,13,139,*7E
$GPGSV,3,3,10,03,13,278,29,06,29,278,31,,,,,,,,*7D
$GPGSA,M,3,31,29,30,21,,,,,,,,,4.4,3.2,3.0*35
Trace #54 at position 13.250000
$GPZDA,122117.03,06,10,2011,00,00*66
$GPRMC,122117.00,A,4611.957108,N,01258.212003,E,000.7,340.1,061011,0.2,E,A*3B
$GPGGA,122118.00,4611.957227,N,01258.211953,E,1,04,3.2,135.14,M,46.25,M,,*6A
$GPGLL,4611.957227,N,01258.211953,E,122118.00,A,A*6D
$GPVTG,350.9,T,351.0,M,000.5,N,000.9,K,A*27
$GPGSV,3,1,10,05,12,037,32,16,33,309,,31,27,220,36,18,19,147,*75
$GPGSV,3,2,10,29,41,075,39,30,50,156,42,21,76,162,39,25,13,139,*7E
$GPGSV,3,3,10,03,13,278,29,06,29,278,31,,,,,,,,*7D
$GPGSA,M,3,31,29,30,21,,,,,,,,,4.4,3.2,3.0*35
Trace #55 at position 13.500000
$GPZDA,122118.03,06,10,2011,00,00*69
$GPRMC,122118.00,A,4611.957227,N,01258.211953,E,000.5,350.9,061011,0.2,E,A*3E
$GPGGA,122119.00,4611.957381,N,01258.211951,E,1,04,3.2,135.17,M,46.25,M,,*67
$GPGLL,4611.957381,N,01258.211951,E,122119.00,A,A*63
$GPVTG,2.4,T,2.6,M,000.9,N,001.6,K,A*2F
$GPGSV,3,1,10,05,12,037,32,16,33,309,,31,26,220,37,18,19,147,*75
$GPGSV,3,2,10,29,41,075,39,30,50,156,42,21,76,161,39,25,13,139,*7D
$GPGSV,3,3,10,03,13,278,31,06,29,278,33,,,,,,,,*76
$GPGSA,M,3,31,29,30,21,,,,,,,,,4.4,3.2,3.0*35
Trace #56 at position 13.750000
$GPZDA,122118.03,06,10,2011,00,00*69
$GPRMC,122118.00,A,4611.957227,N,01258.211953,E,000.5,350.9,061011,0.2,E,A*3E
$GPGGA,122119.00,4611.957381,N,01258.211951,E,1,04,3.2,135.17,M,46.25,M,,*67
$GPGLL,4611.957381,N,01258.211951,E,122119.00,A,A*63
$GPVTG,2.4,T,2.6,M,000.9,N,001.6,K,A*2F
$GPGSV,3,1,10,05,12,037,32,16,33,309,,31,26,220,37,18,19,147,*75
$GPGSV,3,2,10,29,41,075,39,30,50,156,42,21,76,161,39,25,13,139,*7D
$GPGSV,3,3,10,03,13,278,31,06,29,278,33,,,,,,,,*76
$GPGSA,M,3,31,29,30,21,,,,,,,,,4.4,3.2,3.0*35
Trace #57 at position 14.000000
$GPZDA,122120.04,06,10,2011,00,00*65
$GPRMC,122120.00,A,4611.957429,N,01258.211925,E,000.7,313.9,061011,0.2,E,A*39
$GPGGA,122121.00,4611.957334,N,01258.211943,E,1,05,2.7,135.78,M,46.25,M,,*6D
$GPGLL,4611.957334,N,01258.211943,E,122121.00,A,A*65
$GPVTG,145.4,T,145.5,M,000.5,N,000.9,K,A*2E
$GPGSV,3,1,10,05,12,037,32,16,33,309,,31,26,220,32,18,19,147,*70
$GPGSV,3,2,10,29,41,075,39,30,50,156,42,21,76,161,39,25,13,139,*7D
$GPGSV,3,3,10,03,13,278,29,06,29,278,32,,,,,,,,*7E
$GPGSA,M,3,05,31,29,30,21,,,,,,,,3.6,2.7,2.5*35
Trace #58 at position 14.250000
$GPZDA,122121.03,06,10,2011,00,00*63
$GPRMC,122121.00,A,4611.957334,N,01258.211943,E,000.5,145.4,061011,0.2,E,A*3D
$GPGGA,122122.00,4611.957366,N,01258.211948,E,1,05,2.7,135.98,M,46.25,M,,*6C
$GPGLL,4611.957366,N,01258.211948,E,122122.00,A,A*6A
$GPVTG,337.8,T,338.0,M,001.4,N,002.7,K,A*24
$GPGSV,3,1,10,05,12,037,31,16,33,309,,31,26,220,32,18,19,147,*73
$GPGSV,3,2,10,29,41,075,39,30,50,156,42,21,76,161,39,25,13,139,*7D
$GPGSV,3,3,10,03,13,278,28,06,29,278,32,,,,,,,,*7F
$GPGSA,M,3,05,31,29,30,21,,,,,,,,3.6,2.7,2.5*35
Trace #59 at position 14.500000
$GPZDA,122122.03,06,10,2011,00,00*60
$GPRMC,122122.00,A,4611.957366,N,01258.211948,E,001.4,337.8,061011,0.2,E,A*39
$GPGGA,122123.00,4611.957627,N,01258.211775,E,1,04,3.2,136.05,M,46.25,M,,*6F
$GPGLL,4611.957627,N,01258.211775,E,122123.00,A,A*6B
$GPVTG,328.8,T,329.0,M,000.5,N,000.9,K,A*26
$GPGSV,3,1,10,05,12,037,27,16,33,309,,31,26,220,34,18,19,147,*72
$GPGSV,3,2,10,29,41,075,40,30,50,156,42,21,76,161,39,25,13,139,*73
$GPGSV,3,3,10,03,13,278,30,06,29,278,31,,,,,,,,*75
$GPGSA,M,3,31,29,30,21,,,,,,,,,4.4,3.2,2.9*3D
Trace #60 at position 14.750000
$GPZDA,122122.03,06,10,2011,00,00*60
$GPRMC,122122.00,A,4611.957366,N,01258.211948,E,001.4,337.8,061011,0.2,E,A*39
$GPGGA,122123.00,4611.957627,N,01258.211775,E,1,04,3.2,136.05,M,46.25,M,,*6F
$GPGLL,4611.957627,N,01258.211775,E,122123.00,A,A*6B
$GPVTG,328.8,T,329.0,M,000.5,N,000.9,K,A*26
$GPGSV,3,1,10,05,12,037,27,16,33,309,,31,26,220,34,18,19,147,*72
$GPGSV,3,2,10,29,41,075,40,30,50,156,42,21,76,161,39,25,13,139,*73
$GPGSV,3,3,10,03,13,278,30,06,29,278,31,,,,,,,,*75
$GPGSA,M,3,31,29,30,21,,,,,,,,,4.4,3.2,2.9*3D
Trace #61 at position 15.000000
$GPZDA,122123.04,06,10,2011,00,00*66
$GPRMC,122123.00,A,4611.957627,N,01258.211775,E,000.5,328.8,061011,0.2,E,A*36
$GPGGA,122124.00,4611.957865,N,01258.211560,E,1,04,3.2,135.91,M,46.25,M,,*68
$GPGLL,4611.957865,N,01258.211560,E,122124.00,A,A*62
$GPVTG,327.7,T,327.9,M,001.4,N,002.6,K,A*2C
$GPGSV,3,1,10,05,12,037,28,16,33,309,,31,26,220,,18,19,147,*7A
$GPGSV,3,2,10,29,41,075,40,30,50,156,43,21,76,161,39,25,13,139,*72
$GPGSV,3,3,10,03,13,278,28,06,29,278,,,,,,,,,*7E
$GPGSA,M,3,31,29,30,21,,,,,,,,,4.4,3.2,2.9*3D
Trace #62 at position 15.250000
$GPZDA,122123.04,06,10,2011,00,00*66
$GPRMC,122123.00,A,4611.957627,N,01258.211775,E,000.5,328.8,061011,0.2,E,A*36
$GPGGA,122124.00,4611.957865,N,01258.211560,E,1,04,3.2,135.91,M,46.25,M,,*68
$GPGLL,4611.957865,N,01258.211560,E,122124.00,A,A*62
$GPVTG,327.7,T,327.9,M,001.4,N,002.6,K,A*2C
$GPGSV,3,1,10,05,12,037,28,16,33,309,,31,26,220,,18,19,147,*7A
$GPGSV,3,2,10,29,41,075,40,30,50,156,43,21,76,161,39,25,13,139,*72
$GPGSV,3,3,10,03,13,278,28,06,29,278,,,,,,,,,*7E
$GPGSA,M,3,31,29,30,21,,,,,,,,,4.4,3.2,2.9*3D
Trace #63 at position 15.500000
$GPZDA,122124.03,06,10,2011,00,00*66
$GPRMC,122124.00,A,4611.957865,N,01258.211560,E,001.4,327.7,061011,0.2,E,A*3F
$GPGGA,122125.00,4611.958175,N,01258.211228,E,1,04,3.2,135.33,M,46.25,M,,*6D
$GPGLL,4611.958175,N,01258.211228,E,122125.00,A,A*6F
$GPVTG,317.6,T,317.7,M,001.3,N,002.5,K,A*27
$GPGSV,3,1,10,05,12,037,28,16,33,309,,31,26,220,,18,19,147,*7A
$GPGSV,3,2,10,29,41,075,39,30,50,156,41,21,76,161,38,25,13,139,*7F
$GPGSV,3,3,10,03,13,278,27,06,29,278,32,,,,,,,,*70
$GPGSA,M,3,31,29,30,21,,,,,,,,,4.4,3.2,2.9*3D
Trace #64 at position 15.750000
$GPZDA,122125.03,06,10,2011,00,00*67
$GPRMC,122125.00,A,4611.958175,N,01258.211228,E,001.3,317.6,061011,0.2,E,A*37
$GPGGA,122126.00,4611.958345,N,01258.211008,E,1,04,3.2,134.95,M,46.25,M,,*62
$GPGLL,4611.958345,N,01258.211008,E,122126.00,A,A*6D
$GPVTG,320.8,T,321.0,M,000.3,N,000.6,K,A*2F
$GPGSV,3,1,10,05,12,037,28,16,33,309,,31,26,220,36,18,19,147,*7F
$GPGSV,3,2,10,29,41,075,39,30,50,156,42,21,76,161,38,25,13,139,*7C
$GPGSV,3,3,10,03,13,278,31,06,29,278,32,,,,,,,,*77
$GPGSA,M,3,31,29,30,21,,,,,,,,,4.4,3.2,2.9*3D
Trace #65 at position 16.000000
$GPZDA,122125.03,06,10,2011,00,00*67
$GPRMC,122125.00,A,4611.958175,N,01258.211228,E,001.3,317.6,061011,0.2,E,A*37
$GPGGA,122126.00,4611.958345,N,01258.211008,E,1,04,3.2,134.95,M,46.25,M,,*62
$GPGLL,4611.958345,N,01258.211008,E,122126.00,A,A*6D
$GPVTG,320.8,T,321.0,M,000.3,N,000.6,K,A*2F
$GPGSV,3,1,10,05,12,037,28,16,33,309,,31,26,220,36,18,19,147,*7F
$GPGSV,3,2,10,29,41,075,39,30,50,156,42,21,76,161,38,25,13,139,*7C
$GPGSV,3,3,10,03,13,278,31,06,29,278,32,,,,,,,,*77
$GPGSA,M,3,31,29,30,21,,,,,,,,,4.4,3.2,2.9*3D
Trace #66 at position 16.250000
$GPZDA,122126.03,06,10,2011,00,00*64
$GPRMC,122126.00,A,4611.958345,N,01258.211008,E,000.3,320.8,061011,0.2,E,A*3E
$GPGGA,122127.00,4611.958459,N,01258.210981,E,1,04,3.2,134.90,M,46.25,M,,*65
$GPGLL,4611.958459,N,01258.210981,E,122127.00,A,A*6F
$GPVTG,2.4,T,2.5,M,000.6,N,001.1,K,A*24
$GPGSV,3,1,10,05,12,037,31,16,33,309,,31,26,220,34,18,19,147,*75
$GPGSV,3,2,10,29,41,075,39,30,50,156,41,21,76,161,38,25,13,139,*7F
$GPGSV,3,3,10,03,13,278,30,06,29,278,32,,,,,,,,*76
$GPGSA,M,3,31,29,30,21,,,,,,,,,4.4,3.2,2.9*3D
Trace #67 at position 16.500000
$GPZDA,122126.03,06,10,2011,00,00*64
$GPRMC,122126.00,A,4611.958345,N,01258.211008,E,000.3,320.8,061011,0.2,E,A*3E
$GPGGA,122127.00,4611.958459,N,01258.210981,E,1,04,3.2,134.90,M,46.25,M,,*65
$GPGLL,4611.958459,N,01258.210981,E,122127.00,A,A*6F
$GPVTG,2.4,T,2.5,M,000.6,N,001.1,K,A*24
$GPGSV,3,1,10,05,12,037,31,16,33,309,,31,26,220,34,18,19,147,*75
$GPGSV,3,2,10,29,41,075,39,30,50,156,41,21,76,161,38,25,13,139,*7F
$GPGSV,3,3,10,03,13,278,30,06,29,278,32,,,,,,,,*76
$GPGSA,M,3,31,29,30,21,,,,,,,,,4.4,3.2,2.9*3D
Trace #68 at position 16.750000
$GPZDA,122127.03,06,10,2011,00,00*65
$GPRMC,122127.00,A,4611.958459,N,01258.210981,E,000.6,2.4,061011,0.2,E,A*36
$GPGGA,122128.00,4611.958658,N,01258.210939,E,1,04,3.2,134.80,M,46.25,M,,*6B
$GPGLL,4611.958658,N,01258.210939,E,122128.00,A,A*60
$GPVTG,344.5,T,344.7,M,001.0,N,001.8,K,A*29
$GPGSV,3,1,10,05,12,037,30,16,33,309,,31,26,220,34,18,19,147,*74
$GPGSV,3,2,10,29,41,075,40,30,50,156,41,21,76,161,39,25,13,139,*70
$GPGSV,3,3,10,03,13,278,31,06,29,278,32,,,,,,,,*77
$GPGSA,M,3,31,29,30,21,,,,,,,,,4.4,3.2,2.9*3D
Trace #69 at position 17.000000
$GPZDA,122127.03,06,10,2011,00,00*65
$GPRMC,122127.00,A,4611.958459,N,01258.210981,E,000.6,2.4,061011,0.2,E,A*36
$GPGGA,122128.00,4611.958658,N,01258.210939,E,1,04,3.2,134.80,M,46.25,M,,*6B
$GPGLL,4611.958658,N,01258.210939,E,122128.00,A,A*60
$GPVTG,344.5,T,344.7,M,001.0,N,001.8,K,A*29
$GPGSV,3,1,10,05,12,037,30,16,33,309,,31,26,220,34,18,19,147,*74
$GPGSV,3,2,10,29,41,075,40,30,50,156,41,21,76,161,39,25,13,139,*70
$GPGSV,3,3,10,03,13,278,31,06,29,278,32,,,,,,,,*77
$GPGSA,M,3,31,29,30,21,,,,,,,,,4.4,3.2,2.9*3D
Trace #70 at position 17.250000
$GPZDA,122128.03,06,10,2011,00,00*6A
$GPRMC,122128.00,A,4611.958658,N,01258.210939,E,001.0,344.5,061011,0.2,E,A*3E
$GPGGA,,,,,,0,03,,,M,,M,,*65
$GPGLL,,,,,,V,N*64
$GPVTG,,T,,,,N,,K,N*61
$GPGSV,3,1,10,05,12,037,32,16,33,309,,31,26,220,34,18,19,147,*76
$GPGSV,3,2,10,29,41,075,38,30,50,156,41,21,76,161,39,25,13,139,*7F
$GPGSV,3,3,10,03,13,278,31,06,29,278,32,,,,,,,,*77
$GPGSA,M,1,,,,,,,,,,,,,4.4,3.2,2.9*36
Trace #71 at position 17.500000
$GPZDA,122128.03,06,10,2011,00,00*6A
$GPRMC,122128.00,A,4611.958658,N,01258.210939,E,001.0,344.5,061011,0.2,E,A*3E
$GPGGA,,,,,,0,03,,,M,,M,,*65
$GPGLL,,,,,,V,N*64
$GPVTG,,T,,,,N,,K,N*61
$GPGSV,3,1,10,05,12,037,32,16,33,309,,31,26,220,34,18,19,147,*76
$GPGSV,3,2,10,29,41,075,38,30,50,156,41,21,76,161,39,25,13,139,*7F
$GPGSV,3,3,10,03,13,278,31,06,29,278,32,,,,,,,,*77
$GPGSA,M,1,,,,,,,,,,,,,4.4,3.2,2.9*36
Trace #72 at position 17.750000
$GPZDA,122129.02,06,10,2011,00,00*6A
$GPRMC,122128.00,V,,,,,,,,,,N*77
$GPGGA,122130.00,4611.959149,N,01258.210680,E,1,04,3.2,134.45,M,46.25,M,,*60
$GPGLL,4611.959149,N,01258.210680,E,122130.00,A,A*62
$GPVTG,336.2,T,336.4,M,001.0,N,001.9,K,A*2C
$GPGSV,3,1,10,05,12,037,31,16,33,309,,31,26,220,34,18,19,147,*75
$GPGSV,3,2,10,29,41,075,40,30,50,156,42,21,76,161,40,25,13,139,*7D
$GPGSV,3,3,10,03,13,278,30,06,29,278,32,,,,,,,,*76
$GPGSA,M,3,31,29,30,21,,,,,,,,,4.4,3.2,2.9*3D
Trace #73 at position 18.000000
$GPZDA,122130.03,06,10,2011,00,00*63
$GPRMC,122130.00,A,4611.959149,N,01258.210680,E,001.0,336.2,061011,0.2,E,A*3E
$GPGGA,122131.00,4611.959016,N,01258.210992,E,1,05,1.6,134.53,M,46.25,M,,*66
$GPGLL,4611.959016,N,01258.210992,E,122131.00,A,A*64
$GPVTG,114.0,T,114.1,M,000.8,N,001.5,K,A*2E
$GPGSV,3,1,10,05,12,037,31,16,33,309,,31,26,220,34,18,19,147,*75
$GPGSV,3,2,10,29,41,075,40,30,50,156,42,21,76,161,39,25,13,139,*73
$GPGSV,3,3,10,03,13,278,29,06,29,278,34,,,,,,,,*78
$GPGSA,M,3,31,29,30,21,06,,,,,,,,3.4,1.6,2.9*3A
Trace #74 at position 18.250000
$GPZDA,122130.03,06,10,2011,00,00*63
$GPRMC,122130.00,A,4611.959149,N,01258.210680,E,001.0,336.2,061011,0.2,E,A*3E
$GPGGA,122131.00,4611.959016,N,01258.210992,E,1,05,1.6,134.53,M,46.25,M,,*66
$GPGLL,4611.959016,N,01258.210992,E,122131.00,A,A*64
$GPVTG,114.0,T,114.1,M,000.8,N,001.5,K,A*2E
$GPGSV,3,1,10,05,12,037,31,16,33,309,,31,26,220,34,18,19,147,*75
$GPGSV,3,2,10,29,41,075,40,30,50,156,42,21,76,161,39,25,13,139,*73
$GPGSV,3,3,10,03,13,278,29,06,29,278,34,,,,,,,,*78
$GPGSA,M,3,31,29,30,21,06,,,,,,,,3.4,1.6,2.9*3A
Trace #75 at position 18.500000
$GPZDA,122131.04,06,10,2011,00,00*65
$GPRMC,122131.00,A,4611.959016,N,01258.210992,E,000.8,114.0,061011,0.2,E,A*31
$GPGGA,122132.00,4611.958952,N,01258.211290,E,1,05,1.6,134.70,M,46.25,M,,*64
$GPGLL,4611.958952,N,01258.211290,E,122132.00,A,A*67
$GPVTG,349.5,T,349.6,M,001.1,N,002.0,K,A*22
$GPGSV,3,1,10,05,12,037,30,16,33,309,,31,26,220,36,18,19,147,*76
$GPGSV,3,2,10,29,41,075,40,30,50,156,42,21,76,161,39,25,13,139,*73
$GPGSV,3,3,10,03,13,278,31,06,29,278,33,,,,,,,,*76
$GPGSA,M,3,31,29,30,21,06,,,,,,,,3.4,1.6,2.9*3A
Trace #76 at position 18.750000
$GPZDA,122131.04,06,10,2011,00,00*65
$GPRMC,122131.00,A,4611.959016,N,01258.210992,E,000.8,114.0,061011,0.2,E,A*31
$GPGGA,122132.00,4611.958952,N,01258.211290,E,1,05,1.6,134.70,M,46.25,M,,*64
$GPGLL,4611.958952,N,01258.211290,E,122132.00,A,A*67
$GPVTG,349.5,T,349.6,M,001.1,N,002.0,K,A*22
$GPGSV,3,1,10,05,12,037,30,16,33,309,,31,26,220,36,18,19,147,*76
$GPGSV,3,2,10,29,41,075,40,30,50,156,42,21,76,161,39,25,13,139,*73
$GPGSV,3,3,10,03,13,278,31,06,29,278,33,,,,,,,,*76
$GPGSA,M,3,31,29,30,21,06,,,,,,,,3.4,1.6,2.9*3A
Trace #77 at position 19.000000
$GPZDA,122132.03,06,10,2011,00,00*61
$GPRMC,122132.00,A,4611.958952,N,01258.211290,E,001.1,349.5,061011,0.2,E,A*35
$GPGGA,122133.00,4611.959227,N,01258.211111,E,1,04,3.2,134.69,M,46.25,M,,*68
$GPGLL,4611.959227,N,01258.211111,E,122133.00,A,A*64
$GPVTG,328.2,T,328.4,M,000..2,2.9*3D
$GPZDA,122133.04,06,10,2011,00,00*67
$GPRMC,122133.00,A,4611.959227,N,01258.211111,E,000.7,328.2,061011,0.2,E,A*31
$GPGGA,122134.00,4611.959202,N,01258.211116,E,1,05,1.6,134.87,M,46.25,M,,*68
$GPGLL,4611.959202,N,01258.211116,E,122134.00,A,A*63
$GPVTG,298.8,T,299.0,M,000.7,N,001.3,K,A*2F
$GPGSV,3,1,10,05,12,037,,16,33,309,30,31,26,220,35,18,19,147,*75
$GPGSV,3,2,10,29,41,075,39,30,50,156,42,21,76,161,39,25,13,139,*7D
$GPGSV,3,3,10,03,13,278,31,06,29,278,32,,,,,,,,*77
$GPGSA,M,3,31,29,30,2$GPGGA,122135.00,4611.959488,N,01258.210707,E,1,04,3.2,134.35,M,46.25,M,,*64
Trace #78 at position 19.250000
$GPGLL,4611.959488,N,01258.210707,E,122135.00,A,A*61
$GPVTG,316.8,T,317.0,M,001.8,N,003.4,K,A*24
$GPGSV,3,1,10,05,12,037,27,16,33,309,31,31,26,220,34,18,19,147,*70
$GPGSV,3,2,10,29,41,075,40,30,50,156,42,21,76,161,39,25,13,139,*73
$GPGSV,3,3,10,03,13,278,31,06,29,278,32,,,,,,,,*77
$GPGSA,M,3,31,29,30,21,,,,,,,,,4.4,3.2,2.9*3D
Trace #79 at position 19.500000
$GPGLL,4611.959488,N,01258.210707,E,122135.00,A,A*61
$GPVTG,316.8,T,317.0,M,001.8,N,003.4,K,A*24
$GPGSV,3,1,10,05,12,037,27,16,33,309,31,31,26,220,34,18,19,147,*70
$GPGSV,3,2,10,29,41,075,40,30,50,156,42,21,76,161,39,25,13,139,*73
$GPGSV,3,3,10,03,13,278,31,06,29,278,32,,,,,,,,*77
$GPGSA,M,3,31,29,30,21,,,,,,,,,4.4,3.2,2.9*3D
Trace #80 at position 19.750000
$GPZDA,122135.03,06,10,2011,00,00*66
$GPRMC,122135.00,A,4611.959488,N,01258.210707,E,001.8,316.8,06$GPGGA,122136.00,4611.959884,N,01258.210323,E,1,04,3.2,133.78,M,46.25,M,,*6B
$GPGLL,4611.959884,N,01258.210323,E,122136.00,A,A*60
$GPVTG,330.4,T,330.6,M,001.5,N,002.8,K,A*2F
$GPGSV,3,1,10,05,12,037,29,16,33,309,31,31,26,220,34,18,19,147,*7E
$GPGSV,3,2,10,29,41,075,39,30,50,156,42,21,76,161,39,25,13,139,*7D
$GPGSV,3,3,10,03,13,278,31,06,29,278,32,,,,,,,,*77
$GPGSA,M,3,31,29,30,21,,,,,,,,,4.4,3.2,2.9*3D
Trace #81 at position 20.000000
$GPZDA,122136.03,06,10,2011,00,00*65
$GPRMC,122136.00,A,4611.959884,N,01258.210323,E,001.5,330.4,06$GPGGA,122137.00,4611.960190,N,01258.210124,E,1,04,3.2,133.81,M,46.25,M,,*6F
$GPGLL,4611.960190,N,01258.210124,E,122137.00,A,A*62
$GPVTG,331.1,T,331.3,M,000.9,N,001.7,K,A*2E
$GPGSV,3,1,10,05,12,037,29,16,33,309,31,31,26,220,34,18,19,147,*7E
$GPGSV,3,2,10,29,41,075,39,30,50,156,42,21,76,161,39,25,13,139,*7D
$GPGSV,3,3,10,03,13,278,29,06,29,278,,,,,,,,,*7F
$GPGSA,M,3,31,29,30,21,,,,,,,,,4.4,3.2,2.9*3D
Trace #82 at position 20.250000
$GPZDA,122137.03,06,10,2011,00,00*64
$GPRMC,122137.00,A,4611.960190,N,01258.210124,E,000.9,331.1,0610$GPGGA,122138.00,4611.960435,N,01258.210095,E,1,04,3.2,133.91,M,46.25,M,,*60
$GPGLL,4611.960435,N,01258.210095,E,122138.00,A,A*6C
$GPVTG,5.8,T,6.0,M,000.9,N,001.7,K,A*27
$GPGSV,3,1,10,05,12,037,30,16,33,309,31,31,26,220,35,18,19,147,*77
$GPGSV,3,2,10,29,41,075,39,30,50,156,41,21,76,161,39,25,13,139,*7E
$GPGSV,3,3,10,03,13,278,29,06,29,278,,,,,,,,,*7F
$GPGSA,M,3,31,29,30,21,,,,,,,,,4.4,3.2,2.9*3D
Trace #83 at position 20.500000
$GPZDA,122137.03,06,10,2011,00,00*64
$GPRMC,122137.00,A,4611.960190,N,01258.210124,E,000.9,331.1,0610$GPGGA,122138.00,4611.960435,N,01258.210095,E,1,04,3.2,133.91,M,46.25,M,,*60
$GPGLL,4611.960435,N,01258.210095,E,122138.00,A,A*6C
$GPVTG,5.8,T,6.0,M,000.9,N,001.7,K,A*27
$GPGSV,3,1,10,05,12,037,30,16,33,309,31,31,26,220,35,18,19,147,*77
$GPGSV,3,2,10,29,41,075,39,30,50,156,41,21,76,161,39,25,13,139,*7E
$GPGSV,3,3,10,03,13,278,29,06,29,278,,,,,,,,,*7F
$GPGSA,M,3,31,29,30,21,,,,,,,,,4.4,3.2,2.9*3D
Trace #84 at position 20.750000
$GPZDA,122138.04,06,10,2011,00,00*6C
$GPRMC,122138.00,A,4611.960435,N,01258.210095,E,000.9,5.8,061011,0.2$GPGGA,122139.00,4611.960513,N,01258.210233,E,1,05,1.6,134.17,M,46.25,M,,*64
$GPGLL,4611.960513,N,01258.210233,E,122139.00,A,A*66
$GPVTG,324.9,T,325.0,M,001.2,N,002.1,K,A*2B
$GPGSV,3,1,10,05,12,037,32,16,33,309,31,31,26,220,36,18,19,147,*76
$GPGSV,3,2,10,29,41,075,39,30,50,156,41,21,76,161,39,25,13,139,*7E
$GPGSV,3,3,10,03,13,278,31,06,29,278,33,,,,,,,,*76
$GPGSA,M,3,31,29,30,21,06,,,,,,,,3.4,1.6,2.9*3A
Trace #85 at position 21.000000
$GPZDA,122139.04,06,10,2011,00,00*6D
$GPRMC,122139.00,A,4611.960513,N,01258.210233,E,001.2,324.9,$GPGGA,122140.00,4611.960511,N,01258.210237,E,1,05,1.6,134.39,M,46.25,M,,*60
$GPGLL,4611.960511,N,01258.210237,E,122140.00,A,A*6E
$GPVTG,292.2,T,292.3,M,000.6,N,001.1,K,A*24
$GPGSV,3,1,10,05,12,037,30,16,33,309,,31,26,220,33,18,19,147,*73
$GPGSV,3,2,10,29,41,075,39,30,50,156,42,21,76,161,40,25,13,139,*73
$GPGSV,3,3,10,03,13,278,29,06,29,278,33,,,,,,,,*7F
$GPGSA,M,3,31,29,30,21,06,,,,,,,,3.4,1.6,2.9*3A
Trace #86 at position 21.250000
$GPZDA,122140.03,06,10,2011,00,00*64
$GPRMC,122140.00,A,4611.960511,N,01258.210237,E,000.6,292.2,061258.210246,E,1,05,1.6,134.54,M,46.25,M,,*62
$GPGLL,4611.960478,N,01258.210246,E,122141.00,A,A*67
$GPVTG,311.9,T,312.1,M,000.7,N,001.3,K,A*2D
$GPGSV,3,1,10,05,12,037,30,16,33,309,29,31,26,220,34,18,19,147,*7F
$GPGSV,3,2,10,29,41,075,39,30,50,156,42,21,76,161,40,25,13,139,*73
$GPGSV,3,3,10,03,13,278,32,06,29,278,34,,,,,,,,*72
$GPGSA,M,3,31,29,30,21,06,,,,,,,,3.4,1.6,2.9*3A
Trace #87 at position 21.500000
$GPZDA,122141.03,06,10,2011,00,00*65
$GPRMC,122141.00,A,4611.960478,N,01258.210246,E,000.7,311.9,061011,0.2,E,A*33
$GPGGA,122142710,N,01258.210154,E,122142.00,A,A*69
$GPVTG,5.8,T,6.0,M,000.8,N,001.5,K,A*24
$GPGSV,3,1,10,05,12,037,30,16,33,309,29,31,26,220,34,18,19,147,*7F
$GPGSV,3,2,10,29,41,075,39,30,50,156,42,21,76,161,39,25,13,139,*7D
$GPGSV,3,3,10,03,13,278,30,06,29,278,33,,,,,,,,*77
$GPGSA,M,3,31,29,30,21,,,,,,,,,4.4,3.2,2.9*3D
Trace #88 at position 21.750000
$GPZDA,122142.04,06,10,2011,00,00*61
$GPRMC,122142.00,A,4611.960710,N,01258.210154,E,000.8,5.8,061011,0.2,E,A*35
$GPGGA,122143.00,4611.960749,N,01258.210301,E,1,05,1.6,134.62,M,46.25,M,,*66
$GPG12,037,31,16,33,309,28,31,26,220,36,18,19,147,*7D
$GPGSV,3,2,10,29,41,075,39,30,50,156,42,21,76,161,39,25,13,139,*7D
$GPGSV,3,3,10,03,13,278,27,06,29,278,31,,,,,,,,*73
$GPGSA,M,3,31,29,30,21,06,,,,,,,,3.4,1.6,2.9*3A
Trace #89 at position 22.000000
$GPZDA,122142.04,06,10,2011,00,00*61
$GPRMC,122142.00,A,4611.960710,N,01258.210154,E,000.8,5.8,061011,0.2,E,A*35
$GPGGA,122143.00,4611.960749,N,01258.210301,E,1,05,1.6,134.62,M,46.25,M,,*66
$GPG12,037,31,16,33,309,28,31,26,220,36,18,19,147,*7D
$GPGSV,3,2,10,29,41,075,39,30,50,156,42,21,76,161,39,25,13,139,*7D
$GPGSV,3,3,10,03,13,278,27,06,29,278,31,,,,,,,,*73
$GPGSA,M,3,31,29,30,21,06,,,,,,,,3.4,1.6,2.9*3A
Trace #90 at position 22.250000
$GPZDA,122142.04,06,10,2011,00,00*61
$GPRMC,122142.00,A,4611.960710,N,01258.210154,E,000.8,5.8,061011,0.2,E,A*35
$GPGGA,122143.00,4611.960749,N,01258.210301,E,1,05,1.6,134.62,M,46.25,M,,*66
$GPG12,037,31,16,33,309,28,31,26,220,36,18,19,147,*7D
$GPGSV,3,2,10,29,41,075,39,30,50,156,42,21,76,161,39,25,13,139,*7D
$GPGSV,3,3,10,03,13,278,27,06,29,278,31,,,,,,,,*73
$GPGSA,M,3,31,29,30,21,06,,,,,,,,3.4,1.6,2.9*3A
Trace #91 at position 22.500000
$GPZDA,122142.04,06,10,2011,00,00*61
$GPRMC,122142.00,A,4611.960710,N,01258.210154,E,000.8,5.8,061011,0.2,E,A*35
$GPGGA,122143.00,4611.960749,N,01258.210301,E,1,05,1.6,134.62,M,46.25,M,,*66
$GPG12,037,31,16,33,309,28,31,26,220,36,18,19,147,*7D
$GPGSV,3,2,10,29,41,075,39,30,50,156,42,21,76,161,39,25,13,139,*7D
$GPGSV,3,3,10,03,13,278,27,06,29,278,31,,,,,,,,*73
$GPGSA,M,3,31,29,30,21,06,,,,,,,,3.4,1.6,2.9*3A
Trace #92 at position 22.750000
$GPZDA,122143.04,06,10,2011,00,00*60
$GPRMC,122143.00,A,4611.960749,N,01258.210301,E,000.4,314.3,061011,0.2,E,A*3E
$GPGGA,122144.00,4611.960785,N,01258.210364,E,1,05,1.6,134.75,M,46.25,M,,*64
$GPGLL,4611.960785,N,01258.210364,E,122144.00,A,A*62
$GPVTG,339.4,T,339.6,M,000.7,N,001.4,K,A*230,21,06,,,,,,,,3.4,1.6,2.9*3A
$GPZDA,122144.03,06,10,2011,00,00*60
$GPRMC,122144.00,A,4611.960785,N,01258.210364,E,000.7,339.4,061011,0.2,E,A*31
$GPGGA,122145.00,4611.960898,N,01258.210287,E,1,05,1.6,134.92,M,46.25,M,,*63
$GPGLL,4611.960898,N,01258.210287,E,122145.00,A,A*6C
$GPVTG,306.9,T,307.0,M,001.2,N,002.2,K,A*28
$GPGSV,3,1,10,05,12,037,32,16,33,309,26,31,26,220,35,18,19,147,*73
$GPGSV,3,2,10,29,41,075,39,30,50,156,42,21,76,161,39,25,13,139,*7D
$GPGSV,3,3,10,03,13,278,28,06,29,278,32,,,,,,,,*7F,00*61
$GPRMC,122145.00,A,4611.960898,N,01258.210287,E,001.2,306.9,061011,0.2,E,A*3A
$GPGGA,122146.00,4611.960972,N,01258.210241,E,1,05,1.6,135.14,M,46.25,M,,*60
$GPGLL,4611.960972,N,01258.210241,E,122146.00,A,A*60
$GPVTG,346.7,T,346.8,M,000.3,N,000.5,K,A*2A
$GPGSV,3,1,10,05,12,037,29,16,33,309,,31,26,220,36,18,19,147,*7E
$GPGSV,3,2,10,29,41,075,39,30,50,156,42,21,76,161,40,25,13,139,*73
$GPGSV,3,3,10,03,13,278,27,06,29,278,32,,,,,,,,*70
$GPGSA,M,3,31,29,30,21,06,,,,,,,,3.4,1.6,2.9*3A
Trace #93 at position 23.000000
$GPZDA,12214646.7,061011,0.2,E,A*3C
$GPGGA,122147.00,4611.961008,N,01258.210346,E,1,05,1.6,135.28,M,46.25,M,,*6D
$GPGLL,4611.961008,N,01258.210346,E,122147.00,A,A*62
$GPVTG,341.8,T,342.0,M,000.3,N,000.6,K,A*2D
$GPGSV,3,1,10,05,12,037,30,16,33,309,,31,26,220,37,18,19,147,*77
$GPGSV,3,2,10,29,41,075,40,30,50,156,42,21,76,161,39,25,13,139,*73
$GPGSV,3,3,10,03,13,279,26,06,29,278,33,,,,,,,,*71
$GPGSA,M,3,31,29,30,21,06,,,,,,,,3.3,1.6,2.9*3D
Trace #94 at position 23.250000
$GPZDA,12214646.7,061011,0.2,E,A*3C
$GPGGA,122147.00,4611.961008,N,01258.210346,E,1,05,1.6,135.28,M,46.25,M,,*6D
$GPGLL,4611.961008,N,01258.210346,E,122147.00,A,A*62
$GPVTG,341.8,T,342.0,M,000.3,N,000.6,K,A*2D
$GPGSV,3,1,10,05,12,037,30,16,33,309,,31,26,220,37,18,19,147,*77
$GPGSV,3,2,10,29,41,075,40,30,50,156,42,21,76,161,39,25,13,139,*73
$GPGSV,3,3,10,03,13,279,26,06,29,278,33,,,,,,,,*71
$GPGSA,M,3,31,29,30,21,06,,,,,,,,3.3,1.6,2.9*3D
Trace #95 at position 23.500000
$GPZDA,122147.03,06,10,2011,00,00*63
$GPRMC,122147.00,A,4611.961008,N,01258$GPGGA,122148.00,4611.961123,N,01258.210361,E,1,05,1.6,135.35,M,46.25,M,,*63
$GPGLL,4611.961123,N,01258.210361,E,122148.00,A,A*60
$GPVTG,330.6,T,330.7,M,000.9,N,001.7,K,A*2D
$GPGSV,3,1,10,05,12,037,28,16,33,309,24,31,26,220,36,18,19,147,*79
$GPGSV,3,2,10,29,41,075,40,30,50,156,42,21,76,161,40,25,13,139,*7D
$GPGSV,3,3,10,03,13,279,29,06,29,278,31,,,,,,,,*7C
$GPGSA,M,3,31,29,30,21,06,,,,,,,,3.3,1.6,2.9*3D
Trace #96 at position 23.750000
$GPZDA,122148.04,06,10,2011,00,00*6B
$GPRMC,122148.00,A,4611.961123,N,01258.210361,E,000.9,330.6,$GPGGA,122149.00,4611.961366,N,01258.210394,E,1,04,2.3,135.66,M,46.25,M,,*6A
$GPGLL,4611.961366,N,01258.210394,E,122149.00,A,A*68
$GPVTG,2.5,T,2.7,M,000.6,N,001.0,K,A*26
$GPGSV,3,1,10,05,12,037,29,16,33,309,30,31,26,220,35,18,19,147,*7E
$GPGSV,3,2,10,29,41,075,39,30,50,156,42,21,76,161,40,25,13,139,*73
$GPGSV,3,3,10,03,13,279,29,06,29,278,32,,,,,,,,*7F
$GPGSA,M,3,29,30,21,06,,,,,,,,,4.6,2.3,4.0*34
Trace #97 at position 24.000000
$GPZDA,122149.03,06,10,2011,00,00*6D
$GPRMC,122149.00,A,4611.961366,N,01258.210394,E,000.6,2.5,061011,0$GPGGA,122150.00,4611.961455,N,01258.210468,E,1,05,1.6,135.68,M,46.25,M,,*68
$GPGLL,4611.961455,N,01258.210468,E,122150.00,A,A*63
$GPVTG,347.3,T,347.4,M,000.3,N,000.5,K,A*22
$GPGSV,3,1,10,05,12,037,28,16,33,309,28,31,26,220,34,18,19,147,*77
$GPGSV,3,2,10,29,41,075,39,30,50,156,42,21,76,161,40,25,13,139,*73
$GPGSV,3,3,10,03,13,279,26,06,29,278,33,,,,,,,,*71
$GPGSA,M,3,31,29,30,21,06,,,,,,,,3.3,1.6,2.9*3D
Trace #98 at position 24.250000
$GPZDA,122150.04,06,10,2011,00,00*62
$GPRMC,122150.00,A,4611.961455,N,01258.210468,E,000.3,347.3,$GPGGA,122151.00,4611.961692,N,01258.210290,E,1,04,3.2,135.65,M,46.25,M,,*6B
$GPGLL,4611.961692,N,01258.210290,E,122151.00,A,A*6A
$GPVTG,326.5,T,326.6,M,000.8,N,001.5,K,A*2C
$GPGSV,3,1,10,05,12,037,29,16,33,309,26,31,26,220,35,18,19,147,*79
$GPGSV,3,2,10,29,41,075,39,30,50,156,42,21,76,161,40,25,13,139,*73
$GPGSV,3,3,10,03,13,279,27,06,29,278,30,,,,,,,,*73
$GPGSA,M,3,31,29,30,21,,,,,,,,,4.3,3.2,2.9*3A
Trace #99 at position 24.500000
$GPZDA,122151.03,06,10,2011,00,00*64
$GPRMC,122151.00,A,4611.961692,N,01258.210290,E,000.8,326.5,06$GPGGA,122152.00,4611.962018,N,01258.210085,E,1,04,3.2,135.64,M,46.25,M,,*68
$GPGLL,4611.962018,N,01258.210085,E,122152.00,A,A*68
$GPVTG,344.6,T,344.8,M,001.1,N,002.0,K,A*2F
$GPGSV,3,1,10,05,12,037,30,16,33,309,30,31,26,220,34,18,19,147,*77
$GPGSV,3,2,10,29,41,075,39,30,50,156,42,21,76,161,40,25,13,139,*73
$GPGSV,3,3,10,03,13,279,29,06,29,278,30,,,,,,,,*7D
$GPGSA,M,3,31,29,30,21,,,,,,,,,4.3,3.2,2.9*3A
Trace #100 at position 24.750000
$GPZDA,122152.03,06,10,2011,00,00*67
$GPRMC,122152.00,A,4611.962018,N,01258.210085,E,001.1,344.6,06$GPGGA,122153.00,4611.962347,N,01258.209939,E,1,04,3.2,135.60,M,46.25,M,,*62
$GPGLL,4611.962347,N,01258.209939,E,122153.00,A,A*66
$GPVTG,346.7,T,346.9,M,000.9,N,001.7,K,A*22
$GPGSV,3,1,10,05,12,037,32,16,33,309,32,31,26,220,36,18,19,147,*75
$GPGSV,3,2,10,29,41,075,40,30,50,156,42,21,76,161,39,25,13,139,*73
$GPGSV,3,3,10,03,13,279,29,06,29,278,31,,,,,,,,*7C
$GPGSA,M,3,31,29,30,21,,,,,,,,,4.3,3.2,2.9*3A
Trace #101 at position 25.000000
$GPZDA,122154.03,06,10,2011,00,00*61
$GPRMC,122154.00,A,4611.962550,N,01258.210014,E,000.9,76.7,061011,0.2,E,A*09
$GPGGA,122155.00,4611.962661,N,01258.210081,E,1,04,32155.00,A,A*63
$GPVTG,333.8,T,334.0,M,000.2,N,000.4,K,A*2A
$GPGSV,3,1,10,05,12,037,28,16,33,309,29,31,26,220,33,18,19,147,*71
$GPGSV,3,2,10,29,41,076,39,30,50,156,41,21,76,161,39,25,13,139,*7D
$GPGSV,3,3,10,03,13,279,31,06,29,278,31,,,,,,,,*75
$GPGSA,M,3,31,29,30,21,,,,,,,,,4.3,3.2,2.9*3A
Trace #102 at position 25.250000
$GPZDA,122155.03,06,10,2011,00,00*60
$GPRMC,122155.00,A,4611.962661,N,01258.210081,E,000.2,333.8,061011,0.2,E,A*33
$GPGGA,122156.00,4611.962864,N,01258.209931,E,1,04,3.2,136.34,M,46.25,M,,*67
$GPGLL,4611.962864,N,PGSV,3,1,10,05,12,037,27,16,33,309,30,31,26,220,35,18,19,147,*70
$GPGSV,3,2,10,29,41,076,39,30,50,156,42,21,76,161,39,25,13,139,*7E
$GPGSV,3,3,10,03,13,279,29,06,29,278,32,,,,,,,,*7F
$GPGSA,M,3,31,29,30,21,,,,,,,,,4.3,3.2,2.9*3A
Trace #103 at position 25.500000
$GPZDA,122204.03,06,10,2011,00,00*67
$GPRMC,122204.00,A,4611.963920,N,01258.209316,E,000.2,107.8,061011$GPGGA,122205.00,4611.963924,N,01258.209318,E,1,04,3.2,135.90,M,46.25,M,,*6A
$GPGLL,4611.963924,N,01258.209318,E,122205.00,A,A*61
$GPVTG,356.5,T,356.7,M,000.0,N,000.1,K,A*20
$GPGSV,3,1,10,05,12,037,31,16,33,309,,31,26,220,36,18,19,147,*77
$GPGSV,3,2,10,29,41,076,39,30,50,156,42,21,76,161,39,25,13,139,*7E
$GPGSV,3,3,10,03,14,279,,06,29,278,32,,,,,,,,*73
$GPGSA,M,3,31,29,30,21,,,,,,,,,4.3,3.2,2.9*3A
Trace #104 at position 25.750000
$GPZDA,122205.03,06,10,2011,00,00*66
$GPRMC,122205.00,A,4611.963924,N,01258.209318,E,000.0,356.5,061011$GPGGA,122206.00,4611.963941,N,01258.209287,E,1,04,3.2,135.90,M,46.25,M,,*6D
$GPGLL,4611.963941,N,01258.209287,E,122206.00,A,A*66
$GPVTG,337.0,T,337.1,M,000.1,N,000.2,K,A*21
$GPGSV,3,1,10,05,12,037,31,16,33,309,,31,26,220,32,18,19,147,*73
$GPGSV,3,2,10,29,41,076,40,30,50,156,42,21,76,161,39,25,13,139,*70
$GPGSV,3,3,10,03,14,279,,06,29,278,31,,,,,,,,*70
$GPGSA,M,3,31,29,30,21,,,,,,,,,4.3,3.2,2.9*3A
Trace #105 at position 26.000000
$GPZDA,122205.03,06,10,2011,00,00*66
$GPRMC,122205.00,A,4611.963924,N,01258.209318,E,000.0,356.5,061011$GPGGA,122206.00,4611.963941,N,01258.209287,E,1,04,3.2,135.90,M,46.25,M,,*6D
$GPGLL,4611.963941,N,01258.209287,E,122206.00,A,A*66
$GPVTG,337.0,T,337.1,M,000.1,N,000.2,K,A*21
$GPGSV,3,1,10,05,12,037,31,16,33,309,,31,26,220,32,18,19,147,*73
$GPGSV,3,2,10,29,41,076,40,30,50,156,42,21,76,161,39,25,13,139,*70
$GPGSV,3,3,10,03,14,279,,06,29,278,31,,,,,,,,*70
$GPGSA,M,3,31,29,30,21,,,,,,,,,4.3,3.2,2.9*3A
Trace #106 at position 26.250000
$GPZDA,122206.03,06,10,2011,00,00*65
$GPRMC,122206.00,A,4611.963941,N,01258.209287,E,000.1,337.0,0610111258.209265,E,1,04,3.2,135.86,M,46.25,M,,*64
$GPGLL,4611.963953,N,01258.209265,E,122207.00,A,A*68
$GPVTG,55.3,T,55.5,M,000.0,N,000.1,K,A*24
$GPGSV,3,1,10,05,12,037,29,16,33,309,,31,26,220,33,18,19,147,*7B
$GPGSV,3,2,10,29,41,076,40,30,50,156,42,21,76,160,39,25,13,139,*71
$GPGSV,3,3,10,03,14,279,,06,29,278,31,,,,,,,,*70
$GPGSA,M,3,31,29,30,21,,,,,,,,,4.3,3.2,2.9*3A
Trace #107 at position 26.500000
$GPZDA,122207.03,06,10,2011,00,00*64
$GPRMC,122207.00,A,4611.963953,N,01258.209265,E,000.0,55.3,061011,0.2,E,A*02
$GPGGA,122208.00,4611..1,K,A*20
$GPGSV,3,1,10,05,12,037,31,16,33,309,,31,26,220,36,18,19,147,*77
$GPGSV,3,2,10,29,41,076,40,30,50,156,42,21,76,160,39,25,13,139,*71
$GPGSV,3,3,10,03,14,279,,06,29,278,34,,,,,,,,*75
$GPGSA,M,3,31,29,30,21,06,,,,,,,,3.3,1.6,2.9*3D
Trace #108 at position 26.750000
$GPZDA,122208.04,06,10,2011,00,00*6C
$GPRMC,122208.00,A,4611.963845,N,01258.209377,E,000.1,297.5,061011,0.2,E,A*32
$GPGGA,122209.00,4611.963742,N,01258.209475,E,1,05,1.6,135.91,M,46.25,M,,*62
$GPGLL,4611.963742,N,01258.209475,E,122209.00,A,A*6F
$GPVTG,157.7,T,157.$GPGSV,3,3,10,03,14,279,,06,29,278,34,,,,,,,,*75
$GPGSA,M,3,31,29,30,21,06,,,,,,,,3.3,1.6,2.9*3D
Trace #109 at position 27.000000
$GPZDA,122208.04,06,10,2011,00,00*6C
$GPRMC,122208.00,A,4611.963845,N,01258.209377,E,000.1,297.5,061011,0.2,E,A*32
$GPGGA,122209.00,4611.963742,N,01258.209475,E,1,05,1.6,135.91,M,46.25,M,,*62
$GPGLL,4611.963742,N,01258.209475,E,122209.00,A,A*6F
$GPVTG,157.7,T,157.$GPGSV,3,3,10,03,14,279,,06,29,278,34,,,,,,,,*75
$GPGSA,M,3,31,29,30,21,06,,,,,,,,3.3,1.6,2.9*3D
Trace #110 at position 27.250000
$GPZDA,122208.04,06,10,2011,00,00*6C
$GPRMC,122208.00,A,4611.963845,N,01258.209377,E,000.1,297.5,061011,0.2,E,A*32
$GPGGA,122209.00,4611.963742,N,01258.209475,E,1,05,1.6,135.91,M,46.25,M,,*62
$GPGLL,4611.963742,N,01258.209475,E,122209.00,A,A*6F
$GPVTG,157.7,T,157.$GPGSV,3,3,10,03,14,279,,06,29,278,34,,,,,,,,*75
$GPGSA,M,3,31,29,30,21,06,,,,,,,,3.3,1.6,2.9*3D
Trace #111 at position 27.500000
$GPZDA,122209.03,06,10,2011,00,00*6A
$GPRMC,122209.00,A,4611.963742,N,01258.209475,E,000.1,157.7,061011,0.2,E,A*33
$GPGGA,122210.00,4611.963652,N,01258.209584,E,1,05,1.6,135.96,M,46.25,M,,*62
$GPGLL,4611.963652,N,01258.209584,E,122210.00,A,A*68
$GPVTG,83.8,T,83.9,M,000.1,N,000.2,K,A*21
$GPGSV,3,1,10,05,12,037,31,16,33,309,,31,26,220,36,18,19,147,*77
$GPGSV,3,2,10,29,41,076,39,30,50,156,43,21,76,160,38,2530,21,06,,,,,,,,3.3,1.6,2.9*3D
$GPZDA,122210.03,06,10,2011,00,00*62
