Trace #1 at position 0.000000
$GPZDA,084807.04,08,10,2011,00,00*6A
$GPRMC,084807.00,A,4611.950928,N,01258.217921,E,000.0,14.7,081011,0.2,E,A*02
$GPGGA,084808.00,4611.950929,N,01258.217916,E,1,06,1.5,140.05,M,46.25,M,,*6F
$GPGLL,4611.950929,N,01258.217916,E,084808.00,A,A*6D
$GPVTG,197.2,T,19220,41,30,30,288,33*74
$GPGSV,3,3,09,31,21,314,,,,,,,,,,,,,*47
$GPGSA,M,3,04,02,09,12,25,29,,,,,,,2.5,1.5,2.1*3E
Trace #2 at position 0.250000
$GPZDA,084815.04,08,10,2011,00,00*69
$GPRMC,084815.00,A,4611.950938,N,01258.217852,E,000.0,260.2,08101$GPGGA,084816.00,4611.950940,N,01258.217847,E,1,06,1.5,139.88,M,46.25,M,,*61
$GPGLL,4611.950940,N,01258.217847,E,084816.00,A,A*68
$GPVTG,88.4,T,88.6,M,000.0,N,000.0,K,A*21
$GPGSV,3,1,09,04,15,041,44,02,38,085,48,09,24,150,43,12,61,070,48*7C
$GPGSV,3,2,09,14,31,258,36,25,73,321,42,29,47,220,42,30,30,288,33*75
$GPGSV,3,3,09,31,21,314,,,,,,,,,,,,,*47
$GPGSA,M,3,04,02,09,12,25,29,,,,,,,2.5,1.5,2.1*3E
Trace #3 at position 0.500000
$GPZDA,084816.04,08,10,2011,00,00*6A
$GPRMC,084816.00,A,4611.950940,N,01258.217847,E,000.0,88.4,081011,0$GPGGA,084817.00,4611.950940,N,01258.217859,E,1,06,1.5,139.88,M,46.25,M,,*6F
$GPGLL,4611.950940,N,01258.217859,E,084817.00,A,A*66
$GPVTG,103.9,T,104.1,M,000.0,N,000.1,K,A*2D
$GPGSV,3,1,09,04,15,041,43,02,38,085,48,09,24,150,44,12,61,070,48*7C
$GPGSV,3,2,09,14,31,258,37,25,73,321,42,29,47,220,43,30,30,288,33*75
$GPGSV,3,3,09,31,21,314,,,,,,,,,,,,,*47
$GPGSA,M,3,04,02,09,12,25,29,,,,,,,2.5,1.5,2.1*3E
Trace #4 at position 0.750000
$GPZDA,084818.04,08,10,2011,00,00*64
$GPRMC,084818.00,A,4611.950937,N,01258.217862,E,000.0,223.7,081011,0.2,E,A*32
$GPGGA,084819.00,4611.950937,N,012084819.00,A,A*66
$GPVTG,44.3,T,44.5,M,000.0,N,000.0,K,A*25
$GPGSV,3,1,09,04,15,041,44,02,38,085,48,09,24,150,43,12,61,070,47*73
$GPGSV,3,2,09,14,31,258,36,25,73,321,43,29,47,220,43,30,30,288,30*76
$GPGSV,3,3,09,31,21,314,,,,,,,,,,,,,*47
$GPGSA,M,3,04,02,09,12,25,29,,,,,,,2.5,1.5,2.1*3E
Trace #5 at position 1.000000
$GPZDA,084819.04,08,10,2011,00,00*65
$GPRMC,084819.00,A,4611.950937,N,01258.217857,E,000.0,44.3,081011,0.2,E,A*02
$GPGGA,084820.00,4611.950940,N,01258.217861,E,1,06,1.5,139.88,M,46.25,M,,*60
$GPGLL,4611.950940,N,0125,3,1,09,04,15,041,44,02,38,085,48,09,24,150,42,12,61,070,47*72
$GPGSV,3,2,09,14,31,258,37,25,73,321,43,29,47,220,43,30,30,288,31*76
$GPGSV,3,3,09,31,21,314,,,,,,,,,,,,,*47
$GPGSA,M,3,04,02,09,12,25,29,,,,,,,2.5,1.5,2.1*3E
Trace #6 at position 1.250000
$GPZDA,084837.04,08,10,2011,00,00*69
$GPRMC,084837.00,A,4611.951569,N,01258.217613,E,000.0,234$GPGGA,084838.00,4611.951563,N,01258.217632,E,1,09,0.9,139.73,M,46.25,M,,*6B
$GPGLL,4611.951563,N,01258.217632,E,084838.00,A,A*64
$GPVTG,179.1,T,179.3,M,000.0,N,000.0,K,A*21
$GPGSV,3,1,09,04,15,041,45,02,38,084,48,09,23,150,41,12,61,071,47*77
$GPGSV,3,2,09,14,31,258,42,25,73,321,45,29,47,220,43,30,30,288,39*7A
$GPGSV,3,3,09,31,21,313,41,,,,,,,,,,,,*45
$GPGSA,M,3,04,02,09,12,14,25,29,30,31,,,,1.8,0.9,1.5*3E
Trace #7 at position 1.500000
$GPZDA,084838.04,08,10,2011,00,00*66
$GPRMC,084838.00,A,4611.951563,N,01258.217632,E,000.0,1791258.217652,E,1,09,0.9,139.73,M,46.25,M,,*6D
$GPGLL,4611.951562,N,01258.217652,E,084839.00,A,A*62
$GPVTG,26.0,T,26.2,M,000.0,N,000.0,K,A*21
$GPGSV,3,1,09,04,15,041,46,02,38,084,48,09,23,150,41,12,61,071,47*74
$GPGSV,3,2,09,14,31,258,42,25,73,321,45,29,47,220,44,30,30,288,39*7D
$GPGSV,3,3,09,31,21,313,42,,,,,,,,,,,,*46
$GPGSA,M,3,04,02,09,12,14,25,29,30,31,,,,1.8,0.9,1.5*3E
Trace #8 at position 1.750000
$GPZDA,084838.04,08,10,2011,00,00*66
$GPRMC,084838.00,A,4611.951563,N,01258.217632,E,000.0,1791258.217652,E,1,09,0.9,139.73,M,46.25,M,,*6D
$GPGLL,4611.951562,N,01258.217652,E,084839.00,A,A*62
$GPVTG,26.0,T,26.2,M,000.0,N,000.0,K,A*21
$GPGSV,3,1,09,04,15,041,46,02,38,084,48,09,23,150,41,12,61,071,47*74
$GPGSV,3,2,09,14,31,258,42,25,73,321,45,29,47,220,44,30,30,288,39*7D
$GPGSV,3,3,09,31,21,313,42,,,,,,,,,,,,*46
$GPGSA,M,3,04,02,09,12,14,25,29,30,31,,,,1.8,0.9,1.5*3E
Trace #9 at position 2.000000
$GPZDA,084839.04,08,10,2011,00,00*67
$GPRMC,084839.00,A,4611.951562,N,01258.217652,E,000.0,26.0,081011,0.2,E,A*01
$GPGGA,084840566,N,01258.217670,E,084840.00,A,A*68
$GPVTG,348.8,T,348.9,M,000.0,N,000.1,K,A*23
$GPGSV,3,1,09,04,15,041,45,02,38,084,49,09,23,150,41,12,61,071,47*76
$GPGSV,3,2,09,14,31,258,41,25,73,321,44,29,47,220,44,30,30,288,39*7F
$GPGSV,3,3,09,31,21,313,42,,,,,,,,,,,,*46
$GPGSA,M,3,04,02,09,12,14,25,29,30,31,,,,1.8,0.9,1.5*3E
Trace #10 at position 2.250000
$GPZDA,084841.04,08,10,2011,00,00*68
$GPRMC,084841.00,A,4611.951573,N,01258.217684,E,000.0,357.8,081011,0.2,E,A*38
$GPGGA,084842.00,4611.951579,N,01258.217703,E,1,09,0.9,139.76,M,46.25,M,,*6B
$GPGLL,4611.951579,N,01258.217703,E,084842.00,A,A*61
$GPVTG,46.8,T,47.0,M,000.0,N,000.1,K,A*2B
$G,3,3,09,31,21,313,41,,,,,,,,,,,,*45
$GPGSA,M,3,04,02,09,12,14,25,29,30,31,,,,1.8,0.9,1.5*3E
Trace #11 at position 2.500000
$GPZDA,084841.04,08,10,2011,00,00*68
$GPRMC,084841.00,A,4611.951573,N,01258.217684,E,000.0,357.8,081011,0.2,E,A*38
$GPGGA,084842.00,4611.951579,N,01258.217703,E,1,09,0.9,139.76,M,46.25,M,,*6B
$GPGLL,4611.951579,N,01258.217703,E,084842.00,A,A*61
$GPVTG,46.8,T,47.0,M,000.0,N,000.1,K,A*2B
$G,3,3,09,31,21,313,41,,,,,,,,,,,,*45
$GPGSA,M,3,04,02,09,12,14,25,29,30,31,,,,1.8,0.9,1.5*3E
Trace #12 at position 2.750000
$GPZDA,084842.04,08,10,2011,00,00*6B
$GPRMC,084842.00,A,4611.951579,N,01258.217703,E,000.0,46.8,081011,0.2,E,A*0C
$GPGGA,084843.00,4611.951583,N,01258.217701,E,1,07,1.1,139.77,M,46.25,M,,*6B
$GPGLL,4611.951583,N,01258.217701,E,084843.00,A,A*67
$GPVTG,25.5,T,25.6,M,000.0,N,000.0,K,A*20
$GPGSV,3,1,09,04,15,041,46,02,38,084,48,09,23,150,41,12,61,071,46*75
$GPGSV,3,2,09,14,31,258,42,25,73,321,43,29,47,220,44,30,3$GPGGA,084844.00,4611.951611,N,01258.217674,E,1,07,1.1,139.76,M,46.25,M,,*66
$GPGLL,4611.951611,N,01258.217674,E,084844.00,A,A*6B
$GPVTG,333.9,T,334.1,M,000.2,N,000.4,K,A*2A
$GPGSV,3,1,09,04,15,041,46,02,38,084,48,09,23,150,41,12,61,071,47*74
$GPGSV,3,2,09,14,31,258,42,25,73,321,40,29,47,220,44,30,30,288,36*77
$GPGSV,3,3,09,31,21,313,33,,,,,,,,,,,,*40
$GPGSA,M,3,04,02,09,12,14,25,29,,,,,,2.0,1.1,1.7*3F
Trace #13 at position 3.000000
$GPZDA,084842.04,08,10,2011,00,00*6B
$GPRMC,084842.00,A,4611.951579,N,01258.217703,E,000.0,46.8,081011,0.2,E,A*0C
$GPGGA,084843.00,4611.951583,N,01258.217701,E,1,07,1.1,139.77,M,46.25,M,,*6B
$GPGLL,4611.951583,N,01258.217701,E,084843.00,A,A*67
$GPVTG,25.5,T,25.6,M,000.0,N,000.0,K,A*20
$GPGSV,3,1,09,04,15,041,46,02,38,084,48,09,23,150,41,12,61,071,46*75
$GPGSV,3,2,09,14,31,258,42,25,73,321,43,29,47,220,44,30,3$GPGGA,084844.00,4611.951611,N,01258.217674,E,1,07,1.1,139.76,M,46.25,M,,*66
$GPGLL,4611.951611,N,01258.217674,E,084844.00,A,A*6B
$GPVTG,333.9,T,334.1,M,000.2,N,000.4,K,A*2A
$GPGSV,3,1,09,04,15,041,46,02,38,084,48,09,23,150,41,12,61,071,47*74
$GPGSV,3,2,09,14,31,258,42,25,73,321,40,29,47,220,44,30,30,288,36*77
$GPGSV,3,3,09,31,21,313,33,,,,,,,,,,,,*40
$GPGSA,M,3,04,02,09,12,14,25,29,,,,,,2.0,1.1,1.7*3F
Trace #14 at position 3.250000
$GPZDA,084844.04,08,10,2011,00,00*6D
$GPRMC,084844.00,A,4611.951611,N,01258.217674,E,000.2,333.9,0$GPGGA,084845.00,4611.951682,N,01258.217669,E,1,07,1.1,139.74,M,46.25,M,,*63
$GPGLL,4611.951682,N,01258.217669,E,084845.00,A,A*6C
$GPVTG,21.3,T,21.4,M,000.4,N,000.7,K,A*27
$GPGSV,3,1,09,04,15,041,45,02,38,084,49,09,23,150,41,12,61,071,48*79
$GPGSV,3,2,09,14,31,258,41,25,73,321,42,29,47,220,45,30,30,288,34*75
$GPGSV,3,3,09,31,21,313,34,,,,,,,,,,,,*47
$GPGSA,M,3,04,02,09,12,14,25,29,,,,,,2.0,1.1,1.7*3F
Trace #15 at position 3.500000
$GPZDA,084844.04,08,10,2011,00,00*6D
$GPRMC,084844.00,A,4611.951611,N,01258.217674,E,000.2,333.9,0$GPGGA,084845.00,4611.951682,N,01258.217669,E,1,07,1.1,139.74,M,46.25,M,,*63
$GPGLL,4611.951682,N,01258.217669,E,084845.00,A,A*6C
$GPVTG,21.3,T,21.4,M,000.4,N,000.7,K,A*27
$GPGSV,3,1,09,04,15,041,45,02,38,084,49,09,23,150,41,12,61,071,48*79
$GPGSV,3,2,09,14,31,258,41,25,73,321,42,29,47,220,45,30,30,288,34*75
$GPGSV,3,3,09,31,21,313,34,,,,,,,,,,,,*47
$GPGSA,M,3,04,02,09,12,14,25,29,,,,,,2.0,1.1,1.7*3F
Trace #16 at position 3.750000
$GPZDA,084845.04,08,10,2011,00,00*6C
$GPRMC,084845.00,A,4611.951682,N,01258.217669,E,000.4,21.3,0810$GPGGA,084846.00,4611.951780,N,01258.217578,E,1,07,1.1,139.81,M,46.25,M,,*6A
$GPGLL,4611.951780,N,01258.217578,E,084846.00,A,A*6F
$GPVTG,304.4,T,304.5,M,000.6,N,001.1,K,A*24
$GPGSV,3,1,09,04,15,041,45,02,38,084,48,09,23,150,42,12,61,071,47*74
$GPGSV,3,2,09,14,31,258,39,25,73,321,41,29,47,220,44,30,30,288,28*75
$GPGSV,3,3,09,31,21,313,34,,,,,,,,,,,,*47
$GPGSA,M,3,04,02,09,12,14,25,29,,,,,,2.0,1.1,1.7*3F
Trace #17 at position 4.000000
$GPZDA,084845.04,08,10,2011,00,00*6C
$GPRMC,084845.00,A,4611.951682,N,01258.217669,E,000.4,21.3,0810$GPGGA,084846.00,4611.951780,N,01258.217578,E,1,07,1.1,139.81,M,46.25,M,,*6A
$GPGLL,4611.951780,N,01258.217578,E,084846.00,A,A*6F
$GPVTG,304.4,T,304.5,M,000.6,N,001.1,K,A*24
$GPGSV,3,1,09,04,15,041,45,02,38,084,48,09,23,150,42,12,61,071,47*74
$GPGSV,3,2,09,14,31,258,39,25,73,321,41,29,47,220,44,30,30,288,28*75
$GPGSV,3,3,09,31,21,313,34,,,,,,,,,,,,*47
$GPGSA,M,3,04,02,09,12,14,25,29,,,,,,2.0,1.1,1.7*3F
Trace #18 at position 4.250000
$GPZDA,084846.04,08,10,2011,00,00*6F
$GPRMC,084846.00,A,4611.951780,N,01258.217578,E,000.6,304.4,0$GPGGA,084847.00,4611.951923,N,01258.217433,E,1,07,1.1,139.90,M,46.25,M,,*62
$GPGLL,4611.951923,N,01258.217433,E,084847.00,A,A*67
$GPVTG,343.6,T,343.8,M,000.6,N,001.2,K,A*28
$GPGSV,3,1,09,04,15,041,44,02,38,084,48,09,23,150,43,12,61,071,47*74
$GPGSV,3,2,09,14,31,258,40,25,73,321,41,29,47,220,45,30,30,288,34*77
$GPGSV,3,3,09,31,21,313,31,,,,,,,,,,,,*42
$GPGSA,M,3,04,02,09,12,14,25,29,,,,,,2.0,1.1,1.7*3F
Trace #19 at position 4.500000
$GPZDA,084846.04,08,10,2011,00,00*6F
$GPRMC,084846.00,A,4611.951780,N,01258.217578,E,000.6,304.4,0$GPGGA,084847.00,4611.951923,N,01258.217433,E,1,07,1.1,139.90,M,46.25,M,,*62
$GPGLL,4611.951923,N,01258.217433,E,084847.00,A,A*67
$GPVTG,343.6,T,343.8,M,000.6,N,001.2,K,A*28
$GPGSV,3,1,09,04,15,041,44,02,38,084,48,09,23,150,43,12,61,071,47*74
$GPGSV,3,2,09,14,31,258,40,25,73,321,41,29,47,220,45,30,30,288,34*77
$GPGSV,3,3,09,31,21,313,31,,,,,,,,,,,,*42
$GPGSA,M,3,04,02,09,12,14,25,29,,,,,,2.0,1.1,1.7*3F
Trace #20 at position 4.750000
$GPZDA,084847.04,08,10,2011,00,00*6E
$GPRMC,084847.00,A,4611.951923,N,01258.217433,E,000.6,343.6,0$GPGGA,084848.00,4611.952071,N,01258.217410,E,1,07,1.1,139.81,M,46.25,M,,*61
$GPGLL,4611.952071,N,01258.217410,E,084848.00,A,A*64
$GPVTG,19.2,T,19.3,M,000.4,N,000.8,K,A*2E
$GPGSV,3,1,09,04,15,041,43,02,38,084,48,09,23,150,43,12,61,071,47*73
$GPGSV,3,2,09,14,31,258,41,25,73,321,42,29,47,220,45,30,30,288,36*77
$GPGSV,3,3,09,31,21,313,25,,,,,,,,,,,,*47
$GPGSA,M,3,04,02,09,12,14,25,29,,,,,,2.0,1.1,1.7*3F
Trace #21 at position 5.000000
$GPZDA,084847.04,08,10,2011,00,00*6E
$GPRMC,084847.00,A,4611.951923,N,01258.217433,E,000.6,343.6,0$GPGGA,084848.00,4611.952071,N,01258.217410,E,1,07,1.1,139.81,M,46.25,M,,*61
$GPGLL,4611.952071,N,01258.217410,E,084848.00,A,A*64
$GPVTG,19.2,T,19.3,M,000.4,N,000.8,K,A*2E
$GPGSV,3,1,09,04,15,041,43,02,38,084,48,09,23,150,43,12,61,071,47*73
$GPGSV,3,2,09,14,31,258,41,25,73,321,42,29,47,220,45,30,30,288,36*77
$GPGSV,3,3,09,31,21,313,25,,,,,,,,,,,,*47
$GPGSA,M,3,04,02,09,12,14,25,29,,,,,,2.0,1.1,1.7*3F
Trace #22 at position 5.250000
$GPZDA,084848.04,08,10,2011,00,00*61
$GPRMC,084848.00,A,4611.952071,N,01258.217410,E,000.4,19.2,081007,1.1,139.81,M,46.25,M,,*6C
$GPGLL,4611.952180,N,01258.217363,E,084849.00,A,A*69
$GPVTG,315.7,T,315.9,M,000.4,N,000.8,K,A*21
$GPGSV,3,1,09,04,15,041,43,02,38,084,47,09,23,150,42,12,61,071,46*7C
$GPGSV,3,2,09,14,31,258,41,25,73,321,41,29,47,220,46,30,30,288,38*79
$GPGSV,3,3,09,31,21,313,30,,,,,,,,,,,,*43
$GPGSA,M,3,04,02,09,12,14,25,29,,,,,,2.0,1.1,1.7*3F
Trace #23 at position 5.500000
$GPZDA,084848.04,08,10,2011,00,00*61
$GPRMC,084848.00,A,4611.952071,N,01258.217410,E,000.4,19.2,081007,1.1,139.81,M,46.25,M,,*6C
$GPGLL,4611.952180,N,01258.217363,E,084849.00,A,A*69
$GPVTG,315.7,T,315.9,M,000.4,N,000.8,K,A*21
$GPGSV,3,1,09,04,15,041,43,02,38,084,47,09,23,150,42,12,61,071,46*7C
$GPGSV,3,2,09,14,31,258,41,25,73,321,41,29,47,220,46,30,30,288,38*79
$GPGSV,3,3,09,31,21,313,30,,,,,,,,,,,,*43
$GPGSA,M,3,04,02,09,12,14,25,29,,,,,,2.0,1.1,1.7*3F
Trace #24 at position 5.750000
$GPZDA,084848.04,08,10,2011,00,00*61
$GPRMC,084848.00,A,4611.952071,N,01258.217410,E,000.4,19.2,081007,1.1,139.81,M,46.25,M,,*6C
$GPGLL,4611.952180,N,01258.217363,E,084849.00,A,A*69
$GPVTG,315.7,T,315.9,M,000.4,N,000.8,K,A*21
$GPGSV,3,1,09,04,15,041,43,02,38,084,47,09,23,150,42,12,61,071,46*7C
$GPGSV,3,2,09,14,31,258,41,25,73,321,41,29,47,220,46,30,30,288,38*79
$GPGSV,3,3,09,31,21,313,30,,,,,,,,,,,,*43
$GPGSA,M,3,04,02,09,12,14,25,29,,,,,,2.0,1.1,1.7*3F
Trace #25 at position 6.000000
$GPZDA,084849.04,08,10,2011,00,00*60
$GPRMC,084849.00,A,4611.952180,N,01258.217363,E,000.4,315.7,081011,0.2,E,A*3A
$GPGGA,084850.00,4611.952291,N4,E,084850.00,A,A*67
$GPVTG,334.5,T,334.7,M,000.4,N,000.8,K,A*2D
$GPGSV,3,1,09,04,15,041,43,02,38,084,47,09,23,150,41,12,61,071,46*7F
$GPGSV,3,2,09,14,31,257,41,25,73,321,43,29,47,220,46,30,30,288,38*74
$GPGSV,3,3,09,31,21,313,31,,,,,,,,,,,,*42
$GPGSA,M,3,04,02,09,12,14,25,29,,,,,,2.0,1.1,1.7*3F
Trace #26 at position 6.250000
$GPZDA,084849.04,08,10,2011,00,00*60
$GPRMC,084849.00,A,4611.952180,N,01258.217363,E,000.4,315.7,081011,0.2,E,A*3A
$GPGGA,084850.00,4611.952291,N4,E,084850.00,A,A*67
$GPVTG,334.5,T,334.7,M,000.4,N,000.8,K,A*2D
$GPGSV,3,1,09,04,15,041,43,02,38,084,47,09,23,150,41,12,61,071,46*7F
$GPGSV,3,2,09,14,31,257,41,25,73,321,43,29,47,220,46,30,30,288,38*74
$GPGSV,3,3,09,31,21,313,31,,,,,,,,,,,,*42
$GPGSA,M,3,04,02,09,12,14,25,29,,,,,,2.0,1.1,1.7*3F
Trace #27 at position 6.500000
$GPZDA,084849.04,08,10,2011,00,00*60
$GPRMC,084849.00,A,4611.952180,N,01258.217363,E,000.4,315.7,081011,0.2,E,A*3A
$GPGGA,084850.00,4611.952291,N4,E,084850.00,A,A*67
$GPVTG,334.5,T,334.7,M,000.4,N,000.8,K,A*2D
$GPGSV,3,1,09,04,15,041,43,02,38,084,47,09,23,150,41,12,61,071,46*7F
$GPGSV,3,2,09,14,31,257,41,25,73,321,43,29,47,220,46,30,30,288,38*74
$GPGSV,3,3,09,31,21,313,31,,,,,,,,,,,,*42
$GPGSA,M,3,04,02,09,12,14,25,29,,,,,,2.0,1.1,1.7*3F
Trace #28 at position 6.750000
$GPZDA,084849.04,08,10,2011,00,00*60
$GPRMC,084849.00,A,4611.952180,N,01258.217363,E,000.4,315.7,081011,0.2,E,A*3A
$GPGGA,084850.00,4611.952291,N4,E,084850.00,A,A*67
$GPVTG,334.5,T,334.7,M,000.4,N,000.8,K,A*2D
$GPGSV,3,1,09,04,15,041,43,02,38,084,47,09,23,150,41,12,61,071,46*7F
$GPGSV,3,2,09,14,31,257,41,25,73,321,43,29,47,220,46,30,30,288,38*74
$GPGSV,3,3,09,31,21,313,31,,,,,,,,,,,,*42
$GPGSA,M,3,04,02,09,12,14,25,29,,,,,,2.0,1.1,1.7*3F
Trace #29 at position 7.000000
$GPZDA,084850.04,08,10,2011,00,00*68
$GPRMC,084850.00,A,4611.952291,N,01258.217254,E,000.4,334.5,081011,0.2,E,A*35
$GPGGA,084851.00,4611.952490,N,01258.217179,E,1,07,1.1,139.83,M,46.25,M,,*6A
$GPGLL,4611.95,2.0,1.1,1.7*3F
$GPZDA,084851.04,08,10,2011,00,00*69
$GPRMC,084851.00,A,4611.952490,N,01258.217179,E,000.9,352.6,081011,0.2,E,A*31
$GPGGA,084852.00,4611.952702,N,01258.217112,E,1,07,1.1,139.83,M,46.25,M,,*6C
$GPGLL,4611.952702,N,01258.217112,E,084852.00,A,A*6B
$GPVTG,345.3,T,345.4,M,000.5,N,000.9,K,A*28
$GPGSV,3,1,09,04,15,041,43,02,38,084,46,09,23,150,42,12,61,071,44*7F
$GPGSV,3,2,09,14,31,257,41,25,73,321,45,29,47,220,47,30,30,288,38*73
$GPGSV,3,3,09,31,21,313,32,,,,,,,,,,,,*41
$GPGSA,M,3,04,02,0$GPGGA,084853.00,4611.952855,N,01258.217039,E,1,08,1.0,139.96,M,46.25,M,,*62
Trace #30 at position 7.250000
$GPZDA,084850.04,08,10,2011,00,00*68
$GPRMC,084850.00,A,4611.952291,N,01258.217254,E,000.4,334.5,081011,0.2,E,A*35
$GPGGA,084851.00,4611.952490,N,01258.217179,E,1,07,1.1,139.83,M,46.25,M,,*6A
$GPGLL,4611.95,2.0,1.1,1.7*3F
$GPZDA,084851.04,08,10,2011,00,00*69
$GPRMC,084851.00,A,4611.952490,N,01258.217179,E,000.9,352.6,081011,0.2,E,A*31
$GPGGA,084852.00,4611.952702,N,01258.217112,E,1,07,1.1,139.83,M,46.25,M,,*6C
$GPGLL,4611.952702,N,01258.217112,E,084852.00,A,A*6B
$GPVTG,345.3,T,345.4,M,000.5,N,000.9,K,A*28
$GPGSV,3,1,09,04,15,041,43,02,38,084,46,09,23,150,42,12,61,071,44*7F
$GPGSV,3,2,09,14,31,257,41,25,73,321,45,29,47,220,47,30,30,288,38*73
$GPGSV,3,3,09,31,21,313,32,,,,,,,,,,,,*41
$GPGSA,M,3,04,02,0$GPGGA,084853.00,4611.952855,N,01258.217039,E,1,08,1.0,139.96,M,46.25,M,,*62
Trace #31 at position 7.500000
$GPGLL,4611.952855,N,01258.217039,E,084853.00,A,A*6F
$GPVTG,328.3,T,328.4,M,000.9,N,001.7,K,A*2B
$GPGSV,3,1,09,04,15,041,43,02,38,084,46,09,23,150,42,12,61,071,45*7E
$GPGSV,3,2,09,14,31,257,41,25,73,321,44,29,47,220,47,30,30,288,39*73
$GPGSV,3,3,09,31,21,313,30,,,,,,,,,,,,*43
$GPGSA,M,3,04,02,09,12,14,25,29,30,,,,,1.9,1.0,1.6*36
Trace #32 at position 7.750000
$GPGLL,4611.952855,N,01258.217039,E,084853.00,A,A*6F
$GPVTG,328.3,T,328.4,M,000.9,N,001.7,K,A*2B
$GPGSV,3,1,09,04,15,041,43,02,38,084,46,09,23,150,42,12,61,071,45*7E
$GPGSV,3,2,09,14,31,257,41,25,73,321,44,29,47,220,47,30,30,288,39*73
$GPGSV,3,3,09,31,21,313,30,,,,,,,,,,,,*43
$GPGSA,M,3,04,02,09,12,14,25,29,30,,,,,1.9,1.0,1.6*36
Trace #33 at position 8.000000
$GPZDA,084853.04,08,10,2011,00,00*6B
$GPRMC,084853.00,A,4611.952855,N,01258.217039,E,000.9,328.3$GPGGA,084854.00,4611.953130,N,01258.216943,E,1,08,1.0,140.00,M,46.25,M,,*6A
$GPGLL,4611.953130,N,01258.216943,E,084854.00,A,A*66
$GPVTG,350.8,T,351.0,M,001.4,N,002.6,K,A*2B
$GPGSV,3,1,09,04,15,041,43,02,38,084,46,09,23,150,43,12,61,071,45*7F
$GPGSV,3,2,09,14,31,257,42,25,73,322,45,29,47,220,47,30,30,288,40*7C
$GPGSV,3,3,09,31,21,313,27,,,,,,,,,,,,*45
$GPGSA,M,3,04,02,09,12,14,25,29,30,,,,,1.9,1.0,1.6*36
Trace #34 at position 8.250000
$GPZDA,084853.04,08,10,2011,00,00*6B
$GPRMC,084853.00,A,4611.952855,N,01258.217039,E,000.9,328.3$GPGGA,084854.00,4611.953130,N,01258.216943,E,1,08,1.0,140.00,M,46.25,M,,*6A
$GPGLL,4611.953130,N,01258.216943,E,084854.00,A,A*66
$GPVTG,350.8,T,351.0,M,001.4,N,002.6,K,A*2B
$GPGSV,3,1,09,04,15,041,43,02,38,084,46,09,23,150,43,12,61,071,45*7F
$GPGSV,3,2,09,14,31,257,42,25,73,322,45,29,47,220,47,30,30,288,40*7C
$GPGSV,3,3,09,31,21,313,27,,,,,,,,,,,,*45
$GPGSA,M,3,04,02,09,12,14,25,29,30,,,,,1.9,1.0,1.6*36
Trace #35 at position 8.500000
$GPZDA,084854.04,08,10,2011,00,00*6C
$GPRMC,084854.00,A,4611.953130,N,01258.216943,E,001.4,350.8$GPGGA,084855.00,4611.953400,N,01258.216879,E,1,08,1.0,140.04,M,46.25,M,,*61
$GPGLL,4611.953400,N,01258.216879,E,084855.00,A,A*69
$GPVTG,339.4,T,339.6,M,000.9,N,001.6,K,A*2F
$GPGSV,3,1,09,04,15,041,43,02,38,084,46,09,23,150,41,12,61,071,46*7E
$GPGSV,3,2,09,14,31,257,41,25,73,322,44,29,47,220,46,30,30,288,38*70
$GPGSV,3,3,09,31,21,313,,,,,,,,,,,,,*40
$GPGSA,M,3,04,02,09,12,14,25,29,30,,,,,1.9,1.0,1.6*36
Trace #36 at position 8.750000
$GPZDA,084854.04,08,10,2011,00,00*6C
$GPRMC,084854.00,A,4611.953130,N,01258.216943,E,001.4,350.8$GPGGA,084855.00,4611.953400,N,01258.216879,E,1,08,1.0,140.04,M,46.25,M,,*61
$GPGLL,4611.953400,N,01258.216879,E,084855.00,A,A*69
$GPVTG,339.4,T,339.6,M,000.9,N,001.6,K,A*2F
$GPGSV,3,1,09,04,15,041,43,02,38,084,46,09,23,150,41,12,61,071,46*7E
$GPGSV,3,2,09,14,31,257,41,25,73,322,44,29,47,220,46,30,30,288,38*70
$GPGSV,3,3,09,31,21,313,,,,,,,,,,,,,*40
$GPGSA,M,3,04,02,09,12,14,25,29,30,,,,,1.9,1.0,1.6*36
Trace #37 at position 9.000000
$GPZDA,084854.04,08,10,2011,00,00*6C
$GPRMC,084854.00,A,4611.953130,N,01258.216943,E,001.4,350.8$GPGGA,084855.00,4611.953400,N,01258.216879,E,1,08,1.0,140.04,M,46.25,M,,*61
$GPGLL,4611.953400,N,01258.216879,E,084855.00,A,A*69
$GPVTG,339.4,T,339.6,M,000.9,N,001.6,K,A*2F
$GPGSV,3,1,09,04,15,041,43,02,38,084,46,09,23,150,41,12,61,071,46*7E
$GPGSV,3,2,09,14,31,257,41,25,73,322,44,29,47,220,46,30,30,288,38*70
$GPGSV,3,3,09,31,21,313,,,,,,,,,,,,,*40
$GPGSA,M,3,04,02,09,12,14,25,29,30,,,,,1.9,1.0,1.6*36
Trace #38 at position 9.250000
$GPZDA,084855.04,08,10,2011,00,00*6D
$GPRMC,084855.00,A,4611.953400,N,01258.216879,E,000.9,339.4,0$GPGGA,084856.00,4611.953652,N,01258.216797,E,1,08,1.0,140.13,M,46.25,M,,*6E
$GPGLL,4611.953652,N,01258.216797,E,084856.00,A,A*60
$GPVTG,348.5,T,348.7,M,001.2,N,002.3,K,A*23
$GPGSV,3,1,09,04,15,041,42,02,38,084,45,09,23,150,39,12,61,071,46*73
$GPGSV,3,2,09,14,31,257,40,25,73,322,41,29,47,220,46,30,30,288,38*74
$GPGSV,3,3,09,31,21,313,,,,,,,,,,,,,*40
$GPGSA,M,3,04,02,09,12,14,25,29,30,,,,,1.9,1.0,1.6*36
Trace #39 at position 9.500000
$GPZDA,084855.04,08,10,2011,00,00*6D
$GPRMC,084855.00,A,4611.953400,N,01258.216879,E,000.9,339.4,0$GPGGA,084856.00,4611.953652,N,01258.216797,E,1,08,1.0,140.13,M,46.25,M,,*6E
$GPGLL,4611.953652,N,01258.216797,E,084856.00,A,A*60
$GPVTG,348.5,T,348.7,M,001.2,N,002.3,K,A*23
$GPGSV,3,1,09,04,15,041,42,02,38,084,45,09,23,150,39,12,61,071,46*73
$GPGSV,3,2,09,14,31,257,40,25,73,322,41,29,47,220,46,30,30,288,38*74
$GPGSV,3,3,09,31,21,313,,,,,,,,,,,,,*40
$GPGSA,M,3,04,02,09,12,14,25,29,30,,,,,1.9,1.0,1.6*36
Trace #40 at position 9.750000
$GPZDA,084856.04,08,10,2011,00,00*6E
$GPRMC,084856.00,A,4611.953652,N,01258.216797,E,001.2,348.5,0$GPGGA,084857.00,4611.953994,N,01258.216670,E,1,08,1.0,140.14,M,46.25,M,,*65
$GPGLL,4611.953994,N,01258.216670,E,084857.00,A,A*6C
$GPVTG,340.5,T,340.6,M,001.5,N,002.8,K,A*2E
$GPGSV,3,1,09,04,15,041,42,02,38,084,46,09,23,150,40,12,61,071,45*7D
$GPGSV,3,2,09,14,31,257,39,25,73,322,40,29,47,220,46,30,30,288,38*7B
$GPGSV,3,3,09,31,21,313,26,,,,,,,,,,,,*44
$GPGSA,M,3,04,02,09,12,14,25,29,30,,,,,1.9,1.0,1.6*36
Trace #41 at position 10.000000
$GPZDA,084856.04,08,10,2011,00,00*6E
$GPRMC,084856.00,A,4611.953652,N,01258.216797,E,001.2,348.5,0$GPGGA,084857.00,4611.953994,N,01258.216670,E,1,08,1.0,140.14,M,46.25,M,,*65
$GPGLL,4611.953994,N,01258.216670,E,084857.00,A,A*6C
$GPVTG,340.5,T,340.6,M,001.5,N,002.8,K,A*2E
$GPGSV,3,1,09,04,15,041,42,02,38,084,46,09,23,150,40,12,61,071,45*7D
$GPGSV,3,2,09,14,31,257,39,25,73,322,40,29,47,220,46,30,30,288,38*7B
$GPGSV,3,3,09,31,21,313,26,,,,,,,,,,,,*44
$GPGSA,M,3,04,02,09,12,14,25,29,30,,,,,1.9,1.0,1.6*36
Trace #42 at position 10.250000
$GPZDA,084857.04,08,10,2011,00,00*6F
$GPRMC,084857.00,A,4611.953994,N,01258.216670,E,001.5,340.51258.216441,E,1,08,1.0,140.16,M,46.25,M,,*62
$GPGLL,4611.954328,N,01258.216441,E,084858.00,A,A*69
$GPVTG,325.6,T,325.7,M,001.4,N,002.5,K,A*20
$GPGSV,3,1,09,04,15,041,42,02,38,084,46,09,23,150,40,12,61,071,45*7D
$GPGSV,3,2,09,14,31,257,39,25,73,322,40,29,47,220,46,30,30,288,38*7B
$GPGSV,3,3,09,31,21,313,31,,,,,,,,,,,,*42
$GPGSA,M,3,04,02,09,12,14,25,29,30,,,,,1.9,1.0,1.6*36
Trace #43 at position 10.500000
$GPZDA,084857.04,08,10,2011,00,00*6F
$GPRMC,084857.00,A,4611.953994,N,01258.216670,E,001.5,340.51258.216441,E,1,08,1.0,140.16,M,46.25,M,,*62
$GPGLL,4611.954328,N,01258.216441,E,084858.00,A,A*69
$GPVTG,325.6,T,325.7,M,001.4,N,002.5,K,A*20
$GPGSV,3,1,09,04,15,041,42,02,38,084,46,09,23,150,40,12,61,071,45*7D
$GPGSV,3,2,09,14,31,257,39,25,73,322,40,29,47,220,46,30,30,288,38*7B
$GPGSV,3,3,09,31,21,313,31,,,,,,,,,,,,*42
$GPGSA,M,3,04,02,09,12,14,25,29,30,,,,,1.9,1.0,1.6*36
Trace #44 at position 10.750000
$GPZDA,084858.04,08,10,2011,00,00*60
$GPRMC,084858.00,A,4611.954328,N,01258.216441,E,001.4,325.6,081011,0.2,E,A*39
$GPGGA,08485321,E,084859.00,A,A*65
$GPVTG,2.1,T,2.3,M,001.0,N,001.8,K,A*29
$GPGSV,3,1,09,04,15,041,41,02,38,084,46,09,23,150,39,12,61,071,46*73
$GPGSV,3,2,09,14,31,257,40,25,73,322,44,29,47,220,48,30,30,288,40*70
$GPGSV,3,3,09,31,21,313,35,,,,,,,,,,,,*46
$GPGSA,M,3,04,02,09,12,14,25,29,30,,,,,1.9,1.0,1.6*36
Trace #45 at position 11.000000
$GPZDA,084858.04,08,10,2011,00,00*60
$GPRMC,084858.00,A,4611.954328,N,01258.216441,E,001.4,325.6,081011,0.2,E,A*39
$GPGGA,08485321,E,084859.00,A,A*65
$GPVTG,2.1,T,2.3,M,001.0,N,001.8,K,A*29
$GPGSV,3,1,09,04,15,041,41,02,38,084,46,09,23,150,39,12,61,071,46*73
$GPGSV,3,2,09,14,31,257,40,25,73,322,44,29,47,220,48,30,30,288,40*70
$GPGSV,3,3,09,31,21,313,35,,,,,,,,,,,,*46
$GPGSA,M,3,04,02,09,12,14,25,29,30,,,,,1.9,1.0,1.6*36
Trace #46 at position 11.250000
$GPZDA,084859.04,08,10,2011,00,00*61
$GPRMC,084859.00,A,4611.954599,N,01258.216321,E,001.0,2.1,081011,0.2,E,A*30
$GPGGA,084900.00,4611.954775,N,01258.216219,E,1,08,1.0,140.35,M,46.25,M,,*68
$GPGLL,4611.9547.8,N,001.4,K,A*2F
$GPGSV,3,1,09,04,15,041,40,02,38,084,46,09,23,150,38,12,61,071,45*70
$GPGSV,3,2,09,14,31,257,38,25,73,322,41,29,47,220,47,30,30,288,38*7A
$GPGSV,3,3,09,31,21,313,24,,,,,,,,,,,,*46
$GPGSA,M,3,04,02,09,12,14,25,29,30,,,,,1.9,1.0,1.6*36
Trace #47 at position 11.500000
$GPZDA,084859.04,08,10,2011,00,00*61
$GPRMC,084859.00,A,4611.954599,N,01258.216321,E,001.0,2.1,081011,0.2,E,A*30
$GPGGA,084900.00,4611.954775,N,01258.216219,E,1,08,1.0,140.35,M,46.25,M,,*68
$GPGLL,4611.9547.8,N,001.4,K,A*2F
$GPGSV,3,1,09,04,15,041,40,02,38,084,46,09,23,150,38,12,61,071,45*70
$GPGSV,3,2,09,14,31,257,38,25,73,322,41,29,47,220,47,30,30,288,38*7A
$GPGSV,3,3,09,31,21,313,24,,,,,,,,,,,,*46
$GPGSA,M,3,04,02,09,12,14,25,29,30,,,,,1.9,1.0,1.6*36
Trace #48 at position 11.750000
$GPZDA,084859.04,08,10,2011,00,00*61
$GPRMC,084859.00,A,4611.954599,N,01258.216321,E,001.0,2.1,081011,0.2,E,A*30
$GPGGA,084900.00,4611.954775,N,01258.216219,E,1,08,1.0,140.35,M,46.25,M,,*68
$GPGLL,4611.9547.8,N,001.4,K,A*2F
$GPGSV,3,1,09,04,15,041,40,02,38,084,46,09,23,150,38,12,61,071,45*70
$GPGSV,3,2,09,14,31,257,38,25,73,322,41,29,47,220,47,30,30,288,38*7A
$GPGSV,3,3,09,31,21,313,24,,,,,,,,,,,,*46
$GPGSA,M,3,04,02,09,12,14,25,29,30,,,,,1.9,1.0,1.6*36
Trace #49 at position 12.000000
$GPZDA,084900.04,08,10,2011,00,00*6C
$GPRMC,084900.00,A,4611.954775,N,01258.216219,E,000.8,299.4,081011,0.2,E,A*3B
$GPGGA,084901.00,4611.955006,N,01258.216048,E,1,08,1.0,140.46,M,46.25,M,,*69
$GPGLL,4611.955006,N,01258.216048,E,084901.00,A,A*67
$GPVTG12,14,25,29,30,,,,,1.9,1.0,1.6*36
$GPZDA,084901.04,08,10,2011,00,00*6D
$GPRMC,084901.00,A,4611.955006,N,01258.216048,E,001.4,345.9,081011,0.2,E,A*3E
$GPGGA,084902.00,4611.955354,N,01258.216006,E,1,08,1.0,140.46,M,46.25,M,,*64
$GPGLL,4611.955354,N,01258.216006,E,084902.00,A,A*6A
$GPVTG,1.5,T,1.7,M,001.3,N,002.4,K,A*25
$GPGSV,3,1,09,04,15,041,43,02,38,084,45,09,23,150,40,12,61,071,45*7F
$GPGSV,3,2,09,14,31,257,40,25,73,322,43,29,47,220,47,30,30,288,39*76
$GPGSV,3,3,09,31,21,313,,,,,,,,,,,,,*40
$GPGSA55354,N,01258.216006,E,001.3,1.5,081011,0.2,E,A*3B
Trace #50 at position 12.250000
$GPGGA,084903.00,4611.955651,N,01258.215987,E,1,08,1.0,140.44,M,46.25,M,,*64
$GPGLL,4611.955651,N,01258.215987,E,084903.00,A,A*68
$GPVTG,350.9,T,351.1,M,001.0,N,001.9,K,A*23
$GPGSV,3,1,09,04,15,041,42,02,38,084,45,09,23,150,40,12,61,071,44*7F
$GPGSV,3,2,09,14,31,257,38,25,73,322,42,29,47,220,47,30,30,288,38*79
$GPGSV,3,3,09,31,21,313,,,,,,,,,,,,,*40
$GPGSA,M,3,04,02,09,12,14,25,29,30,,,,,1.9,1.0,1.6*36
Trace #51 at position 12.500000
$GPGGA,084903.00,4611.955651,N,01258.215987,E,1,08,1.0,140.44,M,46.25,M,,*64
$GPGLL,4611.955651,N,01258.215987,E,084903.00,A,A*68
$GPVTG,350.9,T,351.1,M,001.0,N,001.9,K,A*23
$GPGSV,3,1,09,04,15,041,42,02,38,084,45,09,23,150,40,12,61,071,44*7F
$GPGSV,3,2,09,14,31,257,38,25,73,322,42,29,47,220,47,30,30,288,38*79
$GPGSV,3,3,09,31,21,313,,,,,,,,,,,,,*40
$GPGSA,M,3,04,02,09,12,14,25,29,30,,,,,1.9,1.0,1.6*36
Trace #52 at position 12.750000
$GPZDA,084904.04,08,10,2011,00,00*68
$GPRMC,084904.00,A,4611.955876,N,01258.215941,E,000.8,356.3,0$GPGGA,084905.00,4611.956117,N,01258.215804,E,1,08,1.0,140.52,M,46.25,M,,*69
$GPGLL,4611.956117,N,01258.215804,E,084905.00,A,A*62
$GPVTG,329.8,T,330.0,M,001.2,N,002.3,K,A*21
$GPGSV,3,1,09,04,15,041,41,02,38,084,45,09,23,150,40,12,61,071,45*7D
$GPGSV,3,2,09,14,31,257,40,25,73,322,41,29,47,220,47,30,30,288,38*75
$GPGSV,3,3,09,31,21,313,,,,,,,,,,,,,*40
$GPGSA,M,3,04,02,09,12,14,25,29,30,,,,,1.9,1.0,1.6*36
Trace #53 at position 13.000000
$GPZDA,084904.04,08,10,2011,00,00*68
$GPRMC,084904.00,A,4611.955876,N,01258.215941,E,000.8,356.3,0$GPGGA,084905.00,4611.956117,N,01258.215804,E,1,08,1.0,140.52,M,46.25,M,,*69
$GPGLL,4611.956117,N,01258.215804,E,084905.00,A,A*62
$GPVTG,329.8,T,330.0,M,001.2,N,002.3,K,A*21
$GPGSV,3,1,09,04,15,041,41,02,38,084,45,09,23,150,40,12,61,071,45*7D
$GPGSV,3,2,09,14,31,257,40,25,73,322,41,29,47,220,47,30,30,288,38*75
$GPGSV,3,3,09,31,21,313,,,,,,,,,,,,,*40
$GPGSA,M,3,04,02,09,12,14,25,29,30,,,,,1.9,1.0,1.6*36
Trace #54 at position 13.250000
$GPZDA,084905.04,08,10,2011,00,00*69
$GPRMC,084905.00,A,4611.956117,N,01258.215804,E,001.2,329.8,0$GPGGA,084906.00,4611.956349,N,01258.215648,E,1,08,1.0,140.50,M,46.25,M,,*67
$GPGLL,4611.956349,N,01258.215648,E,084906.00,A,A*6E
$GPVTG,346.0,T,346.2,M,000.7,N,001.3,K,A*24
$GPGSV,3,1,09,04,15,041,40,02,38,084,46,09,23,150,39,12,61,071,44*70
$GPGSV,3,2,09,14,31,257,40,25,73,322,41,29,47,220,47,30,30,288,37*7A
$GPGSV,3,3,09,31,21,313,,,,,,,,,,,,,*40
$GPGSA,M,3,04,02,09,12,14,25,29,30,,,,,1.9,1.0,1.6*36
Trace #55 at position 13.500000
$GPZDA,084906.04,08,10,2011,00,00*6A
$GPRMC,084906.00,A,4611.956349,N,01258.215648,E,000.7,346.0,0$GPGGA,084907.00,4611.956546,N,01258.215570,E,1,08,1.0,140.47,M,46.25,M,,*61
$GPGLL,4611.956546,N,01258.215570,E,084907.00,A,A*6E
$GPVTG,344.7,T,344.8,M,000.8,N,001.5,K,A*20
$GPGSV,3,1,09,04,15,041,40,02,38,084,46,09,23,150,40,12,61,071,45*7F
$GPGSV,3,2,09,14,31,257,40,25,73,322,40,29,47,220,47,30,30,288,37*7B
$GPGSV,3,3,09,31,21,313,,,,,,,,,,,,,*40
$GPGSA,M,3,04,02,09,12,14,25,29,30,,,,,1.9,1.0,1.6*36
Trace #56 at position 13.750000
$GPZDA,084906.04,08,10,2011,00,00*6A
$GPRMC,084906.00,A,4611.956349,N,01258.215648,E,000.7,346.0,0$GPGGA,084907.00,4611.956546,N,01258.215570,E,1,08,1.0,140.47,M,46.25,M,,*61
$GPGLL,4611.956546,N,01258.215570,E,084907.00,A,A*6E
$GPVTG,344.7,T,344.8,M,000.8,N,001.5,K,A*20
$GPGSV,3,1,09,04,15,041,40,02,38,084,46,09,23,150,40,12,61,071,45*7F
$GPGSV,3,2,09,14,31,257,40,25,73,322,40,29,47,220,47,30,30,288,37*7B
$GPGSV,3,3,09,31,21,313,,,,,,,,,,,,,*40
$GPGSA,M,3,04,02,09,12,14,25,29,30,,,,,1.9,1.0,1.6*36
Trace #57 at position 14.000000
$GPZDA,084907.04,08,10,2011,00,00*6B
$GPRMC,084907.00,A,4611.956546,N,01258.215570,E,000.8,344.7,0$GPGGA,084908.00,4611.956778,N,01258.215411,E,1,08,1.0,140.42,M,46.25,M,,*62
$GPGLL,4611.956778,N,01258.215411,E,084908.00,A,A*68
$GPVTG,325.8,T,325.9,M,001.1,N,002.0,K,A*20
$GPGSV,3,1,09,04,15,041,39,02,38,084,45,09,23,150,41,12,61,071,45*73
$GPGSV,3,2,09,14,31,257,37,25,73,322,41,29,47,220,46,30,30,288,38*74
$GPGSV,3,3,09,31,21,313,,,,,,,,,,,,,*40
$GPGSA,M,3,04,02,09,12,14,25,29,30,,,,,1.9,1.0,1.6*36
Trace #58 at position 14.250000
$GPZDA,084908.04,08,10,2011,00,00*64
$GPRMC,084908.00,A,4611.956778,N,01258.215411,E,001.1,325.8,0
$GPGSV,3,1,09,04,15,041,41,02,38,084,45,09,23,150,43,12,61,071,45*7E
$GPGSV,3,2,09,14,31,257,38,25,73,322,43,29,47,220,46,30,30,288,38*79
$GPGSV,3,3,09,31,21,313,,,,,,,,,,,,,*40
$GPGSA,M,3,04,02,09,12,14,25,29,30,,,,,1.9,1.0,1.6*36
Trace #59 at position 14.500000
$GPZDA,084908.04,08,10,2011,00,00*64
$GPRMC,084908.00,A,4611.956778,N,01258.215411,E,001.1,325.8,0
$GPGSV,3,1,09,04,15,041,41,02,38,084,45,09,23,150,43,12,61,071,45*7E
$GPGSV,3,2,09,14,31,257,38,25,73,322,43,29,47,220,46,30,30,288,38*79
$GPGSV,3,3,09,31,21,313,,,,,,,,,,,,,*40
$GPGSA,M,3,04,02,09,12,14,25,29,30,,,,,1.9,1.0,1.6*36
Trace #60 at position 14.750000
$GPZDA,084909.04,08,10,2011,00,00*65
$GPRMC,084909.00,A,4611.956968,N,01258.215240,E,000.6,325.1,081011,0.2,E,A*30
$GPGGA,084910.00,4611.957152,N,01258.215232,E,1,08,1.0,140.49,M,46.25,M,,*68
$GPGLL,4611.957152,N,01258.215232,E,084910.00,A,A*69
$GPVTG,15.5,T,15.7,M,000.925,29,30,,,,,1.9,1.0,1.6*36
$GPZDA,084910.04,08,10,2011,00,00*6D
$GPRMC,084910.00,A,4611.957152,N,01258.215232,E,000.9,15.5,081011,0.2,E,A*06
$GPGGA,084911.00,4611.957265,N,01258.215269,E,1,07,1.1,140.40,M,46.25,M,,*67
$GPGLL,4611.957265,N,01258.215269,E,084911.00,A,A*61
$GPVTG,139.6,T,139.8,M,000.3,N,000.5,K,A*2B
$GPGSV,3,1,09,04,15,041,41,02,38,084,46,09,23,150,45,12,61,071,46*78
$GPGSV,3,2,09,14,31,257,36,25,73,322,43,29,47,220,46,30,30,288,33*7C
$GPGSV,3,3,09,31,21,313,,,,,,,,,,,,,*40
$GPGSA,M,,N,01258.215269,E,000.3,139.6,081011,0.2,E,A*38
Trace #61 at position 15.000000
$GPZDA,084909.04,08,10,2011,00,00*65
$GPRMC,084909.00,A,4611.956968,N,01258.215240,E,000.6,325.1,081011,0.2,E,A*30
$GPGGA,084910.00,4611.957152,N,01258.215232,E,1,08,1.0,140.49,M,46.25,M,,*68
$GPGLL,4611.957152,N,01258.215232,E,084910.00,A,A*69
$GPVTG,15.5,T,15.7,M,000.925,29,30,,,,,1.9,1.0,1.6*36
$GPZDA,084910.04,08,10,2011,00,00*6D
$GPRMC,084910.00,A,4611.957152,N,01258.215232,E,000.9,15.5,081011,0.2,E,A*06
$GPGGA,084911.00,4611.957265,N,01258.215269,E,1,07,1.1,140.40,M,46.25,M,,*67
$GPGLL,4611.957265,N,01258.215269,E,084911.00,A,A*61
$GPVTG,139.6,T,139.8,M,000.3,N,000.5,K,A*2B
$GPGSV,3,1,09,04,15,041,41,02,38,084,46,09,23,150,45,12,61,071,46*78
$GPGSV,3,2,09,14,31,257,36,25,73,322,43,29,47,220,46,30,30,288,33*7C
$GPGSV,3,3,09,31,21,313,,,,,,,,,,,,,*40
$GPGSA,M,,N,01258.215269,E,000.3,139.6,081011,0.2,E,A*38
Trace #62 at position 15.250000
$GPGGA,084912.00,4611.957395,N,01258.215239,E,1,07,1.1,140.34,M,46.25,M,,*6C
$GPGLL,4611.957395,N,01258.215239,E,084912.00,A,A*69
$GPVTG,356.9,T,357.0,M,001.0,N,001.8,K,A*23
$GPGSV,3,1,09,04,15,041,41,02,38,084,45,09,23,150,44,12,61,071,46*7A
$GPGSV,3,2,09,14,31,257,39,25,73,322,44,29,47,220,47,30,30,288,37*71
$GPGSV,3,3,09,31,21,313,,,,,,,,,,,,,*40
$GPGSA,M,3,04,02,09,12,14,25,29,,,,,,2.0,1.1,1.7*3F
Trace #63 at position 15.500000
$GPGGA,084912.00,4611.957395,N,01258.215239,E,1,07,1.1,140.34,M,46.25,M,,*6C
$GPGLL,4611.957395,N,01258.215239,E,084912.00,A,A*69
$GPVTG,356.9,T,357.0,M,001.0,N,001.8,K,A*23
$GPGSV,3,1,09,04,15,041,41,02,38,084,45,09,23,150,44,12,61,071,46*7A
$GPGSV,3,2,09,14,31,257,39,25,73,322,44,29,47,220,47,30,30,288,37*71
$GPGSV,3,3,09,31,21,313,,,,,,,,,,,,,*40
$GPGSA,M,3,04,02,09,12,14,25,29,,,,,,2.0,1.1,1.7*3F
Trace #64 at position 15.750000
$GPZDA,084912.04,08,10,2011,00,00*6F
$GPRMC,084912.$GPGGA,084913.00,4611.957613,N,01258.215152,E,1,08,1.0,140.39,M,46.25,M,,*6B
$GPGLL,4611.957613,N,01258.215152,E,084913.00,A,A*6D
$GPVTG,333.4,T,333.5,M,000.8,N,001.5,K,A*2E
$GPGSV,3,1,09,04,15,041,41,02,38,084,45,09,23,150,44,12,61,071,45*79
$GPGSV,3,2,09,14,31,257,40,25,73,322,44,29,47,220,47,30,30,288,40*7F
$GPGSV,3,3,09,31,21,313,,,,,,,,,,,,,*40
$GPGSA,M,3,04,02,09,12,14,25,29,30,,,,,1.9,1.0,1.6*36
Trace #65 at position 16.000000
$GPZDA,084912.04,08,10,2011,00,00*6F
$GPRMC,084912.$GPGGA,084913.00,4611.957613,N,01258.215152,E,1,08,1.0,140.39,M,46.25,M,,*6B
$GPGLL,4611.957613,N,01258.215152,E,084913.00,A,A*6D
$GPVTG,333.4,T,333.5,M,000.8,N,001.5,K,A*2E
$GPGSV,3,1,09,04,15,041,41,02,38,084,45,09,23,150,44,12,61,071,45*79
$GPGSV,3,2,09,14,31,257,40,25,73,322,44,29,47,220,47,30,30,288,40*7F
$GPGSV,3,3,09,31,21,313,,,,,,,,,,,,,*40
$GPGSA,M,3,04,02,09,12,14,25,29,30,,,,,1.9,1.0,1.6*36
Trace #66 at position 16.250000
$GPZDA,084912.04,08,10,2011,00,00*6F
$GPRMC,084912.$GPGGA,084913.00,4611.957613,N,01258.215152,E,1,08,1.0,140.39,M,46.25,M,,*6B
$GPGLL,4611.957613,N,01258.215152,E,084913.00,A,A*6D
$GPVTG,333.4,T,333.5,M,000.8,N,001.5,K,A*2E
$GPGSV,3,1,09,04,15,041,41,02,38,084,45,09,23,150,44,12,61,071,45*79
$GPGSV,3,2,09,14,31,257,40,25,73,322,44,29,47,220,47,30,30,288,40*7F
$GPGSV,3,3,09,31,21,313,,,,,,,,,,,,,*40
$GPGSA,M,3,04,02,09,12,14,25,29,30,,,,,1.9,1.0,1.6*36
Trace #67 at position 16.500000
$GPZDA,084913.04,08,10,2011,00,00*6E
$GPRMC,084913.00,A,4611.957613,N,01258.215152,E,000.8,333.4,0$GPGGA,084914.00,4611.957824,N,01258.215000,E,1,08,1.0,140.45,M,46.25,M,,*6B
$GPGLL,4611.957824,N,01258.215000,E,084914.00,A,A*66
$GPVTG,336.2,T,336.4,M,001.0,N,001.9,K,A*2C
$GPGSV,3,1,09,04,15,041,42,02,38,084,46,09,23,150,44,12,60,071,45*78
$GPGSV,3,2,09,14,31,257,40,25,73,322,44,29,47,220,47,30,30,288,41*7E
$GPGSV,3,3,09,31,21,313,,,,,,,,,,,,,*40
$GPGSA,M,3,04,02,09,12,14,25,29,30,,,,,1.9,1.0,1.6*36
Trace #68 at position 16.750000
$GPZDA,084913.04,08,10,2011,00,00*6E
$GPRMC,084913.00,A,4611.957613,N,01258.215152,E,000.8,333.4,0$GPGGA,084914.00,4611.957824,N,01258.215000,E,1,08,1.0,140.45,M,46.25,M,,*6B
$GPGLL,4611.957824,N,01258.215000,E,084914.00,A,A*66
$GPVTG,336.2,T,336.4,M,001.0,N,001.9,K,A*2C
$GPGSV,3,1,09,04,15,041,42,02,38,084,46,09,23,150,44,12,60,071,45*78
$GPGSV,3,2,09,14,31,257,40,25,73,322,44,29,47,220,47,30,30,288,41*7E
$GPGSV,3,3,09,31,21,313,,,,,,,,,,,,,*40
$GPGSA,M,3,04,02,09,12,14,25,29,30,,,,,1.9,1.0,1.6*36
Trace #69 at position 17.000000
$GPZDA,084914.04,08,10,2011,00,00*69
$GPRMC,084914.00,A,4611.957824,N,01258.215000,E,001.0,336.2,0$GPGGA,084915.00,4611.958082,N,01258.214843,E,1,08,1.0,140.45,M,46.25,M,,*6F
$GPGLL,4611.958082,N,01258.214843,E,084915.00,A,A*62
$GPVTG,338.0,T,338.1,M,001.1,N,002.1,K,A*21
$GPGSV,3,1,09,04,15,041,41,02,38,084,45,09,23,150,44,12,60,071,45*78
$GPGSV,3,2,09,14,31,257,39,25,73,322,44,29,47,220,48,30,30,288,40*7E
$GPGSV,3,3,09,31,21,313,,,,,,,,,,,,,*40
$GPGSA,M,3,04,02,09,12,14,25,29,30,,,,,1.9,1.0,1.6*36
Trace #70 at position 17.250000
$GPZDA,084914.04,08,10,2011,00,00*69
$GPRMC,084914.00,A,4611.957824,N,01258.215000,E,001.0,336.2,0$GPGGA,084915.00,4611.958082,N,01258.214843,E,1,08,1.0,140.45,M,46.25,M,,*6F
$GPGLL,4611.958082,N,01258.214843,E,084915.00,A,A*62
$GPVTG,338.0,T,338.1,M,001.1,N,002.1,K,A*21
$GPGSV,3,1,09,04,15,041,41,02,38,084,45,09,23,150,44,12,60,071,45*78
$GPGSV,3,2,09,14,31,257,39,25,73,322,44,29,47,220,48,30,30,288,40*7E
$GPGSV,3,3,09,31,21,313,,,,,,,,,,,,,*40
$GPGSA,M,3,04,02,09,12,14,25,29,30,,,,,1.9,1.0,1.6*36
Trace #71 at position 17.500000
$GPZDA,084915.04,08,10,2011,00,00*68
$GPRMC,084915.00,A,4611.958082,N,01258.214843,E,001.1,338.0,0$GPGGA,084916.00,4611.958233,N,01258.214645,E,1,08,1.0,140.50,M,46.25,M,,*68
$GPGLL,4611.958233,N,01258.214645,E,084916.00,A,A*61
$GPVTG,286.7,T,286.8,M,000.7,N,001.3,K,A*29
$GPGSV,3,1,09,04,15,041,41,02,38,084,44,09,23,150,43,12,60,071,45*7E
$GPGSV,3,2,09,14,31,257,42,25,73,322,45,29,47,220,46,30,30,288,39*73
$GPGSV,3,3,09,31,21,313,,,,,,,,,,,,,*40
$GPGSA,M,3,04,02,09,12,14,25,29,30,,,,,1.9,1.0,1.6*36
Trace #72 at position 17.750000
$GPZDA,084915.04,08,10,2011,00,00*68
$GPRMC,084915.00,A,4611.958082,N,01258.214843,E,001.1,338.0,0$GPGGA,084916.00,4611.958233,N,01258.214645,E,1,08,1.0,140.50,M,46.25,M,,*68
$GPGLL,4611.958233,N,01258.214645,E,084916.00,A,A*61
$GPVTG,286.7,T,286.8,M,000.7,N,001.3,K,A*29
$GPGSV,3,1,09,04,15,041,41,02,38,084,44,09,23,150,43,12,60,071,45*7E
$GPGSV,3,2,09,14,31,257,42,25,73,322,45,29,47,220,46,30,30,288,39*73
$GPGSV,3,3,09,31,21,313,,,,,,,,,,,,,*40
$GPGSA,M,3,04,02,09,12,14,25,29,30,,,,,1.9,1.0,1.6*36
Trace #73 at position 18.000000
$GPZDA,084916.04,08,10,2011,00,00*6B
$GPRMC,084916.00,A,4611.958233,N,01258.214645,E,000.7,286.7,01258.214428,E,1,08,1.0,140.56,M,46.25,M,,*69
$GPGLL,4611.958287,N,01258.214428,E,084917.00,A,A*66
$GPVTG,287.4,T,287.6,M,000.7,N,001.3,K,A*24
$GPGSV,3,1,09,04,15,041,42,02,38,084,45,09,23,150,43,12,60,071,44*7D
$GPGSV,3,2,09,14,31,257,39,25,73,322,44,29,47,220,48,30,30,288,39*70
$GPGSV,3,3,09,31,21,313,,,,,,,,,,,,,*40
$GPGSA,M,3,04,02,09,12,14,25,29,30,,,,,1.9,1.0,1.6*36
Trace #74 at position 18.250000
$GPZDA,084916.04,08,10,2011,00,00*6B
$GPRMC,084916.00,A,4611.958233,N,01258.214645,E,000.7,286.7,01258.214428,E,1,08,1.0,140.56,M,46.25,M,,*69
$GPGLL,4611.958287,N,01258.214428,E,084917.00,A,A*66
$GPVTG,287.4,T,287.6,M,000.7,N,001.3,K,A*24
$GPGSV,3,1,09,04,15,041,42,02,38,084,45,09,23,150,43,12,60,071,44*7D
$GPGSV,3,2,09,14,31,257,39,25,73,322,44,29,47,220,48,30,30,288,39*70
$GPGSV,3,3,09,31,21,313,,,,,,,,,,,,,*40
$GPGSA,M,3,04,02,09,12,14,25,29,30,,,,,1.9,1.0,1.6*36
Trace #75 at position 18.500000
$GPZDA,084917.04,08,10,2011,00,00*6A
$GPRMC,084917.00,A,4611.958287,N,01258.214428,E,000.7,287.4,081011,0.2,E,A*3F
$GPGGA,084918.83,N,01258.214212,E,084918.00,A,A*64
$GPVTG,327.8,T,328.0,M,001.4,N,002.6,K,A*25
$GPGSV,3,1,09,04,15,041,42,02,38,084,45,09,23,150,41,12,60,071,45*7E
$GPGSV,3,2,09,14,31,257,41,25,73,322,43,29,47,220,48,30,30,288,38*79
$GPGSV,3,3,09,31,21,313,,,,,,,,,,,,,*40
$GPGSA,M,3,04,02,09,12,14,25,29,30,,,,,1.9,1.0,1.6*36
Trace #76 at position 18.750000
$GPZDA,084918.04,08,10,2011,00,00*65
$GPRMC,084918.00,A,4611.958483,N,01258.214212,E,001.4,327.8,081011,0.2,E,A*38
$GPGGA,084919.00,4611.958844,N,01258.214046,E,1,08,1.0,140.55,M,46.25,M,,*6D09,04,15,041,42,02,38,084,45,09,23,150,42,12,60,071,45*7D
$GPGSV,3,2,09,14,31,257,39,25,73,322,43,29,47,220,47,30,30,288,39*78
$GPGSV,3,3,09,31,21,313,,,,,,,,,,,,,*40
$GPGSA,M,3,04,02,09,12,14,25,29,30,,,,,1.9,1.0,1.6*36
Trace #77 at position 19.000000
$GPZDA,084918.04,08,10,2011,00,00*65
$GPRMC,084918.00,A,4611.958483,N,01258.214212,E,001.4,327.8,081011,0.2,E,A*38
$GPGGA,084919.00,4611.958844,N,01258.214046,E,1,08,1.0,140.55,M,46.25,M,,*6D09,04,15,041,42,02,38,084,45,09,23,150,42,12,60,071,45*7D
$GPGSV,3,2,09,14,31,257,39,25,73,322,43,29,47,220,47,30,30,288,39*78
$GPGSV,3,3,09,31,21,313,,,,,,,,,,,,,*40
$GPGSA,M,3,04,02,09,12,14,25,29,30,,,,,1.9,1.0,1.6*36
Trace #78 at position 19.250000
$GPZDA,084918.04,08,10,2011,00,00*65
$GPRMC,084918.00,A,4611.958483,N,01258.214212,E,001.4,327.8,081011,0.2,E,A*38
$GPGGA,084919.00,4611.958844,N,01258.214046,E,1,08,1.0,140.55,M,46.25,M,,*6D09,04,15,041,42,02,38,084,45,09,23,150,42,12,60,071,45*7D
$GPGSV,3,2,09,14,31,257,39,25,73,322,43,29,47,220,47,30,30,288,39*78
$GPGSV,3,3,09,31,21,313,,,,,,,,,,,,,*40
$GPGSA,M,3,04,02,09,12,14,25,29,30,,,,,1.9,1.0,1.6*36
Trace #79 at position 19.500000
$GPZDA,084918.04,08,10,2011,00,00*65
$GPRMC,084918.00,A,4611.958483,N,01258.214212,E,001.4,327.8,081011,0.2,E,A*38
$GPGGA,084919.00,4611.958844,N,01258.214046,E,1,08,1.0,140.55,M,46.25,M,,*6D09,04,15,041,42,02,38,084,45,09,23,150,42,12,60,071,45*7D
$GPGSV,3,2,09,14,31,257,39,25,73,322,43,29,47,220,47,30,30,288,39*78
$GPGSV,3,3,09,31,21,313,,,,,,,,,,,,,*40
$GPGSA,M,3,04,02,09,12,14,25,29,30,,,,,1.9,1.0,1.6*36
Trace #80 at position 19.750000
$GPZDA,084918.04,08,10,2011,00,00*65
$GPRMC,084918.00,A,4611.958483,N,01258.214212,E,001.4,327.8,081011,0.2,E,A*38
$GPGGA,084919.00,4611.958844,N,01258.214046,E,1,08,1.0,140.55,M,46.25,M,,*6D09,04,15,041,42,02,38,084,45,09,23,150,42,12,60,071,45*7D
$GPGSV,3,2,09,14,31,257,39,25,73,322,43,29,47,220,47,30,30,288,39*78
$GPGSV,3,3,09,31,21,313,,,,,,,,,,,,,*40
$GPGSA,M,3,04,02,09,12,14,25,29,30,,,,,1.9,1.0,1.6*36
Trace #81 at position 20.000000
$GPZDA,084919.04,08,10,2011,00,00*64
$GPRMC,084919.00,A,4611.958844,N,01258.214046,E,001.5,344.1,081011,0.2,E,A*30
$GPGGA,084920.00,4611.959210,N,01258.213962,E,1,08,1.0,140.48,M,46.25,M,,*69
$GPGLL,4611.959210,N,01258.213962,E,084920.00,A,A*69
$GPVTG,346.0,T,346.2,M,001.3,N,002.5,KSA,M,3,04,02,09,12,14,25,29,30,,,,,1.9,1.0,1.6*36
$GPZDA,084920.04,08,10,2011,00,00*6E
$GPRMC,084920.00,A,4611.959210,N,01258.213962,E,001.3,346.0,081011,0.2,E,A*3D
$GPGGA,084921.00,4611.959562,N,01258.213801,E,1,07,1.1,140.36,M,46.25,M,,*69
$GPGLL,4611.959562,N,01258.213801,E,084921.00,A,A*6E
$GPVTG,332.8,T,333.0,M,001.3,N,002.5,K,A*2F
$GPGSV,3,1,09,04,15,041,41,02,38,084,45,09,23,150,41,12,60,071,44*7C
$GPGSV,3,2,09,14,31,257,39,25,73,322,45,29,47,220,46,30,30,288,34*72
$GPGSV,3,3,09,31,21,313,,,,$GPGGA,084922.00,4611.959841,N,01258.213595,E,1,07,1.1,140.28,M,46.25,M,,*69
$GPGLL,4611.959841,N,01258.213595,E,084922.00,A,A*61
$GPVTG,325.0,T,325.1,M,001.0,N,001.9,K,A*2B
$GPGSV,3,1,09,04,15,041,42,02,38,084,45,09,23,150,43,12,60,071,44*7D
$GPGSV,3,2,09,14,31,257,41,25,73,322,47,29,47,220,47,30,30,288,*79
$GPGSV,3,3,09,31,21,313,,,,,,,,,,,,,*40
$GPGSA,M,3,04,02,09,12,14,25,29,,,,,,2.0,1.1,1.7*3F
Trace #82 at position 20.250000
$GPZDA,084919.04,08,10,2011,00,00*64
$GPRMC,084919.00,A,4611.958844,N,01258.214046,E,001.5,344.1,081011,0.2,E,A*30
$GPGGA,084920.00,4611.959210,N,01258.213962,E,1,08,1.0,140.48,M,46.25,M,,*69
$GPGLL,4611.959210,N,01258.213962,E,084920.00,A,A*69
$GPVTG,346.0,T,346.2,M,001.3,N,002.5,KSA,M,3,04,02,09,12,14,25,29,30,,,,,1.9,1.0,1.6*36
$GPZDA,084920.04,08,10,2011,00,00*6E
$GPRMC,084920.00,A,4611.959210,N,01258.213962,E,001.3,346.0,081011,0.2,E,A*3D
$GPGGA,084921.00,4611.959562,N,01258.213801,E,1,07,1.1,140.36,M,46.25,M,,*69
$GPGLL,4611.959562,N,01258.213801,E,084921.00,A,A*6E
$GPVTG,332.8,T,333.0,M,001.3,N,002.5,K,A*2F
$GPGSV,3,1,09,04,15,041,41,02,38,084,45,09,23,150,41,12,60,071,44*7C
$GPGSV,3,2,09,14,31,257,39,25,73,322,45,29,47,220,46,30,30,288,34*72
$GPGSV,3,3,09,31,21,313,,,,$GPGGA,084922.00,4611.959841,N,01258.213595,E,1,07,1.1,140.28,M,46.25,M,,*69
$GPGLL,4611.959841,N,01258.213595,E,084922.00,A,A*61
$GPVTG,325.0,T,325.1,M,001.0,N,001.9,K,A*2B
$GPGSV,3,1,09,04,15,041,42,02,38,084,45,09,23,150,43,12,60,071,44*7D
$GPGSV,3,2,09,14,31,257,41,25,73,322,47,29,47,220,47,30,30,288,*79
$GPGSV,3,3,09,31,21,313,,,,,,,,,,,,,*40
$GPGSA,M,3,04,02,09,12,14,25,29,,,,,,2.0,1.1,1.7*3F
Trace #83 at position 20.500000
$GPZDA,084919.04,08,10,2011,00,00*64
$GPRMC,084919.00,A,4611.958844,N,01258.214046,E,001.5,344.1,081011,0.2,E,A*30
$GPGGA,084920.00,4611.959210,N,01258.213962,E,1,08,1.0,140.48,M,46.25,M,,*69
$GPGLL,4611.959210,N,01258.213962,E,084920.00,A,A*69
$GPVTG,346.0,T,346.2,M,001.3,N,002.5,KSA,M,3,04,02,09,12,14,25,29,30,,,,,1.9,1.0,1.6*36
$GPZDA,084920.04,08,10,2011,00,00*6E
$GPRMC,084920.00,A,4611.959210,N,01258.213962,E,001.3,346.0,081011,0.2,E,A*3D
$GPGGA,084921.00,4611.959562,N,01258.213801,E,1,07,1.1,140.36,M,46.25,M,,*69
$GPGLL,4611.959562,N,01258.213801,E,084921.00,A,A*6E
$GPVTG,332.8,T,333.0,M,001.3,N,002.5,K,A*2F
$GPGSV,3,1,09,04,15,041,41,02,38,084,45,09,23,150,41,12,60,071,44*7C
$GPGSV,3,2,09,14,31,257,39,25,73,322,45,29,47,220,46,30,30,288,34*72
$GPGSV,3,3,09,31,21,313,,,,$GPGGA,084922.00,4611.959841,N,01258.213595,E,1,07,1.1,140.28,M,46.25,M,,*69
$GPGLL,4611.959841,N,01258.213595,E,084922.00,A,A*61
$GPVTG,325.0,T,325.1,M,001.0,N,001.9,K,A*2B
$GPGSV,3,1,09,04,15,041,42,02,38,084,45,09,23,150,43,12,60,071,44*7D
$GPGSV,3,2,09,14,31,257,41,25,73,322,47,29,47,220,47,30,30,288,*79
$GPGSV,3,3,09,31,21,313,,,,,,,,,,,,,*40
$GPGSA,M,3,04,02,09,12,14,25,29,,,,,,2.0,1.1,1.7*3F
Trace #84 at position 20.750000
$GPZDA,084922.04,08,10,2011,00,00*6C
$GPRMC,084922.00,A,4611.959841,N,01258.213595,E,001.0,325.0,08101$GPGGA,084923.00,4611.960127,N,01258.213335,E,1,07,1.1,140.20,M,46.25,M,,*6F
$GPGLL,4611.960127,N,01258.213335,E,084923.00,A,A*6F
$GPVTG,322.8,T,322.9,M,001.6,N,003.0,K,A*26
$GPGSV,3,1,09,04,15,041,43,02,38,084,45,09,23,150,42,12,60,071,45*7C
$GPGSV,3,2,09,14,31,257,38,25,73,322,45,29,47,220,47,30,30,288,*75
$GPGSV,3,3,09,31,21,313,,,,,,,,,,,,,*40
$GPGSA,M,3,04,02,09,12,14,25,29,,,,,,2.0,1.1,1.7*3F
Trace #85 at position 21.000000
$GPZDA,084922.04,08,10,2011,00,00*6C
$GPRMC,084922.00,A,4611.959841,N,01258.213595,E,001.0,325.0,08101$GPGGA,084923.00,4611.960127,N,01258.213335,E,1,07,1.1,140.20,M,46.25,M,,*6F
$GPGLL,4611.960127,N,01258.213335,E,084923.00,A,A*6F
$GPVTG,322.8,T,322.9,M,001.6,N,003.0,K,A*26
$GPGSV,3,1,09,04,15,041,43,02,38,084,45,09,23,150,42,12,60,071,45*7C
$GPGSV,3,2,09,14,31,257,38,25,73,322,45,29,47,220,47,30,30,288,*75
$GPGSV,3,3,09,31,21,313,,,,,,,,,,,,,*40
$GPGSA,M,3,04,02,09,12,14,25,29,,,,,,2.0,1.1,1.7*3F
Trace #86 at position 21.250000
$GPZDA,084923.04,08,10,2011,00,00*6D
$GPRMC,084923.00,A,4611.960127,N,01258.213335,E,001.6,322.8,08101$GPGGA,084924.00,4611.960405,N,01258.213362,E,1,07,1.1,140.14,M,46.25,M,,*68
$GPGLL,4611.960405,N,01258.213362,E,084924.00,A,A*6F
$GPVTG,47.8,T,48.0,M,001.2,N,002.2,K,A*27
$GPGSV,3,1,09,04,15,041,42,02,38,084,46,09,23,150,42,12,60,071,45*7E
$GPGSV,3,2,09,14,31,257,38,25,73,322,43,29,47,220,46,30,30,288,37*76
$GPGSV,3,3,09,31,21,313,,,,,,,,,,,,,*40
$GPGSA,M,3,04,02,09,12,14,25,29,,,,,,2.0,1.1,1.7*3F
Trace #87 at position 21.500000
$GPZDA,084923.04,08,10,2011,00,00*6D
$GPRMC,084923.00,A,4611.960127,N,01258.213335,E,001.6,322.8,08101$GPGGA,084924.00,4611.960405,N,01258.213362,E,1,07,1.1,140.14,M,46.25,M,,*68
$GPGLL,4611.960405,N,01258.213362,E,084924.00,A,A*6F
$GPVTG,47.8,T,48.0,M,001.2,N,002.2,K,A*27
$GPGSV,3,1,09,04,15,041,42,02,38,084,46,09,23,150,42,12,60,071,45*7E
$GPGSV,3,2,09,14,31,257,38,25,73,322,43,29,47,220,46,30,30,288,37*76
$GPGSV,3,3,09,31,21,313,,,,,,,,,,,,,*40
$GPGSA,M,3,04,02,09,12,14,25,29,,,,,,2.0,1.1,1.7*3F
Trace #88 at position 21.750000
$GPZDA,084924.04,08,10,2011,00,00*6A
$GPRMC,084924.00,A,4611.960405,N,01258.213362,E,001.2,47.8,081011$GPGGA,084925.00,4611.960657,N,01258.213545,E,1,07,1.1,140.12,M,46.25,M,,*69
$GPGLL,4611.960657,N,01258.213545,E,084925.00,A,A*68
$GPVTG,0.4,T,0.6,M,001.2,N,002.2,K,A*22
$GPGSV,3,1,09,04,15,041,41,02,38,084,45,09,23,150,41,12,60,071,46*7E
$GPGSV,3,2,09,14,31,257,38,25,73,322,42,29,47,220,47,30,30,288,36*77
$GPGSV,3,3,09,31,21,313,,,,,,,,,,,,,*40
$GPGSA,M,3,04,02,09,12,14,25,29,,,,,,2.0,1.1,1.7*3F
Trace #89 at position 22.000000
$GPZDA,084924.04,08,10,2011,00,00*6A
$GPRMC,084924.00,A,4611.960405,N,01258.213362,E,001.2,47.8,081011$GPGGA,084925.00,4611.960657,N,01258.213545,E,1,07,1.1,140.12,M,46.25,M,,*69
$GPGLL,4611.960657,N,01258.213545,E,084925.00,A,A*68
$GPVTG,0.4,T,0.6,M,001.2,N,002.2,K,A*22
$GPGSV,3,1,09,04,15,041,41,02,38,084,45,09,23,150,41,12,60,071,46*7E
$GPGSV,3,2,09,14,31,257,38,25,73,322,42,29,47,220,47,30,30,288,36*77
$GPGSV,3,3,09,31,21,313,,,,,,,,,,,,,*40
$GPGSA,M,3,04,02,09,12,14,25,29,,,,,,2.0,1.1,1.7*3F
Trace #90 at position 22.250000
$GPZDA,084925.04,08,10,2011,00,00*6B
$GPRMC,084925.00,A,4611.960657,N,01258.213545,E,001.2,0.4,081011,0.$GPGGA,084926.00,4611.960965,N,01258.213508,E,1,07,1.1,140.05,M,46.25,M,,*6B
$GPGLL,4611.960965,N,01258.213508,E,084926.00,A,A*6C
$GPVTG,352.3,T,352.5,M,001.3,N,002.4,K,A*21
$GPGSV,3,1,09,04,15,041,41,02,38,084,45,09,23,150,40,12,60,071,45*7C
$GPGSV,3,2,09,14,31,257,38,25,73,322,43,29,47,220,47,30,30,288,37*77
$GPGSV,3,3,09,31,21,313,,,,,,,,,,,,,*40
$GPGSA,M,3,04,02,09,12,14,25,29,,,,,,2.0,1.1,1.7*3F
Trace #91 at position 22.500000
$GPZDA,084925.04,08,10,2011,00,00*6B
$GPRMC,084925.00,A,4611.960657,N,01258.213545,E,001.2,0.4,081011,0.$GPGGA,084926.00,4611.960965,N,01258.213508,E,1,07,1.1,140.05,M,46.25,M,,*6B
$GPGLL,4611.960965,N,01258.213508,E,084926.00,A,A*6C
$GPVTG,352.3,T,352.5,M,001.3,N,002.4,K,A*21
$GPGSV,3,1,09,04,15,041,41,02,38,084,45,09,23,150,40,12,60,071,45*7C
$GPGSV,3,2,09,14,31,257,38,25,73,322,43,29,47,220,47,30,30,288,37*77
$GPGSV,3,3,09,31,21,313,,,,,,,,,,,,,*40
$GPGSA,M,3,04,02,09,12,14,25,29,,,,,,2.0,1.1,1.7*3F
Trace #92 at position 22.750000
$GPZDA,084926.04,08,10,2011,00,00*68
$GPRMC,084926.00,A,4611.960965,N,01258.213508,E,001.3,352.3,081$GPGGA,084927.00,4611.961159,N,01258.213371,E,1,08,1.0,140.07,M,46.25,M,,*68
$GPGLL,4611.961159,N,01258.213371,E,084927.00,A,A*63
$GPVTG,309.8,T,309.9,M,000.8,N,001.6,K,A*2D
$GPGSV,3,1,09,04,15,041,43,02,38,084,46,09,23,150,43,12,60,071,46*7D
$GPGSV,3,2,09,14,31,257,40,25,73,322,45,29,47,220,47,30,30,288,39*70
$GPGSV,3,3,09,31,21,313,,,,,,,,,,,,,*40
$GPGSA,M,3,04,02,09,12,14,25,29,30,,,,,1.9,1.0,1.6*36
Trace #93 at position 23.000000
$GPZDA,084926.04,08,10,2011,00,00*68
$GPRMC,084926.00,A,4611.960965,N,01258.213508,E,001.3,352.3,081$GPGGA,084927.00,4611.961159,N,01258.213371,E,1,08,1.0,140.07,M,46.25,M,,*68
$GPGLL,4611.961159,N,01258.213371,E,084927.00,A,A*63
$GPVTG,309.8,T,309.9,M,000.8,N,001.6,K,A*2D
$GPGSV,3,1,09,04,15,041,43,02,38,084,46,09,23,150,43,12,60,071,46*7D
$GPGSV,3,2,09,14,31,257,40,25,73,322,45,29,47,220,47,30,30,288,39*70
$GPGSV,3,3,09,31,21,313,,,,,,,,,,,,,*40
$GPGSA,M,3,04,02,09,12,14,25,29,30,,,,,1.9,1.0,1.6*36
Trace #94 at position 23.250000
$GPZDA,084926.04,08,10,2011,00,00*68
$GPRMC,084926.00,A,4611.960965,N,01258.213508,E,001.3,352.3,081$GPGGA,084927.00,4611.961159,N,01258.213371,E,1,08,1.0,140.07,M,46.25,M,,*68
$GPGLL,4611.961159,N,01258.213371,E,084927.00,A,A*63
$GPVTG,309.8,T,309.9,M,000.8,N,001.6,K,A*2D
$GPGSV,3,1,09,04,15,041,43,02,38,084,46,09,23,150,43,12,60,071,46*7D
$GPGSV,3,2,09,14,31,257,40,25,73,322,45,29,47,220,47,30,30,288,39*70
$GPGSV,3,3,09,31,21,313,,,,,,,,,,,,,*40
$GPGSA,M,3,04,02,09,12,14,25,29,30,,,,,1.9,1.0,1.6*36
Trace #95 at position 23.500000
$GPZDA,084927.04,08,10,2011,00,00*69
$GPRMC,084927.00,A,4611.961159,N,01258.213371,E,000.8,309.8,01258.213327,E,1,08,1.0,140.12,M,46.25,M,,*69
$GPGLL,4611.961343,N,01258.213327,E,084928.00,A,A*66
$GPVTG,17.1,T,17.2,M,001.1,N,002.1,K,A*23
$GPGSV,3,1,09,04,15,041,42,02,38,084,45,09,23,150,42,12,60,071,46*7E
$GPGSV,3,2,09,14,31,257,39,25,73,322,44,29,47,220,46,30,30,288,38*7F
$GPGSV,3,3,09,31,21,313,,,,,,,,,,,,,*40
$GPGSA,M,3,04,02,09,12,14,25,29,30,,,,,1.9,1.0,1.6*36
Trace #96 at position 23.750000
$GPZDA,084927.04,08,10,2011,00,00*69
$GPRMC,084927.00,A,4611.961159,N,01258.213371,E,000.8,309.8,01258.213327,E,1,08,1.0,140.12,M,46.25,M,,*69
$GPGLL,4611.961343,N,01258.213327,E,084928.00,A,A*66
$GPVTG,17.1,T,17.2,M,001.1,N,002.1,K,A*23
$GPGSV,3,1,09,04,15,041,42,02,38,084,45,09,23,150,42,12,60,071,46*7E
$GPGSV,3,2,09,14,31,257,39,25,73,322,44,29,47,220,46,30,30,288,38*7F
$GPGSV,3,3,09,31,21,313,,,,,,,,,,,,,*40
$GPGSA,M,3,04,02,09,12,14,25,29,30,,,,,1.9,1.0,1.6*36
Trace #97 at position 24.000000
$GPZDA,084928.04,08,10,2011,00,00*66
$GPRMC,084928.00,A,4611.961343,N,01258.213327,E,001.1,17.1,081011,0.2,E,A*06
$GPGGA,084929.00,GLL,4611.961619,N,01258.213284,E,084929.00,A,A*65
$GPVTG,334.3,T,334.5,M,001.3,N,002.4,K,A*21
$GPGSV,3,1,09,04,15,041,43,02,38,084,46,09,23,150,43,12,60,071,45*7E
$GPGSV,3,2,09,14,31,257,37,25,73,322,43,29,47,220,46,30,30,288,38*76
$GPGSV,3,3,09,31,21,313,,,,,,,,,,,,,*40
$GPGSA,M,3,04,02,09,12,14,25,29,30,,,,,1.9,1.0,1.6*36
Trace #98 at position 24.250000
$GPZDA,084928.04,08,10,2011,00,00*66
$GPRMC,084928.00,A,4611.961343,N,01258.213327,E,001.1,17.1,081011,0.2,E,A*06
$GPGGA,084929.00,GLL,4611.961619,N,01258.213284,E,084929.00,A,A*65
$GPVTG,334.3,T,334.5,M,001.3,N,002.4,K,A*21
$GPGSV,3,1,09,04,15,041,43,02,38,084,46,09,23,150,43,12,60,071,45*7E
$GPGSV,3,2,09,14,31,257,37,25,73,322,43,29,47,220,46,30,30,288,38*76
$GPGSV,3,3,09,31,21,313,,,,,,,,,,,,,*40
$GPGSA,M,3,04,02,09,12,14,25,29,30,,,,,1.9,1.0,1.6*36
Trace #99 at position 24.500000
$GPZDA,084929.04,08,10,2011,00,00*67
$GPRMC,084929.00,A,4611.961619,N,01258.213284,E,001.3,334.3,081011,0.2,E,A*37
$GPGGA,084930.00,4611.961883,N,01258.213144,E,1,08,1.0,140.27,M3,T,350.5,M,001.0,N,001.9,K,A*2C
$GPGSV,3,1,09,04,15,041,42,02,38,084,46,09,23,150,41,12,60,071,45*7D
$GPGSV,3,2,09,14,31,257,39,25,73,322,44,29,47,220,47,30,30,288,39*7F
$GPGSV,3,3,09,31,21,313,,,,,,,,,,,,,*40
$GPGSA,M,3,04,02,09,12,14,25,29,30,,,,,1.9,1.0,1.6*36
Trace #100 at position 24.750000
$GPZDA,084929.04,08,10,2011,00,00*67
$GPRMC,084929.00,A,4611.961619,N,01258.213284,E,001.3,334.3,081011,0.2,E,A*37
$GPGGA,084930.00,4611.961883,N,01258.213144,E,1,08,1.0,140.27,M3,T,350.5,M,001.0,N,001.9,K,A*2C
$GPGSV,3,1,09,04,15,041,42,02,38,084,46,09,23,150,41,12,60,071,45*7D
$GPGSV,3,2,09,14,31,257,39,25,73,322,44,29,47,220,47,30,30,288,39*7F
$GPGSV,3,3,09,31,21,313,,,,,,,,,,,,,*40
$GPGSA,M,3,04,02,09,12,14,25,29,30,,,,,1.9,1.0,1.6*36
Trace #101 at position 25.000000
$GPZDA,084938.04,08,10,2011,00,00*67
$GPRMC,084938.00,A,4611.963794,N,01258.212425,E,000.7,355.5,0811258.212375,E,1,07,1.1,140.19,M,46.25,M,,*6A
$GPGLL,4611.963868,N,01258.212375,E,084939.00,A,A*60
$GPVTG,224.5,T,224.6,M,000.1,N,000.2,K,A*23
$GPGSV,3,1,09,04,15,041,42,02,38,084,47,09,23,150,42,12,60,071,45*7F
$GPGSV,3,2,09,14,31,257,40,25,74,322,39,29,48,220,45,30,30,288,35*7D
$GPGSV,3,3,09,31,21,313,,,,,,,,,,,,,*40
$GPGSA,M,3,04,02,09,12,14,25,29,,,,,,2.0,1.1,1.7*3F
Trace #102 at position 25.250000
$GPZDA,084939.04,08,10,2011,00,00*66
$GPRMC,084939.00,A,4611.963868,N,01258.212375,E,000.1,224.5,081011,0.2,E,A*37
$GPGGA,084940.00,N,01258.212276,E,084940.00,A,A*6C
$GPVTG,306.0,T,306.2,M,000.4,N,000.8,K,A*2D
$GPGSV,3,1,09,04,15,041,44,02,38,084,45,09,23,150,41,12,60,071,43*7E
$GPGSV,3,2,09,14,31,257,38,25,74,322,37,29,48,220,46,30,30,288,34*7E
$GPGSV,3,3,09,31,21,313,,,,,,,,,,,,,*40
$GPGSA,M,3,04,02,09,12,14,25,29,,,,,,2.0,1.1,1.7*3F
Trace #103 at position 25.500000
$GPZDA,084941.04,08,10,2011,00,00*69
$GPRMC,084941.00,A,4611.963898,N,01258.212196,E,000.0,329.5,081011,0.2,E,A*35
$GPGGA,084942.00,4611.963895,N,01258.212165,E,1,07,1.1,140.09,M,46.25,M,,*66
$GPGLL,4611.963895,N,01258.212165,E,084942.00,A,A*6D
$GPVTG,304.3,T,304.5,M,000.2,*40
$GPGSA,M,3,04,02,09,12,14,25,29,,,,,,2.0,1.1,1.7*3F
Trace #104 at position 25.750000
$GPZDA,084941.04,08,10,2011,00,00*69
$GPRMC,084941.00,A,4611.963898,N,01258.212196,E,000.0,329.5,081011,0.2,E,A*35
$GPGGA,084942.00,4611.963895,N,01258.212165,E,1,07,1.1,140.09,M,46.25,M,,*66
$GPGLL,4611.963895,N,01258.212165,E,084942.00,A,A*6D
$GPVTG,304.3,T,304.5,M,000.2,*40
$GPGSA,M,3,04,02,09,12,14,25,29,,,,,,2.0,1.1,1.7*3F
Trace #105 at position 26.000000
$GPZDA,084942.04,08,10,2011,00,00*6A
$GPRMC,084942.00,A,4611.963895,N,01258.212165,E,000.2,304.3,081011,0.2,E,A*3C
$GPGGA,084943.00,4611.963859,N,01258.212181,E,1,08,1.0,140.08,M,46.25,M,,*62
$GPGLL,4611.963859,N,01258.212181,E,084943.00,A,A*66
$GPVTG,128.4,T,128.5,M,000.0,N,000.0,K,A*22
$GPGSV,3,1,09,04,15,041,43,02,38,084,46,09,23,150,41,12,60,071,45*7C
$GPGSV,3,2,09,14,31,257,37,25,74,323,39,29,48,220,46,30,30,288,40*7D
$GPGSV,3,3,09,31,21$GPGGA,084944.00,4611.963806,N,01258.212259,E,1,07,1.1,140.23,M,46.25,M,,*6E
$GPGLL,4611.963806,N,01258.212259,E,084944.00,A,A*6D
$GPVTG,162.4,T,162.6,M,000.1,N,000.1,K,A*21
$GPGSV,3,1,09,04,15,041,43,02,38,084,46,09,23,150,41,12,60,071,45*7C
$GPGSV,3,2,09,14,31,257,35,25,74,323,41,29,48,220,46,30,30,288,39*7E
$GPGSV,3,3,09,31,21,313,,,,,,,,,,,,,*40
$GPGSA,M,3,04,02,09,12,25,29,30,,,,,,2.0,1.1,1.7*39
Trace #106 at position 26.250000
$GPZDA,084944.04,08,10,2011,00,00*6C
$GPRMC,084944.00,A,4611.963806,N,01258.212259,E,000.1,162.4,081$GPGGA,084945.00,4611.963760,N,01258.212327,E,1,07,1.1,140.38,M,46.25,M,,*62
$GPGLL,4611.963760,N,01258.212327,E,084945.00,A,A*6B
$GPVTG,115.5,T,115.6,M,000.0,N,000.0,K,A*20
$GPGSV,3,1,09,04,15,041,42,02,38,084,46,09,23,150,42,12,60,071,44*7F
$GPGSV,3,2,09,14,31,257,35,25,74,323,41,29,48,220,46,30,30,288,40*70
$GPGSV,3,3,09,31,21,313,,,,,,,,,,,,,*40
$GPGSA,M,3,04,02,09,12,25,29,30,,,,,,2.0,1.1,1.7*39
Trace #107 at position 26.500000
$GPZDA,084944.04,08,10,2011,00,00*6C
$GPRMC,084944.00,A,4611.963806,N,01258.212259,E,000.1,162.4,081$GPGGA,084945.00,4611.963760,N,01258.212327,E,1,07,1.1,140.38,M,46.25,M,,*62
$GPGLL,4611.963760,N,01258.212327,E,084945.00,A,A*6B
$GPVTG,115.5,T,115.6,M,000.0,N,000.0,K,A*20
$GPGSV,3,1,09,04,15,041,42,02,38,084,46,09,23,150,42,12,60,071,44*7F
$GPGSV,3,2,09,14,31,257,35,25,74,323,41,29,48,220,46,30,30,288,40*70
$GPGSV,3,3,09,31,21,313,,,,,,,,,,,,,*40
$GPGSA,M,3,04,02,09,12,25,29,30,,,,,,2.0,1.1,1.7*39
Trace #108 at position 26.750000
$GPZDA,084945.04,08,10,2011,00,00*6D
