Trace #1 at position 0.000000
$GPZDA,095243.03,08,10,2011,00,00*67
$GPRMC,095243.00,A,4611.973340,N,01258.208020,E,000.1,31.7,081011,0.2,E,A*0D
$GPGGA,095244.00,4611.973745,N,01258.208097,E,1,06,2.6,131.85,M,46.25,M,,*68
$GPGLL,4611.973745,N,01258.208097,E,095244.00,A,A*64
$GPVTG,62.9,T,63.1,M,000.1,N,000.1,K,A*2A
$GPGSV,2,1,06,02,30,053,47,12,37,100,43,25,71,084,44,29,77,250,42*7E
$GPGSV,2,2,06,30,57,303,45,31,45,300,43,,,,,,,,*78
$GPGSA,M,3,02,12,25,29,30,31,,,,,,,4.7,2.6,3.8*3E
Trace #2 at position 0.250000
$GPZDA,095245.03,08,10,2011,00,00*61
$GPRMC,095245.00,A,4611.974067,N,01258.208137,E,000.2,209.2,081011,0.2,E,A*32
$GPGGA,095246.00,4611.974352,N,01258.208160,E,1,06,2.6,133.38,M,46.25,M,,*62
$GPGLL,4611.974352,N,01258.208160,E,095246.00,A,A*6A
$GPVTG,346.9,T,347.0,M,000.1,N,000.2,K,A*28
$GPGSV,2,1,06,02,30,053,46,12,37,100,37,25,71,084,43,29,77,250,44*7D
$GPGSV,2,2,06,30,57,303,45,31,45,300,45,,,,,,,,*7E
$GPGSA,M,3,02,12,25,29,30,31,,,,,,,4.7,2.6,3.8*3E
Trace #3 at position 0.500000
$GPZDA,095246.03,08,10,2011,00,00*62
$GPRMC,095246.00,A,4611.974352,N,01258.208160,E,000.1,346.9,081011,0.2,E,A*34
$GPGGA,095247.00,4611.974575,N,01258.208229,E,1,06,2.6,134.10,M,46.25,M,,*63
$GPGLL,4611.974575,N,01258.208229,E,095247.00,A,A*66
$GPVTG,148.2,T,148.4,M,000.4,N,000.7,K,A*26
$GPGSV,2,1,06,02,30,053,46,12,37,100,38,25,71,084,44,29,77,250,44*75
$GPGSV,2,2,06,30,57,303,45,31,45,300,45,,,,,,,,*7E
$GPGSA,M,3,02,12,25,29,30,31,,,,,,,4.7,2.6,3.8*3E
Trace #4 at position 0.750000
$GPZDA,095247.03,08,10,2011,00,00*63
$GPRMC,095247.00,A,4611.974575,N,01258.208229,E,000.4,148.2,081011,0.2,E,A*3A
$GPGGA,095248.00,4611.974616,N,01258.208374,E,1,06,2.6,134.67,M,46.25,M,,*63
$GPGLL,4611.974616,N,01258.208374,E,095248.00,A,A*66
$GPVTG,159.1,T,159.3,M,001.1,N,002.1,K,A*22
$GPGSV,2,1,06,02,30,053,45,12,37,100,39,25,71,084,44,29,77,250,45*76
$GPGSV,2,2,06,30,57,303,46,31,45,300,47,,,,,,,,*7F
$GPGSA,M,3,02,12,25,29,30,31,,,,,,,4.7,2.6,3.8*3E
Trace #5 at position 1.000000
$GPZDA,095247.03,08,10,2011,00,00*63
$GPRMC,095247.00,A,4611.974575,N,01258.208229,E,000.4,148.2,081011,0.2,E,A*3A
$GPGGA,095248.00,4611.974616,N,01258.208374,E,1,06,2.6,134.67,M,46.25,M,,*63
$GPGLL,4611.974616,N,01258.208374,E,095248.00,A,A*66
$GPVTG,159.1,T,159.3,M,001.1,N,002.1,K,A*22
$GPGSV,2,1,06,02,30,053,45,12,37,100,39,25,71,084,44,29,77,250,45*76
$GPGSV,2,2,06,30,57,303,46,31,45,300,47,,,,,,,,*7F
$GPGSA,M,3,02,12,25,29,30,31,,,,,,,4.7,2.6,3.8*3E
Trace #6 at position 1.250000
$GPZDA,095248.03,08,10,2011,00,00*6C
$GPRMC,095248.00,A,4611.974616,N,01258.208374,E,001.1,159.1,081011,0.2,E,A*3D
$GPGGA,095249.00,4611.974635,N,01258.208454,E,1,06,2.6,135.11,M,46.25,M,,*66
$GPGLL,4611.974635,N,01258.208454,E,095249.00,A,A*63
$GPVTG,189.1,T,189.2,M,000.4,N,000.8,K,A*2C
$GPGSV,2,1,06,02,30,053,46,12,37,100,40,25,71,084,43,29,77,250,44*7D
$GPGSV,2,2,06,30,57,303,43,31,45,300,44,,,,,,,,*79
$GPGSA,M,3,02,12,25,29,30,31,,,,,,,4.7,2.6,3.8*3E
Trace #7 at position 1.500000
$GPZDA,095248.03,08,10,2011,00,00*6C
$GPRMC,095248.00,A,4611.974616,N,01258.208374,E,001.1,159.1,081011,0.2,E,A*3D
$GPGGA,095249.00,4611.974635,N,01258.208454,E,1,06,2.6,135.11,M,46.25,M,,*66
$GPGLL,4611.974635,N,01258.208454,E,095249.00,A,A*63
$GPVTG,189.1,T,189.2,M,000.4,N,000.8,K,A*2C
$GPGSV,2,1,06,02,30,053,46,12,37,100,40,25,71,084,43,29,77,250,44*7D
$GPGSV,2,2,06,30,57,303,43,31,45,300,44,,,,,,,,*79
$GPGSA,M,3,02,12,25,29,30,31,,,,,,,4.7,2.6,3.8*3E
Trace #8 at position 1.750000
$GPZDA,095249.03,08,10,2011,00,00*6D
$GPRMC,095249.00,A,4611.974635,N,01258.208454,E,000.4,189.1,081011,0.2,E,A*31
$GPGGA,095250.00,4611.974670,N,01258.208550,E,1,06,2.6,135.53,M,46.25,M,,*6C
$GPGLL,4611.974670,N,01258.208550,E,095250.00,A,A*6F
$GPVTG,145.3,T,145.4,M,000.8,N,001.4,K,A*29
$GPGSV,2,1,06,02,30,053,45,12,37,100,39,25,71,084,45,29,77,250,42*70
$GPGSV,2,2,06,30,57,303,44,31,45,300,44,,,,,,,,*7E
$GPGSA,M,3,02,12,25,29,30,31,,,,,,,4.7,2.6,3.8*3E
Trace #9 at position 2.000000
$GPZDA,095249.03,08,10,2011,00,00*6D
$GPRMC,095249.00,A,4611.974635,N,01258.208454,E,000.4,189.1,081011,0.2,E,A*31
$GPGGA,095250.00,4611.974670,N,01258.208550,E,1,06,2.6,135.53,M,46.25,M,,*6C
$GPGLL,4611.974670,N,01258.208550,E,095250.00,A,A*6F
$GPVTG,145.3,T,145.4,M,000.8,N,001.4,K,A*29
$GPGSV,2,1,06,02,30,053,45,12,37,100,39,25,71,084,45,29,77,250,42*70
$GPGSV,2,2,06,30,57,303,44,31,45,300,44,,,,,,,,*7E
$GPGSA,M,3,02,12,25,29,30,31,,,,,,,4.7,2.6,3.8*3E
Trace #10 at position 2.250000
$GPZDA,095249.03,08,10,2011,00,00*6D
$GPRMC,095249.00,A,4611.974635,N,01258.208454,E,000.4,189.1,081011,0.2,E,A*31
$GPGGA,095250.00,4611.974670,N,01258.208550,E,1,06,2.6,135.53,M,46.25,M,,*6C
$GPGLL,4611.974670,N,01258.208550,E,095250.00,A,A*6F
$GPVTG,145.3,T,145.4,M,000.8,N,001.4,K,A*29
$GPGSV,2,1,06,02,30,053,45,12,37,100,39,25,71,084,45,29,77,250,42*70
$GPGSV,2,2,06,30,57,303,44,31,45,300,44,,,,,,,,*7E
$GPGSA,M,3,02,12,25,29,30,31,,,,,,,4.7,2.6,3.8*3E
Trace #11 at position 2.500000
$GPZDA,095250.03,08,10,2011,00,00*65
$GPRMC,095250.00,A,4611.974670,N,01258.208550,E,000.8,145.3,081011,0.2,E,A*33
$GPGGA,095251.00,4611.974576,N,01258.208657,E,1,06,2.6,135.97,M,46.25,M,,*64
$GPGLL,4611.974576,N,01258.208657,E,095251.00,A,A*6F
$GPVTG,180.2,T,180.4,M,001.1,N,002.0,K,A*27
$GPGSV,2,1,06,02,30,053,44,12,37,100,37,25,71,084,43,29,77,250,42*79
$GPGSV,2,2,06,30,57,303,44,31,45,300,43,,,,,,,,*79
$GPGSA,M,3,02,12,25,29,30,31,,,,,,,4.7,2.6,3.8*3E
Trace #12 at position 2.750000
$GPZDA,095250.03,08,10,2011,00,00*65
$GPRMC,095250.00,A,4611.974670,N,01258.208550,E,000.8,145.3,081011,0.2,E,A*33
$GPGGA,095251.00,4611.974576,N,01258.208657,E,1,06,2.6,135.97,M,46.25,M,,*64
$GPGLL,4611.974576,N,01258.208657,E,095251.00,A,A*6F
$GPVTG,180.2,T,180.4,M,001.1,N,002.0,K,A*27
$GPGSV,2,1,06,02,30,053,44,12,37,100,37,25,71,084,43,29,77,250,42*79
$GPGSV,2,2,06,30,57,303,44,31,45,300,43,,,,,,,,*79
$GPGSA,M,3,02,12,25,29,30,31,,,,,,,4.7,2.6,3.8*3E
Trace #13 at position 3.000000
$GPZDA,095250.03,08,10,2011,00,00*65
$GPRMC,095250.00,A,4611.974670,N,01258.208550,E,000.8,145.3,081011,0.2,E,A*33
$GPGGA,095251.00,4611.974576,N,01258.208657,E,1,06,2.6,135.97,M,46.25,M,,*64
$GPGLL,4611.974576,N,01258.208657,E,095251.00,A,A*6F
$GPVTG,180.2,T,180.4,M,001.1,N,002.0,K,A*27
$GPGSV,2,1,06,02,30,053,44,12,37,100,37,25,71,084,43,29,77,250,42*79
$GPGSV,2,2,06,30,57,303,44,31,45,300,43,,,,,,,,*79
$GPGSA,M,3,02,12,25,29,30,31,,,,,,,4.7,2.6,3.8*3E
Trace #14 at position 3.250000
$GPZDA,095251.03,08,10,2011,00,00*64
$GPRMC,095251.00,A,4611.974576,N,01258.208657,E,001.1,180.2,081011,0.2,E,A*33
$GPGGA,095252.00,4611.974354,N,01258.208708,E,1,06,2.6,136.26,M,46.25,M,,*63
$GPGLL,4611.974354,N,01258.208708,E,095252.00,A,A*61
$GPVTG,176.8,T,177.0,M,001.5,N,002.8,K,A*24
$GPGSV,2,1,06,02,30,053,45,12,37,100,39,25,71,084,44,29,77,250,44*77
$GPGSV,2,2,06,30,57,303,44,31,45,300,44,,,,,,,,*7E
$GPGSA,M,3,02,12,25,29,30,31,,,,,,,4.7,2.6,3.8*3E
Trace #15 at position 3.500000
$GPZDA,095251.03,08,10,2011,00,00*64
$GPRMC,095251.00,A,4611.974576,N,01258.208657,E,001.1,180.2,081011,0.2,E,A*33
$GPGGA,095252.00,4611.974354,N,01258.208708,E,1,06,2.6,136.26,M,46.25,M,,*63
$GPGLL,4611.974354,N,01258.208708,E,095252.00,A,A*61
$GPVTG,176.8,T,177.0,M,001.5,N,002.8,K,A*24
$GPGSV,2,1,06,02,30,053,45,12,37,100,39,25,71,084,44,29,77,250,44*77
$GPGSV,2,2,06,30,57,303,44,31,45,300,44,,,,,,,,*7E
$GPGSA,M,3,02,12,25,29,30,31,,,,,,,4.7,2.6,3.8*3E
Trace #16 at position 3.750000
$GPZDA,095252.03,08,10,2011,00,00*67
$GPRMC,095252.00,A,4611.974354,N,01258.208708,E,001.5,176.8,081011,0.2,E,A*3A
$GPGGA,095253.00,4611.974076,N,01258.208801,E,1,06,2.6,136.49,M,46.25,M,,*6E
$GPGLL,4611.974076,N,01258.208801,E,095253.00,A,A*65
$GPVTG,174.9,T,175.1,M,001.4,N,002.6,K,A*2B
$GPGSV,2,1,06,02,30,053,46,12,37,100,39,25,71,084,43,29,77,250,41*76
$GPGSV,2,2,06,30,57,303,43,31,45,300,44,,,,,,,,*79
$GPGSA,M,3,02,12,25,29,30,31,,,,,,,4.7,2.6,3.8*3E
Trace #17 at position 4.000000
$GPZDA,095252.03,08,10,2011,00,00*67
$GPRMC,095252.00,A,4611.974354,N,01258.208708,E,001.5,176.8,081011,0.2,E,A*3A
$GPGGA,095253.00,4611.974076,N,01258.208801,E,1,06,2.6,136.49,M,46.25,M,,*6E
$GPGLL,4611.974076,N,01258.208801,E,095253.00,A,A*65
$GPVTG,174.9,T,175.1,M,001.4,N,002.6,K,A*2B
$GPGSV,2,1,06,02,30,053,46,12,37,100,39,25,71,084,43,29,77,250,41*76
$GPGSV,2,2,06,30,57,303,43,31,45,300,44,,,,,,,,*79
$GPGSA,M,3,02,12,25,29,30,31,,,,,,,4.7,2.6,3.8*3E
Trace #18 at position 4.250000
$GPZDA,095252.03,08,10,2011,00,00*67
$GPRMC,095252.00,A,4611.974354,N,01258.208708,E,001.5,176.8,081011,0.2,E,A*3A
$GPGGA,095253.00,4611.974076,N,01258.208801,E,1,06,2.6,136.49,M,46.25,M,,*6E
$GPGLL,4611.974076,N,01258.208801,E,095253.00,A,A*65
$GPVTG,174.9,T,175.1,M,001.4,N,002.6,K,A*2B
$GPGSV,2,1,06,02,30,053,46,12,37,100,39,25,71,084,43,29,77,250,41*76
$GPGSV,2,2,06,30,57,303,43,31,45,300,44,,,,,,,,*79
$GPGSA,M,3,02,12,25,29,30,31,,,,,,,4.7,2.6,3.8*3E
Trace #19 at position 4.500000
$GPZDA,095253.04,08,10,2011,00,00*61
$GPRMC,095253.00,A,4611.974076,N,01258.208801,E,001.4,174.9,081011,0.2,E,A*3C
$GPGGA,095254.00,4611.973833,N,01258.208959,E,1,06,2.6,136.66,M,46.25,M,,*66
$GPGLL,4611.973833,N,01258.208959,E,095254.00,A,A*60
$GPVTG,159.9,T,160.1,M,001.3,N,002.4,K,A*25
$GPGSV,2,1,06,02,30,053,45,12,37,100,40,25,71,084,44,29,77,250,41*7C
$GPGSV,2,2,06,30,57,303,42,31,45,300,43,,,,,,,,*7F
$GPGSA,M,3,02,12,25,29,30,31,,,,,,,4.7,2.6,3.8*3E
Trace #20 at position 4.750000
$GPZDA,095253.04,08,10,2011,00,00*61
$GPRMC,095253.00,A,4611.974076,N,01258.208801,E,001.4,174.9,081011,0.2,E,A*3C
$GPGGA,095254.00,4611.973833,N,01258.208959,E,1,06,2.6,136.66,M,46.25,M,,*66
$GPGLL,4611.973833,N,01258.208959,E,095254.00,A,A*60
$GPVTG,159.9,T,160.1,M,001.3,N,002.4,K,A*25
$GPGSV,2,1,06,02,30,053,45,12,37,100,40,25,71,084,44,29,77,250,41*7C
$GPGSV,2,2,06,30,57,303,42,31,45,300,43,,,,,,,,*7F
$GPGSA,M,3,02,12,25,29,30,31,,,,,,,4.7,2.6,3.8*3E
Trace #21 at position 5.000000
$GPZDA,095253.04,08,10,2011,00,00*61
$GPRMC,095253.00,A,4611.974076,N,01258.208801,E,001.4,174.9,081011,0.2,E,A*3C
$GPGGA,095254.00,4611.973833,N,01258.208959,E,1,06,2.6,136.66,M,46.25,M,,*66
$GPGLL,4611.973833,N,01258.208959,E,095254.00,A,A*60
$GPVTG,159.9,T,160.1,M,001.3,N,002.4,K,A*25
$GPGSV,2,1,06,02,30,053,45,12,37,100,40,25,71,084,44,29,77,250,41*7C
$GPGSV,2,2,06,30,57,303,42,31,45,300,43,,,,,,,,*7F
$GPGSA,M,3,02,12,25,29,30,31,,,,,,,4.7,2.6,3.8*3E
Trace #22 at position 5.250000
$GPZDA,095253.04,08,10,2011,00,00*61
$GPRMC,095253.00,A,4611.974076,N,01258.208801,E,001.4,174.9,081011,0.2,E,A*3C
$GPGGA,095254.00,4611.973833,N,01258.208959,E,1,06,2.6,136.66,M,46.25,M,,*66
$GPGLL,4611.973833,N,01258.208959,E,095254.00,A,A*60
$GPVTG,159.9,T,160.1,M,001.3,N,002.4,K,A*25
$GPGSV,2,1,06,02,30,053,45,12,37,100,40,25,71,084,44,29,77,250,41*7C
$GPGSV,2,2,06,30,57,303,42,31,45,300,43,,,,,,,,*7F
$GPGSA,M,3,02,12,25,29,30,31,,,,,,,4.7,2.6,3.8*3E
Trace #23 at position 5.500000
$GPZDA,095254.03,08,10,2011,00,00*61
$GPRMC,095254.00,A,4611.973833,N,01258.208959,E,001.3,159.9,081011,0.2,E,A*31
$GPGGA,095255.00,4611.973606,N,01258.209265,E,1,06,2.6,136.90,M,46.25,M,,*63
$GPGLL,4611.973606,N,01258.209265,E,095255.00,A,A*6C
$GPVTG,139.1,T,139.3,M,001.5,N,002.8,K,A*2F
$GPGSV,2,1,06,02,30,053,46,12,37,100,39,25,71,084,43,29,77,250,41*76
$GPGSV,2,2,06,30,57,303,43,31,45,300,44,,,,,,,,*79
$GPGSA,M,3,02,12,25,29,30,31,,,,,,,4.7,2.6,3.8*3E
Trace #24 at position 5.750000
$GPZDA,095254.03,08,10,2011,00,00*61
$GPRMC,095254.00,A,4611.973833,N,01258.208959,E,001.3,159.9,081011,0.2,E,A*31
$GPGGA,095255.00,4611.973606,N,01258.209265,E,1,06,2.6,136.90,M,46.25,M,,*63
$GPGLL,4611.973606,N,01258.209265,E,095255.00,A,A*6C
$GPVTG,139.1,T,139.3,M,001.5,N,002.8,K,A*2F
$GPGSV,2,1,06,02,30,053,46,12,37,100,39,25,71,084,43,29,77,250,41*76
$GPGSV,2,2,06,30,57,303,43,31,45,300,44,,,,,,,,*79
$GPGSA,M,3,02,12,25,29,30,31,,,,,,,4.7,2.6,3.8*3E
Trace #25 at position 6.000000
$GPZDA,095254.03,08,10,2011,00,00*61
$GPRMC,095254.00,A,4611.973833,N,01258.208959,E,001.3,159.9,081011,0.2,E,A*31
$GPGGA,095255.00,4611.973606,N,01258.209265,E,1,06,2.6,136.90,M,46.25,M,,*63
$GPGLL,4611.973606,N,01258.209265,E,095255.00,A,A*6C
$GPVTG,139.1,T,139.3,M,001.5,N,002.8,K,A*2F
$GPGSV,2,1,06,02,30,053,46,12,37,100,39,25,71,084,43,29,77,250,41*76
$GPGSV,2,2,06,30,57,303,43,31,45,300,44,,,,,,,,*79
$GPGSA,M,3,02,12,25,29,30,31,,,,,,,4.7,2.6,3.8*3E
Trace #26 at position 6.250000
$GPZDA,095255.03,08,10,2011,00,00*60
$GPRMC,095255.00,A,4611.973606,N,01258.209265,E,001.5,139.1,081011,0.2,E,A*35
$GPGGA,095256.00,4611.973225,N,01258.209658,E,1,06,2.6,137.16,M,46.25,M,,*60
$GPGLL,4611.973225,N,01258.209658,E,095256.00,A,A*60
$GPVTG,155.3,T,155.4,M,002.5,N,004.6,K,A*21
$GPGSV,2,1,06,02,30,053,45,12,37,100,39,25,71,084,45,29,77,250,41*73
$GPGSV,2,2,06,30,57,303,43,31,45,300,43,,,,,,,,*7E
$GPGSA,M,3,02,12,25,29,30,31,,,,,,,4.7,2.6,3.8*3E
Trace #27 at position 6.500000
$GPZDA,095255.03,08,10,2011,00,00*60
$GPRMC,095255.00,A,4611.973606,N,01258.209265,E,001.5,139.1,081011,0.2,E,A*35
$GPGGA,095256.00,4611.973225,N,01258.209658,E,1,06,2.6,137.16,M,46.25,M,,*60
$GPGLL,4611.973225,N,01258.209658,E,095256.00,A,A*60
$GPVTG,155.3,T,155.4,M,002.5,N,004.6,K,A*21
$GPGSV,2,1,06,02,30,053,45,12,37,100,39,25,71,084,45,29,77,250,41*73
$GPGSV,2,2,06,30,57,303,43,31,45,300,43,,,,,,,,*7E
$GPGSA,M,3,02,12,25,29,30,31,,,,,,,4.7,2.6,3.8*3E
Trace #28 at position 6.750000
$GPZDA,095255.03,08,10,2011,00,00*60
$GPRMC,095255.00,A,4611.973606,N,01258.209265,E,001.5,139.1,081011,0.2,E,A*35
$GPGGA,095256.00,4611.973225,N,01258.209658,E,1,06,2.6,137.16,M,46.25,M,,*60
$GPGLL,4611.973225,N,01258.209658,E,095256.00,A,A*60
$GPVTG,155.3,T,155.4,M,002.5,N,004.6,K,A*21
$GPGSV,2,1,06,02,30,053,45,12,37,100,39,25,71,084,45,29,77,250,41*73
$GPGSV,2,2,06,30,57,303,43,31,45,300,43,,,,,,,,*7E
$GPGSA,M,3,02,12,25,29,30,31,,,,,,,4.7,2.6,3.8*3E
Trace #29 at position 7.000000
$GPZDA,095256.03,08,10,2011,00,00*63
$GPRMC,095256.00,A,4611.973225,N,01258.209658,E,002.5,155.3,081011,0.2,E,A*32
$GPGGA,095257.00,4611.972759,N,01258.209909,E,1,06,2.6,137.34,M,46.25,M,,*65
$GPGLL,4611.972759,N,01258.209909,E,095257.00,A,A*65
$GPVTG,170.4,T,170.6,M,001.8,N,003.3,K,A*28
$GPGSV,2,1,06,02,30,053,45,12,37,100,38,25,71,084,44,29,77,250,40*72
$GPGSV,2,2,06,30,57,303,43,31,45,300,43,,,,,,,,*7E
$GPGSA,M,3,02,12,25,29,30,31,,,,,,,4.7,2.6,3.8*3E
Trace #30 at position 7.250000
$GPZDA,095256.03,08,10,2011,00,00*63
$GPRMC,095256.00,A,4611.973225,N,01258.209658,E,002.5,155.3,081011,0.2,E,A*32
$GPGGA,095257.00,4611.972759,N,01258.209909,E,1,06,2.6,137.34,M,46.25,M,,*65
$GPGLL,4611.972759,N,01258.209909,E,095257.00,A,A*65
$GPVTG,170.4,T,170.6,M,001.8,N,003.3,K,A*28
$GPGSV,2,1,06,02,30,053,45,12,37,100,38,25,71,084,44,29,77,250,40*72
$GPGSV,2,2,06,30,57,303,43,31,45,300,43,,,,,,,,*7E
$GPGSA,M,3,02,12,25,29,30,31,,,,,,,4.7,2.6,3.8*3E
Trace #31 at position 7.500000
$GPZDA,095256.03,08,10,2011,00,00*63
$GPRMC,095256.00,A,4611.973225,N,01258.209658,E,002.5,155.3,081011,0.2,E,A*32
$GPGGA,095257.00,4611.972759,N,01258.209909,E,1,06,2.6,137.34,M,46.25,M,,*65
$GPGLL,4611.972759,N,01258.209909,E,095257.00,A,A*65
$GPVTG,170.4,T,170.6,M,001.8,N,003.3,K,A*28
$GPGSV,2,1,06,02,30,053,45,12,37,100,38,25,71,084,44,29,77,250,40*72
$GPGSV,2,2,06,30,57,303,43,31,45,300,43,,,,,,,,*7E
$GPGSA,M,3,02,12,25,29,30,31,,,,,,,4.7,2.6,3.8*3E
Trace #32 at position 7.750000
$GPZDA,095256.03,08,10,2011,00,00*63
$GPRMC,095256.00,A,4611.973225,N,01258.209658,E,002.5,155.3,081011,0.2,E,A*32
$GPGGA,095257.00,4611.972759,N,01258.209909,E,1,06,2.6,137.34,M,46.25,M,,*65
$GPGLL,4611.972759,N,01258.209909,E,095257.00,A,A*65
$GPVTG,170.4,T,170.6,M,001.8,N,003.3,K,A*28
$GPGSV,2,1,06,02,30,053,45,12,37,100,38,25,71,084,44,29,77,250,40*72
$GPGSV,2,2,06,30,57,303,43,31,45,300,43,,,,,,,,*7E
$GPGSA,M,3,02,12,25,29,30,31,,,,,,,4.7,2.6,3.8*3E
Trace #33 at position 8.000000
$GPZDA,095257.03,08,10,2011,00,00*62
$GPRMC,095257.00,A,4611.972759,N,01258.209909,E,001.8,170.4,081011,0.2,E,A*39
$GPGGA,095258.00,4611.972335,N,01258.210051,E,1,06,2.6,137.56,M,46.25,M,,*6C
$GPGLL,4611.972335,N,01258.210051,E,095258.00,A,A*68
$GPVTG,166.1,T,166.2,M,001.9,N,003.5,K,A*2E
$GPGSV,2,1,06,02,30,053,45,12,37,100,40,25,71,084,44,29,77,250,41*7C
$GPGSV,2,2,06,30,57,303,43,31,45,300,43,,,,,,,,*7E
$GPGSA,M,3,02,12,25,29,30,31,,,,,,,4.7,2.6,3.8*3E
Trace #34 at position 8.250000
$GPZDA,095257.03,08,10,2011,00,00*62
$GPRMC,095257.00,A,4611.972759,N,01258.209909,E,001.8,170.4,081011,0.2,E,A*39
$GPGGA,095258.00,4611.972335,N,01258.210051,E,1,06,2.6,137.56,M,46.25,M,,*6C
$GPGLL,4611.972335,N,01258.210051,E,095258.00,A,A*68
$GPVTG,166.1,T,166.2,M,001.9,N,003.5,K,A*2E
$GPGSV,2,1,06,02,30,053,45,12,37,100,40,25,71,084,44,29,77,250,41*7C
$GPGSV,2,2,06,30,57,303,43,31,45,300,43,,,,,,,,*7E
$GPGSA,M,3,02,12,25,29,30,31,,,,,,,4.7,2.6,3.8*3E
Trace #35 at position 8.500000
$GPZDA,095257.03,08,10,2011,00,00*62
$GPRMC,095257.00,A,4611.972759,N,01258.209909,E,001.8,170.4,081011,0.2,E,A*39
$GPGGA,095258.00,4611.972335,N,01258.210051,E,1,06,2.6,137.56,M,46.25,M,,*6C
$GPGLL,4611.972335,N,01258.210051,E,095258.00,A,A*68
$GPVTG,166.1,T,166.2,M,001.9,N,003.5,K,A*2E
$GPGSV,2,1,06,02,30,053,45,12,37,100,40,25,71,084,44,29,77,250,41*7C
$GPGSV,2,2,06,30,57,303,43,31,45,300,43,,,,,,,,*7E
$GPGSA,M,3,02,12,25,29,30,31,,,,,,,4.7,2.6,3.8*3E
Trace #36 at position 8.750000
$GPZDA,095258.03,08,10,2011,00,00*6D
$GPRMC,095258.00,A,4611.972335,N,01258.210051,E,001.9,166.1,081011,0.2,E,A*37
$GPGGA,095259.00,4611.971888,N,01258.210188,E,1,06,2.6,137.72,M,46.25,M,,*60
$GPGLL,4611.971888,N,01258.210188,E,095259.00,A,A*62
$GPVTG,173.2,T,173.4,M,001.9,N,003.6,K,A*28
$GPGSV,2,1,06,02,30,053,44,12,37,100,37,25,71,084,44,29,77,250,42*7E
$GPGSV,2,2,06,30,57,303,43,31,45,300,43,,,,,,,,*7E
$GPGSA,M,3,02,12,25,29,30,31,,,,,,,4.7,2.6,3.8*3E
Trace #37 at position 9.000000
$GPZDA,095258.03,08,10,2011,00,00*6D
$GPRMC,095258.00,A,4611.972335,N,01258.210051,E,001.9,166.1,081011,0.2,E,A*37
$GPGGA,095259.00,4611.971888,N,01258.210188,E,1,06,2.6,137.72,M,46.25,M,,*60
$GPGLL,4611.971888,N,01258.210188,E,095259.00,A,A*62
$GPVTG,173.2,T,173.4,M,001.9,N,003.6,K,A*28
$GPGSV,2,1,06,02,30,053,44,12,37,100,37,25,71,084,44,29,77,250,42*7E
$GPGSV,2,2,06,30,57,303,43,31,45,300,43,,,,,,,,*7E
$GPGSA,M,3,02,12,25,29,30,31,,,,,,,4.7,2.6,3.8*3E
Trace #38 at position 9.250000
$GPZDA,095258.03,08,10,2011,00,00*6D
$GPRMC,095258.00,A,4611.972335,N,01258.210051,E,001.9,166.1,081011,0.2,E,A*37
$GPGGA,095259.00,4611.971888,N,01258.210188,E,1,06,2.6,137.72,M,46.25,M,,*60
$GPGLL,4611.971888,N,01258.210188,E,095259.00,A,A*62
$GPVTG,173.2,T,173.4,M,001.9,N,003.6,K,A*28
$GPGSV,2,1,06,02,30,053,44,12,37,100,37,25,71,084,44,29,77,250,42*7E
$GPGSV,2,2,06,30,57,303,43,31,45,300,43,,,,,,,,*7E
$GPGSA,M,3,02,12,25,29,30,31,,,,,,,4.7,2.6,3.8*3E
Trace #39 at position 9.500000
$GPZDA,095259.03,08,10,2011,00,00*6C
$GPRMC,095259.00,A,4611.971888,N,01258.210188,E,001.9,173.2,081011,0.2,E,A*3A
$GPGGA,095300.00,4611.971427,N,01258.210357,E,1,06,2.6,137.77,M,46.25,M,,*61
$GPGLL,4611.971427,N,01258.210357,E,095300.00,A,A*66
$GPVTG,162.8,T,163.0,M,002.1,N,003.8,K,A*22
$GPGSV,2,1,06,02,30,053,45,12,37,100,39,25,71,084,44,29,77,250,43*70
$GPGSV,2,2,06,30,57,303,43,31,45,300,44,,,,,,,,*79
$GPGSA,M,3,02,12,25,29,30,31,,,,,,,4.7,2.6,3.8*3E
Trace #40 at position 9.750000
$GPZDA,095259.03,08,10,2011,00,00*6C
$GPRMC,095259.00,A,4611.971888,N,01258.210188,E,001.9,173.2,081011,0.2,E,A*3A
$GPGGA,095300.00,4611.971427,N,01258.210357,E,1,06,2.6,137.77,M,46.25,M,,*61
$GPGLL,4611.971427,N,01258.210357,E,095300.00,A,A*66
$GPVTG,162.8,T,163.0,M,002.1,N,003.8,K,A*22
$GPGSV,2,1,06,02,30,053,45,12,37,100,39,25,71,084,44,29,77,250,43*70
$GPGSV,2,2,06,30,57,303,43,31,45,300,44,,,,,,,,*79
$GPGSA,M,3,02,12,25,29,30,31,,,,,,,4.7,2.6,3.8*3E
Trace #41 at position 10.000000
$GPZDA,095259.03,08,10,2011,00,00*6C
$GPRMC,095259.00,A,4611.971888,N,01258.210188,E,001.9,173.2,081011,0.2,E,A*3A
$GPGGA,095300.00,4611.971427,N,01258.210357,E,1,06,2.6,137.77,M,46.25,M,,*61
$GPGLL,4611.971427,N,01258.210357,E,095300.00,A,A*66
$GPVTG,162.8,T,163.0,M,002.1,N,003.8,K,A*22
$GPGSV,2,1,06,02,30,053,45,12,37,100,39,25,71,084,44,29,77,250,43*70
$GPGSV,2,2,06,30,57,303,43,31,45,300,44,,,,,,,,*79
$GPGSA,M,3,02,12,25,29,30,31,,,,,,,4.7,2.6,3.8*3E
Trace #42 at position 10.250000
$GPZDA,095259.03,08,10,2011,00,00*6C
$GPRMC,095259.00,A,4611.971888,N,01258.210188,E,001.9,173.2,081011,0.2,E,A*3A
$GPGGA,095300.00,4611.971427,N,01258.210357,E,1,06,2.6,137.77,M,46.25,M,,*61
$GPGLL,4611.971427,N,01258.210357,E,095300.00,A,A*66
$GPVTG,162.8,T,163.0,M,002.1,N,003.8,K,A*22
$GPGSV,2,1,06,02,30,053,45,12,37,100,39,25,71,084,44,29,77,250,43*70
$GPGSV,2,2,06,30,57,303,43,31,45,300,44,,,,,,,,*79
$GPGSA,M,3,02,12,25,29,30,31,,,,,,,4.7,2.6,3.8*3E
Trace #43 at position 10.500000
$GPZDA,095300.03,08,10,2011,00,00*61
$GPRMC,095300.00,A,4611.971427,N,01258.210357,E,002.1,162.8,081011,0.2,E,A*3F
$GPGGA,095301.00,4611.971002,N,01258.210559,E,1,06,2.6,137.86,M,46.25,M,,*65
$GPGLL,4611.971002,N,01258.210559,E,095301.00,A,A*6C
$GPVTG,166.7,T,166.8,M,001.7,N,003.1,K,A*28
$GPGSV,2,1,06,02,30,053,44,12,37,100,38,25,71,084,44,29,77,250,43*70
$GPGSV,2,2,06,30,57,303,43,31,45,300,43,,,,,,,,*7E
$GPGSA,M,3,02,12,25,29,30,31,,,,,,,4.7,2.6,3.8*3E
Trace #44 at position 10.750000
$GPZDA,095300.03,08,10,2011,00,00*61
$GPRMC,095300.00,A,4611.971427,N,01258.210357,E,002.1,162.8,081011,0.2,E,A*3F
$GPGGA,095301.00,4611.971002,N,01258.210559,E,1,06,2.6,137.86,M,46.25,M,,*65
$GPGLL,4611.971002,N,01258.210559,E,095301.00,A,A*6C
$GPVTG,166.7,T,166.8,M,001.7,N,003.1,K,A*28
$GPGSV,2,1,06,02,30,053,44,12,37,100,38,25,71,084,44,29,77,250,43*70
$GPGSV,2,2,06,30,57,303,43,31,45,300,43,,,,,,,,*7E
$GPGSA,M,3,02,12,25,29,30,31,,,,,,,4.7,2.6,3.8*3E
Trace #45 at position 11.000000
$GPZDA,095300.03,08,10,2011,00,00*61
$GPRMC,095300.00,A,4611.971427,N,01258.210357,E,002.1,162.8,081011,0.2,E,A*3F
$GPGGA,095301.00,4611.971002,N,01258.210559,E,1,06,2.6,137.86,M,46.25,M,,*65
$GPGLL,4611.971002,N,01258.210559,E,095301.00,A,A*6C
$GPVTG,166.7,T,166.8,M,001.7,N,003.1,K,A*28
$GPGSV,2,1,06,02,30,053,44,12,37,100,38,25,71,084,44,29,77,250,43*70
$GPGSV,2,2,06,30,57,303,43,31,45,300,43,,,,,,,,*7E
$GPGSA,M,3,02,12,25,29,30,31,,,,,,,4.7,2.6,3.8*3E
Trace #46 at position 11.250000
$GPZDA,095301.03,08,10,2011,00,00*60
$GPRMC,095301.00,A,4611.971002,N,01258.210559,E,001.7,166.7,081011,0.2,E,A*3B
$GPGGA,095302.00,4611.970621,N,01258.210764,E,1,06,2.6,138.10,M,46.25,M,,*6C
$GPGLL,4611.970621,N,01258.210764,E,095302.00,A,A*65
$GPVTG,157.6,T,157.8,M,001.7,N,003.1,K,A*29
$GPGSV,2,1,06,02,30,053,44,12,37,100,39,25,71,084,45,29,77,250,43*70
$GPGSV,2,2,06,30,57,303,43,31,45,300,43,,,,,,,,*7E
$GPGSA,M,3,02,12,25,29,30,31,,,,,,,4.7,2.6,3.8*3E
Trace #47 at position 11.500000
$GPZDA,095301.03,08,10,2011,00,00*60
$GPRMC,095301.00,A,4611.971002,N,01258.210559,E,001.7,166.7,081011,0.2,E,A*3B
$GPGGA,095302.00,4611.970621,N,01258.210764,E,1,06,2.6,138.10,M,46.25,M,,*6C
$GPGLL,4611.970621,N,01258.210764,E,095302.00,A,A*65
$GPVTG,157.6,T,157.8,M,001.7,N,003.1,K,A*29
$GPGSV,2,1,06,02,30,053,44,12,37,100,39,25,71,084,45,29,77,250,43*70
$GPGSV,2,2,06,30,57,303,43,31,45,300,43,,,,,,,,*7E
$GPGSA,M,3,02,12,25,29,30,31,,,,,,,4.7,2.6,3.8*3E
Trace #48 at position 11.750000
$GPZDA,095301.03,08,10,2011,00,00*60
$GPRMC,095301.00,A,4611.971002,N,01258.210559,E,001.7,166.7,081011,0.2,E,A*3B
$GPGGA,095302.00,4611.970621,N,01258.210764,E,1,06,2.6,138.10,M,46.25,M,,*6C
$GPGLL,4611.970621,N,01258.210764,E,095302.00,A,A*65
$GPVTG,157.6,T,157.8,M,001.7,N,003.1,K,A*29
$GPGSV,2,1,06,02,30,053,44,12,37,100,39,25,71,084,45,29,77,250,43*70
$GPGSV,2,2,06,30,57,303,43,31,45,300,43,,,,,,,,*7E
$GPGSA,M,3,02,12,25,29,30,31,,,,,,,4.7,2.6,3.8*3E
Trace #49 at position 12.000000
$GPZDA,095301.03,08,10,2011,00,00*60
$GPRMC,095301.00,A,4611.971002,N,01258.210559,E,001.7,166.7,081011,0.2,E,A*3B
$GPGGA,095302.00,4611.970621,N,01258.210764,E,1,06,2.6,138.10,M,46.25,M,,*6C
$GPGLL,4611.970621,N,01258.210764,E,095302.00,A,A*65
$GPVTG,157.6,T,157.8,M,001.7,N,003.1,K,A*29
$GPGSV,2,1,06,02,30,053,44,12,37,100,39,25,71,084,45,29,77,250,43*70
$GPGSV,2,2,06,30,57,303,43,31,45,300,43,,,,,,,,*7E
$GPGSA,M,3,02,12,25,29,30,31,,,,,,,4.7,2.6,3.8*3E
Trace #50 at position 12.250000
$GPZDA,095302.03,08,10,2011,00,00*63
$GPRMC,095302.00,A,4611.970621,N,01258.210764,E,001.7,157.6,081011,0.2,E,A*31
$GPGGA,095303.00,4611.970201,N,01258.210942,E,1,06,2.6,138.25,M,46.25,M,,*67
$GPGLL,4611.970201,N,01258.210942,E,095303.00,A,A*68
$GPVTG,173.0,T,173.1,M,001.9,N,003.5,K,A*2C
$GPGSV,2,1,06,02,30,053,43,12,37,100,38,25,71,084,44,29,77,250,43*77
$GPGSV,2,2,06,30,57,303,43,31,45,300,43,,,,,,,,*7E
$GPGSA,M,3,02,12,25,29,30,31,,,,,,,4.7,2.6,3.8*3E
Trace #51 at position 12.500000
$GPZDA,095302.03,08,10,2011,00,00*63
$GPRMC,095302.00,A,4611.970621,N,01258.210764,E,001.7,157.6,081011,0.2,E,A*31
$GPGGA,095303.00,4611.970201,N,01258.210942,E,1,06,2.6,138.25,M,46.25,M,,*67
$GPGLL,4611.970201,N,01258.210942,E,095303.00,A,A*68
$GPVTG,173.0,T,173.1,M,001.9,N,003.5,K,A*2C
$GPGSV,2,1,06,02,30,053,43,12,37,100,38,25,71,084,44,29,77,250,43*77
$GPGSV,2,2,06,30,57,303,43,31,45,300,43,,,,,,,,*7E
$GPGSA,M,3,02,12,25,29,30,31,,,,,,,4.7,2.6,3.8*3E
Trace #52 at position 12.750000
$GPZDA,095302.03,08,10,2011,00,00*63
$GPRMC,095302.00,A,4611.970621,N,01258.210764,E,001.7,157.6,081011,0.2,E,A*31
$GPGGA,095303.00,4611.970201,N,01258.210942,E,1,06,2.6,138.25,M,46.25,M,,*67
$GPGLL,4611.970201,N,01258.210942,E,095303.00,A,A*68
$GPVTG,173.0,T,173.1,M,001.9,N,003.5,K,A*2C
$GPGSV,2,1,06,02,30,053,43,12,37,100,38,25,71,084,44,29,77,250,43*77
$GPGSV,2,2,06,30,57,303,43,31,45,300,43,,,,,,,,*7E
$GPGSA,M,3,02,12,25,29,30,31,,,,,,,4.7,2.6,3.8*3E
Trace #53 at position 13.000000
$GPZDA,095302.03,08,10,2011,00,00*63
$GPRMC,095302.00,A,4611.970621,N,01258.210764,E,001.7,157.6,081011,0.2,E,A*31
$GPGGA,095303.00,4611.970201,N,01258.210942,E,1,06,2.6,138.25,M,46.25,M,,*67
$GPGLL,4611.970201,N,01258.210942,E,095303.00,A,A*68
$GPVTG,173.0,T,173.1,M,001.9,N,003.5,K,A*2C
$GPGSV,2,1,06,02,30,053,43,12,37,100,38,25,71,084,44,29,77,250,43*77
$GPGSV,2,2,06,30,57,303,43,31,45,300,43,,,,,,,,*7E
$GPGSA,M,3,02,12,25,29,30,31,,,,,,,4.7,2.6,3.8*3E
Trace #54 at position 13.250000
$GPZDA,095303.03,08,10,2011,00,00*62
$GPRMC,095303.00,A,4611.970201,N,01258.210942,E,001.9,173.0,081011,0.2,E,A*32
$GPGGA,095304.00,4611.969801,N,01258.211175,E,1,06,2.6,138.42,M,46.25,M,,*6E
$GPGLL,4611.969801,N,01258.211175,E,095304.00,A,A*60
$GPVTG,144.8,T,144.9,M,001.6,N,002.9,K,A*2E
$GPGSV,2,1,06,02,30,053,44,12,37,100,38,25,71,084,44,29,77,250,43*70
$GPGSV,2,2,06,30,57,303,43,31,45,300,43,,,,,,,,*7E
$GPGSA,M,3,02,12,25,29,30,31,,,,,,,4.7,2.6,3.8*3E
Trace #55 at position 13.500000
$GPZDA,095303.03,08,10,2011,00,00*62
$GPRMC,095303.00,A,4611.970201,N,01258.210942,E,001.9,173.0,081011,0.2,E,A*32
$GPGGA,095304.00,4611.969801,N,01258.211175,E,1,06,2.6,138.42,M,46.25,M,,*6E
$GPGLL,4611.969801,N,01258.211175,E,095304.00,A,A*60
$GPVTG,144.8,T,144.9,M,001.6,N,002.9,K,A*2E
$GPGSV,2,1,06,02,30,053,44,12,37,100,38,25,71,084,44,29,77,250,43*70
$GPGSV,2,2,06,30,57,303,43,31,45,300,43,,,,,,,,*7E
$GPGSA,M,3,02,12,25,29,30,31,,,,,,,4.7,2.6,3.8*3E
Trace #56 at position 13.750000
$GPZDA,095303.03,08,10,2011,00,00*62
$GPRMC,095303.00,A,4611.970201,N,01258.210942,E,001.9,173.0,081011,0.2,E,A*32
$GPGGA,095304.00,4611.969801,N,01258.211175,E,1,06,2.6,138.42,M,46.25,M,,*6E
$GPGLL,4611.969801,N,01258.211175,E,095304.00,A,A*60
$GPVTG,144.8,T,144.9,M,001.6,N,002.9,K,A*2E
$GPGSV,2,1,06,02,30,053,44,12,37,100,38,25,71,084,44,29,77,250,43*70
$GPGSV,2,2,06,30,57,303,43,31,45,300,43,,,,,,,,*7E
$GPGSA,M,3,02,12,25,29,30,31,,,,,,,4.7,2.6,3.8*3E
Trace #57 at position 14.000000
$GPZDA,095304.03,08,10,2011,00,00*65
$GPRMC,095304.00,A,4611.969801,N,01258.211175,E,001.6,144.8,081011,0.2,E,A*39
$GPGGA,095305.00,4611.969395,N,01258.211404,E,1,06,2.6,138.51,M,46.25,M,,*68
$GPGLL,4611.969395,N,01258.211404,E,095305.00,A,A*64
$GPVTG,173.0,T,173.1,M,001.9,N,003.4,K,A*2D
$GPGSV,2,1,06,02,30,053,45,12,37,100,37,25,71,084,42,29,77,250,41*7A
$GPGSV,2,2,06,30,57,303,43,31,45,300,42,,,,,,,,*7F
$GPGSA,M,3,02,12,25,29,30,31,,,,,,,4.7,2.6,3.8*3E
Trace #58 at position 14.250000
$GPZDA,095304.03,08,10,2011,00,00*65
$GPRMC,095304.00,A,4611.969801,N,01258.211175,E,001.6,144.8,081011,0.2,E,A*39
$GPGGA,095305.00,4611.969395,N,01258.211404,E,1,06,2.6,138.51,M,46.25,M,,*68
$GPGLL,4611.969395,N,01258.211404,E,095305.00,A,A*64
$GPVTG,173.0,T,173.1,M,001.9,N,003.4,K,A*2D
$GPGSV,2,1,06,02,30,053,45,12,37,100,37,25,71,084,42,29,77,250,41*7A
$GPGSV,2,2,06,30,57,303,43,31,45,300,42,,,,,,,,*7F
$GPGSA,M,3,02,12,25,29,30,31,,,,,,,4.7,2.6,3.8*3E
Trace #59 at position 14.500000
$GPZDA,095304.03,08,10,2011,00,00*65
$GPRMC,095304.00,A,4611.969801,N,01258.211175,E,001.6,144.8,081011,0.2,E,A*39
$GPGGA,095305.00,4611.969395,N,01258.211404,E,1,06,2.6,138.51,M,46.25,M,,*68
$GPGLL,4611.969395,N,01258.211404,E,095305.00,A,A*64
$GPVTG,173.0,T,173.1,M,001.9,N,003.4,K,A*2D
$GPGSV,2,1,06,02,30,053,45,12,37,100,37,25,71,084,42,29,77,250,41*7A
$GPGSV,2,2,06,30,57,303,43,31,45,300,42,,,,,,,,*7F
$GPGSA,M,3,02,12,25,29,30,31,,,,,,,4.7,2.6,3.8*3E
Trace #60 at position 14.750000
$GPZDA,095305.03,08,10,2011,00,00*64
$GPRMC,095305.00,A,4611.969395,N,01258.211404,E,001.9,173.0,081011,0.2,E,A*3E
$GPGGA,095306.00,4611.968988,N,01258.211554,E,1,06,2.6,138.50,M,46.25,M,,*69
$GPGLL,4611.968988,N,01258.211554,E,095306.00,A,A*64
$GPVTG,159.1,T,159.3,M,001.4,N,002.5,K,A*23
$GPGSV,2,1,06,02,30,053,45,12,37,100,40,25,71,084,43,29,77,250,42*78
$GPGSV,2,2,06,30,57,303,43,31,45,300,43,,,,,,,,*7E
$GPGSA,M,3,02,12,25,29,30,31,,,,,,,4.7,2.6,3.8*3E
Trace #61 at position 15.000000
$GPZDA,095305.03,08,10,2011,00,00*64
$GPRMC,095305.00,A,4611.969395,N,01258.211404,E,001.9,173.0,081011,0.2,E,A*3E
$GPGGA,095306.00,4611.968988,N,01258.211554,E,1,06,2.6,138.50,M,46.25,M,,*69
$GPGLL,4611.968988,N,01258.211554,E,095306.00,A,A*64
$GPVTG,159.1,T,159.3,M,001.4,N,002.5,K,A*23
$GPGSV,2,1,06,02,30,053,45,12,37,100,40,25,71,084,43,29,77,250,42*78
$GPGSV,2,2,06,30,57,303,43,31,45,300,43,,,,,,,,*7E
$GPGSA,M,3,02,12,25,29,30,31,,,,,,,4.7,2.6,3.8*3E
Trace #62 at position 15.250000
$GPZDA,095305.03,08,10,2011,00,00*64
$GPRMC,095305.00,A,4611.969395,N,01258.211404,E,001.9,173.0,081011,0.2,E,A*3E
$GPGGA,095306.00,4611.968988,N,01258.211554,E,1,06,2.6,138.50,M,46.25,M,,*69
$GPGLL,4611.968988,N,01258.211554,E,095306.00,A,A*64
$GPVTG,159.1,T,159.3,M,001.4,N,002.5,K,A*23
$GPGSV,2,1,06,02,30,053,45,12,37,100,40,25,71,084,43,29,77,250,42*78
$GPGSV,2,2,06,30,57,303,43,31,45,300,43,,,,,,,,*7E
$GPGSA,M,3,02,12,25,29,30,31,,,,,,,4.7,2.6,3.8*3E
Trace #63 at position 15.500000
$GPZDA,095305.03,08,10,2011,00,00*64
$GPRMC,095305.00,A,4611.969395,N,01258.211404,E,001.9,173.0,081011,0.2,E,A*3E
$GPGGA,095306.00,4611.968988,N,01258.211554,E,1,06,2.6,138.50,M,46.25,M,,*69
$GPGLL,4611.968988,N,01258.211554,E,095306.00,A,A*64
$GPVTG,159.1,T,159.3,M,001.4,N,002.5,K,A*23
$GPGSV,2,1,06,02,30,053,45,12,37,100,40,25,71,084,43,29,77,250,42*78
$GPGSV,2,2,06,30,57,303,43,31,45,300,43,,,,,,,,*7E
$GPGSA,M,3,02,12,25,29,30,31,,,,,,,4.7,2.6,3.8*3E
Trace #64 at position 15.750000
$GPZDA,095306.03,08,10,2011,00,00*67
$GPRMC,095306.00,A,4611.968988,N,01258.211554,E,001.4,159.1,081011,0.2,E,A*3A
$GPGGA,095307.00,4611.968654,N,01258.211809,E,1,06,2.6,138.53,M,46.25,M,,*60
$GPGLL,4611.968654,N,01258.211809,E,095307.00,A,A*6E
$GPVTG,147.7,T,147.9,M,001.4,N,002.6,K,A*2C
$GPGSV,2,1,06,02,30,053,44,12,37,100,38,25,71,084,44,29,77,250,43*70
$GPGSV,2,2,06,30,57,303,43,31,45,300,44,,,,,,,,*79
$GPGSA,M,3,02,12,25,29,30,31,,,,,,,4.7,2.6,3.8*3E
Trace #65 at position 16.000000
$GPZDA,095306.03,08,10,2011,00,00*67
$GPRMC,095306.00,A,4611.968988,N,01258.211554,E,001.4,159.1,081011,0.2,E,A*3A
$GPGGA,095307.00,4611.968654,N,01258.211809,E,1,06,2.6,138.53,M,46.25,M,,*60
$GPGLL,4611.968654,N,01258.211809,E,095307.00,A,A*6E
$GPVTG,147.7,T,147.9,M,001.4,N,002.6,K,A*2C
$GPGSV,2,1,06,02,30,053,44,12,37,100,38,25,71,084,44,29,77,250,43*70
$GPGSV,2,2,06,30,57,303,43,31,45,300,44,,,,,,,,*79
$GPGSA,M,3,02,12,25,29,30,31,,,,,,,4.7,2.6,3.8*3E
Trace #66 at position 16.250000
$GPZDA,095306.03,08,10,2011,00,00*67
$GPRMC,095306.00,A,4611.968988,N,01258.211554,E,001.4,159.1,081011,0.2,E,A*3A
$GPGGA,095307.00,4611.968654,N,01258.211809,E,1,06,2.6,138.53,M,46.25,M,,*60
$GPGLL,4611.968654,N,01258.211809,E,095307.00,A,A*6E
$GPVTG,147.7,T,147.9,M,001.4,N,002.6,K,A*2C
$GPGSV,2,1,06,02,30,053,44,12,37,100,38,25,71,084,44,29,77,250,43*70
$GPGSV,2,2,06,30,57,303,43,31,45,300,44,,,,,,,,*79
$GPGSA,M,3,02,12,25,29,30,31,,,,,,,4.7,2.6,3.8*3E
Trace #67 at position 16.500000
$GPZDA,095306.03,08,10,2011,00,00*67
$GPRMC,095306.00,A,4611.968988,N,01258.211554,E,001.4,159.1,081011,0.2,E,A*3A
$GPGGA,095307.00,4611.968654,N,01258.211809,E,1,06,2.6,138.53,M,46.25,M,,*60
$GPGLL,4611.968654,N,01258.211809,E,095307.00,A,A*6E
$GPVTG,147.7,T,147.9,M,001.4,N,002.6,K,A*2C
$GPGSV,2,1,06,02,30,053,44,12,37,100,38,25,71,084,44,29,77,250,43*70
$GPGSV,2,2,06,30,57,303,43,31,45,300,44,,,,,,,,*79
$GPGSA,M,3,02,12,25,29,30,31,,,,,,,4.7,2.6,3.8*3E
Trace #68 at position 16.750000
$GPZDA,095307.03,08,10,2011,00,00*66
$GPRMC,095307.00,A,4611.968654,N,01258.211809,E,001.4,147.7,081011,0.2,E,A*39
$GPGGA,095308.00,4611.968292,N,01258.212052,E,1,06,2.6,138.55,M,46.25,M,,*62
$GPGLL,4611.968292,N,01258.212052,E,095308.00,A,A*6A
$GPVTG,161.3,T,161.4,M,001.4,N,002.6,K,A*25
$GPGSV,2,1,06,02,30,053,44,12,37,100,40,25,71,084,43,29,77,250,42*79
$GPGSV,2,2,06,30,57,303,42,31,45,300,43,,,,,,,,*7F
$GPGSA,M,3,02,12,25,29,30,31,,,,,,,4.7,2.6,3.8*3E
Trace #69 at position 17.000000
$GPZDA,095307.03,08,10,2011,00,00*66
$GPRMC,095307.00,A,4611.968654,N,01258.211809,E,001.4,147.7,081011,0.2,E,A*39
$GPGGA,095308.00,4611.968292,N,01258.212052,E,1,06,2.6,138.55,M,46.25,M,,*62
$GPGLL,4611.968292,N,01258.212052,E,095308.00,A,A*6A
$GPVTG,161.3,T,161.4,M,001.4,N,002.6,K,A*25
$GPGSV,2,1,06,02,30,053,44,12,37,100,40,25,71,084,43,29,77,250,42*79
$GPGSV,2,2,06,30,57,303,42,31,45,300,43,,,,,,,,*7F
$GPGSA,M,3,02,12,25,29,30,31,,,,,,,4.7,2.6,3.8*3E
Trace #70 at position 17.250000
$GPZDA,095307.03,08,10,2011,00,00*66
$GPRMC,095307.00,A,4611.968654,N,01258.211809,E,001.4,147.7,081011,0.2,E,A*39
$GPGGA,095308.00,4611.968292,N,01258.212052,E,1,06,2.6,138.55,M,46.25,M,,*62
$GPGLL,4611.968292,N,01258.212052,E,095308.00,A,A*6A
$GPVTG,161.3,T,161.4,M,001.4,N,002.6,K,A*25
$GPGSV,2,1,06,02,30,053,44,12,37,100,40,25,71,084,43,29,77,250,42*79
$GPGSV,2,2,06,30,57,303,42,31,45,300,43,,,,,,,,*7F
$GPGSA,M,3,02,12,25,29,30,31,,,,,,,4.7,2.6,3.8*3E
Trace #71 at position 17.500000
$GPZDA,095307.03,08,10,2011,00,00*66
$GPRMC,095307.00,A,4611.968654,N,01258.211809,E,001.4,147.7,081011,0.2,E,A*39
$GPGGA,095308.00,4611.968292,N,01258.212052,E,1,06,2.6,138.55,M,46.25,M,,*62
$GPGLL,4611.968292,N,01258.212052,E,095308.00,A,A*6A
$GPVTG,161.3,T,161.4,M,001.4,N,002.6,K,A*25
$GPGSV,2,1,06,02,30,053,44,12,37,100,40,25,71,084,43,29,77,250,42*79
$GPGSV,2,2,06,30,57,303,42,31,45,300,43,,,,,,,,*7F
$GPGSA,M,3,02,12,25,29,30,31,,,,,,,4.7,2.6,3.8*3E
Trace #72 at position 17.750000
$GPZDA,095308.03,08,10,2011,00,00*69
$GPRMC,095308.00,A,4611.968292,N,01258.212052,E,001.4,161.3,081011,0.2,E,A*3D
$GPGGA,095309.00,4611.967821,N,01258.212305,E,1,06,2.6,138.57,M,46.25,M,,*6D
$GPGLL,4611.967821,N,01258.212305,E,095309.00,A,A*67
$GPVTG,156.7,T,156.9,M,002.1,N,003.9,K,A*24
$GPGSV,2,1,06,02,30,053,45,12,37,100,40,25,71,084,44,29,77,250,42*7F
$GPGSV,2,2,06,30,57,303,43,31,45,300,44,,,,,,,,*79
$GPGSA,M,3,02,12,25,29,30,31,,,,,,,4.7,2.6,3.8*3E
Trace #73 at position 18.000000
$GPZDA,095308.03,08,10,2011,00,00*69
$GPRMC,095308.00,A,4611.968292,N,01258.212052,E,001.4,161.3,081011,0.2,E,A*3D
$GPGGA,095309.00,4611.967821,N,01258.212305,E,1,06,2.6,138.57,M,46.25,M,,*6D
$GPGLL,4611.967821,N,01258.212305,E,095309.00,A,A*67
$GPVTG,156.7,T,156.9,M,002.1,N,003.9,K,A*24
$GPGSV,2,1,06,02,30,053,45,12,37,100,40,25,71,084,44,29,77,250,42*7F
$GPGSV,2,2,06,30,57,303,43,31,45,300,44,,,,,,,,*79
$GPGSA,M,3,02,12,25,29,30,31,,,,,,,4.7,2.6,3.8*3E
Trace #74 at position 18.250000
$GPZDA,095308.03,08,10,2011,00,00*69
$GPRMC,095308.00,A,4611.968292,N,01258.212052,E,001.4,161.3,081011,0.2,E,A*3D
$GPGGA,095309.00,4611.967821,N,01258.212305,E,1,06,2.6,138.57,M,46.25,M,,*6D
$GPGLL,4611.967821,N,01258.212305,E,095309.00,A,A*67
$GPVTG,156.7,T,156.9,M,002.1,N,003.9,K,A*24
$GPGSV,2,1,06,02,30,053,45,12,37,100,40,25,71,084,44,29,77,250,42*7F
$GPGSV,2,2,06,30,57,303,43,31,45,300,44,,,,,,,,*79
$GPGSA,M,3,02,12,25,29,30,31,,,,,,,4.7,2.6,3.8*3E
Trace #75 at position 18.500000
$GPZDA,095308.03,08,10,2011,00,00*69
$GPRMC,095308.00,A,4611.968292,N,01258.212052,E,001.4,161.3,081011,0.2,E,A*3D
$GPGGA,095309.00,4611.967821,N,01258.212305,E,1,06,2.6,138.57,M,46.25,M,,*6D
$GPGLL,4611.967821,N,01258.212305,E,095309.00,A,A*67
$GPVTG,156.7,T,156.9,M,002.1,N,003.9,K,A*24
$GPGSV,2,1,06,02,30,053,45,12,37,100,40,25,71,084,44,29,77,250,42*7F
$GPGSV,2,2,06,30,57,303,43,31,45,300,44,,,,,,,,*79
$GPGSA,M,3,02,12,25,29,30,31,,,,,,,4.7,2.6,3.8*3E
Trace #76 at position 18.750000
$GPZDA,095309.03,08,10,2011,00,00*68
$GPRMC,095309.00,A,4611.967821,N,01258.212305,E,002.1,156.7,081011,0.2,E,A*36
$GPGGA,095310.00,4611.967295,N,01258.212642,E,1,06,2.6,138.54,M,46.25,M,,*65
$GPGLL,4611.967295,N,01258.212642,E,095310.00,A,A*6C
$GPVTG,152.0,T,152.1,M,002.0,N,003.6,K,A*25
$GPGSV,2,1,06,02,30,053,45,12,37,100,38,25,71,084,42,29,77,250,41*75
$GPGSV,2,2,06,30,57,303,43,31,45,300,43,,,,,,,,*7E
$GPGSA,M,3,02,12,25,29,30,31,,,,,,,4.7,2.6,3.8*3E
Trace #77 at position 19.000000
$GPZDA,095309.03,08,10,2011,00,00*68
$GPRMC,095309.00,A,4611.967821,N,01258.212305,E,002.1,156.7,081011,0.2,E,A*36
$GPGGA,095310.00,4611.967295,N,01258.212642,E,1,06,2.6,138.54,M,46.25,M,,*65
$GPGLL,4611.967295,N,01258.212642,E,095310.00,A,A*6C
$GPVTG,152.0,T,152.1,M,002.0,N,003.6,K,A*25
$GPGSV,2,1,06,02,30,053,45,12,37,100,38,25,71,084,42,29,77,250,41*75
$GPGSV,2,2,06,30,57,303,43,31,45,300,43,,,,,,,,*7E
$GPGSA,M,3,02,12,25,29,30,31,,,,,,,4.7,2.6,3.8*3E
Trace #78 at position 19.250000
$GPZDA,095309.03,08,10,2011,00,00*68
$GPRMC,095309.00,A,4611.967821,N,01258.212305,E,002.1,156.7,081011,0.2,E,A*36
$GPGGA,095310.00,4611.967295,N,01258.212642,E,1,06,2.6,138.54,M,46.25,M,,*65
$GPGLL,4611.967295,N,01258.212642,E,095310.00,A,A*6C
$GPVTG,152.0,T,152.1,M,002.0,N,003.6,K,A*25
$GPGSV,2,1,06,02,30,053,45,12,37,100,38,25,71,084,42,29,77,250,41*75
$GPGSV,2,2,06,30,57,303,43,31,45,300,43,,,,,,,,*7E
$GPGSA,M,3,02,12,25,29,30,31,,,,,,,4.7,2.6,3.8*3E
Trace #79 at position 19.500000
$GPZDA,095309.03,08,10,2011,00,00*68
$GPRMC,095309.00,A,4611.967821,N,01258.212305,E,002.1,156.7,081011,0.2,E,A*36
$GPGGA,095310.00,4611.967295,N,01258.212642,E,1,06,2.6,138.54,M,46.25,M,,*65
$GPGLL,4611.967295,N,01258.212642,E,095310.00,A,A*6C
$GPVTG,152.0,T,152.1,M,002.0,N,003.6,K,A*25
$GPGSV,2,1,06,02,30,053,45,12,37,100,38,25,71,084,42,29,77,250,41*75
$GPGSV,2,2,06,30,57,303,43,31,45,300,43,,,,,,,,*7E
$GPGSA,M,3,02,12,25,29,30,31,,,,,,,4.7,2.6,3.8*3E
Trace #80 at position 19.750000
$GPZDA,095310.03,08,10,2011,00,00*60
$GPRMC,095310.00,A,4611.967295,N,01258.212642,E,002.0,152.0,081011,0.2,E,A*3F
$GPGGA,095311.00,4611.966739,N,01258.212938,E,1,06,2.6,138.41,M,46.25,M,,*60
$GPGLL,4611.966739,N,01258.212938,E,095311.00,A,A*6D
$GPVTG,162.0,T,162.1,M,002.3,N,004.3,K,A*24
$GPGSV,2,1,06,02,30,053,44,12,37,100,39,25,71,084,44,29,77,250,42*70
$GPGSV,2,2,06,30,57,303,43,31,45,300,44,,,,,,,,*79
$GPGSA,M,3,02,12,25,29,30,31,,,,,,,4.7,2.6,3.8*3E
Trace #81 at position 20.000000
$GPZDA,095310.03,08,10,2011,00,00*60
$GPRMC,095310.00,A,4611.967295,N,01258.212642,E,002.0,152.0,081011,0.2,E,A*3F
$GPGGA,095311.00,4611.966739,N,01258.212938,E,1,06,2.6,138.41,M,46.25,M,,*60
$GPGLL,4611.966739,N,01258.212938,E,095311.00,A,A*6D
$GPVTG,162.0,T,162.1,M,002.3,N,004.3,K,A*24
$GPGSV,2,1,06,02,30,053,44,12,37,100,39,25,71,084,44,29,77,250,42*70
$GPGSV,2,2,06,30,57,303,43,31,45,300,44,,,,,,,,*79
$GPGSA,M,3,02,12,25,29,30,31,,,,,,,4.7,2.6,3.8*3E
Trace #82 at position 20.250000
$GPZDA,095310.03,08,10,2011,00,00*60
$GPRMC,095310.00,A,4611.967295,N,01258.212642,E,002.0,152.0,081011,0.2,E,A*3F
$GPGGA,095311.00,4611.966739,N,01258.212938,E,1,06,2.6,138.41,M,46.25,M,,*60
$GPGLL,4611.966739,N,01258.212938,E,095311.00,A,A*6D
$GPVTG,162.0,T,162.1,M,002.3,N,004.3,K,A*24
$GPGSV,2,1,06,02,30,053,44,12,37,100,39,25,71,084,44,29,77,250,42*70
$GPGSV,2,2,06,30,57,303,43,31,45,300,44,,,,,,,,*79
$GPGSA,M,3,02,12,25,29,30,31,,,,,,,4.7,2.6,3.8*3E
Trace #83 at position 20.500000
$GPZDA,095310.03,08,10,2011,00,00*60
$GPRMC,095310.00,A,4611.967295,N,01258.212642,E,002.0,152.0,081011,0.2,E,A*3F
$GPGGA,095311.00,4611.966739,N,01258.212938,E,1,06,2.6,138.41,M,46.25,M,,*60
$GPGLL,4611.966739,N,01258.212938,E,095311.00,A,A*6D
$GPVTG,162.0,T,162.1,M,002.3,N,004.3,K,A*24
$GPGSV,2,1,06,02,30,053,44,12,37,100,39,25,71,084,44,29,77,250,42*70
$GPGSV,2,2,06,30,57,303,43,31,45,300,44,,,,,,,,*79
$GPGSA,M,3,02,12,25,29,30,31,,,,,,,4.7,2.6,3.8*3E
Trace #84 at position 20.750000
$GPZDA,095311.03,08,10,2011,00,00*61
$GPRMC,095311.00,A,4611.966739,N,01258.212938,E,002.3,162.0,081011,0.2,E,A*3E
$GPGGA,095312.00,4611.966167,N,01258.213235,E,1,06,2.6,138.33,M,46.25,M,,*6C
$GPGLL,4611.966167,N,01258.213235,E,095312.00,A,A*64
$GPVTG,152.9,T,153.0,M,002.1,N,003.9,K,A*22
$GPGSV,2,1,06,02,30,053,45,12,37,100,37,25,71,084,43,29,77,250,41*7B
$GPGSV,2,2,06,30,57,303,43,31,45,300,44,,,,,,,,*79
$GPGSA,M,3,02,12,25,29,30,31,,,,,,,4.6,2.6,3.8*3F
Trace #85 at position 21.000000
$GPZDA,095311.03,08,10,2011,00,00*61
$GPRMC,095311.00,A,4611.966739,N,01258.212938,E,002.3,162.0,081011,0.2,E,A*3E
$GPGGA,095312.00,4611.966167,N,01258.213235,E,1,06,2.6,138.33,M,46.25,M,,*6C
$GPGLL,4611.966167,N,01258.213235,E,095312.00,A,A*64
$GPVTG,152.9,T,153.0,M,002.1,N,003.9,K,A*22
$GPGSV,2,1,06,02,30,053,45,12,37,100,37,25,71,084,43,29,77,250,41*7B
$GPGSV,2,2,06,30,57,303,43,31,45,300,44,,,,,,,,*79
$GPGSA,M,3,02,12,25,29,30,31,,,,,,,4.6,2.6,3.8*3F
Trace #86 at position 21.250000
$GPZDA,095311.03,08,10,2011,00,00*61
$GPRMC,095311.00,A,4611.966739,N,01258.212938,E,002.3,162.0,081011,0.2,E,A*3E
$GPGGA,095312.00,4611.966167,N,01258.213235,E,1,06,2.6,138.33,M,46.25,M,,*6C
$GPGLL,4611.966167,N,01258.213235,E,095312.00,A,A*64
$GPVTG,152.9,T,153.0,M,002.1,N,003.9,K,A*22
$GPGSV,2,1,06,02,30,053,45,12,37,100,37,25,71,084,43,29,77,250,41*7B
$GPGSV,2,2,06,30,57,303,43,31,45,300,44,,,,,,,,*79
$GPGSA,M,3,02,12,25,29,30,31,,,,,,,4.6,2.6,3.8*3F
Trace #87 at position 21.500000
$GPZDA,095311.03,08,10,2011,00,00*61
$GPRMC,095311.00,A,4611.966739,N,01258.212938,E,002.3,162.0,081011,0.2,E,A*3E
$GPGGA,095312.00,4611.966167,N,01258.213235,E,1,06,2.6,138.33,M,46.25,M,,*6C
$GPGLL,4611.966167,N,01258.213235,E,095312.00,A,A*64
$GPVTG,152.9,T,153.0,M,002.1,N,003.9,K,A*22
$GPGSV,2,1,06,02,30,053,45,12,37,100,37,25,71,084,43,29,77,250,41*7B
$GPGSV,2,2,06,30,57,303,43,31,45,300,44,,,,,,,,*79
$GPGSA,M,3,02,12,25,29,30,31,,,,,,,4.6,2.6,3.8*3F
Trace #88 at position 21.750000
$GPZDA,095312.03,08,10,2011,00,00*62
$GPRMC,095312.00,A,4611.966167,N,01258.213235,E,002.1,152.9,081011,0.2,E,A*3F
$GPGGA,095313.00,4611.965888,N,01258.213540,E,1,06,2.6,138.91,M,46.25,M,,*6B
$GPGLL,4611.965888,N,01258.213540,E,095313.00,A,A*6B
$GPVTG,72.7,T,72.8,M,000.9,N,001.6,K,A*22
$GPGSV,2,1,06,02,30,053,44,12,37,100,37,25,71,084,44,29,77,250,42*7E
$GPGSV,2,2,06,30,57,303,43,31,45,300,43,,,,,,,,*7E
$GPGSA,M,3,02,12,25,29,30,31,,,,,,,4.6,2.6,3.8*3F
Trace #89 at position 22.000000
$GPZDA,095312.03,08,10,2011,00,00*62
$GPRMC,095312.00,A,4611.966167,N,01258.213235,E,002.1,152.9,081011,0.2,E,A*3F
$GPGGA,095313.00,4611.965888,N,01258.213540,E,1,06,2.6,138.91,M,46.25,M,,*6B
$GPGLL,4611.965888,N,01258.213540,E,095313.00,A,A*6B
$GPVTG,72.7,T,72.8,M,000.9,N,001.6,K,A*22
$GPGSV,2,1,06,02,30,053,44,12,37,100,37,25,71,084,44,29,77,250,42*7E
$GPGSV,2,2,06,30,57,303,43,31,45,300,43,,,,,,,,*7E
$GPGSA,M,3,02,12,25,29,30,31,,,,,,,4.6,2.6,3.8*3F
Trace #90 at position 22.250000
$GPZDA,095312.03,08,10,2011,00,00*62
$GPRMC,095312.00,A,4611.966167,N,01258.213235,E,002.1,152.9,081011,0.2,E,A*3F
$GPGGA,095313.00,4611.965888,N,01258.213540,E,1,06,2.6,138.91,M,46.25,M,,*6B
$GPGLL,4611.965888,N,01258.213540,E,095313.00,A,A*6B
$GPVTG,72.7,T,72.8,M,000.9,N,001.6,K,A*22
$GPGSV,2,1,06,02,30,053,44,12,37,100,37,25,71,084,44,29,77,250,42*7E
$GPGSV,2,2,06,30,57,303,43,31,45,300,43,,,,,,,,*7E
$GPGSA,M,3,02,12,25,29,30,31,,,,,,,4.6,2.6,3.8*3F
Trace #91 at position 22.500000
$GPZDA,095313.03,08,10,2011,00,00*63
$GPRMC,095313.00,A,4611.965888,N,01258.213540,E,000.9,72.7,081011,0.2,E,A*07
$GPGGA,095314.00,4611.965631,N,01258.213765,E,1,06,2.6,139.35,M,46.25,M,,*6A
$GPGLL,4611.965631,N,01258.213765,E,095314.00,A,A*65
$GPVTG,159.0,T,159.2,M,001.6,N,003.0,K,A*25
$GPGSV,2,1,06,02,30,053,45,12,37,100,39,25,71,084,42,29,77,250,42*77
$GPGSV,2,2,06,30,57,303,43,31,45,300,44,,,,,,,,*79
$GPGSA,M,3,02,12,25,29,30,31,,,,,,,4.6,2.6,3.8*3F
Trace #92 at position 22.750000
$GPZDA,095313.03,08,10,2011,00,00*63
$GPRMC,095313.00,A,4611.965888,N,01258.213540,E,000.9,72.7,081011,0.2,E,A*07
$GPGGA,095314.00,4611.965631,N,01258.213765,E,1,06,2.6,139.35,M,46.25,M,,*6A
$GPGLL,4611.965631,N,01258.213765,E,095314.00,A,A*65
$GPVTG,159.0,T,159.2,M,001.6,N,003.0,K,A*25
$GPGSV,2,1,06,02,30,053,45,12,37,100,39,25,71,084,42,29,77,250,42*77
$GPGSV,2,2,06,30,57,303,43,31,45,300,44,,,,,,,,*79
$GPGSA,M,3,02,12,25,29,30,31,,,,,,,4.6,2.6,3.8*3F
Trace #93 at position 23.000000
$GPZDA,095313.03,08,10,2011,00,00*63
$GPRMC,095313.00,A,4611.965888,N,01258.213540,E,000.9,72.7,081011,0.2,E,A*07
$GPGGA,095314.00,4611.965631,N,01258.213765,E,1,06,2.6,139.35,M,46.25,M,,*6A
$GPGLL,4611.965631,N,01258.213765,E,095314.00,A,A*65
$GPVTG,159.0,T,159.2,M,001.6,N,003.0,K,A*25
$GPGSV,2,1,06,02,30,053,45,12,37,100,39,25,71,084,42,29,77,250,42*77
$GPGSV,2,2,06,30,57,303,43,31,45,300,44,,,,,,,,*79
$GPGSA,M,3,02,12,25,29,30,31,,,,,,,4.6,2.6,3.8*3F
Trace #94 at position 23.250000
$GPZDA,095314.03,08,10,2011,00,00*64
$GPRMC,095314.00,A,4611.965631,N,01258.213765,E,001.6,159.0,081011,0.2,E,A*38
$GPGGA,095315.00,4611.965100,N,01258.214101,E,1,06,2.6,139.02,M,46.25,M,,*69
$GPGLL,4611.965100,N,01258.214101,E,095315.00,A,A*62
$GPVTG,140.6,T,140.8,M,002.3,N,004.2,K,A*2A
$GPGSV,2,1,06,02,30,053,46,12,37,100,37,25,71,084,46,29,77,250,43*7F
$GPGSV,2,2,06,30,57,303,43,31,45,300,44,,,,,,,,*79
$GPGSA,M,3,02,12,25,29,30,31,,,,,,,4.6,2.6,3.8*3F
Trace #95 at position 23.500000
$GPZDA,095314.03,08,10,2011,00,00*64
$GPRMC,095314.00,A,4611.965631,N,01258.213765,E,001.6,159.0,081011,0.2,E,A*38
$GPGGA,095315.00,4611.965100,N,01258.214101,E,1,06,2.6,139.02,M,46.25,M,,*69
$GPGLL,4611.965100,N,01258.214101,E,095315.00,A,A*62
$GPVTG,140.6,T,140.8,M,002.3,N,004.2,K,A*2A
$GPGSV,2,1,06,02,30,053,46,12,37,100,37,25,71,084,46,29,77,250,43*7F
$GPGSV,2,2,06,30,57,303,43,31,45,300,44,,,,,,,,*79
$GPGSA,M,3,02,12,25,29,30,31,,,,,,,4.6,2.6,3.8*3F
Trace #96 at position 23.750000
$GPZDA,095314.03,08,10,2011,00,00*64
$GPRMC,095314.00,A,4611.965631,N,01258.213765,E,001.6,159.0,081011,0.2,E,A*38
$GPGGA,095315.00,4611.965100,N,01258.214101,E,1,06,2.6,139.02,M,46.25,M,,*69
$GPGLL,4611.965100,N,01258.214101,E,095315.00,A,A*62
$GPVTG,140.6,T,140.8,M,002.3,N,004.2,K,A*2A
$GPGSV,2,1,06,02,30,053,46,12,37,100,37,25,71,084,46,29,77,250,43*7F
$GPGSV,2,2,06,30,57,303,43,31,45,300,44,,,,,,,,*79
$GPGSA,M,3,02,12,25,29,30,31,,,,,,,4.6,2.6,3.8*3F
Trace #97 at position 24.000000
$GPZDA,095315.03,08,10,2011,00,00*65
$GPRMC,095315.00,A,4611.965100,N,01258.214101,E,002.3,140.6,081011,0.2,E,A*37
$GPGGA,095316.00,4611.964471,N,01258.214300,E,1,06,2.6,138.56,M,46.25,M,,*6B
$GPGLL,4611.964471,N,01258.214300,E,095316.00,A,A*60
$GPVTG,182.4,T,182.5,M,002.4,N,004.5,K,A*25
$GPGSV,2,1,06,02,30,053,46,12,37,100,39,25,71,084,43,29,77,250,42*75
$GPGSV,2,2,06,30,57,303,43,31,45,300,43,,,,,,,,*7E
$GPGSA,M,3,02,12,25,29,30,31,,,,,,,4.6,2.6,3.8*3F
Trace #98 at position 24.250000
$GPZDA,095315.03,08,10,2011,00,00*65
$GPRMC,095315.00,A,4611.965100,N,01258.214101,E,002.3,140.6,081011,0.2,E,A*37
$GPGGA,095316.00,4611.964471,N,01258.214300,E,1,06,2.6,138.56,M,46.25,M,,*6B
$GPGLL,4611.964471,N,01258.214300,E,095316.00,A,A*60
$GPVTG,182.4,T,182.5,M,002.4,N,004.5,K,A*25
$GPGSV,2,1,06,02,30,053,46,12,37,100,39,25,71,084,43,29,77,250,42*75
$GPGSV,2,2,06,30,57,303,43,31,45,300,43,,,,,,,,*7E
$GPGSA,M,3,02,12,25,29,30,31,,,,,,,4.6,2.6,3.8*3F
Trace #99 at position 24.500000
$GPZDA,095315.03,08,10,2011,00,00*65
$GPRMC,095315.00,A,4611.965100,N,01258.214101,E,002.3,140.6,081011,0.2,E,A*37
$GPGGA,095316.00,4611.964471,N,01258.214300,E,1,06,2.6,138.56,M,46.25,M,,*6B
$GPGLL,4611.964471,N,01258.214300,E,095316.00,A,A*60
$GPVTG,182.4,T,182.5,M,002.4,N,004.5,K,A*25
$GPGSV,2,1,06,02,30,053,46,12,37,100,39,25,71,084,43,29,77,250,42*75
$GPGSV,2,2,06,30,57,303,43,31,45,300,43,,,,,,,,*7E
$GPGSA,M,3,02,12,25,29,30,31,,,,,,,4.6,2.6,3.8*3F
Trace #100 at position 24.750000
$GPZDA,095316.03,08,10,2011,00,00*66
$GPRMC,095316.00,A,4611.964471,N,01258.214300,E,002.4,182.4,081011,0.2,E,A*3E
$GPGGA,095317.00,4611.963871,N,01258.214255,E,1,06,2.6,138.26,M,46.25,M,,*67
$GPGLL,4611.963871,N,01258.214255,E,095317.00,A,A*6B
$GPVTG,177.6,T,177.8,M,001.8,N,003.3,K,A*24
$GPGSV,2,1,06,02,30,053,44,12,37,100,39,25,71,084,45,29,77,250,41*72
$GPGSV,2,2,06,30,57,303,43,31,45,300,44,,,,,,,,*79
$GPGSA,M,3,02,12,25,29,30,31,,,,,,,4.6,2.6,3.8*3F
Trace #101 at position 25.000000
$GPZDA,095319.03,08,10,2011,00,00*69
$GPRMC,095319.00,A,4611.963269,N,01258.214193,E,000.7,139.4,081011,0.2,E,A*30
$GPGGA,095320.00,4611.963180,N,01258.214270,E,1,06,2.6,138.19,M,46.25,M,,*6F
$GPGLL,4611.963180,N,01258.214270,E,095320.00,A,A*6F
$GPVTG,225.5,T,225.6,M,000.1,N,000.1,K,A*20
$GPGSV,2,1,06,02,30,053,41,12,37,100,38,25,71,084,44,29,77,250,41*77
$GPGSV,2,2,06,30,57,303,42,31,45,300,42,,,,,,,,*7E
$GPGSA,M,3,02,12,25,29,30,31,,,,,,,4.6,2.6,3.8*3F
Trace #102 at position 25.250000
$GPZDA,095319.03,08,10,2011,00,00*69
$GPRMC,095319.00,A,4611.963269,N,01258.214193,E,000.7,139.4,081011,0.2,E,A*30
$GPGGA,095320.00,4611.963180,N,01258.214270,E,1,06,2.6,138.19,M,46.25,M,,*6F
$GPGLL,4611.963180,N,01258.214270,E,095320.00,A,A*6F
$GPVTG,225.5,T,225.6,M,000.1,N,000.1,K,A*20
$GPGSV,2,1,06,02,30,053,41,12,37,100,38,25,71,084,44,29,77,250,41*77
$GPGSV,2,2,06,30,57,303,42,31,45,300,42,,,,,,,,*7E
$GPGSA,M,3,02,12,25,29,30,31,,,,,,,4.6,2.6,3.8*3F
Trace #103 at position 25.500000
$GPZDA,095319.03,08,10,2011,00,00*69
$GPRMC,095319.00,A,4611.963269,N,01258.214193,E,000.7,139.4,081011,0.2,E,A*30
$GPGGA,095320.00,4611.963180,N,01258.214270,E,1,06,2.6,138.19,M,46.25,M,,*6F
$GPGLL,4611.963180,N,01258.214270,E,095320.00,A,A*6F
$GPVTG,225.5,T,225.6,M,000.1,N,000.1,K,A*20
$GPGSV,2,1,06,02,30,053,41,12,37,100,38,25,71,084,44,29,77,250,41*77
$GPGSV,2,2,06,30,57,303,42,31,45,300,42,,,,,,,,*7E
$GPGSA,M,3,02,12,25,29,30,31,,,,,,,4.6,2.6,3.8*3F
Trace #104 at position 25.750000
$GPZDA,095320.03,08,10,2011,00,00*63
$GPRMC,095320.00,A,4611.963180,N,01258.214270,E,000.1,225.5,081011,0.2,E,A*39
$GPGGA,095321.00,4611.963173,N,01258.214263,E,1,06,2.6,138.16,M,46.25,M,,*6F
$GPGLL,4611.963173,N,01258.214263,E,095321.00,A,A*60
$GPVTG,15.0,T,15.1,M,000.1,N,000.1,K,A*22
$GPGSV,2,1,06,02,30,053,43,12,37,100,38,25,71,084,44,29,77,250,42*76
$GPGSV,2,2,06,30,57,303,43,31,45,300,43,,,,,,,,*7E
$GPGSA,M,3,02,12,25,29,30,31,,,,,,,4.6,2.6,3.8*3F
Trace #105 at position 26.000000
$GPZDA,095320.03,08,10,2011,00,00*63
$GPRMC,095320.00,A,4611.963180,N,01258.214270,E,000.1,225.5,081011,0.2,E,A*39
$GPGGA,095321.00,4611.963173,N,01258.214263,E,1,06,2.6,138.16,M,46.25,M,,*6F
$GPGLL,4611.963173,N,01258.214263,E,095321.00,A,A*60
$GPVTG,15.0,T,15.1,M,000.1,N,000.1,K,A*22
$GPGSV,2,1,06,02,30,053,43,12,37,100,38,25,71,084,44,29,77,250,42*76
$GPGSV,2,2,06,30,57,303,43,31,45,300,43,,,,,,,,*7E
$GPGSA,M,3,02,12,25,29,30,31,,,,,,,4.6,2.6,3.8*3F
Trace #106 at position 26.250000
$GPZDA,095320.03,08,10,2011,00,00*63
$GPRMC,095320.00,A,4611.963180,N,01258.214270,E,000.1,225.5,081011,0.2,E,A*39
$GPGGA,095321.00,4611.963173,N,01258.214263,E,1,06,2.6,138.16,M,46.25,M,,*6F
$GPGLL,4611.963173,N,01258.214263,E,095321.00,A,A*60
$GPVTG,15.0,T,15.1,M,000.1,N,000.1,K,A*22
$GPGSV,2,1,06,02,30,053,43,12,37,100,38,25,71,084,44,29,77,250,42*76
$GPGSV,2,2,06,30,57,303,43,31,45,300,43,,,,,,,,*7E
$GPGSA,M,3,02,12,25,29,30,31,,,,,,,4.6,2.6,3.8*3F
Trace #107 at position 26.500000
$GPZDA,095320.03,08,10,2011,00,00*63
$GPRMC,095320.00,A,4611.963180,N,01258.214270,E,000.1,225.5,081011,0.2,E,A*39
$GPGGA,095321.00,4611.963173,N,01258.214263,E,1,06,2.6,138.16,M,46.25,M,,*6F
$GPGLL,4611.963173,N,01258.214263,E,095321.00,A,A*60
$GPVTG,15.0,T,15.1,M,000.1,N,000.1,K,A*22
$GPGSV,2,1,06,02,30,053,43,12,37,100,38,25,71,084,44,29,77,250,42*76
$GPGSV,2,2,06,30,57,303,43,31,45,300,43,,,,,,,,*7E
$GPGSA,M,3,02,12,25,29,30,31,,,,,,,4.6,2.6,3.8*3F
Trace #108 at position 26.750000
$GPZDA,095320.03,08,10,2011,00,00*63
$GPRMC,095320.00,A,4611.963180,N,01258.214270,E,000.1,225.5,081011,0.2,E,A*39
$GPGGA,095321.00,4611.963173,N,01258.214263,E,1,06,2.6,138.16,M,46.25,M,,*6F
$GPGLL,4611.963173,N,01258.214263,E,095321.00,A,A*60
$GPVTG,15.0,T,15.1,M,000.1,N,000.1,K,A*22
$GPGSV,2,1,06,02,30,053,43,12,37,100,38,25,71,084,44,29,77,250,42*76
$GPGSV,2,2,06,30,57,303,43,31,45,300,43,,,,,,,,*7E
$GPGSA,M,3,02,12,25,29,30,31,,,,,,,4.6,2.6,3.8*3F
Trace #109 at position 27.000000
$GPZDA,095321.03,08,10,2011,00,00*62
$GPRMC,095321.00,A,4611.963173,N,01258.214263,E,000.1,15.0,081011,0.2,E,A*02
$GPGGA,095322.00,4611.962892,N,01258.214436,E,1,06,2.6,138.19,M,46.25,M,,*62
$GPGLL,4611.962892,N,01258.214436,E,095322.00,A,A*62
$GPVTG,156.0,T,156.1,M,002.2,N,004.1,K,A*27
$GPGSV,2,1,06,02,30,053,45,12,37,100,41,25,71,084,44,29,77,250,42*7E
$GPGSV,2,2,06,30,57,303,43,31,45,300,44,,,,,,,,*79
$GPGSA,M,3,02,12,25,29,30,31,,,,,,,4.6,2.6,3.8*3F
Trace #110 at position 27.250000
$GPZDA,095321.03,08,10,2011,00,00*62
$GPRMC,095321.00,A,4611.963173,N,01258.214263,E,000.1,15.0,081011,0.2,E,A*02
$GPGGA,095322.00,4611.962892,N,01258.214436,E,1,06,2.6,138.19,M,46.25,M,,*62
$GPGLL,4611.962892,N,01258.214436,E,095322.00,A,A*62
$GPVTG,156.0,T,156.1,M,002.2,N,004.1,K,A*27
$GPGSV,2,1,06,02,30,053,45,12,37,100,41,25,71,084,44,29,77,250,42*7E
$GPGSV,2,2,06,30,57,303,43,31,45,300,44,,,,,,,,*79
$GPGSA,M,3,02,12,25,29,30,31,,,,,,,4.6,2.6,3.8*3F
Trace #111 at position 27.500000
$GPZDA,095321.03,08,10,2011,00,00*62
$GPRMC,095321.00,A,4611.963173,N,01258.214263,E,000.1,15.0,081011,0.2,E,A*02
$GPGGA,095322.00,4611.962892,N,01258.214436,E,1,06,2.6,138.19,M,46.25,M,,*62
$GPGLL,4611.962892,N,01258.214436,E,095322.00,A,A*62
$GPVTG,156.0,T,156.1,M,002.2,N,004.1,K,A*27
$GPGSV,2,1,06,02,30,053,45,12,37,100,41,25,71,084,44,29,77,250,42*7E
$GPGSV,2,2,06,30,57,303,43,31,45,300,44,,,,,,,,*79
$GPGSA,M,3,02,12,25,29,30,31,,,,,,,4.6,2.6,3.8*3F
Trace #112 at position 27.750000
$GPZDA,095321.03,08,10,2011,00,00*62
$GPRMC,095321.00,A,4611.963173,N,01258.214263,E,000.1,15.0,081011,0.2,E,A*02
$GPGGA,095322.00,4611.962892,N,01258.214436,E,1,06,2.6,138.19,M,46.25,M,,*62
$GPGLL,4611.962892,N,01258.214436,E,095322.00,A,A*62
$GPVTG,156.0,T,156.1,M,002.2,N,004.1,K,A*27
$GPGSV,2,1,06,02,30,053,45,12,37,100,41,25,71,084,44,29,77,250,42*7E
$GPGSV,2,2,06,30,57,303,43,31,45,300,44,,,,,,,,*79
$GPGSA,M,3,02,12,25,29,30,31,,,,,,,4.6,2.6,3.8*3F
Trace #113 at position 28.000000
$GPZDA,095322.03,08,10,2011,00,00*61
$GPRMC,095322.00,A,4611.962892,N,01258.214436,E,002.2,156.0,081011,0.2,E,A*37
$GPGGA,095323.00,4611.962408,N,01258.214662,E,1,06,2.6,138.25,M,46.25,M,,*60
$GPGLL,4611.962408,N,01258.214662,E,095323.00,A,A*6F
$GPVTG,168.4,T,168.6,M,001.4,N,002.6,K,A*20
$GPGSV,2,1,06,02,30,053,44,12,37,100,41,25,71,084,44,29,77,250,43*7E
$GPGSV,2,2,06,30,57,303,43,31,45,300,43,,,,,,,,*7E
$GPGSA,M,3,02,12,25,29,30,31,,,,,,,4.6,2.6,3.8*3F
Trace #114 at position 28.250000
$GPZDA,095322.03,08,10,2011,00,00*61
$GPRMC,095322.00,A,4611.962892,N,01258.214436,E,002.2,156.0,081011,0.2,E,A*37
$GPGGA,095323.00,4611.962408,N,01258.214662,E,1,06,2.6,138.25,M,46.25,M,,*60
$GPGLL,4611.962408,N,01258.214662,E,095323.00,A,A*6F
$GPVTG,168.4,T,168.6,M,001.4,N,002.6,K,A*20
$GPGSV,2,1,06,02,30,053,44,12,37,100,41,25,71,084,44,29,77,250,43*7E
$GPGSV,2,2,06,30,57,303,43,31,45,300,43,,,,,,,,*7E
$GPGSA,M,3,02,12,25,29,30,31,,,,,,,4.6,2.6,3.8*3F
Trace #115 at position 28.500000
$GPZDA,095322.03,08,10,2011,00,00*61
$GPRMC,095322.00,A,4611.962892,N,01258.214436,E,002.2,156.0,081011,0.2,E,A*37
$GPGGA,095323.00,4611.962408,N,01258.214662,E,1,06,2.6,138.25,M,46.25,M,,*60
$GPGLL,4611.962408,N,01258.214662,E,095323.00,A,A*6F
$GPVTG,168.4,T,168.6,M,001.4,N,002.6,K,A*20
$GPGSV,2,1,06,02,30,053,44,12,37,100,41,25,71,084,44,29,77,250,43*7E
$GPGSV,2,2,06,30,57,303,43,31,45,300,43,,,,,,,,*7E
$GPGSA,M,3,02,12,25,29,30,31,,,,,,,4.6,2.6,3.8*3F
Trace #116 at position 28.750000
$GPZDA,095322.03,08,10,2011,00,00*61
$GPRMC,095322.00,A,4611.962892,N,01258.214436,E,002.2,156.0,081011,0.2,E,A*37
$GPGGA,095323.00,4611.962408,N,01258.214662,E,1,06,2.6,138.25,M,46.25,M,,*60
$GPGLL,4611.962408,N,01258.214662,E,095323.00,A,A*6F
$GPVTG,168.4,T,168.6,M,001.4,N,002.6,K,A*20
$GPGSV,2,1,06,02,30,053,44,12,37,100,41,25,71,084,44,29,77,250,43*7E
$GPGSV,2,2,06,30,57,303,43,31,45,300,43,,,,,,,,*7E
$GPGSA,M,3,02,12,25,29,30,31,,,,,,,4.6,2.6,3.8*3F
Trace #117 at position 29.000000
$GPZDA,095323.04,08,10,2011,00,00*67
$GPRMC,095323.00,A,4611.962408,N,01258.214662,E,001.4,168.4,081011,0.2,E,A*36
$GPGGA,095324.00,4611.961929,N,01258.214844,E,1,06,2.6,138.25,M,46.25,M,,*60
$GPGLL,4611.961929,N,01258.214844,E,095324.00,A,A*6F
$GPVTG,162.0,T,162.2,M,002.0,N,003.7,K,A*27
$GPGSV,2,1,06,02,30,053,45,12,37,100,40,25,71,084,43,29,77,250,42*78
$GPGSV,2,2,06,30,57,303,43,31,45,300,43,,,,,,,,*7E
$GPGSA,M,3,02,12,25,29,30,31,,,,,,,4.6,2.6,3.8*3F
Trace #118 at position 29.250000
$GPZDA,095323.04,08,10,2011,00,00*67
$GPRMC,095323.00,A,4611.962408,N,01258.214662,E,001.4,168.4,081011,0.2,E,A*36
$GPGGA,095324.00,4611.961929,N,01258.214844,E,1,06,2.6,138.25,M,46.25,M,,*60
$GPGLL,4611.961929,N,01258.214844,E,095324.00,A,A*6F
$GPVTG,162.0,T,162.2,M,002.0,N,003.7,K,A*27
$GPGSV,2,1,06,02,30,053,45,12,37,100,40,25,71,084,43,29,77,250,42*78
$GPGSV,2,2,06,30,57,303,43,31,45,300,43,,,,,,,,*7E
$GPGSA,M,3,02,12,25,29,30,31,,,,,,,4.6,2.6,3.8*3F
Trace #119 at position 29.500000
$GPZDA,095323.04,08,10,2011,00,00*67
