Trace #1 at position 0.000000
$GPZDA,123455.02,06,10,2011,00,00*65
$GPRMC,123444.00,V,,,,,,,,,,N*79
$GPGGA,,,,,,0,04,,,M,,M,,*62
$GPGLL,,,,,,V,N*64
$GPVTG,,T,,,,N,,K,N*61
$GPGSV,3,1,10,05,09,033,,16,39,308,38,31,21,217,41,18,24,144,*75
$GPGSV,3,2,10,29,36,080,35,30,44,157,29,21,79,136,28,25,08,141,*7A
$GPGSV,3,3,10,03,18,282,,06,34,282,32,,,,,,,,*72
$GPGSA,M,1,,,,,,,,,,,,,3.0,1.5,2.5*3C
Trace #2 at position 0.250000
$GPZDA,123505.02,06,10,2011,00,00*61
$GPRMC,123444.00,V,,,,,,,,,,N*79
$GPGGA,123506.00,4611.975952,N,01258.204863,E,1,05,1.4,136.81,M,46.25,M,,*65
$GPGLL,4611.975952,N,01258.204863,E,123506.00,A,A*68
$GPVTG,261.0,T,261.2,M,000.3,N,000.6,K,A*24
$GPGSV,3,1,10,05,09,033,,16,39,308,33,31,21,217,32,18,24,144,*7A
$GPGSV,3,2,10,29,36,080,38,30,44,157,,21,79,136,35,25,08,141,*70
$GPGSV,3,3,10,03,18,282,,06,34,282,33,,,,,,,,*73
$GPGSA,M,3,16,31,29,21,06,,,,,,,,2.9,1.4,2.5*3C
Trace #3 at position 0.500000
$GPZDA,123507.03,06,10,2011,00,00*62
$GPRMC,123507.00,A,4611.975929,N,01258.204840,E,000.2,163.7,061011,0.2,E,A*3C
$GPGGA,123508.00,4611.975860,N,01258.204859,E,1,05,1.4,136.89,M,46.25,M,,*6A
$GPGLL,4611.975860,N,01258.204859,E,123508.00,A,A*6F
$GPVTG,188.1,T,188.3,M,000.3,N,000.5,K,A*27
$GPGSV,3,1,10,05,09,033,,16,39,308,41,31,21,217,37,18,24,144,*7A
$GPGSV,3,2,10,29,36,080,38,30,44,157,,21,79,136,35,25,08,141,*70
$GPGSV,3,3,10,03,18,282,,06,34,282,38,,,,,,,,*78
$GPGSA,M,3,16,31,29,21,06,,,,,,,,2.9,1.4,2.5*3C
Trace #4 at position 0.750000
$GPZDA,123508.04,06,10,2011,00,00*6A
$GPRMC,123508.00,A,4611.975860,N,01258.204859,E,000.3,188.1,061011,0.2,E,A*35
$GPGGA,123509.00,4611.975788,N,01258.204908,E,1,05,1.4,137.01,M,46.25,M,,*66
$GPGLL,4611.975788,N,01258.204908,E,123509.00,A,A*62
$GPVTG,135.2,T,135.4,M,000.3,N,000.6,K,A*20
$GPGSV,3,1,10,05,09,033,,16,39,308,40,31,21,217,38,18,24,144,*74
$GPGSV,3,2,10,29,36,080,38,30,44,157,,21,79,136,34,25,08,141,*71
$GPGSV,3,3,10,03,18,282,,06,34,282,38,,,,,,,,*78
$GPGSA,M,3,16,31,29,21,06,,,,,,,,2.9,1.4,2.5*3C
Trace #5 at position 1.000000
$GPZDA,123509.03,06,10,2011,00,00*6C
$GPRMC,123509.00,A,4611.975788,N,01258.204908,E,000.3,135.2,061011,0.2,E,A*3D
$GPGGA,123510.00,4611.975733,N,01258.204984,E,1,05,1.4,137.07,M,46.25,M,,*6C
$GPGLL,4611.975733,N,01258.204984,E,123510.00,A,A*6E
$GPVTG,140.5,T,140.6,M,000.2,N,000.3,K,A*21
$GPGSV,3,1,10,05,09,033,,16,39,308,40,31,21,217,37,18,24,144,*7B
$GPGSV,3,2,10,29,36,080,38,30,44,157,,21,79,136,35,25,08,141,*70
$GPGSV,3,3,10,03,18,282,,06,34,282,36,,,,,,,,*76
$GPGSA,M,3,16,31,29,21,06,,,,,,,,2.9,1.4,2.5*3C
Trace #6 at position 1.250000
$GPZDA,123510.03,06,10,2011,00,00*64
$GPRMC,123510.00,A,4611.975733,N,01258.204984,E,000.2,140.5,061011,0.2,E,A*35
$GPGGA,123511.00,4611.975683,N,01258.205017,E,1,05,1.4,137.01,M,46.25,M,,*63
$GPGLL,4611.975683,N,01258.205017,E,123511.00,A,A*67
$GPVTG,169.0,T,169.2,M,000.2,N,000.3,K,A*20
$GPGSV,3,1,10,05,09,033,,16,39,308,39,31,21,217,37,18,24,144,*75
$GPGSV,3,2,10,29,36,080,38,30,44,157,,21,79,135,34,25,08,141,*72
$GPGSV,3,3,10,03,18,282,,06,34,282,36,,,,,,,,*76
$GPGSA,M,3,16,31,29,21,06,,,,,,,,2.9,1.4,2.5*3C
Trace #7 at position 1.500000
$GPZDA,123511.03,06,10,2011,00,00*65
$GPRMC,123511.00,A,4611.975683,N,01258.205017,E,000.2,169.0,061011,0.2,E,A*32
$GPGGA,123512.00,4611.975621,N,01258.205057,E,1,05,1.4,136.98,M,46.25,M,,*6D
$GPGLL,4611.975621,N,01258.205057,E,123512.00,A,A*68
$GPVTG,135.0,T,135.2,M,000.2,N,000.4,K,A*27
$GPGSV,3,1,10,05,09,033,,16,39,308,40,31,21,217,38,18,24,144,*74
$GPGSV,3,2,10,29,36,080,38,30,44,157,,21,79,135,35,25,08,141,*73
$GPGSV,3,3,10,03,18,282,,06,34,282,37,,,,,,,,*77
$GPGSA,M,3,16,31,29,21,06,,,,,,,,2.9,1.4,2.5*3C
Trace #8 at position 1.750000
$GPZDA,123512.03,06,10,2011,00,00*66
$GPRMC,123512.00,A,4611.975621,N,01258.205057,E,000.2,135.0,061011,0.2,E,A*34
$GPGGA,123513.00,4611.975553,N,01258.205110,E,1,05,1.4,136.99,M,46.25,M,,*69
$GPGLL,4611.975553,N,01258.205110,E,123513.00,A,A*6D
$GPVTG,150.8,T,151.0,M,000.2,N,000.4,K,A*2C
$GPGSV,3,1,10,05,09,033,,16,39,308,39,31,21,217,39,18,24,144,*7B
$GPGSV,3,2,10,29,36,080,40,30,44,157,,21,79,135,35,25,08,141,*7C
$GPGSV,3,3,10,03,18,282,,06,34,282,38,,,,,,,,*78
$GPGSA,M,3,16,31,29,21,06,,,,,,,,2.9,1.4,2.5*3C
Trace #9 at position 2.000000
$GPZDA,123513.03,06,10,2011,00,00*67
$GPRMC,123513.00,A,4611.975553,N,01258.205110,E,000.2,150.8,061011,0.2,E,A*3A
$GPGGA,123514.00,4611.975411,N,01258.205168,E,1,05,1.4,136.96,M,46.25,M,,*69
$GPGLL,4611.975411,N,01258.205168,E,123514.00,A,A*62
$GPVTG,163.8,T,164.0,M,000.7,N,001.3,K,A*29
$GPGSV,3,1,10,05,09,033,,16,39,308,39,31,21,217,39,18,24,144,*7B
$GPGSV,3,2,10,29,36,080,39,30,44,157,,21,79,135,36,25,08,141,*71
$GPGSV,3,3,10,03,18,282,,06,34,282,39,,,,,,,,*79
$GPGSA,M,3,16,31,29,21,06,,,,,,,,2.9,1.4,2.5*3C
Trace #10 at position 2.250000
$GPZDA,123515.03,06,10,2011,00,00*61
$GPRMC,123515.00,A,4611.975239,N,01258.205227,E,000.4,165.6,061011,0.2,E,A*3E
$GPGGA,123516.00,4611.975146,N,01258.205263,E,1,05,1.4,137.04,M,46.25,M,,*6E
$GPGLL,4611.975146,N,01258.205263,E,123516.00,A,A*6F
$GPVTG,144.0,T,144.2,M,000.1,N,000.2,K,A*22
$GPGSV,3,1,10,05,09,033,,16,39,308,40,31,21,217,38,18,24,144,*74
$GPGSV,3,2,10,29,36,080,39,30,44,157,,21,79,135,35,25,08,141,*72
$GPGSV,3,3,10,03,18,282,,06,34,282,39,,,,,,,,*79
$GPGSA,M,3,16,31,29,21,06,,,,,,,,2.9,1.4,2.5*3C
Trace #11 at position 2.500000
$GPZDA,123516.03,06,10,2011,00,00*62
$GPRMC,123516.00,A,4611.975146,N,01258.205263,E,000.1,144.0,061011,0.2,E,A*36
$GPGGA,123517.00,4611.975058,N,01258.205271,E,1,05,1.4,137.06,M,46.25,M,,*60
$GPGLL,4611.975058,N,01258.205271,E,123517.00,A,A*63
$GPVTG,188.0,T,188.1,M,000.4,N,000.7,K,A*21
$GPGSV,3,1,10,05,09,033,,16,39,308,40,31,21,217,37,18,24,144,*7B
$GPGSV,3,2,10,29,36,080,38,30,44,157,,21,79,135,35,25,08,141,*73
$GPGSV,3,3,10,03,18,282,32,06,34,282,38,,,,,,,,*79
$GPGSA,M,3,16,31,29,21,06,,,,,,,,2.9,1.4,2.5*3C
Trace #12 at position 2.750000
$GPZDA,123516.03,06,10,2011,00,00*62
$GPRMC,123516.00,A,4611.975146,N,01258.205263,E,000.1,144.0,061011,0.2,E,A*36
$GPGGA,123517.00,4611.975058,N,01258.205271,E,1,05,1.4,137.06,M,46.25,M,,*60
$GPGLL,4611.975058,N,01258.205271,E,123517.00,A,A*63
$GPVTG,188.0,T,188.1,M,000.4,N,000.7,K,A*21
$GPGSV,3,1,10,05,09,033,,16,39,308,40,31,21,217,37,18,24,144,*7B
$GPGSV,3,2,10,29,36,080,38,30,44,157,,21,79,135,35,25,08,141,*73
$GPGSV,3,3,10,03,18,282,32,06,34,282,38,,,,,,,,*79
$GPGSA,M,3,16,31,29,21,06,,,,,,,,2.9,1.4,2.5*3C
Trace #13 at position 3.000000
$GPZDA,123517.03,06,10,2011,00,00*63
$GPRMC,123517.00,A,4611.975058,N,01258.205271,E,000.4,188.0,061011,0.2,E,A*3F
$GPGGA,123518.00,4611.974940,N,01258.205316,E,1,05,1.4,137.09,M,46.25,M,,*61
$GPGLL,4611.974940,N,01258.205316,E,123518.00,A,A*6D
$GPVTG,139.1,T,139.2,M,000.4,N,000.7,K,A*23
$GPGSV,3,1,10,05,09,033,,16,39,308,40,31,21,217,37,18,24,144,*7B
$GPGSV,3,2,10,29,36,080,37,30,44,157,,21,79,135,35,25,08,141,*7C
$GPGSV,3,3,10,03,18,282,32,06,34,282,39,,,,,,,,*78
$GPGSA,M,3,16,31,29,21,06,,,,,,,,2.9,1.4,2.5*3C
Trace #14 at position 3.250000
$GPZDA,123518.03,06,10,2011,00,00*6C
$GPRMC,123518.00,A,4611.974940,N,01258.205316,E,000.4,139.1,061011,0.2,E,A*3A
$GPGGA,123519.00,4611.974827,N,01258.205408,E,1,05,1.4,137.17,M,46.25,M,,*67
$GPGLL,4611.974827,N,01258.205408,E,123519.00,A,A*64
$GPVTG,149.2,T,149.4,M,000.4,N,000.8,K,A*29
$GPGSV,3,1,10,05,09,033,,16,39,308,40,31,21,217,37,18,24,144,*7B
$GPGSV,3,2,10,29,36,080,37,30,44,157,,21,79,135,35,25,08,141,*7C
$GPGSV,3,3,10,03,18,282,32,06,34,282,36,,,,,,,,*77
$GPGSA,M,3,16,31,29,21,06,,,,,,,,2.9,1.4,2.5*3C
Trace #15 at position 3.500000
$GPZDA,123519.03,06,10,2011,00,00*6D
$GPRMC,123519.00,A,4611.974827,N,01258.205408,E,000.4,149.2,061011,0.2,E,A*37
$GPGGA,123520.00,4611.974685,N,01258.205449,E,1,05,1.4,137.21,M,46.25,M,,*6B
$GPGLL,4611.974685,N,01258.205449,E,123520.00,A,A*6D
$GPVTG,182.9,T,183.1,M,000.5,N,001.0,K,A*2E
$GPGSV,3,1,10,05,09,033,,16,39,308,39,31,21,217,38,18,24,144,*7A
$GPGSV,3,2,10,29,36,080,39,30,44,157,,21,79,135,36,25,08,141,*71
$GPGSV,3,3,10,03,18,282,30,06,34,282,36,,,,,,,,*75
$GPGSA,M,3,16,31,29,21,06,,,,,,,,2.9,1.4,2.5*3C
Trace #16 at position 3.750000
$GPZDA,123520.03,06,10,2011,00,00*67
$GPRMC,123520.00,A,4611.974685,N,01258.205449,E,000.5,182.9,061011,0.2,E,A*33
$GPGGA,123521.00,4611.974509,N,01258.205386,E,1,05,1.4,137.20,M,46.25,M,,*68
$GPGLL,4611.974509,N,01258.205386,E,123521.00,A,A*6F
$GPVTG,207.4,T,207.6,M,000.7,N,001.4,K,A*23
$GPGSV,3,1,10,05,09,033,,16,39,308,40,31,21,217,38,18,24,144,*74
$GPGSV,3,2,10,29,36,080,38,30,43,157,,21,79,135,35,25,08,141,*74
$GPGSV,3,3,10,03,18,282,33,06,34,282,36,,,,,,,,*76
$GPGSA,M,3,16,31,29,21,06,,,,,,,,2.9,1.4,2.5*3C
Trace #17 at position 4.000000
$GPZDA,123521.03,06,10,2011,00,00*66
$GPRMC,123521.00,A,4611.974509,N,01258.205386,E,000.7,207.4,061011,0.2,E,A*30
$GPGGA,123522.00,4611.974329,N,01258.205364,E,1,05,1.4,137.23,M,46.25,M,,*60
$GPGLL,4611.974329,N,01258.205364,E,123522.00,A,A*64
$GPVTG,170.5,T,170.6,M,000.6,N,001.0,K,A*27
$GPGSV,3,1,10,05,09,033,,16,39,308,39,31,21,217,38,18,24,144,*7A
$GPGSV,3,2,10,29,36,080,39,30,43,157,,21,79,135,35,25,08,141,*75
$GPGSV,3,3,10,03,18,282,32,06,34,282,36,,,,,,,,*77
$GPGSA,M,3,16,31,29,21,06,,,,,,,,2.9,1.4,2.5*3C
Trace #18 at position 4.250000
$GPZDA,123522.03,06,10,2011,00,00*65
$GPRMC,123522.00,A,4611.974329,N,01258.205364,E,000.6,170.5,061011,0.2,E,A*38
$GPGGA,123523.00,4611.974160,N,01258.205416,E,1,05,1.4,137.28,M,46.25,M,,*67
$GPGLL,4611.974160,N,01258.205416,E,123523.00,A,A*68
$GPVTG,175.7,T,175.9,M,000.6,N,001.2,K,A*28
$GPGSV,3,1,10,05,09,033,,16,39,308,40,31,21,217,37,18,24,144,*7B
$GPGSV,3,2,10,29,36,080,39,30,43,157,,21,79,135,35,25,08,141,*75
$GPGSV,3,3,10,03,18,282,31,06,34,282,38,,,,,,,,*7A
$GPGSA,M,3,16,31,29,21,06,,,,,,,,2.9,1.4,2.5*3C
Trace #19 at position 4.500000
$GPZDA,123523.04,06,10,2011,00,00*63
$GPRMC,123523.00,A,4611.974160,N,01258.205416,E,000.6,175.7,061011,0.2,E,A*33
$GPGGA,123524.00,4611.974036,N,01258.205448,E,1,06,1.3,137.32,M,46.25,M,,*66
$GPGLL,4611.974036,N,01258.205448,E,123524.00,A,A*66
$GPVTG,180.6,T,180.7,M,000.2,N,000.4,K,A*24
$GPGSV,3,1,10,05,09,033,,16,39,308,40,31,21,217,37,18,24,144,*7B
$GPGSV,3,2,10,29,36,080,38,30,43,157,,21,79,135,35,25,08,141,*74
$GPGSV,3,3,10,03,18,282,34,06,34,282,37,,,,,,,,*70
$GPGSA,M,3,16,31,29,21,03,06,,,,,,,2.6,1.3,2.2*30
Trace #20 at position 4.750000
$GPZDA,123524.04,06,10,2011,00,00*64
$GPRMC,123524.00,A,4611.974036,N,01258.205448,E,000.2,180.6,061011,0.2,E,A*32
$GPGGA,123525.00,4611.973954,N,01258.205437,E,1,06,1.3,137.38,M,46.25,M,,*6F
$GPGLL,4611.973954,N,01258.205437,E,123525.00,A,A*65
$GPVTG,213.8,T,214.0,M,000.4,N,000.7,K,A*2F
$GPGSV,3,1,10,05,09,033,,16,39,308,40,31,21,217,38,18,24,144,*74
$GPGSV,3,2,10,29,36,080,38,30,43,157,,21,79,135,35,25,08,141,*74
$GPGSV,3,3,10,03,18,282,33,06,34,282,38,,,,,,,,*78
$GPGSA,M,3,16,31,29,21,03,06,,,,,,,2.6,1.3,2.2*30
Trace #21 at position 5.000000
$GPZDA,123524.04,06,10,2011,00,00*64
$GPRMC,123524.00,A,4611.974036,N,01258.205448,E,000.2,180.6,061011,0.2,E,A*32
$GPGGA,123525.00,4611.973954,N,01258.205437,E,1,06,1.3,137.38,M,46.25,M,,*6F
$GPGLL,4611.973954,N,01258.205437,E,123525.00,A,A*65
$GPVTG,213.8,T,214.0,M,000.4,N,000.7,K,A*2F
$GPGSV,3,1,10,05,09,033,,16,39,308,40,31,21,217,38,18,24,144,*74
$GPGSV,3,2,10,29,36,080,38,30,43,157,,21,79,135,35,25,08,141,*74
$GPGSV,3,3,10,03,18,282,33,06,34,282,38,,,,,,,,*78
$GPGSA,M,3,16,31,29,21,03,06,,,,,,,2.6,1.3,2.2*30
Trace #22 at position 5.250000
$GPZDA,123525.03,06,10,2011,00,00*62
$GPRMC,123525.00,A,4611.973954,N,01258.205437,E,000.4,213.8,061011,0.2,E,A*30
$GPGGA,123526.00,4611.973826,N,01258.205477,E,1,06,1.3,137.40,M,46.25,M,,*63
$GPGLL,4611.973826,N,01258.205477,E,123526.00,A,A*66
$GPVTG,159.3,T,159.4,M,000.6,N,001.2,K,A*21
$GPGSV,3,1,10,05,09,033,,16,39,308,40,31,21,217,37,18,24,144,*7B
$GPGSV,3,2,10,29,36,080,38,30,43,157,,21,79,135,35,25,08,141,*74
$GPGSV,3,3,10,03,18,282,34,06,34,282,38,,,,,,,,*7F
$GPGSA,M,3,16,31,29,21,03,06,,,,,,,2.6,1.3,2.2*30
Trace #23 at position 5.500000
$GPZDA,123525.03,06,10,2011,00,00*62
$GPRMC,123525.00,A,4611.973954,N,01258.205437,E,000.4,213.8,061011,0.2,E,A*30
$GPGGA,123526.00,4611.973826,N,01258.205477,E,1,06,1.3,137.40,M,46.25,M,,*63
$GPGLL,4611.973826,N,01258.205477,E,123526.00,A,A*66
$GPVTG,159.3,T,159.4,M,000.6,N,001.2,K,A*21
$GPGSV,3,1,10,05,09,033,,16,39,308,40,31,21,217,37,18,24,144,*7B
$GPGSV,3,2,10,29,36,080,38,30,43,157,,21,79,135,35,25,08,141,*74
$GPGSV,3,3,10,03,18,282,34,06,34,282,38,,,,,,,,*7F
$GPGSA,M,3,16,31,29,21,03,06,,,,,,,2.6,1.3,2.2*30
Trace #24 at position 5.750000
$GPZDA,123526.04,06,10,2011,00,00*66
$GPRMC,123526.00,A,4611.973826,N,01258.205477,E,000.6,159.3,061011,0.2,E,A*37
$GPGGA,123527.00,4611.973722,N,01258.205620,E,1,06,1.3,137.41,M,46.25,M,,*68
$GPGLL,4611.973722,N,01258.205620,E,123527.00,A,A*6C
$GPVTG,108.2,T,108.3,M,000.4,N,000.7,K,A*21
$GPGSV,3,1,10,05,09,033,,16,39,308,40,31,21,216,37,18,24,144,*7A
$GPGSV,3,2,10,29,36,080,38,30,43,157,,21,79,135,36,25,08,141,*77
$GPGSV,3,3,10,03,18,282,33,06,34,282,38,,,,,,,,*78
$GPGSA,M,3,16,31,29,21,03,06,,,,,,,2.6,1.3,2.2*30
Trace #25 at position 6.000000
$GPZDA,123527.03,06,10,2011,00,00*60
$GPRMC,123527.00,A,4611.973722,N,01258.205620,E,000.4,108.2,061011,0.2,E,A*3A
$GPGGA,123528.00,4611.973614,N,01258.205722,E,1,06,1.3,137.34,M,46.25,M,,*62
$GPGLL,4611.973614,N,01258.205722,E,123528.00,A,A*64
$GPVTG,170.6,T,170.7,M,000.6,N,001.1,K,A*24
$GPGSV,3,1,10,05,09,033,,16,39,308,40,31,21,216,38,18,24,144,*75
$GPGSV,3,2,10,29,36,080,39,30,43,157,,21,79,135,35,25,08,141,*75
$GPGSV,3,3,10,03,18,282,34,06,34,282,37,,,,,,,,*70
$GPGSA,M,3,16,31,29,21,03,06,,,,,,,2.6,1.3,2.2*30
Trace #26 at position 6.250000
$GPZDA,123527.03,06,10,2011,00,00*60
$GPRMC,123527.00,A,4611.973722,N,01258.205620,E,000.4,108.2,061011,0.2,E,A*3A
$GPGGA,123528.00,4611.973614,N,01258.205722,E,1,06,1.3,137.34,M,46.25,M,,*62
$GPGLL,4611.973614,N,01258.205722,E,123528.00,A,A*64
$GPVTG,170.6,T,170.7,M,000.6,N,001.1,K,A*24
$GPGSV,3,1,10,05,09,033,,16,39,308,40,31,21,216,38,18,24,144,*75
$GPGSV,3,2,10,29,36,080,39,30,43,157,,21,79,135,35,25,08,141,*75
$GPGSV,3,3,10,03,18,282,34,06,34,282,37,,,,,,,,*70
$GPGSA,M,3,16,31,29,21,03,06,,,,,,,2.6,1.3,2.2*30
Trace #27 at position 6.500000
$GPZDA,123528.04,06,10,2011,00,00*68
$GPRMC,123528.00,A,4611.973614,N,01258.205722,E,000.6,170.6,061011,0.2,E,A*3B
$GPGGA,123529.00,4611.973424,N,01258.205721,E,1,06,1.3,137.24,M,46.25,M,,*60
$GPGLL,4611.973424,N,01258.205721,E,123529.00,A,A*67
$GPVTG,197.1,T,197.3,M,000.7,N,001.4,K,A*23
$GPGSV,3,1,10,05,09,033,,16,39,308,39,31,21,216,37,18,24,144,*74
$GPGSV,3,2,10,29,36,080,39,30,43,157,,21,79,135,36,25,08,141,*76
$GPGSV,3,3,10,03,18,282,32,06,34,282,37,,,,,,,,*76
$GPGSA,M,3,16,31,29,21,03,06,,,,,,,2.6,1.3,2.2*30
Trace #28 at position 6.750000
$GPZDA,123529.03,06,10,2011,00,00*6E
$GPRMC,123529.00,A,4611.973424,N,01258.205721,E,000.7,197.1,061011,0.2,E,A*37
$GPGGA,123530.00,4611.973184,N,01258.205757,E,1,05,1.4,137.25,M,46.25,M,,*63
$GPGLL,4611.973184,N,01258.205757,E,123530.00,A,A*61
$GPVTG,166.5,T,166.6,M,001.0,N,001.9,K,A*29
$GPGSV,3,1,10,05,09,033,,16,39,308,39,31,21,216,37,18,24,144,*74
$GPGSV,3,2,10,29,36,080,39,30,43,157,,21,79,135,35,25,08,141,*75
$GPGSV,3,3,10,03,18,282,30,06,34,282,38,,,,,,,,*7B
$GPGSA,M,3,16,31,29,21,06,,,,,,,,2.9,1.4,2.5*3C
Trace #29 at position 7.000000
$GPZDA,123529.03,06,10,2011,00,00*6E
$GPRMC,123529.00,A,4611.973424,N,01258.205721,E,000.7,197.1,061011,0.2,E,A*37
$GPGGA,123530.00,4611.973184,N,01258.205757,E,1,05,1.4,137.25,M,46.25,M,,*63
$GPGLL,4611.973184,N,01258.205757,E,123530.00,A,A*61
$GPVTG,166.5,T,166.6,M,001.0,N,001.9,K,A*29
$GPGSV,3,1,10,05,09,033,,16,39,308,39,31,21,216,37,18,24,144,*74
$GPGSV,3,2,10,29,36,080,39,30,43,157,,21,79,135,35,25,08,141,*75
$GPGSV,3,3,10,03,18,282,30,06,34,282,38,,,,,,,,*7B
$GPGSA,M,3,16,31,29,21,06,,,,,,,,2.9,1.4,2.5*3C
Trace #30 at position 7.250000
$GPZDA,123530.03,06,10,2011,00,00*66
$GPRMC,123530.00,A,4611.973184,N,01258.205757,E,001.0,166.5,061011,0.2,E,A*3D
$GPGGA,123531.00,4611.972986,N,01258.205860,E,1,05,1.4,137.33,M,46.25,M,,*65
$GPGLL,4611.972986,N,01258.205860,E,123531.00,A,A*60
$GPVTG,164.6,T,164.7,M,000.4,N,000.8,K,A*2E
$GPGSV,3,1,10,05,09,033,,16,39,308,40,31,21,216,38,18,24,144,*75
$GPGSV,3,2,10,29,36,080,39,30,43,157,,21,79,135,35,25,08,141,*75
$GPGSV,3,3,10,03,18,282,30,06,34,282,38,,,,,,,,*7B
$GPGSA,M,3,16,31,29,21,06,,,,,,,,2.9,1.4,2.5*3C
Trace #31 at position 7.500000
$GPZDA,123531.03,06,10,2011,00,00*67
$GPRMC,123531.00,A,4611.972986,N,01258.205860,E,000.4,164.6,061011,0.2,E,A*38
$GPGGA,123532.00,4611.972869,N,01258.205954,E,1,05,1.4,137.44,M,46.25,M,,*60
$GPGLL,4611.972869,N,01258.205954,E,123532.00,A,A*65
$GPVTG,153.7,T,153.8,M,000.4,N,000.8,K,A*20
$GPGSV,3,1,10,05,09,033,,16,39,308,40,31,21,216,38,18,24,144,*75
$GPGSV,3,2,10,29,36,080,39,30,43,157,,21,79,135,36,25,08,141,*76
$GPGSV,3,3,10,03,18,282,30,06,34,282,38,,,,,,,,*7B
$GPGSA,M,3,16,31,29,21,06,,,,,,,,2.9,1.4,2.5*3C
Trace #32 at position 7.750000
$GPZDA,123531.03,06,10,2011,00,00*67
$GPRMC,123531.00,A,4611.972986,N,01258.205860,E,000.4,164.6,061011,0.2,E,A*38
$GPGGA,123532.00,4611.972869,N,01258.205954,E,1,05,1.4,137.44,M,46.25,M,,*60
$GPGLL,4611.972869,N,01258.205954,E,123532.00,A,A*65
$GPVTG,153.7,T,153.8,M,000.4,N,000.8,K,A*20
$GPGSV,3,1,10,05,09,033,,16,39,308,40,31,21,216,38,18,24,144,*75
$GPGSV,3,2,10,29,36,080,39,30,43,157,,21,79,135,36,25,08,141,*76
$GPGSV,3,3,10,03,18,282,30,06,34,282,38,,,,,,,,*7B
$GPGSA,M,3,16,31,29,21,06,,,,,,,,2.9,1.4,2.5*3C
Trace #33 at position 8.000000
$GPZDA,123532.03,06,10,2011,00,00*64
$GPRMC,123532.00,A,4611.972869,N,01258.205954,E,000.4,153.7,061011,0.2,E,A*38
$GPGGA,123533.00,4611.972729,N,01258.206020,E,1,05,1.4,137.47,M,46.25,M,,*60
$GPGLL,4611.972729,N,01258.206020,E,123533.00,A,A*66
$GPVTG,180.9,T,181.0,M,000.5,N,001.0,K,A*2F
$GPGSV,3,1,10,05,09,033,,16,39,308,40,31,21,216,36,18,24,144,*7B
$GPGSV,3,2,10,29,36,080,39,30,43,157,,21,79,135,35,25,08,141,*75
$GPGSV,3,3,10,03,18,282,31,06,34,282,37,,,,,,,,*75
$GPGSA,M,3,16,31,29,21,06,,,,,,,,2.9,1.4,2.5*3C
Trace #34 at position 8.250000
$GPZDA,123532.03,06,10,2011,00,00*64
$GPRMC,123532.00,A,4611.972869,N,01258.205954,E,000.4,153.7,061011,0.2,E,A*38
$GPGGA,123533.00,4611.972729,N,01258.206020,E,1,05,1.4,137.47,M,46.25,M,,*60
$GPGLL,4611.972729,N,01258.206020,E,123533.00,A,A*66
$GPVTG,180.9,T,181.0,M,000.5,N,001.0,K,A*2F
$GPGSV,3,1,10,05,09,033,,16,39,308,40,31,21,216,36,18,24,144,*7B
$GPGSV,3,2,10,29,36,080,39,30,43,157,,21,79,135,35,25,08,141,*75
$GPGSV,3,3,10,03,18,282,31,06,34,282,37,,,,,,,,*75
$GPGSA,M,3,16,31,29,21,06,,,,,,,,2.9,1.4,2.5*3C
Trace #35 at position 8.500000
$GPZDA,123533.03,06,10,2011,00,00*65
$GPRMC,123533.00,A,4611.972729,N,01258.206020,E,000.5,180.9,061011,0.2,E,A*3A
$GPGGA,123534.00,4611.972588,N,01258.206080,E,1,05,1.4,137.43,M,46.25,M,,*60
$GPGLL,4611.972588,N,01258.206080,E,123534.00,A,A*62
$GPVTG,160.4,T,160.5,M,000.4,N,000.7,K,A*21
$GPGSV,3,1,10,05,09,033,,16,39,308,40,31,21,216,37,18,24,144,*7A
$GPGSV,3,2,10,29,36,080,39,30,43,157,,21,79,135,35,25,08,141,*75
$GPGSV,3,3,10,03,18,282,32,06,34,282,37,,,,,,,,*76
$GPGSA,M,3,16,31,29,21,06,,,,,,,,2.9,1.4,2.5*3C
Trace #36 at position 8.750000
$GPZDA,123534.03,06,10,2011,00,00*62
$GPRMC,123534.00,A,4611.972588,N,01258.206080,E,000.4,160.4,061011,0.2,E,A*3C
$GPGGA,123535.00,4611.972403,N,01258.206128,E,1,05,1.4,137.39,M,46.25,M,,*6D
$GPGLL,4611.972403,N,01258.206128,E,123535.00,A,A*62
$GPVTG,186.5,T,186.6,M,000.8,N,001.5,K,A*2C
$GPGSV,3,1,10,05,09,033,,16,39,308,40,31,21,216,37,18,24,144,*7A
$GPGSV,3,2,10,29,36,080,39,30,43,157,,21,79,134,35,25,07,141,*7B
$GPGSV,3,3,10,03,18,282,32,06,34,282,38,,,,,,,,*79
$GPGSA,M,3,16,31,29,21,06,,,,,,,,2.9,1.4,2.5*3C
Trace #37 at position 9.000000
$GPZDA,123534.03,06,10,2011,00,00*62
$GPRMC,123534.00,A,4611.972588,N,01258.206080,E,000.4,160.4,061011,0.2,E,A*3C
$GPGGA,123535.00,4611.972403,N,01258.206128,E,1,05,1.4,137.39,M,46.25,M,,*6D
$GPGLL,4611.972403,N,01258.206128,E,123535.00,A,A*62
$GPVTG,186.5,T,186.6,M,000.8,N,001.5,K,A*2C
$GPGSV,3,1,10,05,09,033,,16,39,308,40,31,21,216,37,18,24,144,*7A
$GPGSV,3,2,10,29,36,080,39,30,43,157,,21,79,134,35,25,07,141,*7B
$GPGSV,3,3,10,03,18,282,32,06,34,282,38,,,,,,,,*79
$GPGSA,M,3,16,31,29,21,06,,,,,,,,2.9,1.4,2.5*3C
Trace #38 at position 9.250000
$GPZDA,123535.03,06,10,2011,00,00*63
$GPRMC,123535.00,A,4611.972403,N,01258.206128,E,000.8,186.5,061011,0.2,E,A*39
$GPGGA,123536.00,4611.972254,N,01258.206212,E,1,05,1.4,137.42,M,46.25,M,,*6C
$GPGLL,4611.972254,N,01258.206212,E,123536.00,A,A*6F
$GPVTG,104.1,T,104.2,M,000.3,N,000.6,K,A*25
$GPGSV,3,1,10,05,09,033,,16,39,308,40,31,21,216,37,18,24,144,*7A
$GPGSV,3,2,10,29,36,080,39,30,43,157,,21,79,134,34,25,07,141,*7A
$GPGSV,3,3,10,03,18,282,31,06,34,282,37,,,,,,,,*75
$GPGSA,M,3,16,31,29,21,06,,,,,,,,2.9,1.4,2.5*3C
Trace #39 at position 9.500000
$GPZDA,123535.03,06,10,2011,00,00*63
$GPRMC,123535.00,A,4611.972403,N,01258.206128,E,000.8,186.5,061011,0.2,E,A*39
$GPGGA,123536.00,4611.972254,N,01258.206212,E,1,05,1.4,137.42,M,46.25,M,,*6C
$GPGLL,4611.972254,N,01258.206212,E,123536.00,A,A*6F
$GPVTG,104.1,T,104.2,M,000.3,N,000.6,K,A*25
$GPGSV,3,1,10,05,09,033,,16,39,308,40,31,21,216,37,18,24,144,*7A
$GPGSV,3,2,10,29,36,080,39,30,43,157,,21,79,134,34,25,07,141,*7A
$GPGSV,3,3,10,03,18,282,31,06,34,282,37,,,,,,,,*75
$GPGSA,M,3,16,31,29,21,06,,,,,,,,2.9,1.4,2.5*3C
Trace #40 at position 9.750000
$GPZDA,123536.03,06,10,2011,00,00*60
$GPRMC,123536.00,A,4611.972254,N,01258.206212,E,000.3,104.1,061011,0.2,E,A*31
$GPGGA,123537.00,4611.972093,N,01258.206344,E,1,05,1.4,137.43,M,46.25,M,,*67
$GPGLL,4611.972093,N,01258.206344,E,123537.00,A,A*65
$GPVTG,167.3,T,167.4,M,000.9,N,001.6,K,A*2A
$GPGSV,3,1,10,05,09,033,,16,39,308,41,31,21,216,36,18,24,144,*7A
$GPGSV,3,2,10,29,36,080,40,30,43,157,,21,79,134,35,25,07,141,*75
$GPGSV,3,3,10,03,18,282,,06,34,282,38,,,,,,,,*78
$GPGSA,M,3,16,31,29,21,06,,,,,,,,2.9,1.4,2.5*3C
Trace #41 at position 10.000000
$GPZDA,123537.03,06,10,2011,00,00*61
$GPRMC,123537.00,A,4611.972093,N,01258.206344,E,000.9,167.3,061011,0.2,E,A*36
$GPGGA,123538.00,4611.971839,N,01258.206389,E,1,05,1.4,137.39,M,46.25,M,,*6F
$GPGLL,4611.971839,N,01258.206389,E,123538.00,A,A*60
$GPVTG,192.3,T,192.5,M,000.8,N,001.5,K,A*29
$GPGSV,3,1,10,05,09,033,,16,39,308,40,31,21,216,37,18,24,144,*7A
$GPGSV,3,2,10,29,36,080,40,30,43,157,,21,79,134,35,25,07,141,*75
$GPGSV,3,3,10,03,18,282,,06,34,282,38,,,,,,,,*78
$GPGSA,M,3,16,31,29,21,06,,,,,,,,2.9,1.4,2.5*3C
Trace #42 at position 10.250000
$GPZDA,123537.03,06,10,2011,00,00*61
$GPRMC,123537.00,A,4611.972093,N,01258.206344,E,000.9,167.3,061011,0.2,E,A*36
$GPGGA,123538.00,4611.971839,N,01258.206389,E,1,05,1.4,137.39,M,46.25,M,,*6F
$GPGLL,4611.971839,N,01258.206389,E,123538.00,A,A*60
$GPVTG,192.3,T,192.5,M,000.8,N,001.5,K,A*29
$GPGSV,3,1,10,05,09,033,,16,39,308,40,31,21,216,37,18,24,144,*7A
$GPGSV,3,2,10,29,36,080,40,30,43,157,,21,79,134,35,25,07,141,*75
$GPGSV,3,3,10,03,18,282,,06,34,282,38,,,,,,,,*78
$GPGSA,M,3,16,31,29,21,06,,,,,,,,2.9,1.4,2.5*3C
Trace #43 at position 10.500000
$GPZDA,123538.04,06,10,2011,00,00*69
$GPRMC,123538.00,A,4611.971839,N,01258.206389,E,000.8,192.3,061011,0.2,E,A*38
$GPGGA,123539.00,4611.971576,N,01258.206434,E,1,05,1.4,137.39,M,46.25,M,,*69
$GPGLL,4611.971576,N,01258.206434,E,123539.00,A,A*66
$GPVTG,169.3,T,169.4,M,001.0,N,001.8,K,A*2C
$GPGSV,3,1,10,05,09,033,,16,39,308,40,31,21,216,38,18,24,144,*75
$GPGSV,3,2,10,29,36,080,39,30,43,157,,21,79,134,35,25,07,141,*7B
$GPGSV,3,3,10,03,18,282,31,06,34,282,38,,,,,,,,*7A
$GPGSA,M,3,16,31,29,21,06,,,,,,,,2.9,1.4,2.5*3C
Trace #44 at position 10.750000
$GPZDA,123538.04,06,10,2011,00,00*69
$GPRMC,123538.00,A,4611.971839,N,01258.206389,E,000.8,192.3,061011,0.2,E,A*38
$GPGGA,123539.00,4611.971576,N,01258.206434,E,1,05,1.4,137.39,M,46.25,M,,*69
$GPGLL,4611.971576,N,01258.206434,E,123539.00,A,A*66
$GPVTG,169.3,T,169.4,M,001.0,N,001.8,K,A*2C
$GPGSV,3,1,10,05,09,033,,16,39,308,40,31,21,216,38,18,24,144,*75
$GPGSV,3,2,10,29,36,080,39,30,43,157,,21,79,134,35,25,07,141,*7B
$GPGSV,3,3,10,03,18,282,31,06,34,282,38,,,,,,,,*7A
$GPGSA,M,3,16,31,29,21,06,,,,,,,,2.9,1.4,2.5*3C
Trace #45 at position 11.000000
$GPZDA,123539.03,06,10,2011,00,00*6F
$GPRMC,123539.00,A,4611.971576,N,01258.206434,E,001.0,169.3,061011,0.2,E,A*33
$GPGGA,123540.00,4611.971333,N,01258.206523,E,1,05,1.4,137.39,M,46.25,M,,*67
$GPGLL,4611.971333,N,01258.206523,E,123540.00,A,A*68
$GPVTG,175.0,T,175.1,M,000.7,N,001.3,K,A*27
$GPGSV,3,1,10,05,09,033,,16,39,308,40,31,21,216,37,18,24,144,*7A
$GPGSV,3,2,10,29,36,080,38,30,43,157,,21,79,134,35,25,07,141,*7A
$GPGSV,3,3,10,03,18,282,32,06,34,282,38,,,,,,,,*79
$GPGSA,M,3,16,31,29,21,06,,,,,,,,2.9,1.4,2.5*3C
Trace #46 at position 11.250000
$GPZDA,123539.03,06,10,2011,00,00*6F
$GPRMC,123539.00,A,4611.971576,N,01258.206434,E,001.0,169.3,061011,0.2,E,A*33
$GPGGA,123540.00,4611.971333,N,01258.206523,E,1,05,1.4,137.39,M,46.25,M,,*67
$GPGLL,4611.971333,N,01258.206523,E,123540.00,A,A*68
$GPVTG,175.0,T,175.1,M,000.7,N,001.3,K,A*27
$GPGSV,3,1,10,05,09,033,,16,39,308,40,31,21,216,37,18,24,144,*7A
$GPGSV,3,2,10,29,36,080,38,30,43,157,,21,79,134,35,25,07,141,*7A
$GPGSV,3,3,10,03,18,282,32,06,34,282,38,,,,,,,,*79
$GPGSA,M,3,16,31,29,21,06,,,,,,,,2.9,1.4,2.5*3C
Trace #47 at position 11.500000
$GPZDA,123540.03,06,10,2011,00,00*61
$GPRMC,123540.00,A,4611.971333,N,01258.206523,E,000.7,175.0,061011,0.2,E,A*35
$GPGGA,123541.00,4611.971108,N,01258.206638,E,1,05,1.4,137.44,M,46.25,M,,*6F
$GPGLL,4611.971108,N,01258.206638,E,123541.00,A,A*6A
$GPVTG,159.6,T,159.8,M,000.9,N,001.7,K,A*22
$GPGSV,3,1,10,05,09,033,,16,39,308,40,31,21,216,38,18,24,144,*75
$GPGSV,3,2,10,29,36,080,38,30,43,157,,21,80,134,35,25,07,141,*7C
$GPGSV,3,3,10,03,19,282,31,06,34,282,38,,,,,,,,*7B
$GPGSA,M,3,16,31,29,21,06,,,,,,,,2.9,1.4,2.5*3C
Trace #48 at position 11.750000
$GPZDA,123541.03,06,10,2011,00,00*60
$GPRMC,123541.00,A,4611.971108,N,01258.206638,E,000.9,159.6,061011,0.2,E,A*31
$GPGGA,123542.00,4611.970863,N,01258.206782,E,1,05,1.4,137.50,M,46.25,M,,*6C
$GPGLL,4611.970863,N,01258.206782,E,123542.00,A,A*6C
$GPVTG,163.9,T,164.0,M,000.9,N,001.7,K,A*22
$GPGSV,3,1,10,05,09,033,,16,39,308,41,31,21,216,38,18,24,144,*74
$GPGSV,3,2,10,29,36,080,38,30,43,157,,21,80,134,36,25,07,141,*7F
$GPGSV,3,3,10,03,19,282,31,06,34,282,38,,,,,,,,*7B
$GPGSA,M,3,16,31,29,21,06,,,,,,,,2.9,1.4,2.5*3C
Trace #49 at position 12.000000
$GPZDA,123541.03,06,10,2011,00,00*60
$GPRMC,123541.00,A,4611.971108,N,01258.206638,E,000.9,159.6,061011,0.2,E,A*31
$GPGGA,123542.00,4611.970863,N,01258.206782,E,1,05,1.4,137.50,M,46.25,M,,*6C
$GPGLL,4611.970863,N,01258.206782,E,123542.00,A,A*6C
$GPVTG,163.9,T,164.0,M,000.9,N,001.7,K,A*22
$GPGSV,3,1,10,05,09,033,,16,39,308,41,31,21,216,38,18,24,144,*74
$GPGSV,3,2,10,29,36,080,38,30,43,157,,21,80,134,36,25,07,141,*7F
$GPGSV,3,3,10,03,19,282,31,06,34,282,38,,,,,,,,*7B
$GPGSA,M,3,16,31,29,21,06,,,,,,,,2.9,1.4,2.5*3C
Trace #50 at position 12.250000
$GPZDA,123542.03,06,10,2011,00,00*63
$GPRMC,123542.00,A,4611.970863,N,01258.206782,E,000.9,163.9,061011,0.2,E,A*31
$GPGGA,123543.00,4611.970629,N,01258.206862,E,1,05,1.4,137.52,M,46.25,M,,*6E
$GPGLL,4611.970629,N,01258.206862,E,123543.00,A,A*6C
$GPVTG,179.9,T,180.0,M,000.8,N,001.6,K,A*23
$GPGSV,3,1,10,05,09,033,,16,39,308,41,31,21,216,38,18,24,144,*74
$GPGSV,3,2,10,29,36,080,39,30,43,157,,21,80,134,36,25,07,141,*7E
$GPGSV,3,3,10,03,19,282,32,06,34,282,38,,,,,,,,*78
$GPGSA,M,3,16,31,29,21,06,,,,,,,,2.9,1.4,2.5*3C
Trace #51 at position 12.500000
$GPZDA,123543.03,06,10,2011,00,00*62
$GPRMC,123543.00,A,4611.970629,N,01258.206862,E,000.8,179.9,061011,0.2,E,A*3B
$GPGGA,123544.00,4611.970399,N,01258.206996,E,99,N,01258.206996,E,123544.00,A,A*6F
$GPVTG,146.6,T,146.7,M,001.0,N,001.8,K,A*2A
$GPGSV,3,1,10,05,09,033,,16,39,308,40,31,21,216,38,18,24,144,*75
$GPGSV,3,2,10,29,36,080,39,30,43,157,,21,80,134,35,25,07,141,*7D
$GPGSV,3,3,10,03,19,282,31,06,34,282,37,,,,,,,,*74
$GPGSA,M,3,16,31,29,21,06,,,,,,,,2.9,1.4,2.5*3C
Trace #52 at position 12.750000
$GPZDA,123543.03,06,10,2011,00,00*62
$GPRMC,123543.00,A,4611.970629,N,01258.206862,E,000.8,179.9,061011,0.2,E,A*3B
$GPGGA,123544.00,4611.970399,N,01258.206996,E,99,N,01258.206996,E,123544.00,A,A*6F
$GPVTG,146.6,T,146.7,M,001.0,N,001.8,K,A*2A
$GPGSV,3,1,10,05,09,033,,16,39,308,40,31,21,216,38,18,24,144,*75
$GPGSV,3,2,10,29,36,080,39,30,43,157,,21,80,134,35,25,07,141,*7D
$GPGSV,3,3,10,03,19,282,31,06,34,282,37,,,,,,,,*74
$GPGSA,M,3,16,31,29,21,06,,,,,,,,2.9,1.4,2.5*3C
Trace #53 at position 13.000000
$GPZDA,123544.03,06,10,2011,00,00*65
$GPRMC,123544.00,A,4611.970399,N,01258.206996,E,001.0,146.6,061011,0.2,E,A*32
$GPGGA,123545.00,4611.970156,N,01258.207113,E,1,05,1.4,137.62,M,46.25,M,,*6A
$05,09,033,,16,39,308,40,31,21,216,39,18,24,144,*74
$GPGSV,3,2,10,29,36,080,38,30,43,157,,21,80,134,35,25,07,141,*7C
$GPGSV,3,3,10,03,19,282,31,06,34,282,38,,,,,,,,*7B
$GPGSA,M,3,16,31,29,21,06,,,,,,,,2.9,1.4,2.5*3C
Trace #54 at position 13.250000
$GPZDA,123545.03,06,10,2011,00,00*64
$GPRMC,123545.00,A,4611.970156,N,01258.207113,E,001.0,183.2,061011,0.2,E,A*3B
$GPGGA,123546.00,4611.969827,N,01258.207020,E,1,05,1.4,137.95,M,46.25,M,,*67
$GPGLL,4611.969827,N,01258.207020,E,123546.00,A,A*6E
$GPVTG,200.6,T,200.7,M,001.7,N,003.2,K,A*2506,34,282,38,,,,,,,,*7A
$GPGSA,M,3,16,31,29,21,06,,,,,,,,2.9,1.4,2.5*3C
Trace #55 at position 13.500000
$GPZDA,123545.03,06,10,2011,00,00*64
$GPRMC,123545.00,A,4611.970156,N,01258.207113,E,001.0,183.2,061011,0.2,E,A*3B
$GPGGA,123546.00,4611.969827,N,01258.207020,E,1,05,1.4,137.95,M,46.25,M,,*67
$GPGLL,4611.969827,N,01258.207020,E,123546.00,A,A*6E
$GPVTG,200.6,T,200.7,M,001.7,N,003.2,K,A*2506,34,282,38,,,,,,,,*7A
$GPGSA,M,3,16,31,29,21,06,,,,,,,,2.9,1.4,2.5*3C
Trace #56 at position 13.750000
$GPZDA,123545.03,06,10,2011,00,00*64
$GPRMC,123545.00,A,4611.970156,N,01258.207113,E,001.0,183.2,061011,0.2,E,A*3B
$GPGGA,123546.00,4611.969827,N,01258.207020,E,1,05,1.4,137.95,M,46.25,M,,*67
$GPGLL,4611.969827,N,01258.207020,E,123546.00,A,A*6E
$GPVTG,200.6,T,200.7,M,001.7,N,003.2,K,A*2506,34,282,38,,,,,,,,*7A
$GPGSA,M,3,16,31,29,21,06,,,,,,,,2.9,1.4,2.5*3C
Trace #57 at position 14.000000
$GPZDA,123546.03,06,10,2011,00,00*67
$GPRMC,123546.00,A,4611.969827,N,01258.207020,E,001.7,200.6,061011,0.2,E,A*35
$GPGGA,123547.00,4611.969574,N,01258.207063,E,1,05,1.4,138.24,M,46.25,M,,*6F
$GPGLL,4611.969574,N,01258.207063,E,123547.00,A,A*63
$GPVTG,133.5,T,133.7,M,000.8,N,001.5,K,A*2D
$GPGSV,3,1,10,05,09,033,,16,39,308,41,31,21,216,37,18,24,144,*7B
$GPGSV,3,2,10,29,36,080,39,30,43,157,,21,80,134,33,25,07,141,*7B
$GPGSV,3,3,1,2.5*3C
$GPZDA,123547.03,06,10,2011,00,00*66
$GPRMC,123547.00,A,4611.969574,N,01258.207063,E,000.8,133.5,061011,0.2,E,A*36
$GPGGA,123548.00,4611.969428,N,01258.207266,E,1,05,1.4,138.10,M,46.25,M,,*68
$GPGLL,4611.969428,N,01258.207266,E,123548.00,A,A*63
$GPVTG,160.6,T,160.7,M,000.9,N,001.6,K,A*2C
$GPGSV,3,1,10,05,09,033,,16,39,308,41,31,21,216,38,18,24,144,*74
$GPGSV,3,2,10,29,36,080,38,30,43,157,,21,80,134,33,25,07,141,*7A
$GPGSV,3,3,10,03,19,282,,06,34,282,37,,,,,,,,*76
$GPGSA,M,3,16,31,29,21,06,,MC,123548.00,A,4611.969428,N,01258.207266,E,000.9,160.6,061011,0.2,E,A*32
Trace #58 at position 14.250000
$GPGGA,123549.00,4611.969256,N,01258.207415,E,1,05,1.4,137.93,M,46.25,M,,*60
$GPGLL,4611.969256,N,01258.207415,E,123549.00,A,A*6F
$GPVTG,156.0,T,156.2,M,000.8,N,001.5,K,A*2D
$GPGSV,3,1,10,05,09,033,,16,39,308,40,31,21,216,37,18,24,144,*7A
$GPGSV,3,2,10,29,36,080,38,30,43,157,,21,80,134,34,25,07,141,*7D
$GPGSV,3,3,10,03,19,282,,06,34,282,38,,,,,,,,*79
$GPGSA,M,3,16,31,29,21,06,,,,,,,,2.9,1.4,2.5*3C
Trace #59 at position 14.500000
$GPZDA,123549.03,06,10,2011,0$GPGGA,123550.00,4611.969083,N,01258.207482,E,1,05,1.4,137.81,M,46.25,M,,*6F
$GPGLL,4611.969083,N,01258.207482,E,123550.00,A,A*63
$GPVTG,189.5,T,189.7,M,000.8,N,001.5,K,A*2D
$GPGSV,3,1,10,05,09,033,,16,39,308,40,31,21,216,38,18,24,144,*75
$GPGSV,3,2,10,29,36,080,39,30,43,157,,21,80,134,34,25,07,141,*7C
$GPGSV,3,3,10,03,19,282,29,06,34,282,38,,,,,,,,*72
$GPGSA,M,3,16,31,29,21,06,,,,,,,,2.9,1.4,2.5*3C
Trace #60 at position 14.750000
$GPZDA,123549.03,06,10,2011,0$GPGGA,123550.00,4611.969083,N,01258.207482,E,1,05,1.4,137.81,M,46.25,M,,*6F
$GPGLL,4611.969083,N,01258.207482,E,123550.00,A,A*63
$GPVTG,189.5,T,189.7,M,000.8,N,001.5,K,A*2D
$GPGSV,3,1,10,05,09,033,,16,39,308,40,31,21,216,38,18,24,144,*75
$GPGSV,3,2,10,29,36,080,39,30,43,157,,21,80,134,34,25,07,141,*7C
$GPGSV,3,3,10,03,19,282,29,06,34,282,38,,,,,,,,*72
$GPGSA,M,3,16,31,29,21,06,,,,,,,,2.9,1.4,2.5*3C
Trace #61 at position 15.000000
$GPZDA,123550.03,06,10,2011,00,00*60
$GPRMC,123550.00,A,4611.969083,N,01258.207482,E,000.8,189.5,0610$GPGGA,123551.00,4611.968912,N,01258.207566,E,1,05,1.4,137.67,M,46.25,M,,*6D
$GPGLL,4611.968912,N,01258.207566,E,123551.00,A,A*69
$GPVTG,151.5,T,151.7,M,000.8,N,001.5,K,A*2D
$GPGSV,3,1,10,05,09,033,,16,39,308,41,31,21,216,38,18,24,144,*74
$GPGSV,3,2,10,29,36,080,39,30,43,157,,21,80,134,34,25,07,141,*7C
$GPGSV,3,3,10,03,19,282,,06,34,282,38,,,,,,,,*79
$GPGSA,M,3,16,31,29,21,06,,,,,,,,2.9,1.4,2.5*3C
Trace #62 at position 15.250000
$GPZDA,123551.03,06,10,2011,00,00*61
$GPRMC,123551.00,A,4611.968912,N,01258.207566,E,000.8,151.5,061011$GPGGA,123552.00,4611.968720,N,01258.207719,E,1,05,1.4,137.61,M,46.25,M,,*6D
$GPGLL,4611.968720,N,01258.207719,E,123552.00,A,A*6F
$GPVTG,164.3,T,164.5,M,001.0,N,001.8,K,A*2D
$GPGSV,3,1,10,05,09,033,,16,39,308,41,31,21,216,38,18,24,144,*74
$GPGSV,3,2,10,29,36,080,38,30,43,157,,21,80,134,33,25,07,141,*7A
$GPGSV,3,3,10,03,19,282,,06,34,282,38,,,,,,,,*79
$GPGSA,M,3,16,31,29,21,06,,,,,,,,2.9,1.4,2.5*3C
Trace #63 at position 15.500000
$GPZDA,123551.03,06,10,2011,00,00*61
$GPRMC,123551.00,A,4611.968912,N,01258.207566,E,000.8,151.5,061011$GPGGA,123552.00,4611.968720,N,01258.207719,E,1,05,1.4,137.61,M,46.25,M,,*6D
$GPGLL,4611.968720,N,01258.207719,E,123552.00,A,A*6F
$GPVTG,164.3,T,164.5,M,001.0,N,001.8,K,A*2D
$GPGSV,3,1,10,05,09,033,,16,39,308,41,31,21,216,38,18,24,144,*74
$GPGSV,3,2,10,29,36,080,38,30,43,157,,21,80,134,33,25,07,141,*7A
$GPGSV,3,3,10,03,19,282,,06,34,282,38,,,,,,,,*79
$GPGSA,M,3,16,31,29,21,06,,,,,,,,2.9,1.4,2.5*3C
Trace #64 at position 15.750000
$GPZDA,123552.03,06,10,2011,00,00*62
$GPRMC,123552.00,A,4611.968720,N,01258.207719,E,001.0,164.3,061011$GPGGA,123553.00,4611.968524,N,01258.207822,E,1,05,1.4,137.77,M,46.25,M,,*6A
$GPGLL,4611.968524,N,01258.207822,E,123553.00,A,A*6F
$GPVTG,167.8,T,168.0,M,000.7,N,001.3,K,A*21
$GPGSV,3,1,10,05,09,033,,16,39,308,41,31,21,216,37,18,24,144,*7B
$GPGSV,3,2,10,29,36,080,39,30,43,157,,21,80,134,32,25,07,141,*7A
$GPGSV,3,3,10,03,19,282,,06,34,282,38,,,,,,,,*79
$GPGSA,M,3,16,31,29,21,06,,,,,,,,2.9,1.4,2.5*3C
Trace #65 at position 16.000000
$GPZDA,123552.03,06,10,2011,00,00*62
$GPRMC,123552.00,A,4611.968720,N,01258.207719,E,001.0,164.3,061011$GPGGA,123553.00,4611.968524,N,01258.207822,E,1,05,1.4,137.77,M,46.25,M,,*6A
$GPGLL,4611.968524,N,01258.207822,E,123553.00,A,A*6F
$GPVTG,167.8,T,168.0,M,000.7,N,001.3,K,A*21
$GPGSV,3,1,10,05,09,033,,16,39,308,41,31,21,216,37,18,24,144,*7B
$GPGSV,3,2,10,29,36,080,39,30,43,157,,21,80,134,32,25,07,141,*7A
$GPGSV,3,3,10,03,19,282,,06,34,282,38,,,,,,,,*79
$GPGSA,M,3,16,31,29,21,06,,,,,,,,2.9,1.4,2.5*3C
Trace #66 at position 16.250000
$GPZDA,123553.04,06,10,2011,00,00*64
$GPRMC,123553.00,A,4611.968524,N,01258.207822,E,000.7,167.8,061011$GPGGA,123554.00,4611.968374,N,01258.207915,E,1,05,1.4,137.83,M,46.25,M,,*60
$GPGLL,4611.968374,N,01258.207915,E,123554.00,A,A*6E
$GPVTG,159.1,T,159.2,M,000.6,N,001.2,K,A*25
$GPGSV,3,1,10,05,09,033,,16,39,308,41,31,21,216,38,18,24,144,*74
$GPGSV,3,2,10,29,36,080,39,30,43,157,,21,80,134,33,25,07,141,*7B
$GPGSV,3,3,10,03,19,282,,06,34,282,37,,,,,,,,*76
$GPGSA,M,3,16,31,29,21,06,,,,,,,,2.9,1.4,2.5*3C
Trace #67 at position 16.500000
$GPZDA,123554.03,06,10,2011,00,00*64
$GPRMC,123554.00,A,4611.968374,N,01258.207915,E,000.6,159.1,0610111258.208021,E,1,05,1.4,137.81,M,46.25,M,,*6E
$GPGLL,4611.968268,N,01258.208021,E,123555.00,A,A*62
$GPVTG,143.7,T,143.9,M,000.4,N,000.8,K,A*21
$GPGSV,3,1,10,05,09,033,,16,39,308,41,31,21,216,38,18,24,144,*74
$GPGSV,3,2,10,29,36,080,39,30,43,157,,21,80,134,34,25,07,141,*7C
$GPGSV,3,3,10,03,19,282,31,06,34,282,38,,,,,,,,*7B
$GPGSA,M,3,16,31,29,21,06,,,,,,,,2.9,1.4,2.5*3C
Trace #68 at position 16.750000
$GPZDA,123555.03,06,10,2011,00,00*65
$GPRMC,123555.00,A,4611.968268,N,01258.208021,E,000.4,143.7,061011,0.2,E,A*3E
$GPGGA,123556.00,N,01258.208120,E,123556.00,A,A*66
$GPVTG,161.6,T,161.8,M,000.7,N,001.4,K,A*2F
$GPGSV,3,1,10,05,09,033,,16,39,308,41,31,21,216,38,18,24,144,*74
$GPGSV,3,2,10,29,36,080,38,30,43,157,,21,80,134,34,25,07,141,*7D
$GPGSV,3,3,10,03,19,282,31,06,34,282,38,,,,,,,,*7B
$GPGSA,M,3,16,31,29,21,06,,,,,,,,2.9,1.4,2.5*3C
Trace #69 at position 17.000000
$GPZDA,123555.03,06,10,2011,00,00*65
$GPRMC,123555.00,A,4611.968268,N,01258.208021,E,000.4,143.7,061011,0.2,E,A*3E
$GPGGA,123556.00,N,01258.208120,E,123556.00,A,A*66
$GPVTG,161.6,T,161.8,M,000.7,N,001.4,K,A*2F
$GPGSV,3,1,10,05,09,033,,16,39,308,41,31,21,216,38,18,24,144,*74
$GPGSV,3,2,10,29,36,080,38,30,43,157,,21,80,134,34,25,07,141,*7D
$GPGSV,3,3,10,03,19,282,31,06,34,282,38,,,,,,,,*7B
$GPGSA,M,3,16,31,29,21,06,,,,,,,,2.9,1.4,2.5*3C
Trace #70 at position 17.250000
$GPZDA,123556.03,06,10,2011,00,00*66
$GPRMC,123556.00,A,4611.968139,N,01258.208120,E,000.7,161.6,061011,0.2,E,A*38
$GPGGA,123557.00,4611.967917,N,01258.208268,E,1,05,1.4,137.92,M,46.25,M,,*6D
$GPG09,033,,16,39,308,40,31,21,216,38,18,24,144,*75
$GPGSV,3,2,10,29,36,080,39,30,43,157,,21,80,134,34,25,07,141,*7C
$GPGSV,3,3,10,03,19,282,31,06,34,282,37,,,,,,,,*74
$GPGSA,M,3,16,31,29,21,06,,,,,,,,2.9,1.4,2.5*3C
Trace #71 at position 17.500000
$GPZDA,123556.03,06,10,2011,00,00*66
$GPRMC,123556.00,A,4611.968139,N,01258.208120,E,000.7,161.6,061011,0.2,E,A*38
$GPGGA,123557.00,4611.967917,N,01258.208268,E,1,05,1.4,137.92,M,46.25,M,,*6D
$GPG09,033,,16,39,308,40,31,21,216,38,18,24,144,*75
$GPGSV,3,2,10,29,36,080,39,30,43,157,,21,80,134,34,25,07,141,*7C
$GPGSV,3,3,10,03,19,282,31,06,34,282,37,,,,,,,,*74
$GPGSA,M,3,16,31,29,21,06,,,,,,,,2.9,1.4,2.5*3C
Trace #72 at position 17.750000
$GPZDA,123557.03,06,10,2011,00,00*67
$GPRMC,123557.00,A,4611.967917,N,01258.208268,E,001.2,152.2,061011,0.2,E,A*3D
$GPGGA,,,,,,0,04,,,M,,M,,*62
$GPGLL,,,,,,V,N*64
$GPVTG,,T,,,,N,,K,N*61
$GPGSV,3,1,10,05,09,033,,16,39,308,40,31,21,216,39,18,24,144,*74
$GPGSV,3,2,10,29,36,080,38,30,43,157,,2,,,,,,N*7A
$GPGGA,123559.00,4611.967523,N,01258.208585,E,1,05,1.4,138.02,M,46.25,M,,*6A
$GPGLL,4611.967523,N,01258.208585,E,123559.00,A,A*62
$GPVTG,145.2,T,145.3,M,000.6,N,001.1,K,A*24
$GPGSV,3,1,10,05,09,033,,16,39,308,40,31,21,216,38,18,24,144,*75
$GPGSV,3,2,10,29,36,080,38,30,43,157,,21,80,133,33,25,07,141,*7D
$GPGSV,3,3,10,03,19,282,30,06,34,282,38,,,,,,,,*7A
$GPGSA,M,3,16,31,29,21,06,,,,,,,,2.9,1.4,2.5*3C
Trace #73 at position 18.000000
$GPZDA,123557.03,06,10,2011,00,00*67
$GPRMC,123557.00,A,4611.967917,N,01258.208268,E,001.2,152.2,061011,0.2,E,A*3D
$GPGGA,,,,,,0,04,,,M,,M,,*62
$GPGLL,,,,,,V,N*64
$GPVTG,,T,,,,N,,K,N*61
$GPGSV,3,1,10,05,09,033,,16,39,308,40,31,21,216,39,18,24,144,*74
$GPGSV,3,2,10,29,36,080,38,30,43,157,,2,,,,,,N*7A
$GPGGA,123559.00,4611.967523,N,01258.208585,E,1,05,1.4,138.02,M,46.25,M,,*6A
$GPGLL,4611.967523,N,01258.208585,E,123559.00,A,A*62
$GPVTG,145.2,T,145.3,M,000.6,N,001.1,K,A*24
$GPGSV,3,1,10,05,09,033,,16,39,308,40,31,21,216,38,18,24,144,*75
$GPGSV,3,2,10,29,36,080,38,30,43,157,,21,80,133,33,25,07,141,*7D
$GPGSV,3,3,10,03,19,282,30,06,34,282,38,,,,,,,,*7A
$GPGSA,M,3,16,31,29,21,06,,,,,,,,2.9,1.4,2.5*3C
Trace #74 at position 18.250000
$GPZDA,123559.03,06,10,2011,00,00*69
$GPRMC,123559.00,A,4611.967523,N,01258.208585,E,000.6,145.2,061011,0.2,E,A*3F
$GPGGA,123600.00,4611.967356,N,01258.208645,E,1,05,1.4,137.96,M,46.25,M,,*6C
$GPGLL,4611.967356,N,01258.208645,E,123600.00,A,A*66
$GPVTG,173.6,T,173.8,M,000.9,N,001.6,K,A*23
$GPGSV,3,1,10,05,09,033,,16,39,308,40,31,21,216,38,18,24,144,*75
$GPGSV,3,2,10,29,36,080,39,30,43,157,,21,80,133,34,25,07,141,*7B
$GPGSV,3,3,10,03,19,282,30,06,34,282,38,,,,,,,,*7A
$GPGSA,M,3,16,31,29,21,06,,,,,,,,2.9,1.4,2.5*3C
Trace #75 at position 18.500000
$GPZDA,123600.03,06,10,2011,00,00*66
$GPRMC,123600.00,A,4611.967356,N,0125$GPGGA,123601.00,4611.967114,N,01258.208667,E,1,05,1.4,138.22,M,46.25,M,,*69
$GPGLL,4611.967114,N,01258.208667,E,123601.00,A,A*63
$GPVTG,175.2,T,175.4,M,001.0,N,001.8,K,A*2D
$GPGSV,3,1,10,05,09,033,,16,39,308,40,31,21,216,38,18,24,144,*75
$GPGSV,3,2,10,29,36,080,38,30,43,157,,21,80,133,32,25,07,141,*7C
$GPGSV,3,3,10,03,19,282,31,06,34,282,37,,,,,,,,*74
$GPGSA,M,3,16,31,29,21,06,,,,,,,,2.9,1.4,2.5*3C
Trace #76 at position 18.750000
$GPZDA,123601.03,06,10,2011,00,00*67
$GPRMC,123601.00,A,4611.967114,N,01258.208667,E,001.0,175.2,0610$GPGGA,123602.00,4611.966916,N,01258.208699,E,1,05,1.4,138.72,M,46.25,M,,*65
$GPGLL,4611.966916,N,01258.208699,E,123602.00,A,A*6A
$GPVTG,165.7,T,165.8,M,000.6,N,001.0,K,A*2B
$GPGSV,3,1,10,05,09,033,,16,39,308,40,31,21,216,38,18,24,144,*75
$GPGSV,3,2,10,29,36,080,39,30,43,157,,21,80,133,,25,07,141,*7C
$GPGSV,3,3,10,03,19,282,31,06,34,282,35,,,,,,,,*76
$GPGSA,M,3,16,31,29,21,06,,,,,,,,2.9,1.4,2.5*3C
Trace #77 at position 19.000000
$GPZDA,123602.03,06,10,2011,00,00*64
$GPRMC,123602.00,A,4611.966916,N,01258.208699,E,000.6,165.7,061011$GPGGA,,,,,,0,04,,,M,,M,,*62
$GPGLL,,,,,,V,N*64
$GPVTG,,T,,,,N,,K,N*61
$GPGSV,3,1,10,05,09,033,,16,39,308,40,31,21,216,38,18,24,144,*75
$GPGSV,3,2,10,29,36,080,40,30,43,157,,21,80,133,,25,07,141,*72
$GPGSV,3,3,10,03,19,282,29,06,34,282,34,,,,,,,,*7E
$GPGSA,M,1,,,,,,,,,,,,,2.9,1.4,2.5*35
Trace #78 at position 19.250000
$GPZDA,123602.03,06,10,2011,00,00*64
$GPRMC,123602.00,A,4611.966916,N,01258.208699,E,000.6,165.7,061011$GPGGA,,,,,,0,04,,,M,,M,,*62
$GPGLL,,,,,,V,N*64
$GPVTG,,T,,,,N,,K,N*61
$GPGSV,3,1,10,05,09,033,,16,39,308,40,31,21,216,38,18,24,144,*75
$GPGSV,3,2,10,29,36,080,40,30,43,157,,21,80,133,,25,07,141,*72
$GPGSV,3,3,10,03,19,282,29,06,34,282,34,,,,,,,,*7E
$GPGSA,M,1,,,,,,,,,,,,,2.9,1.4,2.5*35
Trace #79 at position 19.500000
$GPZDA,123603.02,06,10,2011,00,00*64
$GPRMC,123602.00,V,,,,,,,,,,N*79
$GPGGA,,,,,,0,04,,,M,,M,,*62
$GPGLL,,,,,,V,N*64
$GPVTG,,T,,,,N,,K,N*61
$GPGSV,3,1,10,05,09,033,,16,39,308,41,31,21,216,38,18,24,144,*74
$GPGSV,3,2,10,29,36,080,39,30,43,157,,21,80,133,33,25,07,141,*7C
$GPGSV,3,3,10,03,19,282,31,06,34,282,35,,,,,,,,*76
$GPGSA,M,1,,,,,,,,,,,,,2.9,1.4,2.5*35
Trace #80 at position 19.750000
$GPZDA,123604.02,06,10,2011,00,00*63
$GPRMC,123602.00,V,,,,,,,,,,N*79
$GPGGA,,,,,,0,04,,,M,,M,,*62
$GPGLL,,,,,,V,N*64
$GPVTG,,T,,,,N,,K,N*61
$GPGSV,3,1,10,05,09,033,,16,39,308,40,31,21,216,38,18,24,144,*75
$GPGSV,3,2,10,29,36,080,40,30,43,157,,21,80,133,,25,07,141,*72
$GPGSV,3,3,10,03,19,282,31,06,34,282,36,,,,,,,,*75
$GPGSA,M,1,,,,,,,,,,,,,2.9,1.4,2.5*35
Trace #81 at position 20.000000
$GPZDA,123605.02,06,10,2011,00,00*62
$GPRMC,123602.00,V,,,,,,,,,,N*79
$GPGGA,,,,,,0,04,,,M,,M,,*62
$GPGLL,,,,,,V,N*64
$GPVTG,,T,,,,N,,K,N*61
$GPGSV,3,1,10,05,09,033,,16,39,308,40,31,21,216,38,18,24,144,*75
$GPGSV,3,2,10,29,36,080,39,30,43,157,,21,80,133,,25,07,141,*7C
$GPGSV,3,3,10,03,19,282,30,06,34,282,36,,,,,,,,*74
$GPGSA,M,1,,,,,,,,,,,,,2.9,1.4,2.5*35
Trace #82 at position 20.250000
$GPZDA,123606.02,06,10,2011,00,00*61
$GPRMC,123602.00,V,,,,,,,,,,N*79
$GPGGA,,,,,,0,04,,,M,,M,,*62
$GPGLL,,,,,,V,N*64
$GPVTG,,T,,,,N,,K,N*61
$GPGSV,3,1,10,05,09,033,,16,39,308,40,31,21,216,38,18,24,144,*75
$GPGSV,3,2,10,29,36,080,40,30,43,157,,21,80,133,32,25,07,141,*73
$GPGSV,3,3,10,03,19,282,31,06,34,282,35,,,,,,,,*76
$GPGSA,M,1,,,,,,,,,,,,,2.9,1.4,2.5*35
Trace #83 at position 20.500000
$GPZDA,123607.02,06,10,2011,00,00*60
$GPRMC,123602.00,V,,,,,,,,,,N*79
$GPGGA,123608.00,4611.965894,N,01258.209105,E,1,05,1.4,138.06,M,46.25,M,,*67
$GPGLL,4611.965894,N,01258.209105,E,123608.00,A,A*6B
$GPVTG,161.7,T,161.9,M,000.5,N,001.0,K,A*29
$GPGSV,3,1,10,05,09,033,,16,39,308,40,31,21,216,38,18,24,144,*75
$GPGSV,3,2,10,29,36,080,38,30,43,157,,21,80,133,32,25,07,141,*7C
$GPGSV,3,3,10,03,19,282,26,06,34,282,35,,,,,,,,*70
$GPGSA,M,3,16,31,29,21,06,,,,,,,,2.9,1.4,2.5*3C
Trace #84 at position 20.750000
$GPZDA,123607.02,06,10,2011,00,00*60
$GPRMC,123602.00,V,,,,,,,,,,N*79
$GPGGA,123608.00,4611.965894,N,01258.209105,E,1,05,1.4,138.06,M,46.25,M,,*67
$GPGLL,4611.965894,N,01258.209105,E,123608.00,A,A*6B
$GPVTG,161.7,T,161.9,M,000.5,N,001.0,K,A*29
$GPGSV,3,1,10,05,09,033,,16,39,308,40,31,21,216,38,18,24,144,*75
$GPGSV,3,2,10,29,36,080,38,30,43,157,,21,80,133,32,25,07,141,*7C
$GPGSV,3,3,10,03,19,282,26,06,34,282,35,,,,,,,,*70
$GPGSA,M,3,16,31,29,21,06,,,,,,,,2.9,1.4,2.5*3C
Trace #85 at position 21.000000
$GPZDA,123608.04,06,10,2011,00,00*69
$GPRMC,123608.00,A,4611.965894,N,01258.209105,E,000.5,161.7,061011,0.2,E,A*36
$GPGGA,123609.00,4611.965719,N,01258.209189,E,1,05,1.4,138.05,M,46.25,M,,*6B
$GPGLL,4611.965719,N,01258.209189,E,123609.00,A,A*64
$GPVTG,153.0,T,153.1,M,001.0,N,001.9,K,A*2B
$GPGSV,3,1,10,05,09,033,,16,39,308,40,31,21,216,38,18,24,144,*75
$GPGSV,3,2,10,29,35,080,40,30,43,157,,21,80,133,33,25,07,141,*71
$GPGSV,3,3,10,03,19,282,32,06,34,282,37,,,,,,,,*77
$GPGSA,M,3,16,31,29,21,06,,,,,,,,2.9,1.4,2.5*3C
Trace #86 at position 21.250000
$GPZDA,123608.04,06,10,2011,00,00*69
$GPRMC,123608.00,A,4611.965894,N,01258.209105,E,000.5,161.7,061011,0.2,E,A*36
$GPGGA,123609.00,4611.965719,N,01258.209189,E,1,05,1.4,138.05,M,46.25,M,,*6B
$GPGLL,4611.965719,N,01258.209189,E,123609.00,A,A*64
$GPVTG,153.0,T,153.1,M,001.0,N,001.9,K,A*2B
$GPGSV,3,1,10,05,09,033,,16,39,308,40,31,21,216,38,18,24,144,*75
$GPGSV,3,2,10,29,35,080,40,30,43,157,,21,80,133,33,25,07,141,*71
$GPGSV,3,3,10,03,19,282,32,06,34,282,37,,,,,,,,*77
$GPGSA,M,3,16,31,29,21,06,,,,,,,,2.9,1.4,2.5*3C
Trace #87 at position 21.500000
$GPZDA,123609.03,06,10,2011,00,00*6F
$GPRMC,123609.00,A,4611.965719,N,01258.209189,E,001.0,153.0,061011,0.2,E,A*3B
$GPGGA,123610.00,4611.965559,N,01258.209316,E,1,05,1.4,137.95,M,46.25,M,,*67
$GPGLL,4611.965559,N,01258.209316,E,123610.00,A,A*6E
$GPVTG,147.2,T,147.4,M,000.4,N,000.8,K,A*29
$GPGSV,3,1,10,05,09,033,,16,39,308,40,31,21,216,35,18,24,144,*78
$GPGSV,3,2,10,29,35,080,40,30,43,157,,21,80,133,34,25,07,141,*76
$GPGSV,3,3,10,03,19,282,30,06,34,282,38,,,,,,,,*7A
$GPGSA,M,3,16,31,29,21,06,,,,,,,,2.9,1.4,2.5*3C
Trace #88 at position 21.750000
$GPZDA,123609.03,06,10,2011,00,00*6F
$GPRMC,123609.00,A,4611.965719,N,01258.209189,E,001.0,153.0,061011,0.2,E,A*3B
$GPGGA,123610.00,4611.965559,N,01258.209316,E,1,05,1.4,137.95,M,46.25,M,,*67
$GPGLL,4611.965559,N,01258.209316,E,123610.00,A,A*6E
$GPVTG,147.2,T,147.4,M,000.4,N,000.8,K,A*29
$GPGSV,3,1,10,05,09,033,,16,39,308,40,31,21,216,35,18,24,144,*78
$GPGSV,3,2,10,29,35,080,40,30,43,157,,21,80,133,34,25,07,141,*76
$GPGSV,3,3,10,03,19,282,30,06,34,282,38,,,,,,,,*7A
$GPGSA,M,3,16,31,29,21,06,,,,,,,,2.9,1.4,2.5*3C
Trace #89 at position 22.000000
$GPZDA,123610.03,06,10,2011,00,00*67
$GPRMC,123610.00,A,4611.965559,N,01258.209316,E,000.4,147.2,061011,0.2,E,A*33
$GPGGA,123611.00,4611.965403,N,01258.209402,E,1,05,1.4,137.93,M,46.25,M,,*6C
$GPGLL,4611.965403,N,01258.209402,E,123611.00,A,A*63
$GPVTG,163.3,T,163.4,M,000.8,N,001.5,K,A*28
$GPGSV,3,1,10,05,09,033,,16,39,308,40,31,21,216,39,18,24,144,*74
$GPGSV,3,2,10,29,35,080,39,30,43,157,,21,80,133,34,25,07,141,*78
$GPGSV,3,3,10,03,19,282,31,06,34,282,38,,,,,,,,*7B
$GPGSA,M,3,16,31,29,21,06,,,,,,,,2.9,1.4,2.5*3C
Trace #90 at position 22.250000
$GPZDA,123610.03,06,10,2011,00,00*67
$GPRMC,123610.00,A,4611.965559,N,01258.209316,E,000.4,147.2,061011,0.2,E,A*33
$GPGGA,123611.00,4611.965403,N,01258.209402,E,1,05,1.4,137.93,M,46.25,M,,*6C
$GPGLL,4611.965403,N,01258.209402,E,123611.00,A,A*63
$GPVTG,163.3,T,163.4,M,000.8,N,001.5,K,A*28
$GPGSV,3,1,10,05,09,033,,16,39,308,40,31,21,216,39,18,24,144,*74
$GPGSV,3,2,10,29,35,080,39,30,43,157,,21,80,133,34,25,07,141,*78
$GPGSV,3,3,10,03,19,282,31,06,34,282,38,,,,,,,,*7B
$GPGSA,M,3,16,31,29,21,06,,,,,,,,2.9,1.4,2.5*3C
Trace #91 at position 22.500000
$GPZDA,123611.03,06,10,2011,00,00*66
$GPRMC,123611.00,A,4611.965403,N,01258.209402,E,000.8,163.3,061011,0.2,E,A*35
$GPGGA,123612.00,4611.965207,N,01258.209455,E,1,05,1.4,137.88,M,46.25,M,,*65
$GPGLL,4611.965207,N,01258.209455,E,123612.00,A,A*60
$GPVTG,175.1,T,175.3,M,000.6,N,001.2,K,A*24
$GPGSV,3,1,10,05,09,033,,16,39,308,40,31,21,216,38,18,24,144,*75
$GPGSV,3,2,10,29,35,080,39,30,43,157,,21,80,133,34,25,07,141,*78
$GPGSV,3,3,10,03,19,282,30,06,34,282,38,,,,,,,,*7A
$GPGSA,M,3,16,31,29,21,06,,,,,,,,2.9,1.4,2.5*3C
Trace #92 at position 22.750000
$GPZDA,123612.03,06,10,2011,00,00*65
$GPRMC,123612.00,A,4611.965207,N,01258.209455,E,000.6,175.1,061011,0.2,E,A*3D
$GPGGA,123613.00,4611.964977,N,01258.209648,E,1,05,1.4,137.82,M,46.25,M,,*6D
$GPGLL,4611.964977,N,01258.209648,E,123613.00,A,A*62
$GPVTG,136.9,T,137.1,M,001.5,N,002.7,K,A*2B
$GPGSV,3,1,10,05,09,033,,16,39,308,41,31,21,216,38,18,24,144,*74
$GPGSV,3,2,10,29,35,080,39,30,43,157,,21,80,133,34,25,07,141,*78
$GPGSV,3,3,10,03,19,282,30,06,34,282,37,,,,,,,,*75
$GPGSA,M,3,16,31,29,21,06,,,,,,,,2.9,1.4,2.5*3C
Trace #93 at position 23.000000
$GPZDA,123612.03,06,10,2011,00,00*65
$GPRMC,123612.00,A,4611.965207,N,01258.209455,E,000.6,175.1,061011,0.2,E,A*3D
$GPGGA,123613.00,4611.964977,N,01258.209648,E,1,05,1.4,137.82,M,46.25,M,,*6D
$GPGLL,4611.964977,N,01258.209648,E,123613.00,A,A*62
$GPVTG,136.9,T,137.1,M,001.5,N,002.7,K,A*2B
$GPGSV,3,1,10,05,09,033,,16,39,308,41,31,21,216,38,18,24,144,*74
$GPGSV,3,2,10,29,35,080,39,30,43,157,,21,80,133,34,25,07,141,*78
$GPGSV,3,3,10,03,19,282,30,06,34,282,37,,,,,,,,*75
$GPGSA,M,3,16,31,29,21,06,,,,,,,,2.9,1.4,2.5*3C
Trace #94 at position 23.250000
$GPZDA,123613.03,06,10,2011,00,00*64
$GPRMC,123613.00,A,4611.964977,N,01258.209648,E,001.5,136.9,061011,0.2,E,A*32
$GPGGA,123614.00,4611.964775,N,01258.209874,E,1,05,1.4,137.80,M,46.25,M,,*65
$GPGLL,4611.964775,N,01258.209874,E,123614.00,A,A*68
$GPVTG,140.5,T,140.7,M,000.5,N,000.9,K,A*2D
$GPGSV,3,1,10,05,09,033,,16,39,308,41,31,21,216,38,18,24,144,*74
$GPGSV,3,2,10,29,35,080,39,30,43,157,,21,80,133,35,25,07,141,*79
$GPGSV,3,3,10,03,19,282,30,06,34,282,38,,,,,,,,*7A
$GPGSA,M,3,16,31,29,21,06,,,,,,,,2.9,1.4,2.5*3C
Trace #95 at position 23.500000
$GPZDA,123613.03,06,10,2011,00,00*64
$GPRMC,123613.00,A,4611.964977,N,01258.209648,E,001.5,136.9,061011,0.2,E,A*32
$GPGGA,123614.00,4611.964775,N,01258.209874,E,1,05,1.4,137.80,M,46.25,M,,*65
$GPGLL,4611.964775,N,01258.209874,E,123614.00,A,A*68
$GPVTG,140.5,T,140.7,M,000.5,N,000.9,K,A*2D
$GPGSV,3,1,10,05,09,033,,16,39,308,41,31,21,216,38,18,24,144,*74
$GPGSV,3,2,10,29,35,080,39,30,43,157,,21,80,133,35,25,07,141,*79
$GPGSV,3,3,10,03,19,282,30,06,34,282,38,,,,,,,,*7A
$GPGSA,M,3,16,31,29,21,06,,,,,,,,2.9,1.4,2.5*3C
Trace #96 at position 23.750000
$GPZDA,123614.03,06,10,2011,00,00*63
$GPRMC,123614.00,A,4611.964775,N,01258.209874,E,000.5,140.5,061011,0.2,E,A*34
$GPGGA,123615.00,4611.964680,N,01258.209908,E,1,05,1.4,137.33,M,46.25,M,,*6D
$GPGLL,4611.964680,N,01258.209908,E,123615.00,A,A*68
$GPVTG,180.6,T,180.7,M,000.2,N,000.4,K,A*24
$GPGSV,3,1,10,05,09,033,,16,39,308,41,31,20,216,38,18,24,144,*75
$GPGSV,3,2,10,29,35,080,40,30,43,157,,21,80,133,33,25,07,141,*71
$GPGSV,3,3,10,03,19,282,30,06,34,282,37,,,,,,,,*75
$GPGSA,M,3,16,31,29,21,06,,,,,,,,2.9,1.4,2.5*3C
Trace #97 at position 24.000000
$GPZDA,123615.03,06,10,2011,00,00*62
$GPRMC,123615.00,A,4611.964680,N,01258.209908,E,000.2,180.6,061011,0.2,E,A*3C
$GPGGA,123616.00,4611.964594,N,01258.209929,E,1,05,1.4,136.25,M,46.25,M,,*6D
$GPGLL,4611.964594,N,01258.209929,E,123616.00,A,A*6E
$GPVTG,150.8,T,151.0,M,000.4,N,000.7,K,A*29
$GPGSV,3,1,10,05,09,033,,16,39,308,41,31,20,216,38,18,24,144,*75
$GPGSV,3,2,10,29,35,080,39,30,43,157,,21,80,133,,25,07,141,*7F
$GPGSV,3,3,10,03,19,282,31,06,34,282,35,,,,,,,,*76
$GPGSA,M,3,16,31,29,21,06,,,,,,,,2.9,1.4,2.5*3C
Trace #98 at position 24.250000
$GPZDA,123616.04,06,10,2011,00,00*66
$GPRMC,123616.00,A,4611.964594,N,01258.209929,E,000.4,150.8,061011,0.2,E,A*3F
$GPGGA,,,,,,0,04,,,M,,M,,*62
$GPGLL,,,,,,V,N*64
$GPVTG,,T,,,,N,,K,N*61
$GPGSV,3,1,10,05,09,033,,16,39,308,41,31,20,216,38,18,24,144,*75
$GPGSV,3,2,10,29,35,080,38,30,43,157,,21,80,133,,25,07,141,*7E
$GPGSV,3,3,10,03,19,282,31,06,34,282,33,,,,,,,,*70
$GPGSA,M,1,,,,,,,,,,,,,2.9,1.4,2.5*35
Trace #99 at position 24.500000
$GPZDA,123616.04,06,10,2011,00,00*66
$GPRMC,123616.00,A,4611.964594,N,01258.209929,E,000.4,150.8,061011,0.2,E,A*3F
$GPGGA,,,,,,0,04,,,M,,M,,*62
$GPGLL,,,,,,V,N*64
$GPVTG,,T,,,,N,,K,N*61
$GPGSV,3,1,10,05,09,033,,16,39,308,41,31,20,216,38,18,24,144,*75
$GPGSV,3,2,10,29,35,080,38,30,43,157,,21,80,133,,25,07,141,*7E
$GPGSV,3,3,10,03,19,282,31,06,34,282,33,,,,,,,,*70
$GPGSA,M,1,,,,,,,,,,,,,2.9,1.4,2.5*35
Trace #100 at position 24.750000
$GPZDA,123617.02,06,10,2011,00,00*61
$GPRMC,123616.00,V,,,,,,,,,,N*7C
$GPGGA,,,,,,0,04,,,M,,M,,*62
$GPGLL,,,,,,V,N*64
$GPVTG,,T,,,,N,,K,N*61
$GPGSV,3,1,10,05,09,033,,16,39,308,41,31,20,216,39,18,24,144,*74
$GPGSV,3,2,10,29,35,080,38,30,43,157,,21,80,133,33,25,07,141,*7E
$GPGSV,3,3,10,03,19,282,,06,34,282,34,,,,,,,,*75
$GPGSA,M,1,,,,,,,,,,,,,2.9,1.4,2.5*35
Trace #101 at position 25.000000
$GPZDA,123623.04,06,10,2011,00,00*60
$GPRMC,123623.00,A,4611.963380,N,01258.210672,E,000.6,89.8,061011,0.2,E,A*03
$GPGGA,,,,,,0,04,,,M,,M,,*62
$GPGLL,,,,,,V,N*64
$GPVTG,,T,,,,N,,K,N*61
$GPGSV,3,1,10,05,09,033,31,16,39,308,40,31,20,216,38,18,24,144,*76
$GPGSV,3,2,10,29,35,080,39,30,43,158,,21,80,132,31,25,07,141,*73
$GPGSV,3,3,10,03,19,282,31,06,34,282,36,,,,,,,,*75
$GPGSA,M,1,,,,,,,,,,,,,2.9,1.4,2.5*35
Trace #102 at position 25.250000
$GPZDA,123624.02,06,10,2011,00,00*61
$GPRMC,123623.00,V,,,,,,,,,,N*7A
$GPGGA,123625.00,4611.963178,N,01258.211028,E,1,05,1.4,136.22,M,46.25,M,,*6A
$GPGLL,4611.963178,N,01258.211028,E,123625.00,A,A*6E
$GPVTG,130.9,T,131.0,M,000.7,N,001.2,K,A*2F
$GPGSV,3,1,10,05,09,033,,16,39,308,41,31,20,216,37,18,25,144,*7B
$GPGSV,3,2,10,29,35,080,39,30,43,158,,21,80,132,32,25,07,141,*70
$GPGSV,3,3,10,03,19,282,30,06,34,282,37,,,,,,,,*75
$GPGSA,M,3,16,31,29,21,06,,,,,,,,2.9,1.4,2.5*3C
Trace #103 at position 25.500000
$GPZDA,123625.03,06,10,2011,00,00*61
$GPRMC,123625.00,A,4611.963178,N,01258.211028,E,000.7,130.9,061011,0.2,E,A*3B
$GPGGA,123626.00,4611.963053,N,01258.211043,E,1,05,1.4,136.59,M,46.25,M,,*60
$GPGLL,4611.963053,N,01258.211043,E,123626.00,A,A*68
$GPVTG,317.7,T,317.9,M,000.0,N,000.1,K,A*2C
$GPGSV,3,1,10,05,09,033,,16,39,308,39,31,20,216,38,18,25,144,*7B
$GPGSV,3,2,10,29,35,080,38,30,43,158,,21,80,132,32,25,07,141,*71
$GPGSV,3,3,10,03,19,282,31,06,34,282,38,,,,,,,,*7B
$GPGSA,M,3,16,31,29,21,06,,,,,,,,2.9,1.4,2.5*3C
Trace #104 at position 25.750000
$GPZDA,123626.03,06,10,2011,00,00*62
$GPRMC,123626.00,A,4611.963053,N,01258.211043,E,000.0,317.7,061011,0.2,E,A*33
$GPGGA,123627.00,4611.962992,N,01258.210969,E,1,05,1.4,136.86,M,46.25,M,,*66
$GPGLL,4611.962992,N,01258.210969,E,123627.00,A,A*6C
$GPVTG,188.2,T,188.4,M,000.0,N,000.1,K,A*24
$GPGSV,3,1,10,05,09,033,,16,39,308,40,31,20,216,37,18,25,144,*7A
$GPGSV,3,2,10,29,35,080,38,30,43,158,,21,80,132,31,25,07,141,*72
$GPGSV,3,3,10,03,19,282,30,06,34,282,37,,,,,,,,*75
$GPGSA,M,3,16,31,29,21,06,,,,,,,,2.9,1.4,2.5*3C
Trace #105 at position 26.000000
$GPZDA,123626.03,06,10,2011,00,00*62
$GPRMC,123626.00,A,4611.963053,N,01258.211043,E,000.0,317.7,061011,0.2,E,A*33
$GPGGA,123627.00,4611.962992,N,01258.210969,E,1,05,1.4,136.86,M,46.25,M,,*66
$GPGLL,4611.962992,N,01258.210969,E,123627.00,A,A*6C
$GPVTG,188.2,T,188.4,M,000.0,N,000.1,K,A*24
$GPGSV,3,1,10,05,09,033,,16,39,308,40,31,20,216,37,18,25,144,*7A
$GPGSV,3,2,10,29,35,080,38,30,43,158,,21,80,132,31,25,07,141,*72
$GPGSV,3,3,10,03,19,282,30,06,34,282,37,,,,,,,,*75
$GPGSA,M,3,16,31,29,21,06,,,,,,,,2.9,1.4,2.5*3C
Trace #106 at position 26.250000
$GPZDA,123627.03,06,10,2011,00,00*63
$GPRMC,123627.00,A,4611.962992,N,01258.210969,E,000.0,188.2,061011,0.2,E,A*36
$GPGGA,123628.00,4611.962935,N,01258.210902,E,1,05,1.4,137.10,M,46.25,M,,*67
$GPGLL,4611.962935,N,01258.210902,E,123628.00,A,A*63
$GPVTG,254.2,T,254.4,M,000.0,N,000.1,K,A*24
$GPGSV,3,1,10,05,09,033,,16,39,308,40,31,20,216,38,18,25,144,*75
$GPGSV,3,2,10,29,35,080,37,30,43,158,,21,80,132,31,25,07,141,*7D
$GPGSV,3,3,10,03,19,282,31,06,34,282,37,,,,,,,,*74
$GPGSA,M,3,16,31,29,21,06,,,,,,,,2.9,1.4,2.5*3C
Trace #107 at position 26.500000
$GPZDA,123627.03,06,10,2011,00,00*63
$GPRMC,123627.00,A,4611.962992,N,01258.210969,E,000.0,188.2,061011,0.2,E,A*36
$GPGGA,123628.00,4611.962935,N,01258.210902,E,1,05,1.4,137.10,M,46.25,M,,*67
$GPGLL,4611.962935,N,01258.210902,E,123628.00,A,A*63
$GPVTG,254.2,T,254.4,M,000.0,N,000.1,K,A*24
$GPGSV,3,1,10,05,09,033,,16,39,308,40,31,20,216,38,18,25,144,*75
$GPGSV,3,2,10,29,35,080,37,30,43,158,,21,80,132,31,25,07,141,*7D
$GPGSV,3,3,10,03,19,282,31,06,34,282,37,,,,,,,,*74
$GPGSA,M,3,16,31,29,21,06,,,,,,,,2.9,1.4,2.5*3C
Trace #108 at position 26.750000
$GPZDA,123628.04,06,10,2011,00,00*6B
$GPRMC,123628.00,A,4611.962935,N,01258.210902,E,000.0,254.2,061011,0.2,E,A*3B
$GPGGA,123629.00,4611.962884,N,01258.210849,E,1,05,1.4,137.34,M,46.25,M,,*65
$GPGLL,4611.962884,N,01258.210849,E,123629.00,A,A*67
$GPVTG,119.9,T,120.0,M,000.0,N,000.1,K,A*21
$GPGSV,3,1,10,05,09,033,,16,39,308,39,31,20,216,38,18,25,144,*7B
$GPGSV,3,2,10,29,35,080,39,30,43,158,,21,80,132,32,25,07,141,*70
$GPGSV,3,3,10,03,19,282,30,06,34,282,37,,,,,,,,*75
$GPGSA,M,3,16,31,29,21,06,,,,,,,,2.9,1.4,2.5*3C
Trace #109 at position 27.000000
$GPZDA,123628.04,06,10,2011,00,00*6B
$GPRMC,123628.00,A,4611.962935,N,01258.210902,E,000.0,254.2,061011,0.2,E,A*3B
$GPGGA,123629.00,4611.962884,N,01258.210849,E,1,05,1.4,137.34,M,46.25,M,,*65
$GPGLL,4611.962884,N,01258.210849,E,123629.00,A,A*67
$GPVTG,119.9,T,120.0,M,000.0,N,000.1,K,A*21
$GPGSV,3,1,10,05,09,033,,16,39,308,39,31,20,216,38,18,25,144,*7B
$GPGSV,3,2,10,29,35,080,39,30,43,158,,21,80,132,32,25,07,141,*70
$GPGSV,3,3,10,03,19,282,30,06,34,282,37,,,,,,,,*75
$GPGSA,M,3,16,31,29,21,06,,,,,,,,2.9,1.4,2.5*3C
Trace #110 at position 27.250000
$GPZDA,123629.03,06,10,2011,00,00*6D
$GPRMC,123629.00,A,4611.962884,N,01258.210849,E,000.0,119.9,061011,0.2,E,A*3E
$GPGGA,123630.00,4611.962825,N,01258.210809,E,1,05,1.4,137.57,M,46.25,M,,*67
$GPGLL,4611.962825,N,01258.210809,E,123630.00,A,A*60
$GPVTG,177.6,T,177.8,M,000.1,N,000.2,K,A*2E
$GPGSV,3,1,10,05,09,033,,16,39,308,39,31,20,216,38,18,25,144,*7B
