Trace #1 at position 0.000000
$GPZDA,101621.03,08,10,2011,00,00*6B
$GPRMC,101621.00,A,4611.952414,N,01258.222306,E,000.3,175.5,081011,0.2,E,A*3A
$GPGGA,,,,,,0,03,,,M,,M,,*65
$GPGLL,,,,,,V,N*64
$GPVTG,,T,,,,N,,K,N*61
$GPGSV,2,1,07,21,23,186,36,02,23,046,38,12,28,108,35,25,62,102,39*73
$GPGSV,2,2,07,29,84,313,36,30,68,307,32,31,51,287,,,,,*4E
$GPGSA,M,1,,,,,,,,,,,,,3.4,2.4,2.4*3B
Trace #2 at position 0.250000
$GPZDA,101624.02,08,10,2011,00,00*6F
$GPRMC,101621.00,V,,,,,,,,,,N*78
$GPGGA,,,,,,0,03,,,M,,M,,*65
$GPGLL,,,,,,V,N*64
$GPVTG,,T,,,,N,,K,N*61
$GPGSV,2,1,07,21,23,186,40,02,23,046,36,12,28,108,34,25,62,102,38*7C
$GPGSV,2,2,07,29,84,313,38,30,68,307,35,31,51,287,,,,,*47
$GPGSA,M,1,,,,,,,,,,,,,3.4,2.4,2.4*3B
Trace #3 at position 0.500000
$GPZDA,101625.02,08,10,2011,00,00*6E
$GPRMC,101621.00,V,,,,,,,,,,N*78
$GPGGA,101626.00,4611.952372,N,01258.222188,E,1,05,1.9,139.12,M,46.25,M,,*69
$GPGLL,4611.952372,N,01258.222188,E,101626.00,A,A*6C
$GPVTG,328.7,T,328.8,M,000.3,N,000.5,K,A*2A
$GPGSV,2,1,07,21,23,186,38,02,23,046,36,12,28,108,39,25,62,102,39*7F
$GPGSV,2,2,07,29,84,313,40,30,68,307,38,31,51,287,,,,,*45
$GPGSA,M,3,21,02,12,25,29,,,,,,,,2.7,1.9,2.0*3F
Trace #4 at position 0.750000
$GPZDA,101625.02,08,10,2011,00,00*6E
$GPRMC,101621.00,V,,,,,,,,,,N*78
$GPGGA,101626.00,4611.952372,N,01258.222188,E,1,05,1.9,139.12,M,46.25,M,,*69
$GPGLL,4611.952372,N,01258.222188,E,101626.00,A,A*6C
$GPVTG,328.7,T,328.8,M,000.3,N,000.5,K,A*2A
$GPGSV,2,1,07,21,23,186,38,02,23,046,36,12,28,108,39,25,62,102,39*7F
$GPGSV,2,2,07,29,84,313,40,30,68,307,38,31,51,287,,,,,*45
$GPGSA,M,3,21,02,12,25,29,,,,,,,,2.7,1.9,2.0*3F
Trace #5 at position 1.000000
$GPZDA,101626.03,08,10,2011,00,00*6C
$GPRMC,101626.00,A,4611.952372,N,01258.222188,E,000.3,328.7,081011,0.2,E,A*36
$GPGGA,101627.00,4611.952333,N,01258.222256,E,1,05,2.9,139.62,M,46.25,M,,*69
$GPGLL,4611.952333,N,01258.222256,E,101627.00,A,A*68
$GPVTG,354.7,T,354.8,M,000.6,N,001.2,K,A*29
$GPGSV,2,1,07,21,23,186,38,02,23,046,36,12,28,108,38,25,62,102,41*71
$GPGSV,2,2,07,29,84,313,39,30,68,307,39,31,51,287,,,,,*4A
$GPGSA,M,3,21,12,25,29,30,,,,,,,,5.3,2.9,4.4*3C
Trace #6 at position 1.250000
$GPZDA,101630.03,08,10,2011,00,00*6B
$GPRMC,101630.00,A,4611.952300,N,01258.222569,E,000.0,351.3,081011,0.2,E,A*36
$GPGGA,101631.00,4611.952268,N,01258.222567,E,1,04,5.8,140.86,M,46.25,M,,*67
$GPGLL,4611.952268,N,01258.222567,E,101631.00,A,A*65
$GPVTG,156.4,T,156.5,M,000.7,N,001.4,K,A*20
$GPGSV,2,1,07,21,23,186,37,02,23,046,36,12,28,108,40,25,62,102,42*72
$GPGSV,2,2,07,29,84,313,37,30,68,307,34,31,51,287,32,,,,*48
$GPGSA,M,3,21,12,25,29,,,,,,,,,9.3,5.8,7.3*31
Trace #7 at position 1.500000
$GPZDA,101631.03,08,10,2011,00,00*6A
$GPRMC,101631.00,A,4611.952268,N,01258.222567,E,000.7,156.4,081011,0.2,E,A*33
$GPGGA,,,,,,0,03,,,M,,M,,*65
$GPGLL,,,,,,V,N*64
$GPVTG,,T,,,,N,,K,N*61
$GPGSV,2,1,07,21,23,186,37,02,23,046,36,12,28,108,41,25,62,102,42*73
$GPGSV,2,2,07,29,84,313,36,30,68,307,35,31,51,287,30,,,,*4A
$GPGSA,M,1,,,,,,,,,,,,,9.3,5.8,7.3*3F
Trace #8 at position 1.750000
$GPZDA,101632.02,08,10,2011,00,00*68
$GPRMC,101631.00,V,,,,,,,,,,N*79
$GPGGA,,,,,,0,03,,,M,,M,,*65
$GPGLL,,,,,,V,N*64
$GPVTG,,T,,,,N,,K,N*61
$GPGSV,2,1,07,21,23,186,38,02,23,046,37,12,28,108,40,25,62,102,41*7F
$GPGSV,2,2,07,29,84,313,37,30,68,307,34,31,51,287,30,,,,*4A
$GPGSA,M,1,,,,,,,,,,,,,9.3,5.8,7.3*3F
Trace #9 at position 2.000000
$GPZDA,101632.02,08,10,2011,00,00*68
$GPRMC,101631.00,V,,,,,,,,,,N*79
$GPGGA,,,,,,0,03,,,M,,M,,*65
$GPGLL,,,,,,V,N*64
$GPVTG,,T,,,,N,,K,N*61
$GPGSV,2,1,07,21,23,186,38,02,23,046,37,12,28,108,40,25,62,102,41*7F
$GPGSV,2,2,07,29,84,313,37,30,68,307,34,31,51,287,30,,,,*4A
$GPGSA,M,1,,,,,,,,,,,,,9.3,5.8,7.3*3F
Trace #10 at position 2.250000
$GPZDA,101632.02,08,10,2011,00,00*68
$GPRMC,101631.00,V,,,,,,,,,,N*79
$GPGGA,,,,,,0,03,,,M,,M,,*65
$GPGLL,,,,,,V,N*64
$GPVTG,,T,,,,N,,K,N*61
$GPGSV,2,1,07,21,23,186,38,02,23,046,37,12,28,108,40,25,62,102,41*7F
$GPGSV,2,2,07,29,84,313,37,30,68,307,34,31,51,287,30,,,,*4A
$GPGSA,M,1,,,,,,,,,,,,,9.3,5.8,7.3*3F
Trace #11 at position 2.500000
$GPZDA,101633.02,08,10,2011,00,00*69
$GPRMC,101631.00,V,,,,,,,,,,N*79
$GPGGA,101634.00,4611.952475,N,01258.222318,E,1,04,5.8,141.01,M,46.25,M,,*68
$GPGLL,4611.952475,N,01258.222318,E,101634.00,A,A*64
$GPVTG,328.0,T,328.2,M,001.2,N,002.2,K,A*22
$GPGSV,2,1,07,21,23,186,40,02,23,046,37,12,28,108,39,25,62,102,45*7A
$GPGSV,2,2,07,29,84,314,40,30,68,307,38,31,51,287,35,,,,*44
$GPGSA,M,3,21,12,25,29,,,,,,,,,9.3,5.8,7.3*31
Trace #12 at position 2.750000
$GPZDA,101633.02,08,10,2011,00,00*69
$GPRMC,101631.00,V,,,,,,,,,,N*79
$GPGGA,101634.00,4611.952475,N,01258.222318,E,1,04,5.8,141.01,M,46.25,M,,*68
$GPGLL,4611.952475,N,01258.222318,E,101634.00,A,A*64
$GPVTG,328.0,T,328.2,M,001.2,N,002.2,K,A*22
$GPGSV,2,1,07,21,23,186,40,02,23,046,37,12,28,108,39,25,62,102,45*7A
$GPGSV,2,2,07,29,84,314,40,30,68,307,38,31,51,287,35,,,,*44
$GPGSA,M,3,21,12,25,29,,,,,,,,,9.3,5.8,7.3*31
Trace #13 at position 3.000000
$GPZDA,101633.02,08,10,2011,00,00*69
$GPRMC,101631.00,V,,,,,,,,,,N*79
$GPGGA,101634.00,4611.952475,N,01258.222318,E,1,04,5.8,141.01,M,46.25,M,,*68
$GPGLL,4611.952475,N,01258.222318,E,101634.00,A,A*64
$GPVTG,328.0,T,328.2,M,001.2,N,002.2,K,A*22
$GPGSV,2,1,07,21,23,186,40,02,23,046,37,12,28,108,39,25,62,102,45*7A
$GPGSV,2,2,07,29,84,314,40,30,68,307,38,31,51,287,35,,,,*44
$GPGSA,M,3,21,12,25,29,,,,,,,,,9.3,5.8,7.3*31
Trace #14 at position 3.250000
$GPZDA,101634.03,08,10,2011,00,00*6F
$GPRMC,101634.00,A,4611.952475,N,01258.222318,E,001.2,328.0,081011,0.2,E,A*39
$GPGGA,101635.00,4611.952876,N,01258.222052,E,1,04,5.8,140.83,M,46.25,M,,*60
$GPGLL,4611.952876,N,01258.222052,E,101635.00,A,A*67
$GPVTG,339.4,T,339.5,M,001.5,N,002.7,K,A*23
$GPGSV,2,1,07,21,23,186,38,02,23,046,37,12,28,108,40,25,62,102,45*7B
$GPGSV,2,2,07,29,84,314,41,30,68,307,38,31,51,287,35,,,,*45
$GPGSA,M,3,21,12,25,29,,,,,,,,,9.3,5.8,7.3*31
Trace #15 at position 3.500000
$GPZDA,101634.03,08,10,2011,00,00*6F
$GPRMC,101634.00,A,4611.952475,N,01258.222318,E,001.2,328.0,081011,0.2,E,A*39
$GPGGA,101635.00,4611.952876,N,01258.222052,E,1,04,5.8,140.83,M,46.25,M,,*60
$GPGLL,4611.952876,N,01258.222052,E,101635.00,A,A*67
$GPVTG,339.4,T,339.5,M,001.5,N,002.7,K,A*23
$GPGSV,2,1,07,21,23,186,38,02,23,046,37,12,28,108,40,25,62,102,45*7B
$GPGSV,2,2,07,29,84,314,41,30,68,307,38,31,51,287,35,,,,*45
$GPGSA,M,3,21,12,25,29,,,,,,,,,9.3,5.8,7.3*31
Trace #16 at position 3.750000
$GPZDA,101634.03,08,10,2011,00,00*6F
$GPRMC,101634.00,A,4611.952475,N,01258.222318,E,001.2,328.0,081011,0.2,E,A*39
$GPGGA,101635.00,4611.952876,N,01258.222052,E,1,04,5.8,140.83,M,46.25,M,,*60
$GPGLL,4611.952876,N,01258.222052,E,101635.00,A,A*67
$GPVTG,339.4,T,339.5,M,001.5,N,002.7,K,A*23
$GPGSV,2,1,07,21,23,186,38,02,23,046,37,12,28,108,40,25,62,102,45*7B
$GPGSV,2,2,07,29,84,314,41,30,68,307,38,31,51,287,35,,,,*45
$GPGSA,M,3,21,12,25,29,,,,,,,,,9.3,5.8,7.3*31
Trace #17 at position 4.000000
$GPZDA,101635.03,08,10,2011,00,00*6E
$GPRMC,101635.00,A,4611.952876,N,01258.222052,E,001.5,339.4,081011,0.2,E,A*39
$GPGGA,101636.00,4611.953342,N,01258.221802,E,1,04,5.8,140.69,M,46.25,M,,*64
$GPGLL,4611.953342,N,01258.221802,E,101636.00,A,A*67
$GPVTG,339.4,T,339.5,M,001.7,N,003.1,K,A*26
$GPGSV,2,1,07,21,23,186,41,02,23,046,33,12,28,108,38,25,62,102,44*7F
$GPGSV,2,2,07,29,84,314,40,30,68,307,37,31,51,287,35,,,,*4B
$GPGSA,M,3,21,12,25,29,,,,,,,,,9.3,5.8,7.3*31
Trace #18 at position 4.250000
$GPZDA,101635.03,08,10,2011,00,00*6E
$GPRMC,101635.00,A,4611.952876,N,01258.222052,E,001.5,339.4,081011,0.2,E,A*39
$GPGGA,101636.00,4611.953342,N,01258.221802,E,1,04,5.8,140.69,M,46.25,M,,*64
$GPGLL,4611.953342,N,01258.221802,E,101636.00,A,A*67
$GPVTG,339.4,T,339.5,M,001.7,N,003.1,K,A*26
$GPGSV,2,1,07,21,23,186,41,02,23,046,33,12,28,108,38,25,62,102,44*7F
$GPGSV,2,2,07,29,84,314,40,30,68,307,37,31,51,287,35,,,,*4B
$GPGSA,M,3,21,12,25,29,,,,,,,,,9.3,5.8,7.3*31
Trace #19 at position 4.500000
$GPZDA,101635.03,08,10,2011,00,00*6E
$GPRMC,101635.00,A,4611.952876,N,01258.222052,E,001.5,339.4,081011,0.2,E,A*39
$GPGGA,101636.00,4611.953342,N,01258.221802,E,1,04,5.8,140.69,M,46.25,M,,*64
$GPGLL,4611.953342,N,01258.221802,E,101636.00,A,A*67
$GPVTG,339.4,T,339.5,M,001.7,N,003.1,K,A*26
$GPGSV,2,1,07,21,23,186,41,02,23,046,33,12,28,108,38,25,62,102,44*7F
$GPGSV,2,2,07,29,84,314,40,30,68,307,37,31,51,287,35,,,,*4B
$GPGSA,M,3,21,12,25,29,,,,,,,,,9.3,5.8,7.3*31
Trace #20 at position 4.750000
$GPZDA,101636.03,08,10,2011,00,00*6D
$GPRMC,101636.00,A,4611.953342,N,01258.221802,E,001.7,339.4,081011,0.2,E,A*3B
$GPGGA,101637.00,4611.953880,N,01258.221567,E,1,04,5.8,140.51,M,46.25,M,,*65
$GPGLL,4611.953880,N,01258.221567,E,101637.00,A,A*6D
$GPVTG,347.5,T,347.7,M,002.0,N,003.7,K,A*27
$GPGSV,2,1,07,21,23,186,41,02,23,046,37,12,28,108,40,25,62,102,43*73
$GPGSV,2,2,07,29,84,314,41,30,68,307,37,31,51,287,36,,,,*49
$GPGSA,M,3,21,12,25,29,,,,,,,,,9.3,5.8,7.3*31
Trace #21 at position 5.000000
$GPZDA,101636.03,08,10,2011,00,00*6D
$GPRMC,101636.00,A,4611.953342,N,01258.221802,E,001.7,339.4,081011,0.2,E,A*3B
$GPGGA,101637.00,4611.953880,N,01258.221567,E,1,04,5.8,140.51,M,46.25,M,,*65
$GPGLL,4611.953880,N,01258.221567,E,101637.00,A,A*6D
$GPVTG,347.5,T,347.7,M,002.0,N,003.7,K,A*27
$GPGSV,2,1,07,21,23,186,41,02,23,046,37,12,28,108,40,25,62,102,43*73
$GPGSV,2,2,07,29,84,314,41,30,68,307,37,31,51,287,36,,,,*49
$GPGSA,M,3,21,12,25,29,,,,,,,,,9.3,5.8,7.3*31
Trace #22 at position 5.250000
$GPZDA,101636.03,08,10,2011,00,00*6D
$GPRMC,101636.00,A,4611.953342,N,01258.221802,E,001.7,339.4,081011,0.2,E,A*3B
$GPGGA,101637.00,4611.953880,N,01258.221567,E,1,04,5.8,140.51,M,46.25,M,,*65
$GPGLL,4611.953880,N,01258.221567,E,101637.00,A,A*6D
$GPVTG,347.5,T,347.7,M,002.0,N,003.7,K,A*27
$GPGSV,2,1,07,21,23,186,41,02,23,046,37,12,28,108,40,25,62,102,43*73
$GPGSV,2,2,07,29,84,314,41,30,68,307,37,31,51,287,36,,,,*49
$GPGSA,M,3,21,12,25,29,,,,,,,,,9.3,5.8,7.3*31
Trace #23 at position 5.500000
$GPZDA,101637.03,08,10,2011,00,00*6C
$GPRMC,101637.00,A,4611.953880,N,01258.221567,E,002.0,347.5,081011,0.2,E,A*3D
$GPGGA,101638.00,4611.954393,N,01258.221369,E,1,04,5.8,140.27,M,46.25,M,,*6D
$GPGLL,4611.954393,N,01258.221369,E,101638.00,A,A*64
$GPVTG,343.8,T,343.9,M,001.6,N,002.9,K,A*2E
$GPGSV,2,1,07,21,23,186,39,02,23,046,35,12,28,108,39,25,62,102,43*70
$GPGSV,2,2,07,29,84,314,40,30,68,307,38,31,51,287,35,,,,*44
$GPGSA,M,3,21,12,25,29,,,,,,,,,9.3,5.8,7.3*31
Trace #24 at position 5.750000
$GPZDA,101637.03,08,10,2011,00,00*6C
$GPRMC,101637.00,A,4611.953880,N,01258.221567,E,002.0,347.5,081011,0.2,E,A*3D
$GPGGA,101638.00,4611.954393,N,01258.221369,E,1,04,5.8,140.27,M,46.25,M,,*6D
$GPGLL,4611.954393,N,01258.221369,E,101638.00,A,A*64
$GPVTG,343.8,T,343.9,M,001.6,N,002.9,K,A*2E
$GPGSV,2,1,07,21,23,186,39,02,23,046,35,12,28,108,39,25,62,102,43*70
$GPGSV,2,2,07,29,84,314,40,30,68,307,38,31,51,287,35,,,,*44
$GPGSA,M,3,21,12,25,29,,,,,,,,,9.3,5.8,7.3*31
Trace #25 at position 6.000000
$GPZDA,101637.03,08,10,2011,00,00*6C
$GPRMC,101637.00,A,4611.953880,N,01258.221567,E,002.0,347.5,081011,0.2,E,A*3D
$GPGGA,101638.00,4611.954393,N,01258.221369,E,1,04,5.8,140.27,M,46.25,M,,*6D
$GPGLL,4611.954393,N,01258.221369,E,101638.00,A,A*64
$GPVTG,343.8,T,343.9,M,001.6,N,002.9,K,A*2E
$GPGSV,2,1,07,21,23,186,39,02,23,046,35,12,28,108,39,25,62,102,43*70
$GPGSV,2,2,07,29,84,314,40,30,68,307,38,31,51,287,35,,,,*44
$GPGSA,M,3,21,12,25,29,,,,,,,,,9.3,5.8,7.3*31
Trace #26 at position 6.250000
$GPZDA,101637.03,08,10,2011,00,00*6C
$GPRMC,101637.00,A,4611.953880,N,01258.221567,E,002.0,347.5,081011,0.2,E,A*3D
$GPGGA,101638.00,4611.954393,N,01258.221369,E,1,04,5.8,140.27,M,46.25,M,,*6D
$GPGLL,4611.954393,N,01258.221369,E,101638.00,A,A*64
$GPVTG,343.8,T,343.9,M,001.6,N,002.9,K,A*2E
$GPGSV,2,1,07,21,23,186,39,02,23,046,35,12,28,108,39,25,62,102,43*70
$GPGSV,2,2,07,29,84,314,40,30,68,307,38,31,51,287,35,,,,*44
$GPGSA,M,3,21,12,25,29,,,,,,,,,9.3,5.8,7.3*31
Trace #27 at position 6.500000
$GPZDA,101638.03,08,10,2011,00,00*63
$GPRMC,101638.00,A,4611.954393,N,01258.221369,E,001.6,343.8,081011,0.2,E,A*38
$GPGGA,101639.00,4611.954863,N,01258.221132,E,1,04,5.8,140.19,M,46.25,M,,*69
$GPGLL,4611.954863,N,01258.221132,E,101639.00,A,A*6D
$GPVTG,339.3,T,339.5,M,001.8,N,003.3,K,A*2C
$GPGSV,2,1,07,21,23,186,41,02,23,046,37,12,28,108,38,25,62,102,43*7C
$GPGSV,2,2,07,29,84,314,41,30,68,307,36,31,51,287,,,,,*4D
$GPGSA,M,3,21,12,25,29,,,,,,,,,9.3,5.8,7.3*31
Trace #28 at position 6.750000
$GPZDA,101638.03,08,10,2011,00,00*63
$GPRMC,101638.00,A,4611.954393,N,01258.221369,E,001.6,343.8,081011,0.2,E,A*38
$GPGGA,101639.00,4611.954863,N,01258.221132,E,1,04,5.8,140.19,M,46.25,M,,*69
$GPGLL,4611.954863,N,01258.221132,E,101639.00,A,A*6D
$GPVTG,339.3,T,339.5,M,001.8,N,003.3,K,A*2C
$GPGSV,2,1,07,21,23,186,41,02,23,046,37,12,28,108,38,25,62,102,43*7C
$GPGSV,2,2,07,29,84,314,41,30,68,307,36,31,51,287,,,,,*4D
$GPGSA,M,3,21,12,25,29,,,,,,,,,9.3,5.8,7.3*31
Trace #29 at position 7.000000
$GPZDA,101638.03,08,10,2011,00,00*63
$GPRMC,101638.00,A,4611.954393,N,01258.221369,E,001.6,343.8,081011,0.2,E,A*38
$GPGGA,101639.00,4611.954863,N,01258.221132,E,1,04,5.8,140.19,M,46.25,M,,*69
$GPGLL,4611.954863,N,01258.221132,E,101639.00,A,A*6D
$GPVTG,339.3,T,339.5,M,001.8,N,003.3,K,A*2C
$GPGSV,2,1,07,21,23,186,41,02,23,046,37,12,28,108,38,25,62,102,43*7C
$GPGSV,2,2,07,29,84,314,41,30,68,307,36,31,51,287,,,,,*4D
$GPGSA,M,3,21,12,25,29,,,,,,,,,9.3,5.8,7.3*31
Trace #30 at position 7.250000
$GPZDA,101638.03,08,10,2011,00,00*63
$GPRMC,101638.00,A,4611.954393,N,01258.221369,E,001.6,343.8,081011,0.2,E,A*38
$GPGGA,101639.00,4611.954863,N,01258.221132,E,1,04,5.8,140.19,M,46.25,M,,*69
$GPGLL,4611.954863,N,01258.221132,E,101639.00,A,A*6D
$GPVTG,339.3,T,339.5,M,001.8,N,003.3,K,A*2C
$GPGSV,2,1,07,21,23,186,41,02,23,046,37,12,28,108,38,25,62,102,43*7C
$GPGSV,2,2,07,29,84,314,41,30,68,307,36,31,51,287,,,,,*4D
$GPGSA,M,3,21,12,25,29,,,,,,,,,9.3,5.8,7.3*31
Trace #31 at position 7.500000
$GPZDA,101639.03,08,10,2011,00,00*62
$GPRMC,101639.00,A,4611.954863,N,01258.221132,E,001.8,339.3,081011,0.2,E,A*39
$GPGGA,101640.00,4611.955355,N,01258.220897,E,1,04,5.8,140.25,M,46.25,M,,*60
$GPGLL,4611.955355,N,01258.220897,E,101640.00,A,A*6B
$GPVTG,345.2,T,345.4,M,001.7,N,003.2,K,A*22
$GPGSV,2,1,07,21,23,186,41,02,23,046,36,12,28,108,39,25,62,102,44*7B
$GPGSV,2,2,07,29,84,314,40,30,68,307,36,31,51,287,33,,,,*4C
$GPGSA,M,3,21,12,25,29,,,,,,,,,9.3,5.8,7.3*31
Trace #32 at position 7.750000
$GPZDA,101639.03,08,10,2011,00,00*62
$GPRMC,101639.00,A,4611.954863,N,01258.221132,E,001.8,339.3,081011,0.2,E,A*39
$GPGGA,101640.00,4611.955355,N,01258.220897,E,1,04,5.8,140.25,M,46.25,M,,*60
$GPGLL,4611.955355,N,01258.220897,E,101640.00,A,A*6B
$GPVTG,345.2,T,345.4,M,001.7,N,003.2,K,A*22
$GPGSV,2,1,07,21,23,186,41,02,23,046,36,12,28,108,39,25,62,102,44*7B
$GPGSV,2,2,07,29,84,314,40,30,68,307,36,31,51,287,33,,,,*4C
$GPGSA,M,3,21,12,25,29,,,,,,,,,9.3,5.8,7.3*31
Trace #33 at position 8.000000
$GPZDA,101639.03,08,10,2011,00,00*62
$GPRMC,101639.00,A,4611.954863,N,01258.221132,E,001.8,339.3,081011,0.2,E,A*39
$GPGGA,101640.00,4611.955355,N,01258.220897,E,1,04,5.8,140.25,M,46.25,M,,*60
$GPGLL,4611.955355,N,01258.220897,E,101640.00,A,A*6B
$GPVTG,345.2,T,345.4,M,001.7,N,003.2,K,A*22
$GPGSV,2,1,07,21,23,186,41,02,23,046,36,12,28,108,39,25,62,102,44*7B
$GPGSV,2,2,07,29,84,314,40,30,68,307,36,31,51,287,33,,,,*4C
$GPGSA,M,3,21,12,25,29,,,,,,,,,9.3,5.8,7.3*31
Trace #34 at position 8.250000
$GPZDA,101639.03,08,10,2011,00,00*62
$GPRMC,101639.00,A,4611.954863,N,01258.221132,E,001.8,339.3,081011,0.2,E,A*39
$GPGGA,101640.00,4611.955355,N,01258.220897,E,1,04,5.8,140.25,M,46.25,M,,*60
$GPGLL,4611.955355,N,01258.220897,E,101640.00,A,A*6B
$GPVTG,345.2,T,345.4,M,001.7,N,003.2,K,A*22
$GPGSV,2,1,07,21,23,186,41,02,23,046,36,12,28,108,39,25,62,102,44*7B
$GPGSV,2,2,07,29,84,314,40,30,68,307,36,31,51,287,33,,,,*4C
$GPGSA,M,3,21,12,25,29,,,,,,,,,9.3,5.8,7.3*31
Trace #35 at position 8.500000
$GPZDA,101640.03,08,10,2011,00,00*6C
$GPRMC,101640.00,A,4611.955355,N,01258.220897,E,001.7,345.2,081011,0.2,E,A*3A
$GPGGA,101641.00,4611.955814,N,01258.220593,E,1,04,5.8,140.34,M,46.25,M,,*66
$GPGLL,4611.955814,N,01258.220593,E,101641.00,A,A*6D
$GPVTG,324.5,T,324.6,M,001.8,N,003.3,K,A*29
$GPGSV,2,1,07,21,23,186,41,02,23,046,37,12,28,108,40,25,62,102,44*74
$GPGSV,2,2,07,29,84,314,40,30,68,307,34,31,51,287,,,,,*4E
$GPGSA,M,3,21,12,25,29,,,,,,,,,9.3,5.8,7.3*31
Trace #36 at position 8.750000
$GPZDA,101640.03,08,10,2011,00,00*6C
$GPRMC,101640.00,A,4611.955355,N,01258.220897,E,001.7,345.2,081011,0.2,E,A*3A
$GPGGA,101641.00,4611.955814,N,01258.220593,E,1,04,5.8,140.34,M,46.25,M,,*66
$GPGLL,4611.955814,N,01258.220593,E,101641.00,A,A*6D
$GPVTG,324.5,T,324.6,M,001.8,N,003.3,K,A*29
$GPGSV,2,1,07,21,23,186,41,02,23,046,37,12,28,108,40,25,62,102,44*74
$GPGSV,2,2,07,29,84,314,40,30,68,307,34,31,51,287,,,,,*4E
$GPGSA,M,3,21,12,25,29,,,,,,,,,9.3,5.8,7.3*31
Trace #37 at position 9.000000
$GPZDA,101640.03,08,10,2011,00,00*6C
$GPRMC,101640.00,A,4611.955355,N,01258.220897,E,001.7,345.2,081011,0.2,E,A*3A
$GPGGA,101641.00,4611.955814,N,01258.220593,E,1,04,5.8,140.34,M,46.25,M,,*66
$GPGLL,4611.955814,N,01258.220593,E,101641.00,A,A*6D
$GPVTG,324.5,T,324.6,M,001.8,N,003.3,K,A*29
$GPGSV,2,1,07,21,23,186,41,02,23,046,37,12,28,108,40,25,62,102,44*74
$GPGSV,2,2,07,29,84,314,40,30,68,307,34,31,51,287,,,,,*4E
$GPGSA,M,3,21,12,25,29,,,,,,,,,9.3,5.8,7.3*31
Trace #38 at position 9.250000
$GPZDA,101640.03,08,10,2011,00,00*6C
$GPRMC,101640.00,A,4611.955355,N,01258.220897,E,001.7,345.2,081011,0.2,E,A*3A
$GPGGA,101641.00,4611.955814,N,01258.220593,E,1,04,5.8,140.34,M,46.25,M,,*66
$GPGLL,4611.955814,N,01258.220593,E,101641.00,A,A*6D
$GPVTG,324.5,T,324.6,M,001.8,N,003.3,K,A*29
$GPGSV,2,1,07,21,23,186,41,02,23,046,37,12,28,108,40,25,62,102,44*74
$GPGSV,2,2,07,29,84,314,40,30,68,307,34,31,51,287,,,,,*4E
$GPGSA,M,3,21,12,25,29,,,,,,,,,9.3,5.8,7.3*31
Trace #39 at position 9.500000
$GPZDA,101641.03,08,10,2011,00,00*6D
$GPRMC,101641.00,A,4611.955814,N,01258.220593,E,001.8,324.5,081011,0.2,E,A*33
$GPGGA,101642.00,4611.956246,N,01258.220270,E,1,04,5.8,140.54,M,46.25,M,,*67
$GPGLL,4611.956246,N,01258.220270,E,101642.00,A,A*6A
$GPVTG,337.2,T,337.3,M,001.6,N,002.9,K,A*2E
$GPGSV,2,1,07,21,23,186,39,02,23,046,35,12,28,108,41,25,62,102,44*78
$GPGSV,2,2,07,29,84,314,39,30,68,307,33,31,51,287,,,,,*47
$GPGSA,M,3,21,12,25,29,,,,,,,,,9.3,5.8,7.3*31
Trace #40 at position 9.750000
$GPZDA,101641.03,08,10,2011,00,00*6D
$GPRMC,101641.00,A,4611.955814,N,01258.220593,E,001.8,324.5,081011,0.2,E,A*33
$GPGGA,101642.00,4611.956246,N,01258.220270,E,1,04,5.8,140.54,M,46.25,M,,*67
$GPGLL,4611.956246,N,01258.220270,E,101642.00,A,A*6A
$GPVTG,337.2,T,337.3,M,001.6,N,002.9,K,A*2E
$GPGSV,2,1,07,21,23,186,39,02,23,046,35,12,28,108,41,25,62,102,44*78
$GPGSV,2,2,07,29,84,314,39,30,68,307,33,31,51,287,,,,,*47
$GPGSA,M,3,21,12,25,29,,,,,,,,,9.3,5.8,7.3*31
Trace #41 at position 10.000000
$GPZDA,101641.03,08,10,2011,00,00*6D
$GPRMC,101641.00,A,4611.955814,N,01258.220593,E,001.8,324.5,081011,0.2,E,A*33
$GPGGA,101642.00,4611.956246,N,01258.220270,E,1,04,5.8,140.54,M,46.25,M,,*67
$GPGLL,4611.956246,N,01258.220270,E,101642.00,A,A*6A
$GPVTG,337.2,T,337.3,M,001.6,N,002.9,K,A*2E
$GPGSV,2,1,07,21,23,186,39,02,23,046,35,12,28,108,41,25,62,102,44*78
$GPGSV,2,2,07,29,84,314,39,30,68,307,33,31,51,287,,,,,*47
$GPGSA,M,3,21,12,25,29,,,,,,,,,9.3,5.8,7.3*31
Trace #42 at position 10.250000
$GPZDA,101641.03,08,10,2011,00,00*6D
$GPRMC,101641.00,A,4611.955814,N,01258.220593,E,001.8,324.5,081011,0.2,E,A*33
$GPGGA,101642.00,4611.956246,N,01258.220270,E,1,04,5.8,140.54,M,46.25,M,,*67
$GPGLL,4611.956246,N,01258.220270,E,101642.00,A,A*6A
$GPVTG,337.2,T,337.3,M,001.6,N,002.9,K,A*2E
$GPGSV,2,1,07,21,23,186,39,02,23,046,35,12,28,108,41,25,62,102,44*78
$GPGSV,2,2,07,29,84,314,39,30,68,307,33,31,51,287,,,,,*47
$GPGSA,M,3,21,12,25,29,,,,,,,,,9.3,5.8,7.3*31
Trace #43 at position 10.500000
$GPZDA,101642.03,08,10,2011,00,00*6E
$GPRMC,101642.00,A,4611.956246,N,01258.220270,E,001.6,337.2,081011,0.2,E,A*3F
$GPGGA,101643.00,4611.956745,N,01258.220049,E,1,04,5.8,140.65,M,46.25,M,,*6A
$GPGLL,4611.956745,N,01258.220049,E,101643.00,A,A*65
$GPVTG,345.7,T,345.8,M,001.9,N,003.6,K,A*21
$GPGSV,2,1,07,21,23,186,41,02,23,046,36,12,28,108,41,25,62,102,45*75
$GPGSV,2,2,07,29,84,314,40,30,68,307,35,31,51,287,32,,,,*4E
$GPGSA,M,3,21,12,25,29,,,,,,,,,9.3,5.8,7.3*31
Trace #44 at position 10.750000
$GPZDA,101642.03,08,10,2011,00,00*6E
$GPRMC,101642.00,A,4611.956246,N,01258.220270,E,001.6,337.2,081011,0.2,E,A*3F
$GPGGA,101643.00,4611.956745,N,01258.220049,E,1,04,5.8,140.65,M,46.25,M,,*6A
$GPGLL,4611.956745,N,01258.220049,E,101643.00,A,A*65
$GPVTG,345.7,T,345.8,M,001.9,N,003.6,K,A*21
$GPGSV,2,1,07,21,23,186,41,02,23,046,36,12,28,108,41,25,62,102,45*75
$GPGSV,2,2,07,29,84,314,40,30,68,307,35,31,51,287,32,,,,*4E
$GPGSA,M,3,21,12,25,29,,,,,,,,,9.3,5.8,7.3*31
Trace #45 at position 11.000000
$GPZDA,101642.03,08,10,2011,00,00*6E
$GPRMC,101642.00,A,4611.956246,N,01258.220270,E,001.6,337.2,081011,0.2,E,A*3F
$GPGGA,101643.00,4611.956745,N,01258.220049,E,1,04,5.8,140.65,M,46.25,M,,*6A
$GPGLL,4611.956745,N,01258.220049,E,101643.00,A,A*65
$GPVTG,345.7,T,345.8,M,001.9,N,003.6,K,A*21
$GPGSV,2,1,07,21,23,186,41,02,23,046,36,12,28,108,41,25,62,102,45*75
$GPGSV,2,2,07,29,84,314,40,30,68,307,35,31,51,287,32,,,,*4E
$GPGSA,M,3,21,12,25,29,,,,,,,,,9.3,5.8,7.3*31
Trace #46 at position 11.250000
$GPZDA,101642.03,08,10,2011,00,00*6E
$GPRMC,101642.00,A,4611.956246,N,01258.220270,E,001.6,337.2,081011,0.2,E,A*3F
$GPGGA,101643.00,4611.956745,N,01258.220049,E,1,04,5.8,140.65,M,46.25,M,,*6A
$GPGLL,4611.956745,N,01258.220049,E,101643.00,A,A*65
$GPVTG,345.7,T,345.8,M,001.9,N,003.6,K,A*21
$GPGSV,2,1,07,21,23,186,41,02,23,046,36,12,28,108,41,25,62,102,45*75
$GPGSV,2,2,07,29,84,314,40,30,68,307,35,31,51,287,32,,,,*4E
$GPGSA,M,3,21,12,25,29,,,,,,,,,9.3,5.8,7.3*31
Trace #47 at position 11.500000
$GPZDA,101643.03,08,10,2011,00,00*6F
$GPRMC,101643.00,A,4611.956745,N,01258.220049,E,001.9,345.7,081011,0.2,E,A*3F
$GPGGA,101644.00,4611.957282,N,01258.219884,E,1,04,5.7,140.64,M,46.25,M,,*6F
$GPGLL,4611.957282,N,01258.219884,E,101644.00,A,A*6E
$GPVTG,349.6,T,349.8,M,001.8,N,003.3,K,A*24
$GPGSV,2,1,07,21,23,186,40,02,23,046,33,12,28,108,40,25,62,102,44*71
$GPGSV,2,2,07,29,84,314,39,30,68,307,33,31,51,287,,,,,*47
$GPGSA,M,3,21,12,25,29,,,,,,,,,9.3,5.7,7.3*3E
Trace #48 at position 11.750000
$GPZDA,101643.03,08,10,2011,00,00*6F
$GPRMC,101643.00,A,4611.956745,N,01258.220049,E,001.9,345.7,081011,0.2,E,A*3F
$GPGGA,101644.00,4611.957282,N,01258.219884,E,1,04,5.7,140.64,M,46.25,M,,*6F
$GPGLL,4611.957282,N,01258.219884,E,101644.00,A,A*6E
$GPVTG,349.6,T,349.8,M,001.8,N,003.3,K,A*24
$GPGSV,2,1,07,21,23,186,40,02,23,046,33,12,28,108,40,25,62,102,44*71
$GPGSV,2,2,07,29,84,314,39,30,68,307,33,31,51,287,,,,,*47
$GPGSA,M,3,21,12,25,29,,,,,,,,,9.3,5.7,7.3*3E
Trace #49 at position 12.000000
$GPZDA,101643.03,08,10,2011,00,00*6F
$GPRMC,101643.00,A,4611.956745,N,01258.220049,E,001.9,345.7,081011,0.2,E,A*3F
$GPGGA,101644.00,4611.957282,N,01258.219884,E,1,04,5.7,140.64,M,46.25,M,,*6F
$GPGLL,4611.957282,N,01258.219884,E,101644.00,A,A*6E
$GPVTG,349.6,T,349.8,M,001.8,N,003.3,K,A*24
$GPGSV,2,1,07,21,23,186,40,02,23,046,33,12,28,108,40,25,62,102,44*71
$GPGSV,2,2,07,29,84,314,39,30,68,307,33,31,51,287,,,,,*47
$GPGSA,M,3,21,12,25,29,,,,,,,,,9.3,5.7,7.3*3E
Trace #50 at position 12.250000
$GPZDA,101644.03,08,10,2011,00,00*68
$GPRMC,101644.00,A,4611.957282,N,01258.219884,E,001.8,349.6,081011,0.2,E,A*38
$GPGGA,101645.00,4611.957826,N,01258.219628,E,1,04,5.7,140.56,M,46.25,M,,*63
$GPGLL,4611.957826,N,01258.219628,E,101645.00,A,A*63
$GPVTG,334.7,T,334.8,M,002.1,N,003.9,K,A*25
$GPGSV,2,1,07,21,23,186,43,02,23,046,34,12,28,108,40,25,62,102,44*75
$GPGSV,2,2,07,29,84,314,40,30,68,307,34,31,51,287,33,,,,*4E
$GPGSA,M,3,21,12,25,29,,,,,,,,,9.3,5.7,7.3*3E
Trace #51 at position 12.500000
$GPZDA,101644.03,08,10,2011,00,00*68
$GPRMC,101644.00,A,4611.957282,N,01258.219884,E,001.8,349.6,081011,0.2,E,A*38
$GPGGA,101645.00,4611.957826,N,01258.219628,E,1,04,5.7,140.56,M,46.25,M,,*63
$GPGLL,4611.957826,N,01258.219628,E,101645.00,A,A*63
$GPVTG,334.7,T,334.8,M,002.1,N,003.9,K,A*25
$GPGSV,2,1,07,21,23,186,43,02,23,046,34,12,28,108,40,25,62,102,44*75
$GPGSV,2,2,07,29,84,314,40,30,68,307,34,31,51,287,33,,,,*4E
$GPGSA,M,3,21,12,25,29,,,,,,,,,9.3,5.7,7.3*3E
Trace #52 at position 12.750000
$GPZDA,101644.03,08,10,2011,00,00*68
$GPRMC,101644.00,A,4611.957282,N,01258.219884,E,001.8,349.6,081011,0.2,E,A*38
$GPGGA,101645.00,4611.957826,N,01258.219628,E,1,04,5.7,140.56,M,46.25,M,,*63
$GPGLL,4611.957826,N,01258.219628,E,101645.00,A,A*63
$GPVTG,334.7,T,334.8,M,002.1,N,003.9,K,A*25
$GPGSV,2,1,07,21,23,186,43,02,23,046,34,12,28,108,40,25,62,102,44*75
$GPGSV,2,2,07,29,84,314,40,30,68,307,34,31,51,287,33,,,,*4E
$GPGSA,M,3,21,12,25,29,,,,,,,,,9.3,5.7,7.3*3E
Trace #53 at position 13.000000
$GPZDA,101644.03,08,10,2011,00,00*68
$GPRMC,101644.00,A,4611.957282,N,01258.219884,E,001.8,349.6,081011,0.2,E,A*38
$GPGGA,101645.00,4611.957826,N,01258.219628,E,1,04,5.7,140.56,M,46.25,M,,*63
$GPGLL,4611.957826,N,01258.219628,E,101645.00,A,A*63
$GPVTG,334.7,T,334.8,M,002.1,N,003.9,K,A*25
$GPGSV,2,1,07,21,23,186,43,02,23,046,34,12,28,108,40,25,62,102,44*75
$GPGSV,2,2,07,29,84,314,40,30,68,307,34,31,51,287,33,,,,*4E
$GPGSA,M,3,21,12,25,29,,,,,,,,,9.3,5.7,7.3*3E
Trace #54 at position 13.250000
$GPZDA,101645.03,08,10,2011,00,00*69
$GPRMC,101645.00,A,4611.957826,N,01258.219628,E,002.1,334.7,081011,0.2,E,A*34
$GPGGA,101646.00,4611.958354,N,01258.219238,E,1,04,5.7,140.50,M,46.25,M,,*62
$GPGLL,4611.958354,N,01258.219238,E,101646.00,A,A*64
$GPVTG,327.1,T,327.3,M,002.0,N,003.7,K,A*27
$GPGSV,2,1,07,21,23,186,41,02,23,046,34,12,28,108,39,25,62,102,44*79
$GPGSV,2,2,07,29,84,315,40,30,68,307,35,31,51,287,33,,,,*4E
$GPGSA,M,3,21,12,25,29,,,,,,,,,9.3,5.7,7.3*3E
Trace #55 at position 13.500000
$GPZDA,101645.03,08,10,2011,00,00*69
$GPRMC,101645.00,A,4611.957826,N,01258.219628,E,002.1,334.7,081011,0.2,E,A*34
$GPGGA,101646.00,4611.958354,N,01258.219238,E,1,04,5.7,140.50,M,46.25,M,,*62
$GPGLL,4611.958354,N,01258.219238,E,101646.00,A,A*64
$GPVTG,327.1,T,327.3,M,002.0,N,003.7,K,A*27
$GPGSV,2,1,07,21,23,186,41,02,23,046,34,12,28,108,39,25,62,102,44*79
$GPGSV,2,2,07,29,84,315,40,30,68,307,35,31,51,287,33,,,,*4E
$GPGSA,M,3,21,12,25,29,,,,,,,,,9.3,5.7,7.3*3E
Trace #56 at position 13.750000
$GPZDA,101646.03,08,10,2011,00,00*6A
$GPRMC,101646.00,A,4611.958354,N,01258.219238,E,002.0,327.1,081011,0.2,E,A*36
$GPGGA,101647.00,4611.958793,N,01258.218997,E,1,04,5.7,140.58,M,46.25,M,,*6B
$GPGLL,4611.958793,N,01258.218997,E,101647.00,A,A*65
$GPVTG,350.3,T,350.5,M,001.3,N,002.4,K,A*21
$GPGSV,2,1,07,21,23,186,42,02,23,046,33,12,28,108,39,25,62,102,44*7D
$GPGSV,2,2,07,29,84,315,39,30,68,307,35,31,51,287,34,,,,*47
$GPGSA,M,3,21,12,25,29,,,,,,,,,9.3,5.7,7.3*3E
Trace #57 at position 14.000000
$GPZDA,101646.03,08,10,2011,00,00*6A
$GPRMC,101646.00,A,4611.958354,N,01258.219238,E,002.0,327.1,081011,0.2,E,A*36
$GPGGA,101647.00,4611.958793,N,01258.218997,E,1,04,5.7,140.58,M,46.25,M,,*6B
$GPGLL,4611.958793,N,01258.218997,E,101647.00,A,A*65
$GPVTG,350.3,T,350.5,M,001.3,N,002.4,K,A*21
$GPGSV,2,1,07,21,23,186,42,02,23,046,33,12,28,108,39,25,62,102,44*7D
$GPGSV,2,2,07,29,84,315,39,30,68,307,35,31,51,287,34,,,,*47
$GPGSA,M,3,21,12,25,29,,,,,,,,,9.3,5.7,7.3*3E
Trace #58 at position 14.250000
$GPZDA,101646.03,08,10,2011,00,00*6A
$GPRMC,101646.00,A,4611.958354,N,01258.219238,E,002.0,327.1,081011,0.2,E,A*36
$GPGGA,101647.00,4611.958793,N,01258.218997,E,1,04,5.7,140.58,M,46.25,M,,*6B
$GPGLL,4611.958793,N,01258.218997,E,101647.00,A,A*65
$GPVTG,350.3,T,350.5,M,001.3,N,002.4,K,A*21
$GPGSV,2,1,07,21,23,186,42,02,23,046,33,12,28,108,39,25,62,102,44*7D
$GPGSV,2,2,07,29,84,315,39,30,68,307,35,31,51,287,34,,,,*47
$GPGSA,M,3,21,12,25,29,,,,,,,,,9.3,5.7,7.3*3E
Trace #59 at position 14.500000
$GPZDA,101647.03,08,10,2011,00,00*6B
$GPRMC,101647.00,A,4611.958793,N,01258.218997,E,001.3,350.3,081011,0.2,E,A*35
$GPGGA,101648.00,4611.959260,N,01258.218813,E,1,04,5.7,140.47,M,46.25,M,,*6F
$GPGLL,4611.959260,N,01258.218813,E,101648.00,A,A*6F
$GPVTG,336.9,T,337.0,M,002.2,N,004.0,K,A*2F
$GPGSV,2,1,07,21,23,186,40,02,23,046,36,12,28,108,39,25,62,102,43*7D
$GPGSV,2,2,07,29,84,315,39,30,68,307,36,31,51,287,33,,,,*43
$GPGSA,M,3,21,12,25,29,,,,,,,,,9.3,5.7,7.3*3E
Trace #60 at position 14.750000
$GPZDA,101647.03,08,10,2011,00,00*6B
$GPRMC,101647.00,A,4611.958793,N,01258.218997,E,001.3,350.3,081011,0.2,E,A*35
$GPGGA,101648.00,4611.959260,N,01258.218813,E,1,04,5.7,140.47,M,46.25,M,,*6F
$GPGLL,4611.959260,N,01258.218813,E,101648.00,A,A*6F
$GPVTG,336.9,T,337.0,M,002.2,N,004.0,K,A*2F
$GPGSV,2,1,07,21,23,186,40,02,23,046,36,12,28,108,39,25,62,102,43*7D
$GPGSV,2,2,07,29,84,315,39,30,68,307,36,31,51,287,33,,,,*43
$GPGSA,M,3,21,12,25,29,,,,,,,,,9.3,5.7,7.3*3E
Trace #61 at position 15.000000
$GPZDA,101647.03,08,10,2011,00,00*6B
$GPRMC,101647.00,A,4611.958793,N,01258.218997,E,001.3,350.3,081011,0.2,E,A*35
$GPGGA,101648.00,4611.959260,N,01258.218813,E,1,04,5.7,140.47,M,46.25,M,,*6F
$GPGLL,4611.959260,N,01258.218813,E,101648.00,A,A*6F
$GPVTG,336.9,T,337.0,M,002.2,N,004.0,K,A*2F
$GPGSV,2,1,07,21,23,186,40,02,23,046,36,12,28,108,39,25,62,102,43*7D
$GPGSV,2,2,07,29,84,315,39,30,68,307,36,31,51,287,33,,,,*43
$GPGSA,M,3,21,12,25,29,,,,,,,,,9.3,5.7,7.3*3E
Trace #62 at position 15.250000
$GPZDA,101647.03,08,10,2011,00,00*6B
$GPRMC,101647.00,A,4611.958793,N,01258.218997,E,001.3,350.3,081011,0.2,E,A*35
$GPGGA,101648.00,4611.959260,N,01258.218813,E,1,04,5.7,140.47,M,46.25,M,,*6F
$GPGLL,4611.959260,N,01258.218813,E,101648.00,A,A*6F
$GPVTG,336.9,T,337.0,M,002.2,N,004.0,K,A*2F
$GPGSV,2,1,07,21,23,186,40,02,23,046,36,12,28,108,39,25,62,102,43*7D
$GPGSV,2,2,07,29,84,315,39,30,68,307,36,31,51,287,33,,,,*43
$GPGSA,M,3,21,12,25,29,,,,,,,,,9.3,5.7,7.3*3E
Trace #63 at position 15.500000
$GPZDA,101648.03,08,10,2011,00,00*64
$GPRMC,101648.00,A,4611.959260,N,01258.218813,E,002.2,336.9,081011,0.2,E,A*37
$GPGGA,101649.00,4611.959853,N,01258.218639,E,1,04,5.7,140.08,M,46.25,M,,*69
$GPGLL,4611.959853,N,01258.218639,E,101649.00,A,A*62
$GPVTG,356.4,T,356.6,M,002.3,N,004.3,K,A*27
$GPGSV,2,1,07,21,23,186,40,02,23,046,34,12,28,108,39,25,62,102,42*7E
$GPGSV,2,2,07,29,84,315,40,30,68,307,37,31,51,287,36,,,,*49
$GPGSA,M,3,21,12,25,29,,,,,,,,,9.3,5.7,7.3*3E
Trace #64 at position 15.750000
$GPZDA,101648.03,08,10,2011,00,00*64
$GPRMC,101648.00,A,4611.959260,N,01258.218813,E,002.2,336.9,081011,0.2,E,A*37
$GPGGA,101649.00,4611.959853,N,01258.218639,E,1,04,5.7,140.08,M,46.25,M,,*69
$GPGLL,4611.959853,N,01258.218639,E,101649.00,A,A*62
$GPVTG,356.4,T,356.6,M,002.3,N,004.3,K,A*27
$GPGSV,2,1,07,21,23,186,40,02,23,046,34,12,28,108,39,25,62,102,42*7E
$GPGSV,2,2,07,29,84,315,40,30,68,307,37,31,51,287,36,,,,*49
$GPGSA,M,3,21,12,25,29,,,,,,,,,9.3,5.7,7.3*3E
Trace #65 at position 16.000000
$GPZDA,101648.03,08,10,2011,00,00*64
$GPRMC,101648.00,A,4611.959260,N,01258.218813,E,002.2,336.9,081011,0.2,E,A*37
$GPGGA,101649.00,4611.959853,N,01258.218639,E,1,04,5.7,140.08,M,46.25,M,,*69
$GPGLL,4611.959853,N,01258.218639,E,101649.00,A,A*62
$GPVTG,356.4,T,356.6,M,002.3,N,004.3,K,A*27
$GPGSV,2,1,07,21,23,186,40,02,23,046,34,12,28,108,39,25,62,102,42*7E
$GPGSV,2,2,07,29,84,315,40,30,68,307,37,31,51,287,36,,,,*49
$GPGSA,M,3,21,12,25,29,,,,,,,,,9.3,5.7,7.3*3E
Trace #66 at position 16.250000
$GPZDA,101649.03,08,10,2011,00,00*65
$GPRMC,101649.00,A,4611.959853,N,01258.218639,E,002.3,356.4,081011,0.2,E,A*30
$GPGGA,101650.00,4611.960360,N,01258.218493,E,1,04,5.7,139.98,M,46.25,M,,*65
$GPGLL,4611.960360,N,01258.218493,E,101650.00,A,A*69
$GPVTG,335.0,T,335.1,M,001.6,N,003.0,K,A*26
$GPGSV,2,1,07,21,23,186,39,02,22,046,37,12,28,108,40,25,62,102,43*7D
$GPGSV,2,2,07,29,84,315,39,30,68,307,34,31,51,287,31,,,,*43
$GPGSA,M,3,21,12,25,29,,,,,,,,,9.3,5.7,7.3*3E
Trace #67 at position 16.500000
$GPZDA,101649.03,08,10,2011,00,00*65
$GPRMC,101649.00,A,4611.959853,N,01258.218639,E,002.3,356.4,081011,0.2,E,A*30
$GPGGA,101650.00,4611.960360,N,01258.218493,E,1,04,5.7,139.98,M,46.25,M,,*65
$GPGLL,4611.960360,N,01258.218493,E,101650.00,A,A*69
$GPVTG,335.0,T,335.1,M,001.6,N,003.0,K,A*26
$GPGSV,2,1,07,21,23,186,39,02,22,046,37,12,28,108,40,25,62,102,43*7D
$GPGSV,2,2,07,29,84,315,39,30,68,307,34,31,51,287,31,,,,*43
$GPGSA,M,3,21,12,25,29,,,,,,,,,9.3,5.7,7.3*3E
Trace #68 at position 16.750000
$GPZDA,101649.03,08,10,2011,00,00*65
$GPRMC,101649.00,A,4611.959853,N,01258.218639,E,002.3,356.4,081011,0.2,E,A*30
$GPGGA,101650.00,4611.960360,N,01258.218493,E,1,04,5.7,139.98,M,46.25,M,,*65
$GPGLL,4611.960360,N,01258.218493,E,101650.00,A,A*69
$GPVTG,335.0,T,335.1,M,001.6,N,003.0,K,A*26
$GPGSV,2,1,07,21,23,186,39,02,22,046,37,12,28,108,40,25,62,102,43*7D
$GPGSV,2,2,07,29,84,315,39,30,68,307,34,31,51,287,31,,,,*43
$GPGSA,M,3,21,12,25,29,,,,,,,,,9.3,5.7,7.3*3E
Trace #69 at position 17.000000
$GPZDA,101649.03,08,10,2011,00,00*65
$GPRMC,101649.00,A,4611.959853,N,01258.218639,E,002.3,356.4,081011,0.2,E,A*30
$GPGGA,101650.00,4611.960360,N,01258.218493,E,1,04,5.7,139.98,M,46.25,M,,*65
$GPGLL,4611.960360,N,01258.218493,E,101650.00,A,A*69
$GPVTG,335.0,T,335.1,M,001.6,N,003.0,K,A*26
$GPGSV,2,1,07,21,23,186,39,02,22,046,37,12,28,108,40,25,62,102,43*7D
$GPGSV,2,2,07,29,84,315,39,30,68,307,34,31,51,287,31,,,,*43
$GPGSA,M,3,21,12,25,29,,,,,,,,,9.3,5.7,7.3*3E
Trace #70 at position 17.250000
$GPZDA,101650.03,08,10,2011,00,00*6D
$GPRMC,101650.00,A,4611.960360,N,01258.218493,E,001.6,335.0,081011,0.2,E,A*3C
$GPGGA,101651.00,4611.960785,N,01258.218341,E,1,04,5.7,140.06,M,46.25,M,,*6A
$GPGLL,4611.960785,N,01258.218341,E,101651.00,A,A*6F
$GPVTG,356.3,T,356.5,M,001.7,N,003.1,K,A*21
$GPGSV,2,1,07,21,23,186,40,02,22,046,36,12,28,108,39,25,62,102,43*7C
$GPGSV,2,2,07,29,84,315,40,30,68,307,35,31,51,287,,,,,*4E
$GPGSA,M,3,21,12,25,29,,,,,,,,,9.3,5.7,7.3*3E
Trace #71 at position 17.500000
$GPZDA,101650.03,08,10,2011,00,00*6D
$GPRMC,101650.00,A,4611.960360,N,01258.218493,E,001.6,335.0,081011,0.2,E,A*3C
$GPGGA,101651.00,4611.960785,N,01258.218341,E,1,04,5.7,140.06,M,46.25,M,,*6A
$GPGLL,4611.960785,N,01258.218341,E,101651.00,A,A*6F
$GPVTG,356.3,T,356.5,M,001.7,N,003.1,K,A*21
$GPGSV,2,1,07,21,23,186,40,02,22,046,36,12,28,108,39,25,62,102,43*7C
$GPGSV,2,2,07,29,84,315,40,30,68,307,35,31,51,287,,,,,*4E
$GPGSA,M,3,21,12,25,29,,,,,,,,,9.3,5.7,7.3*3E
Trace #72 at position 17.750000
$GPZDA,101650.03,08,10,2011,00,00*6D
$GPRMC,101650.00,A,4611.960360,N,01258.218493,E,001.6,335.0,081011,0.2,E,A*3C
$GPGGA,101651.00,4611.960785,N,01258.218341,E,1,04,5.7,140.06,M,46.25,M,,*6A
$GPGLL,4611.960785,N,01258.218341,E,101651.00,A,A*6F
$GPVTG,356.3,T,356.5,M,001.7,N,003.1,K,A*21
$GPGSV,2,1,07,21,23,186,40,02,22,046,36,12,28,108,39,25,62,102,43*7C
$GPGSV,2,2,07,29,84,315,40,30,68,307,35,31,51,287,,,,,*4E
$GPGSA,M,3,21,12,25,29,,,,,,,,,9.3,5.7,7.3*3E
Trace #73 at position 18.000000
$GPZDA,101651.03,08,10,2011,00,00*6C
$GPRMC,101651.00,A,4611.960785,N,01258.218341,E,001.7,356.3,081011,0.2,E,A*3D
$GPGGA,101652.00,4611.961284,N,01258.218201,E,1,04,5.7,139.94,M,46.25,M,,*6C
$GPGLL,4611.961284,N,01258.218201,E,101652.00,A,A*6C
$GPVTG,344.0,T,344.1,M,002.1,N,003.9,K,A*2B
$GPGSV,2,1,07,21,23,186,39,02,22,046,37,12,28,108,40,25,62,102,43*7D
$GPGSV,2,2,07,29,84,315,40,30,68,307,33,31,51,287,,,,,*48
$GPGSA,M,3,21,12,25,29,,,,,,,,,9.3,5.7,7.3*3E
Trace #74 at position 18.250000
$GPZDA,101651.03,08,10,2011,00,00*6C
$GPRMC,101651.00,A,4611.960785,N,01258.218341,E,001.7,356.3,081011,0.2,E,A*3D
$GPGGA,101652.00,4611.961284,N,01258.218201,E,1,04,5.7,139.94,M,46.25,M,,*6C
$GPGLL,4611.961284,N,01258.218201,E,101652.00,A,A*6C
$GPVTG,344.0,T,344.1,M,002.1,N,003.9,K,A*2B
$GPGSV,2,1,07,21,23,186,39,02,22,046,37,12,28,108,40,25,62,102,43*7D
$GPGSV,2,2,07,29,84,315,40,30,68,307,33,31,51,287,,,,,*48
$GPGSA,M,3,21,12,25,29,,,,,,,,,9.3,5.7,7.3*3E
Trace #75 at position 18.500000
$GPZDA,101651.03,08,10,2011,00,00*6C
$GPRMC,101651.00,A,4611.960785,N,01258.218341,E,001.7,356.3,081011,0.2,E,A*3D
$GPGGA,101652.00,4611.961284,N,01258.218201,E,1,04,5.7,139.94,M,46.25,M,,*6C
$GPGLL,4611.961284,N,01258.218201,E,101652.00,A,A*6C
$GPVTG,344.0,T,344.1,M,002.1,N,003.9,K,A*2B
$GPGSV,2,1,07,21,23,186,39,02,22,046,37,12,28,108,40,25,62,102,43*7D
$GPGSV,2,2,07,29,84,315,40,30,68,307,33,31,51,287,,,,,*48
$GPGSA,M,3,21,12,25,29,,,,,,,,,9.3,5.7,7.3*3E
Trace #76 at position 18.750000
$GPZDA,101651.03,08,10,2011,00,00*6C
$GPRMC,101651.00,A,4611.960785,N,01258.218341,E,001.7,356.3,081011,0.2,E,A*3D
$GPGGA,101652.00,4611.961284,N,01258.218201,E,1,04,5.7,139.94,M,46.25,M,,*6C
$GPGLL,4611.961284,N,01258.218201,E,101652.00,A,A*6C
$GPVTG,344.0,T,344.1,M,002.1,N,003.9,K,A*2B
$GPGSV,2,1,07,21,23,186,39,02,22,046,37,12,28,108,40,25,62,102,43*7D
$GPGSV,2,2,07,29,84,315,40,30,68,307,33,31,51,287,,,,,*48
$GPGSA,M,3,21,12,25,29,,,,,,,,,9.3,5.7,7.3*3E
Trace #77 at position 19.000000
$GPZDA,101652.03,08,10,2011,00,00*6F
$GPRMC,101652.00,A,4611.961284,N,01258.218201,E,002.1,344.0,081011,0.2,E,A*3B
$GPGGA,101653.00,4611.961768,N,01258.218059,E,1,04,5.7,139.72,M,46.25,M,,*6D
$GPGLL,4611.961768,N,01258.218059,E,101653.00,A,A*65
$GPVTG,357.4,T,357.5,M,001.7,N,003.1,K,A*26
$GPGSV,2,1,07,21,23,186,40,02,22,046,36,12,28,108,39,25,62,102,44*7B
$GPGSV,2,2,07,29,84,315,40,30,68,307,31,31,51,287,,,,,*4A
$GPGSA,M,3,21,12,25,29,,,,,,,,,9.3,5.7,7.3*3E
Trace #78 at position 19.250000
$GPZDA,101652.03,08,10,2011,00,00*6F
$GPRMC,101652.00,A,4611.961284,N,01258.218201,E,002.1,344.0,081011,0.2,E,A*3B
$GPGGA,101653.00,4611.961768,N,01258.218059,E,1,04,5.7,139.72,M,46.25,M,,*6D
$GPGLL,4611.961768,N,01258.218059,E,101653.00,A,A*65
$GPVTG,357.4,T,357.5,M,001.7,N,003.1,K,A*26
$GPGSV,2,1,07,21,23,186,40,02,22,046,36,12,28,108,39,25,62,102,44*7B
$GPGSV,2,2,07,29,84,315,40,30,68,307,31,31,51,287,,,,,*4A
$GPGSA,M,3,21,12,25,29,,,,,,,,,9.3,5.7,7.3*3E
Trace #79 at position 19.500000
$GPZDA,101652.03,08,10,2011,00,00*6F
$GPRMC,101652.00,A,4611.961284,N,01258.218201,E,002.1,344.0,081011,0.2,E,A*3B
$GPGGA,101653.00,4611.961768,N,01258.218059,E,1,04,5.7,139.72,M,46.25,M,,*6D
$GPGLL,4611.961768,N,01258.218059,E,101653.00,A,A*65
$GPVTG,357.4,T,357.5,M,001.7,N,003.1,K,A*26
$GPGSV,2,1,07,21,23,186,40,02,22,046,36,12,28,108,39,25,62,102,44*7B
$GPGSV,2,2,07,29,84,315,40,30,68,307,31,31,51,287,,,,,*4A
$GPGSA,M,3,21,12,25,29,,,,,,,,,9.3,5.7,7.3*3E
Trace #80 at position 19.750000
$GPZDA,101653.03,08,10,2011,00,00*6E
$GPRMC,101653.00,A,4611.961768,N,01258.218059,E,001.7,357.4,081011,0.2,E,A*31
$GPGGA,101654.00,4611.962181,N,01258.217933,E,1,04,5.7,139.72,M,46.25,M,,*62
$GPGLL,4611.962181,N,01258.217933,E,101654.00,A,A*6A
$GPVTG,342.5,T,342.6,M,001.5,N,002.9,K,A*2F
$GPGSV,2,1,07,21,23,186,40,02,22,046,36,12,28,108,39,25,62,102,43*7C
$GPGSV,2,2,07,29,84,315,40,30,68,307,33,31,51,287,,,,,*48
$GPGSA,M,3,21,12,25,29,,,,,,,,,9.3,5.7,7.3*3E
Trace #81 at position 20.000000
$GPZDA,101653.03,08,10,2011,00,00*6E
$GPRMC,101653.00,A,4611.961768,N,01258.218059,E,001.7,357.4,081011,0.2,E,A*31
$GPGGA,101654.00,4611.962181,N,01258.217933,E,1,04,5.7,139.72,M,46.25,M,,*62
$GPGLL,4611.962181,N,01258.217933,E,101654.00,A,A*6A
$GPVTG,342.5,T,342.6,M,001.5,N,002.9,K,A*2F
$GPGSV,2,1,07,21,23,186,40,02,22,046,36,12,28,108,39,25,62,102,43*7C
$GPGSV,2,2,07,29,84,315,40,30,68,307,33,31,51,287,,,,,*48
$GPGSA,M,3,21,12,25,29,,,,,,,,,9.3,5.7,7.3*3E
Trace #82 at position 20.250000
$GPZDA,101653.03,08,10,2011,00,00*6E
$GPRMC,101653.00,A,4611.961768,N,01258.218059,E,001.7,357.4,081011,0.2,E,A*31
$GPGGA,101654.00,4611.962181,N,01258.217933,E,1,04,5.7,139.72,M,46.25,M,,*62
$GPGLL,4611.962181,N,01258.217933,E,101654.00,A,A*6A
$GPVTG,342.5,T,342.6,M,001.5,N,002.9,K,A*2F
$GPGSV,2,1,07,21,23,186,40,02,22,046,36,12,28,108,39,25,62,102,43*7C
$GPGSV,2,2,07,29,84,315,40,30,68,307,33,31,51,287,,,,,*48
$GPGSA,M,3,21,12,25,29,,,,,,,,,9.3,5.7,7.3*3E
Trace #83 at position 20.500000
$GPZDA,101653.03,08,10,2011,00,00*6E
$GPRMC,101653.00,A,4611.961768,N,01258.218059,E,001.7,357.4,081011,0.2,E,A*31
$GPGGA,101654.00,4611.962181,N,01258.217933,E,1,04,5.7,139.72,M,46.25,M,,*62
$GPGLL,4611.962181,N,01258.217933,E,101654.00,A,A*6A
$GPVTG,342.5,T,342.6,M,001.5,N,002.9,K,A*2F
$GPGSV,2,1,07,21,23,186,40,02,22,046,36,12,28,108,39,25,62,102,43*7C
$GPGSV,2,2,07,29,84,315,40,30,68,307,33,31,51,287,,,,,*48
$GPGSA,M,3,21,12,25,29,,,,,,,,,9.3,5.7,7.3*3E
Trace #84 at position 20.750000
$GPZDA,101654.03,08,10,2011,00,00*69
$GPRMC,101654.00,A,4611.962181,N,01258.217933,E,001.5,342.5,081011,0.2,E,A*39
$GPGGA,101655.00,4611.962603,N,01258.217800,E,1,04,5.7,139.79,M,46.25,M,,*64
$GPGLL,4611.962603,N,01258.217800,E,101655.00,A,A*67
$GPVTG,358.1,T,358.3,M,001.7,N,003.1,K,A*25
$GPGSV,2,1,07,21,23,186,40,02,22,046,35,12,28,108,40,25,62,102,44*76
$GPGSV,2,2,07,29,84,315,42,30,68,307,35,31,51,287,33,,,,*4C
$GPGSA,M,3,21,12,25,29,,,,,,,,,9.3,5.7,7.3*3E
Trace #85 at position 21.000000
$GPZDA,101654.03,08,10,2011,00,00*69
$GPRMC,101654.00,A,4611.962181,N,01258.217933,E,001.5,342.5,081011,0.2,E,A*39
$GPGGA,101655.00,4611.962603,N,01258.217800,E,1,04,5.7,139.79,M,46.25,M,,*64
$GPGLL,4611.962603,N,01258.217800,E,101655.00,A,A*67
$GPVTG,358.1,T,358.3,M,001.7,N,003.1,K,A*25
$GPGSV,2,1,07,21,23,186,40,02,22,046,35,12,28,108,40,25,62,102,44*76
$GPGSV,2,2,07,29,84,315,42,30,68,307,35,31,51,287,33,,,,*4C
$GPGSA,M,3,21,12,25,29,,,,,,,,,9.3,5.7,7.3*3E
Trace #86 at position 21.250000
$GPZDA,101654.03,08,10,2011,00,00*69
$GPRMC,101654.00,A,4611.962181,N,01258.217933,E,001.5,342.5,081011,0.2,E,A*39
$GPGGA,101655.00,4611.962603,N,01258.217800,E,1,04,5.7,139.79,M,46.25,M,,*64
$GPGLL,4611.962603,N,01258.217800,E,101655.00,A,A*67
$GPVTG,358.1,T,358.3,M,001.7,N,003.1,K,A*25
$GPGSV,2,1,07,21,23,186,40,02,22,046,35,12,28,108,40,25,62,102,44*76
$GPGSV,2,2,07,29,84,315,42,30,68,307,35,31,51,287,33,,,,*4C
$GPGSA,M,3,21,12,25,29,,,,,,,,,9.3,5.7,7.3*3E
Trace #87 at position 21.500000
$GPZDA,101655.03,08,10,2011,00,00*68
$GPRMC,101655.00,A,4611.962603,N,01258.217800,E,001.7,358.1,081011,0.2,E,A*39
$GPGGA,101656.00,4611.963077,N,01258.217632,E,1,04,5.7,139.66,M,46.25,M,,*62
$GPGLL,4611.963077,N,01258.217632,E,101656.00,A,A*6F
$GPVTG,342.3,T,342.4,M,002.0,N,003.7,K,A*22
$GPGSV,2,1,07,21,23,186,41,02,22,046,34,12,28,108,39,25,62,102,44*78
$GPGSV,2,2,07,29,84,315,41,30,68,307,37,31,51,287,33,,,,*4D
$GPGSA,M,3,21,12,25,29,,,,,,,,,9.3,5.7,7.3*3E
Trace #88 at position 21.750000
$GPZDA,101655.03,08,10,2011,00,00*68
$GPRMC,101655.00,A,4611.962603,N,01258.217800,E,001.7,358.1,081011,0.2,E,A*39
$GPGGA,101656.00,4611.963077,N,01258.217632,E,1,04,5.7,139.66,M,46.25,M,,*62
$GPGLL,4611.963077,N,01258.217632,E,101656.00,A,A*6F
$GPVTG,342.3,T,342.4,M,002.0,N,003.7,K,A*22
$GPGSV,2,1,07,21,23,186,41,02,22,046,34,12,28,108,39,25,62,102,44*78
$GPGSV,2,2,07,29,84,315,41,30,68,307,37,31,51,287,33,,,,*4D
$GPGSA,M,3,21,12,25,29,,,,,,,,,9.3,5.7,7.3*3E
Trace #89 at position 22.000000
$GPZDA,101655.03,08,10,2011,00,00*68
$GPRMC,101655.00,A,4611.962603,N,01258.217800,E,001.7,358.1,081011,0.2,E,A*39
$GPGGA,101656.00,4611.963077,N,01258.217632,E,1,04,5.7,139.66,M,46.25,M,,*62
$GPGLL,4611.963077,N,01258.217632,E,101656.00,A,A*6F
$GPVTG,342.3,T,342.4,M,002.0,N,003.7,K,A*22
$GPGSV,2,1,07,21,23,186,41,02,22,046,34,12,28,108,39,25,62,102,44*78
$GPGSV,2,2,07,29,84,315,41,30,68,307,37,31,51,287,33,,,,*4D
$GPGSA,M,3,21,12,25,29,,,,,,,,,9.3,5.7,7.3*3E
Trace #90 at position 22.250000
$GPZDA,101655.03,08,10,2011,00,00*68
$GPRMC,101655.00,A,4611.962603,N,01258.217800,E,001.7,358.1,081011,0.2,E,A*39
$GPGGA,101656.00,4611.963077,N,01258.217632,E,1,04,5.7,139.66,M,46.25,M,,*62
$GPGLL,4611.963077,N,01258.217632,E,101656.00,A,A*6F
$GPVTG,342.3,T,342.4,M,002.0,N,003.7,K,A*22
$GPGSV,2,1,07,21,23,186,41,02,22,046,34,12,28,108,39,25,62,102,44*78
$GPGSV,2,2,07,29,84,315,41,30,68,307,37,31,51,287,33,,,,*4D
$GPGSA,M,3,21,12,25,29,,,,,,,,,9.3,5.7,7.3*3E
Trace #91 at position 22.500000
$GPZDA,101656.03,08,10,2011,00,00*6B
$GPRMC,101656.00,A,4611.963077,N,01258.217632,E,002.0,342.3,081011,0.2,E,A*3C
$GPGGA,101657.00,4611.963532,N,01258.217365,E,1,04,5.7,139.56,M,46.25,M,,*63
$GPGLL,4611.963532,N,01258.217365,E,101657.00,A,A*6D
$GPVTG,339.8,T,340.0,M,001.7,N,003.1,K,A*21
$GPGSV,2,1,07,21,23,186,42,02,22,046,34,12,28,108,40,25,62,103,44*74
$GPGSV,2,2,07,29,84,316,40,30,68,307,35,31,51,287,,,,,*4D
$GPGSA,M,3,21,12,25,29,,,,,,,,,9.2,5.7,7.3*3F
Trace #92 at position 22.750000
$GPZDA,101656.03,08,10,2011,00,00*6B
$GPRMC,101656.00,A,4611.963077,N,01258.217632,E,002.0,342.3,081011,0.2,E,A*3C
$GPGGA,101657.00,4611.963532,N,01258.217365,E,1,04,5.7,139.56,M,46.25,M,,*63
$GPGLL,4611.963532,N,01258.217365,E,101657.00,A,A*6D
$GPVTG,339.8,T,340.0,M,001.7,N,003.1,K,A*21
$GPGSV,2,1,07,21,23,186,42,02,22,046,34,12,28,108,40,25,62,103,44*74
$GPGSV,2,2,07,29,84,316,40,30,68,307,35,31,51,287,,,,,*4D
$GPGSA,M,3,21,12,25,29,,,,,,,,,9.2,5.7,7.3*3F
Trace #93 at position 23.000000
$GPZDA,101656.03,08,10,2011,00,00*6B
$GPRMC,101656.00,A,4611.963077,N,01258.217632,E,002.0,342.3,081011,0.2,E,A*3C
$GPGGA,101657.00,4611.963532,N,01258.217365,E,1,04,5.7,139.56,M,46.25,M,,*63
$GPGLL,4611.963532,N,01258.217365,E,101657.00,A,A*6D
$GPVTG,339.8,T,340.0,M,001.7,N,003.1,K,A*21
$GPGSV,2,1,07,21,23,186,42,02,22,046,34,12,28,108,40,25,62,103,44*74
$GPGSV,2,2,07,29,84,316,40,30,68,307,35,31,51,287,,,,,*4D
$GPGSA,M,3,21,12,25,29,,,,,,,,,9.2,5.7,7.3*3F
Trace #94 at position 23.250000
$GPZDA,101657.03,08,10,2011,00,00*6A
$GPRMC,101657.00,A,4611.963532,N,01258.217365,E,001.7,339.8,081011,0.2,E,A*3D
$GPGGA,101658.00,4611.963919,N,01258.217120,E,1,04,5.7,139.55,M,46.25,M,,*69
$GPGLL,4611.963919,N,01258.217120,E,101658.00,A,A*64
$GPVTG,337.2,T,337.4,M,001.4,N,002.7,K,A*25
$GPGSV,2,1,07,21,23,186,41,02,22,046,34,12,28,108,39,25,62,103,43*7E
$GPGSV,2,2,07,29,84,316,40,30,68,307,37,31,51,287,34,,,,*48
$GPGSA,M,3,21,12,25,29,,,,,,,,,9.2,5.7,7.3*3F
Trace #95 at position 23.500000
$GPZDA,101657.03,08,10,2011,00,00*6A
$GPRMC,101657.00,A,4611.963532,N,01258.217365,E,001.7,339.8,081011,0.2,E,A*3D
$GPGGA,101658.00,4611.963919,N,01258.217120,E,1,04,5.7,139.55,M,46.25,M,,*69
$GPGLL,4611.963919,N,01258.217120,E,101658.00,A,A*64
$GPVTG,337.2,T,337.4,M,001.4,N,002.7,K,A*25
$GPGSV,2,1,07,21,23,186,41,02,22,046,34,12,28,108,39,25,62,103,43*7E
$GPGSV,2,2,07,29,84,316,40,30,68,307,37,31,51,287,34,,,,*48
$GPGSA,M,3,21,12,25,29,,,,,,,,,9.2,5.7,7.3*3F
Trace #96 at position 23.750000
$GPZDA,101657.03,08,10,2011,00,00*6A
$GPRMC,101657.00,A,4611.963532,N,01258.217365,E,001.7,339.8,081011,0.2,E,A*3D
$GPGGA,101658.00,4611.963919,N,01258.217120,E,1,04,5.7,139.55,M,46.25,M,,*69
$GPGLL,4611.963919,N,01258.217120,E,101658.00,A,A*64
$GPVTG,337.2,T,337.4,M,001.4,N,002.7,K,A*25
$GPGSV,2,1,07,21,23,186,41,02,22,046,34,12,28,108,39,25,62,103,43*7E
$GPGSV,2,2,07,29,84,316,40,30,68,307,37,31,51,287,34,,,,*48
$GPGSA,M,3,21,12,25,29,,,,,,,,,9.2,5.7,7.3*3F
Trace #97 at position 24.000000
$GPZDA,101657.03,08,10,2011,00,00*6A
$GPRMC,101657.00,A,4611.963532,N,01258.217365,E,001.7,339.8,081011,0.2,E,A*3D
$GPGGA,101658.00,4611.963919,N,01258.217120,E,1,04,5.7,139.55,M,46.25,M,,*69
$GPGLL,4611.963919,N,01258.217120,E,101658.00,A,A*64
$GPVTG,337.2,T,337.4,M,001.4,N,002.7,K,A*25
$GPGSV,2,1,07,21,23,186,41,02,22,046,34,12,28,108,39,25,62,103,43*7E
$GPGSV,2,2,07,29,84,316,40,30,68,307,37,31,51,287,34,,,,*48
$GPGSA,M,3,21,12,25,29,,,,,,,,,9.2,5.7,7.3*3F
Trace #98 at position 24.250000
$GPZDA,101658.03,08,10,2011,00,00*65
$GPRMC,101658.00,A,4611.963919,N,01258.217120,E,001.4,337.2,081011,0.2,E,A*33
$GPGGA,101659.00,4611.964380,N,01258.216813,E,1,04,5.7,139.49,M,46.25,M,,*60
$GPGLL,4611.964380,N,01258.216813,E,101659.00,A,A*60
$GPVTG,335.8,T,336.0,M,002.3,N,004.3,K,A*2E
$GPGSV,2,1,07,21,23,186,41,02,22,046,34,12,28,108,39,25,62,103,43*7E
$GPGSV,2,2,07,29,84,316,40,30,68,307,37,31,51,287,32,,,,*4E
$GPGSA,M,3,21,12,25,29,,,,,,,,,9.2,5.7,7.3*3F
Trace #99 at position 24.500000
$GPZDA,101658.03,08,10,2011,00,00*65
$GPRMC,101658.00,A,4611.963919,N,01258.217120,E,001.4,337.2,081011,0.2,E,A*33
$GPGGA,101659.00,4611.964380,N,01258.216813,E,1,04,5.7,139.49,M,46.25,M,,*60
$GPGLL,4611.964380,N,01258.216813,E,101659.00,A,A*60
$GPVTG,335.8,T,336.0,M,002.3,N,004.3,K,A*2E
$GPGSV,2,1,07,21,23,186,41,02,22,046,34,12,28,108,39,25,62,103,43*7E
$GPGSV,2,2,07,29,84,316,40,30,68,307,37,31,51,287,32,,,,*4E
$GPGSA,M,3,21,12,25,29,,,,,,,,,9.2,5.7,7.3*3F
Trace #100 at position 24.750000
$GPZDA,101658.03,08,10,2011,00,00*65
$GPRMC,101658.00,A,4611.963919,N,01258.217120,E,001.4,337.2,081011,0.2,E,A*33
$GPGGA,101659.00,4611.964380,N,01258.216813,E,1,04,5.7,139.49,M,46.25,M,,*60
$GPGLL,4611.964380,N,01258.216813,E,101659.00,A,A*60
$GPVTG,335.8,T,336.0,M,002.3,N,004.3,K,A*2E
$GPGSV,2,1,07,21,23,186,41,02,22,046,34,12,28,108,39,25,62,103,43*7E
$GPGSV,2,2,07,29,84,316,40,30,68,307,37,31,51,287,32,,,,*4E
$GPGSA,M,3,21,12,25,29,,,,,,,,,9.2,5.7,7.3*3F
Trace #101 at position 25.000000
$GPZDA,101659.03,08,10,2011,00,00*64
$GPRMC,101659.00,A,4611.964380,N,01258.216813,E,002.3,335.8,081011,0.2,E,A*3B
$GPGGA,101700.00,4611.964833,N,01258.216636,E,1,04,5.7,139.48,M,46.25,M,,*66
$GPGLL,4611.964833,N,01258.216636,E,101700.00,A,A*67
$GPVTG,2.2,T,2.4,M,001.3,N,002.4,K,A*21
$GPGSV,2,1,07,21,23,186,41,02,22,046,34,12,28,108,41,25,62,103,43*71
$GPGSV,2,2,07,29,84,316,40,30,68,307,36,31,51,287,31,,,,*4C
$GPGSA,M,3,21,12,25,29,,,,,,,,,9.2,5.7,7.3*3F
Trace #102 at position 25.250000
$GPZDA,101701.03,08,10,2011,00,00*68
$GPRMC,101701.00,A,4611.965187,N,01258.216612,E,001.3,357.2,081011,0.2,E,A*31
$GPGGA,101702.00,4611.965098,N,01258.216664,E,1,05,2.9,140.10,M,46.25,M,,*60
$GPGLL,4611.965098,N,01258.216664,E,101702.00,A,A*6A
$GPVTG,201.3,T,201.5,M,000.6,N,001.0,K,A*22
$GPGSV,2,1,07,21,23,186,40,02,22,046,33,12,28,108,39,25,62,103,42*79
$GPGSV,2,2,07,29,84,316,40,30,68,307,39,31,51,287,36,,,,*44
$GPGSA,M,3,21,12,25,29,30,,,,,,,,5.3,2.9,4.5*3D
Trace #103 at position 25.500000
$GPZDA,101701.03,08,10,2011,00,00*68
$GPRMC,101701.00,A,4611.965187,N,01258.216612,E,001.3,357.2,081011,0.2,E,A*31
$GPGGA,101702.00,4611.965098,N,01258.216664,E,1,05,2.9,140.10,M,46.25,M,,*60
$GPGLL,4611.965098,N,01258.216664,E,101702.00,A,A*6A
$GPVTG,201.3,T,201.5,M,000.6,N,001.0,K,A*22
$GPGSV,2,1,07,21,23,186,40,02,22,046,33,12,28,108,39,25,62,103,42*79
$GPGSV,2,2,07,29,84,316,40,30,68,307,39,31,51,287,36,,,,*44
$GPGSA,M,3,21,12,25,29,30,,,,,,,,5.3,2.9,4.5*3D
Trace #104 at position 25.750000
$GPZDA,101701.03,08,10,2011,00,00*68
$GPRMC,101701.00,A,4611.965187,N,01258.216612,E,001.3,357.2,081011,0.2,E,A*31
$GPGGA,101702.00,4611.965098,N,01258.216664,E,1,05,2.9,140.10,M,46.25,M,,*60
$GPGLL,4611.965098,N,01258.216664,E,101702.00,A,A*6A
$GPVTG,201.3,T,201.5,M,000.6,N,001.0,K,A*22
$GPGSV,2,1,07,21,23,186,40,02,22,046,33,12,28,108,39,25,62,103,42*79
$GPGSV,2,2,07,29,84,316,40,30,68,307,39,31,51,287,36,,,,*44
$GPGSA,M,3,21,12,25,29,30,,,,,,,,5.3,2.9,4.5*3D
Trace #105 at position 26.000000
$GPZDA,101702.03,08,10,2011,00,00*6B
$GPRMC,101702.00,A,4611.965098,N,01258.216664,E,000.6,201.3,081011,0.2,E,A*3B
$GPGGA,101703.00,4611.964827,N,01258.216736,E,1,05,2.9,140.61,M,46.25,M,,*6C
$GPGLL,4611.964827,N,01258.216736,E,101703.00,A,A*60
$GPVTG,161.7,T,161.9,M,000.3,N,000.5,K,A*2B
$GPGSV,2,1,07,21,23,186,40,02,22,046,33,12,28,108,38,25,62,103,40*7A
$GPGSV,2,2,07,29,84,316,37,30,68,307,37,31,51,287,30,,,,*4C
$GPGSA,M,3,21,12,25,29,30,,,,,,,,5.3,2.9,4.5*3D
Trace #106 at position 26.250000
$GPZDA,101702.03,08,10,2011,00,00*6B
$GPRMC,101702.00,A,4611.965098,N,01258.216664,E,000.6,201.3,081011,0.2,E,A*3B
$GPGGA,101703.00,4611.964827,N,01258.216736,E,1,05,2.9,140.61,M,46.25,M,,*6C
$GPGLL,4611.964827,N,01258.216736,E,101703.00,A,A*60
$GPVTG,161.7,T,161.9,M,000.3,N,000.5,K,A*2B
$GPGSV,2,1,07,21,23,186,40,02,22,046,33,12,28,108,38,25,62,103,40*7A
$GPGSV,2,2,07,29,84,316,37,30,68,307,37,31,51,287,30,,,,*4C
$GPGSA,M,3,21,12,25,29,30,,,,,,,,5.3,2.9,4.5*3D
Trace #107 at position 26.500000
$GPZDA,101702.03,08,10,2011,00,00*6B
$GPRMC,101702.00,A,4611.965098,N,01258.216664,E,000.6,201.3,081011,0.2,E,A*3B
$GPGGA,101703.00,4611.964827,N,01258.216736,E,1,05,2.9,140.61,M,46.25,M,,*6C
$GPGLL,4611.964827,N,01258.216736,E,101703.00,A,A*60
$GPVTG,161.7,T,161.9,M,000.3,N,000.5,K,A*2B
$GPGSV,2,1,07,21,23,186,40,02,22,046,33,12,28,108,38,25,62,103,40*7A
$GPGSV,2,2,07,29,84,316,37,30,68,307,37,31,51,287,30,,,,*4C
$GPGSA,M,3,21,12,25,29,30,,,,,,,,5.3,2.9,4.5*3D
Trace #108 at position 26.750000
$GPZDA,101703.03,08,10,2011,00,00*6A
$GPRMC,101703.00,A,4611.964827,N,01258.216736,E,000.3,161.7,081011,0.2,E,A*35
$GPGGA,101704.00,4611.964878,N,01258.216848,E,1,05,2.9,141.14,M,46.25,M,,*64
$GPGLL,4611.964878,N,01258.216848,E,101704.00,A,A*6B
$GPVTG,3.9,T,4.1,M,001.6,N,003.0,K,A*28
$GPGSV,2,1,07,21,23,186,40,02,22,046,34,12,28,108,39,25,62,103,43*7F
$GPGSV,2,2,07,29,84,316,41,30,68,307,39,31,51,287,39,,,,*4A
$GPGSA,M,3,21,12,25,29,30,,,,,,,,5.3,2.9,4.5*3D
Trace #109 at position 27.000000
$GPZDA,101703.03,08,10,2011,00,00*6A
$GPRMC,101703.00,A,4611.964827,N,01258.216736,E,000.3,161.7,081011,0.2,E,A*35
$GPGGA,101704.00,4611.964878,N,01258.216848,E,1,05,2.9,141.14,M,46.25,M,,*64
$GPGLL,4611.964878,N,01258.216848,E,101704.00,A,A*6B
$GPVTG,3.9,T,4.1,M,001.6,N,003.0,K,A*28
$GPGSV,2,1,07,21,23,186,40,02,22,046,34,12,28,108,39,25,62,103,43*7F
$GPGSV,2,2,07,29,84,316,41,30,68,307,39,31,51,287,39,,,,*4A
$GPGSA,M,3,21,12,25,29,30,,,,,,,,5.3,2.9,4.5*3D
Trace #110 at position 27.250000
$GPZDA,101703.03,08,10,2011,00,00*6A
$GPRMC,101703.00,A,4611.964827,N,01258.216736,E,000.3,161.7,081011,0.2,E,A*35
$GPGGA,101704.00,4611.964878,N,01258.216848,E,1,05,2.9,141.14,M,46.25,M,,*64
$GPGLL,4611.964878,N,01258.216848,E,101704.00,A,A*6B
$GPVTG,3.9,T,4.1,M,001.6,N,003.0,K,A*28
$GPGSV,2,1,07,21,23,186,40,02,22,046,34,12,28,108,39,25,62,103,43*7F
$GPGSV,2,2,07,29,84,316,41,30,68,307,39,31,51,287,39,,,,*4A
$GPGSA,M,3,21,12,25,29,30,,,,,,,,5.3,2.9,4.5*3D
Trace #111 at position 27.500000
$GPZDA,101704.03,08,10,2011,00,00*6D
$GPRMC,101704.00,A,4611.964878,N,01258.216848,E,001.6,3.9,081011,0.2,E,A*31
$GPGGA,101705.00,4611.965175,N,01258.216820,E,1,05,2.9,141.58,M,46.25,M,,*66
$GPGLL,4611.965175,N,01258.216820,E,101705.00,A,A*61
$GPVTG,341.5,T,341.6,M,001.5,N,002.8,K,A*2E
$GPGSV,2,1,07,21,23,186,39,02,22,046,33,12,28,108,39,25,62,103,43*76
$GPGSV,2,2,07,29,84,316,40,30,68,307,37,31,51,287,37,,,,*4B
$GPGSA,M,3,21,12,25,29,30,,,,,,,,5.3,2.9,4.5*3D
Trace #112 at position 27.750000
$GPZDA,101704.03,08,10,2011,00,00*6D
$GPRMC,101704.00,A,4611.964878,N,01258.216848,E,001.6,3.9,081011,0.2,E,A*31
$GPGGA,101705.00,4611.965175,N,01258.216820,E,1,05,2.9,141.58,M,46.25,M,,*66
$GPGLL,4611.965175,N,01258.216820,E,101705.00,A,A*61
$GPVTG,341.5,T,341.6,M,001.5,N,002.8,K,A*2E
$GPGSV,2,1,07,21,23,186,39,02,22,046,33,12,28,108,39,25,62,103,43*76
$GPGSV,2,2,07,29,84,316,40,30,68,307,37,31,51,287,37,,,,*4B
$GPGSA,M,3,21,12,25,29,30,,,,,,,,5.3,2.9,4.5*3D
Trace #113 at position 28.000000
$GPZDA,101704.03,08,10,2011,00,00*6D
$GPRMC,101704.00,A,4611.964878,N,01258.216848,E,001.6,3.9,081011,0.2,E,A*31
$GPGGA,101705.00,4611.965175,N,01258.216820,E,1,05,2.9,141.58,M,46.25,M,,*66
$GPGLL,4611.965175,N,01258.216820,E,101705.00,A,A*61
$GPVTG,341.5,T,341.6,M,001.5,N,002.8,K,A*2E
$GPGSV,2,1,07,21,23,186,39,02,22,046,33,12,28,108,39,25,62,103,43*76
$GPGSV,2,2,07,29,84,316,40,30,68,307,37,31,51,287,37,,,,*4B
$GPGSA,M,3,21,12,25,29,30,,,,,,,,5.3,2.9,4.5*3D
Trace #114 at position 28.250000
$GPZDA,101705.03,08,10,2011,00,00*6C
$GPRMC,101705.00,A,4611.965175,N,01258.216820,E,001.5,341.5,081011,0.2,E,A*31
$GPGGA,101706.00,4611.965518,N,01258.216724,E,1,05,2.9,141.94,M,46.25,M,,*61
$GPGLL,4611.965518,N,01258.216724,E,101706.00,A,A*66
$GPVTG,353.5,T,353.7,M,001.9,N,003.5,K,A*2F
$GPGSV,2,1,07,21,23,186,39,02,22,046,34,12,28,108,39,25,62,103,43*71
$GPGSV,2,2,07,29,84,316,40,30,68,307,38,31,51,287,38,,,,*4B
$GPGSA,M,3,21,12,25,29,30,,,,,,,,5.3,2.9,4.5*3D
Trace #115 at position 28.500000
$GPZDA,101705.03,08,10,2011,00,00*6C
$GPRMC,101705.00,A,4611.965175,N,01258.216820,E,001.5,341.5,081011,0.2,E,A*31
$GPGGA,101706.00,4611.965518,N,01258.216724,E,1,05,2.9,141.94,M,46.25,M,,*61
$GPGLL,4611.965518,N,01258.216724,E,101706.00,A,A*66
$GPVTG,353.5,T,353.7,M,001.9,N,003.5,K,A*2F
$GPGSV,2,1,07,21,23,186,39,02,22,046,34,12,28,108,39,25,62,103,43*71
$GPGSV,2,2,07,29,84,316,40,30,68,307,38,31,51,287,38,,,,*4B
$GPGSA,M,3,21,12,25,29,30,,,,,,,,5.3,2.9,4.5*3D
Trace #116 at position 28.750000
$GPZDA,101705.03,08,10,2011,00,00*6C
$GPRMC,101705.00,A,4611.965175,N,01258.216820,E,001.5,341.5,081011,0.2,E,A*31
$GPGGA,101706.00,4611.965518,N,01258.216724,E,1,05,2.9,141.94,M,46.25,M,,*61
$GPGLL,4611.965518,N,01258.216724,E,101706.00,A,A*66
$GPVTG,353.5,T,353.7,M,001.9,N,003.5,K,A*2F
$GPGSV,2,1,07,21,23,186,39,02,22,046,34,12,28,108,39,25,62,103,43*71
$GPGSV,2,2,07,29,84,316,40,30,68,307,38,31,51,287,38,,,,*4B
$GPGSA,M,3,21,12,25,29,30,,,,,,,,5.3,2.9,4.5*3D
Trace #117 at position 29.000000
$GPZDA,101706.03,08,10,2011,00,00*6F
$GPRMC,101706.00,A,4611.965518,N,01258.216724,E,001.9,353.5,081011,0.2,E,A*39
$GPGGA,101707.00,4611.965858,N,01258.216594,E,1,05,2.9,142.28,M,46.25,M,,*64
$GPGLL,4611.965858,N,01258.216594,E,101707.00,A,A*67
$GPVTG,336.5,T,336.6,M,001.5,N,002.7,K,A*21
$GPGSV,2,1,07,21,23,186,40,02,22,046,35,12,28,108,39,25,62,103,43*7E
$GPGSV,2,2,07,29,84,316,40,30,68,307,38,31,51,287,36,,,,*45
$GPGSA,M,3,21,12,25,29,30,,,,,,,,5.3,2.9,4.5*3D
Trace #118 at position 29.250000
$GPZDA,101706.03,08,10,2011,00,00*6F
$GPRMC,101706.00,A,4611.965518,N,01258.216724,E,001.9,353.5,081011,0.2,E,A*39
$GPGGA,101707.00,4611.965858,N,01258.216594,E,1,05,2.9,142.28,M,46.25,M,,*64
$GPGLL,4611.965858,N,01258.216594,E,101707.00,A,A*67
$GPVTG,336.5,T,336.6,M,001.5,N,002.7,K,A*21
$GPGSV,2,1,07,21,23,186,40,02,22,046,35,12,28,108,39,25,62,103,43*7E
$GPGSV,2,2,07,29,84,316,40,30,68,307,38,31,51,287,36,,,,*45
$GPGSA,M,3,21,12,25,29,30,,,,,,,,5.3,2.9,4.5*3D
Trace #119 at position 29.500000
$GPZDA,101707.03,08,10,2011,00,00*6E
$GPRMC,101707.00,A,4611.965858,N,01258.216594,E,001.5,336.5,081011,0.2,E,A*37
$GPGGA,101708.00,4611.966112,N,01258.216460,E,1,05,2.9,142.50,M,46.25,M,,*6A
$GPGLL,4611.966112,N,01258.216460,E,101708.00,A,A*66
$GPVTG,349.4,T,349.6,M,001.2,N,002.1,K,A*21
$GPGSV,2,1,07,21,23,186,40,02,22,046,32,12,28,108,40,25,62,103,43*77
$GPGSV,2,2,07,29,84,316,38,30,68,307,37,31,51,287,35,,,,*46
$GPGSA,M,3,21,12,25,29,30,,,,,,,,5.4,2.9,4.5*3A
Trace #120 at position 29.750000
$GPZDA,101707.03,08,10,2011,00,00*6E
