Trace #1 at position 0.000000
$GPZDA,092228.03,09,10,2011,00,00*6C
$GPRMC,092228.00,A,4611.979928,N,01258.219812,E,000.3,3.4,091011,0.2,E,A*31
$GPGGA,092229.00,4611.980036,N,01258.219863,E,1,05,1.8,142.41,M,46.25,M,,*6A
$GPGLL,4611.980036,N,01258.219863,E,092229.00,A,A*64
$GPVTG,61.0,T,61.1,M,000.2,N,000.4,K,A*24
$GPGSV,2,1,07,02,36,064,43,12,47,090,,14,19,242,42,25,78,041,41*71
$GPGSV,2,2,07,29,65,232,37,30,44,297,41,31,36,309,41,,,,*43
$GPGSA,M,3,02,14,25,30,31,,,,,,,,3.1,1.8,2.5*33
Trace #2 at position 0.250000
$GPZDA,092231.02,09,10,2011,00,00*65
$GPRMC,092229.00,V,,,,,,,,,,N*7F
$GPGGA,092232.00,4611.980041,N,01258.219954,E,1,06,1.5,141.90,M,46.25,M,,*64
$GPGLL,4611.980041,N,01258.219954,E,092232.00,A,A*6B
$GPVTG,105.8,T,106.0,M,000.0,N,000.1,K,A*29
$GPGSV,2,1,07,02,36,064,41,12,47,090,,14,19,242,39,25,78,041,47*79
$GPGSV,2,2,07,29,65,232,43,30,44,297,45,31,36,309,44,,,,*41
$GPGSA,M,3,02,14,25,29,30,31,,,,,,,2.5,1.5,2.0*35
Trace #3 at position 0.500000
$GPZDA,092232.03,09,10,2011,00,00*67
$GPRMC,092232.00,A,4611.980041,N,01258.219954,E,000.0,105.8,091011,0.2,E,A*31
$GPGGA,092233.00,4611.980014,N,01258.219916,E,1,06,1.5,142.06,M,46.25,M,,*6F
$GPGLL,4611.980014,N,01258.219916,E,092233.00,A,A*6C
$GPVTG,355.4,T,355.5,M,000.1,N,000.1,K,A*22
$GPGSV,2,1,07,02,36,064,41,12,47,090,,14,19,242,39,25,78,041,46*78
$GPGSV,2,2,07,29,65,232,41,30,44,297,43,31,36,309,43,,,,*42
$GPGSA,M,3,02,14,25,29,30,31,,,,,,,2.5,1.5,2.0*35
Trace #4 at position 0.750000
$GPZDA,092232.03,09,10,2011,00,00*67
$GPRMC,092232.00,A,4611.980041,N,01258.219954,E,000.0,105.8,091011,0.2,E,A*31
$GPGGA,092233.00,4611.980014,N,01258.219916,E,1,06,1.5,142.06,M,46.25,M,,*6F
$GPGLL,4611.980014,N,01258.219916,E,092233.00,A,A*6C
$GPVTG,355.4,T,355.5,M,000.1,N,000.1,K,A*22
$GPGSV,2,1,07,02,36,064,41,12,47,090,,14,19,242,39,25,78,041,46*78
$GPGSV,2,2,07,29,65,232,41,30,44,297,43,31,36,309,43,,,,*42
$GPGSA,M,3,02,14,25,29,30,31,,,,,,,2.5,1.5,2.0*35
Trace #5 at position 1.000000
$GPZDA,092234.03,09,10,2011,00,00*61
$GPRMC,092234.00,A,4611.979814,N,01258.220026,E,001.5,150.0,091011,0.2,E,A*33
$GPGGA,092235.00,4611.979569,N,01258.220163,E,1,06,1.5,142.27,M,46.25,M,,*63
$GPGLL,4611.979569,N,01258.220163,E,092235.00,A,A*63
$GPVTG,147.8,T,148.0,M,000.3,N,000.6,K,A*21
$GPGSV,2,1,07,02,36,064,44,12,47,090,39,14,19,242,40,25,78,041,46*79
$GPGSV,2,2,07,29,65,232,40,30,44,297,44,31,36,309,45,,,,*42
$GPGSA,M,3,02,14,25,29,30,31,,,,,,,2.5,1.5,2.0*35
Trace #6 at position 1.250000
$GPZDA,092234.03,09,10,2011,00,00*61
$GPRMC,092234.00,A,4611.979814,N,01258.220026,E,001.5,150.0,091011,0.2,E,A*33
$GPGGA,092235.00,4611.979569,N,01258.220163,E,1,06,1.5,142.27,M,46.25,M,,*63
$GPGLL,4611.979569,N,01258.220163,E,092235.00,A,A*63
$GPVTG,147.8,T,148.0,M,000.3,N,000.6,K,A*21
$GPGSV,2,1,07,02,36,064,44,12,47,090,39,14,19,242,40,25,78,041,46*79
$GPGSV,2,2,07,29,65,232,40,30,44,297,44,31,36,309,45,,,,*42
$GPGSA,M,3,02,14,25,29,30,31,,,,,,,2.5,1.5,2.0*35
Trace #7 at position 1.500000
$GPZDA,092235.03,09,10,2011,00,00*60
$GPRMC,092235.00,A,4611.979569,N,01258.220163,E,000.3,147.8,091011,0.2,E,A*3C
$GPGGA,092236.00,4611.979499,N,01258.220140,E,1,06,1.5,142.41,M,46.25,M,,*6F
$GPGLL,4611.979499,N,01258.220140,E,092236.00,A,A*6F
$GPVTG,241.8,T,242.0,M,000.1,N,000.2,K,A*2B
$GPGSV,2,1,07,02,36,064,44,12,47,090,39,14,19,242,40,25,78,041,46*79
$GPGSV,2,2,07,29,65,232,40,30,44,297,44,31,36,309,45,,,,*42
$GPGSA,M,3,02,14,25,29,30,31,,,,,,,2.5,1.5,2.0*35
Trace #8 at position 1.750000
$GPZDA,092235.03,09,10,2011,00,00*60
$GPRMC,092235.00,A,4611.979569,N,01258.220163,E,000.3,147.8,091011,0.2,E,A*3C
$GPGGA,092236.00,4611.979499,N,01258.220140,E,1,06,1.5,142.41,M,46.25,M,,*6F
$GPGLL,4611.979499,N,01258.220140,E,092236.00,A,A*6F
$GPVTG,241.8,T,242.0,M,000.1,N,000.2,K,A*2B
$GPGSV,2,1,07,02,36,064,44,12,47,090,39,14,19,242,40,25,78,041,46*79
$GPGSV,2,2,07,29,65,232,40,30,44,297,44,31,36,309,45,,,,*42
$GPGSA,M,3,02,14,25,29,30,31,,,,,,,2.5,1.5,2.0*35
Trace #9 at position 2.000000
$GPZDA,092235.03,09,10,2011,00,00*60
$GPRMC,092235.00,A,4611.979569,N,01258.220163,E,000.3,147.8,091011,0.2,E,A*3C
$GPGGA,092236.00,4611.979499,N,01258.220140,E,1,06,1.5,142.41,M,46.25,M,,*6F
$GPGLL,4611.979499,N,01258.220140,E,092236.00,A,A*6F
$GPVTG,241.8,T,242.0,M,000.1,N,000.2,K,A*2B
$GPGSV,2,1,07,02,36,064,44,12,47,090,39,14,19,242,40,25,78,041,46*79
$GPGSV,2,2,07,29,65,232,40,30,44,297,44,31,36,309,45,,,,*42
$GPGSA,M,3,02,14,25,29,30,31,,,,,,,2.5,1.5,2.0*35
Trace #10 at position 2.250000
$GPZDA,092236.03,09,10,2011,00,00*63
$GPRMC,092236.00,A,4611.979499,N,01258.220140,E,000.1,241.8,091011,0.2,E,A*37
$GPGGA,092237.00,4611.979289,N,01258.220256,E,1,07,1.4,142.37,M,46.25,M,,*6C
$GPGLL,4611.979289,N,01258.220256,E,092237.00,A,A*6D
$GPVTG,151.4,T,151.5,M,001.4,N,002.7,K,A*22
$GPGSV,2,1,07,02,36,064,43,12,47,090,37,14,19,242,40,25,78,041,46*70
$GPGSV,2,2,07,29,65,232,42,30,44,297,44,31,36,309,44,,,,*41
$GPGSA,M,3,02,12,14,25,29,30,31,,,,,,2.5,1.4,2.0*37
Trace #11 at position 2.500000
$GPZDA,092236.03,09,10,2011,00,00*63
$GPRMC,092236.00,A,4611.979499,N,01258.220140,E,000.1,241.8,091011,0.2,E,A*37
$GPGGA,092237.00,4611.979289,N,01258.220256,E,1,07,1.4,142.37,M,46.25,M,,*6C
$GPGLL,4611.979289,N,01258.220256,E,092237.00,A,A*6D
$GPVTG,151.4,T,151.5,M,001.4,N,002.7,K,A*22
$GPGSV,2,1,07,02,36,064,43,12,47,090,37,14,19,242,40,25,78,041,46*70
$GPGSV,2,2,07,29,65,232,42,30,44,297,44,31,36,309,44,,,,*41
$GPGSA,M,3,02,12,14,25,29,30,31,,,,,,2.5,1.4,2.0*37
Trace #12 at position 2.750000
$GPZDA,092236.03,09,10,2011,00,00*63
$GPRMC,092236.00,A,4611.979499,N,01258.220140,E,000.1,241.8,091011,0.2,E,A*37
$GPGGA,092237.00,4611.979289,N,01258.220256,E,1,07,1.4,142.37,M,46.25,M,,*6C
$GPGLL,4611.979289,N,01258.220256,E,092237.00,A,A*6D
$GPVTG,151.4,T,151.5,M,001.4,N,002.7,K,A*22
$GPGSV,2,1,07,02,36,064,43,12,47,090,37,14,19,242,40,25,78,041,46*70
$GPGSV,2,2,07,29,65,232,42,30,44,297,44,31,36,309,44,,,,*41
$GPGSA,M,3,02,12,14,25,29,30,31,,,,,,2.5,1.4,2.0*37
Trace #13 at position 3.000000
$GPZDA,092236.03,09,10,2011,00,00*63
$GPRMC,092236.00,A,4611.979499,N,01258.220140,E,000.1,241.8,091011,0.2,E,A*37
$GPGGA,092237.00,4611.979289,N,01258.220256,E,1,07,1.4,142.37,M,46.25,M,,*6C
$GPGLL,4611.979289,N,01258.220256,E,092237.00,A,A*6D
$GPVTG,151.4,T,151.5,M,001.4,N,002.7,K,A*22
$GPGSV,2,1,07,02,36,064,43,12,47,090,37,14,19,242,40,25,78,041,46*70
$GPGSV,2,2,07,29,65,232,42,30,44,297,44,31,36,309,44,,,,*41
$GPGSA,M,3,02,12,14,25,29,30,31,,,,,,2.5,1.4,2.0*37
Trace #14 at position 3.250000
$GPZDA,092237.04,09,10,2011,00,00*65
$GPRMC,092237.00,A,4611.979289,N,01258.220256,E,001.4,151.4,091011,0.2,E,A*3F
$GPGGA,092238.00,4611.978864,N,01258.220393,E,1,07,1.4,142.23,M,46.25,M,,*66
$GPGLL,4611.978864,N,01258.220393,E,092238.00,A,A*62
$GPVTG,180.5,T,180.7,M,001.7,N,003.1,K,A*25
$GPGSV,2,1,07,02,36,064,43,12,47,090,38,14,19,242,39,25,78,041,45*72
$GPGSV,2,2,07,29,65,232,42,30,44,297,44,31,36,309,44,,,,*41
$GPGSA,M,3,02,12,14,25,29,30,31,,,,,,2.5,1.4,2.0*37
Trace #15 at position 3.500000
$GPZDA,092237.04,09,10,2011,00,00*65
$GPRMC,092237.00,A,4611.979289,N,01258.220256,E,001.4,151.4,091011,0.2,E,A*3F
$GPGGA,092238.00,4611.978864,N,01258.220393,E,1,07,1.4,142.23,M,46.25,M,,*66
$GPGLL,4611.978864,N,01258.220393,E,092238.00,A,A*62
$GPVTG,180.5,T,180.7,M,001.7,N,003.1,K,A*25
$GPGSV,2,1,07,02,36,064,43,12,47,090,38,14,19,242,39,25,78,041,45*72
$GPGSV,2,2,07,29,65,232,42,30,44,297,44,31,36,309,44,,,,*41
$GPGSA,M,3,02,12,14,25,29,30,31,,,,,,2.5,1.4,2.0*37
Trace #16 at position 3.750000
$GPZDA,092237.04,09,10,2011,00,00*65
$GPRMC,092237.00,A,4611.979289,N,01258.220256,E,001.4,151.4,091011,0.2,E,A*3F
$GPGGA,092238.00,4611.978864,N,01258.220393,E,1,07,1.4,142.23,M,46.25,M,,*66
$GPGLL,4611.978864,N,01258.220393,E,092238.00,A,A*62
$GPVTG,180.5,T,180.7,M,001.7,N,003.1,K,A*25
$GPGSV,2,1,07,02,36,064,43,12,47,090,38,14,19,242,39,25,78,041,45*72
$GPGSV,2,2,07,29,65,232,42,30,44,297,44,31,36,309,44,,,,*41
$GPGSA,M,3,02,12,14,25,29,30,31,,,,,,2.5,1.4,2.0*37
Trace #17 at position 4.000000
$GPZDA,092238.04,09,10,2011,00,00*6A
$GPRMC,092238.00,A,4611.978864,N,01258.220393,E,001.7,180.5,091011,0.2,E,A*3E
$GPGGA,092239.00,4611.978498,N,01258.220462,E,1,07,1.4,142.36,M,46.25,M,,*65
$GPGLL,4611.978498,N,01258.220462,E,092239.00,A,A*65
$GPVTG,163.3,T,163.5,M,000.9,N,001.7,K,A*2A
$GPGSV,2,1,07,02,36,064,43,12,47,090,38,14,19,242,40,25,78,041,45*7C
$GPGSV,2,2,07,29,65,232,41,30,44,297,43,31,36,309,44,,,,*45
$GPGSA,M,3,02,12,14,25,29,30,31,,,,,,2.5,1.4,2.0*37
Trace #18 at position 4.250000
$GPZDA,092238.04,09,10,2011,00,00*6A
$GPRMC,092238.00,A,4611.978864,N,01258.220393,E,001.7,180.5,091011,0.2,E,A*3E
$GPGGA,092239.00,4611.978498,N,01258.220462,E,1,07,1.4,142.36,M,46.25,M,,*65
$GPGLL,4611.978498,N,01258.220462,E,092239.00,A,A*65
$GPVTG,163.3,T,163.5,M,000.9,N,001.7,K,A*2A
$GPGSV,2,1,07,02,36,064,43,12,47,090,38,14,19,242,40,25,78,041,45*7C
$GPGSV,2,2,07,29,65,232,41,30,44,297,43,31,36,309,44,,,,*45
$GPGSA,M,3,02,12,14,25,29,30,31,,,,,,2.5,1.4,2.0*37
Trace #19 at position 4.500000
$GPZDA,092238.04,09,10,2011,00,00*6A
$GPRMC,092238.00,A,4611.978864,N,01258.220393,E,001.7,180.5,091011,0.2,E,A*3E
$GPGGA,092239.00,4611.978498,N,01258.220462,E,1,07,1.4,142.36,M,46.25,M,,*65
$GPGLL,4611.978498,N,01258.220462,E,092239.00,A,A*65
$GPVTG,163.3,T,163.5,M,000.9,N,001.7,K,A*2A
$GPGSV,2,1,07,02,36,064,43,12,47,090,38,14,19,242,40,25,78,041,45*7C
$GPGSV,2,2,07,29,65,232,41,30,44,297,43,31,36,309,44,,,,*45
$GPGSA,M,3,02,12,14,25,29,30,31,,,,,,2.5,1.4,2.0*37
Trace #20 at position 4.750000
$GPZDA,092239.03,09,10,2011,00,00*6C
$GPRMC,092239.00,A,4611.978498,N,01258.220462,E,000.9,163.3,091011,0.2,E,A*3D
$GPGGA,092240.00,4611.978174,N,01258.220554,E,1,07,1.4,142.51,M,46.25,M,,*69
$GPGLL,4611.978174,N,01258.220554,E,092240.00,A,A*68
$GPVTG,178.5,T,178.6,M,001.3,N,002.4,K,A*24
$GPGSV,2,1,07,02,36,064,43,12,47,090,38,14,19,242,41,25,78,041,45*7D
$GPGSV,2,2,07,29,65,232,42,30,44,297,43,31,36,309,44,,,,*46
$GPGSA,M,3,02,12,14,25,29,30,31,,,,,,2.5,1.4,2.0*37
Trace #21 at position 5.000000
$GPZDA,092239.03,09,10,2011,00,00*6C
$GPRMC,092239.00,A,4611.978498,N,01258.220462,E,000.9,163.3,091011,0.2,E,A*3D
$GPGGA,092240.00,4611.978174,N,01258.220554,E,1,07,1.4,142.51,M,46.25,M,,*69
$GPGLL,4611.978174,N,01258.220554,E,092240.00,A,A*68
$GPVTG,178.5,T,178.6,M,001.3,N,002.4,K,A*24
$GPGSV,2,1,07,02,36,064,43,12,47,090,38,14,19,242,41,25,78,041,45*7D
$GPGSV,2,2,07,29,65,232,42,30,44,297,43,31,36,309,44,,,,*46
$GPGSA,M,3,02,12,14,25,29,30,31,,,,,,2.5,1.4,2.0*37
Trace #22 at position 5.250000
$GPZDA,092239.03,09,10,2011,00,00*6C
$GPRMC,092239.00,A,4611.978498,N,01258.220462,E,000.9,163.3,091011,0.2,E,A*3D
$GPGGA,092240.00,4611.978174,N,01258.220554,E,1,07,1.4,142.51,M,46.25,M,,*69
$GPGLL,4611.978174,N,01258.220554,E,092240.00,A,A*68
$GPVTG,178.5,T,178.6,M,001.3,N,002.4,K,A*24
$GPGSV,2,1,07,02,36,064,43,12,47,090,38,14,19,242,41,25,78,041,45*7D
$GPGSV,2,2,07,29,65,232,42,30,44,297,43,31,36,309,44,,,,*46
$GPGSA,M,3,02,12,14,25,29,30,31,,,,,,2.5,1.4,2.0*37
Trace #23 at position 5.500000
$GPZDA,092240.04,09,10,2011,00,00*65
$GPRMC,092240.00,A,4611.978174,N,01258.220554,E,001.3,178.5,091011,0.2,E,A*37
$GPGGA,092241.00,4611.977808,N,01258.220712,E,1,06,1.5,142.53,M,46.25,M,,*67
$GPGLL,4611.977808,N,01258.220712,E,092241.00,A,A*64
$GPVTG,148.9,T,149.0,M,001.4,N,002.7,K,A*2B
$GPGSV,2,1,07,02,36,064,43,12,47,090,33,14,19,242,40,25,78,041,45*77
$GPGSV,2,2,07,29,65,232,41,30,44,297,44,31,36,309,44,,,,*42
$GPGSA,M,3,02,14,25,29,30,31,,,,,,,2.5,1.5,2.0*35
Trace #24 at position 5.750000
$GPZDA,092240.04,09,10,2011,00,00*65
$GPRMC,092240.00,A,4611.978174,N,01258.220554,E,001.3,178.5,091011,0.2,E,A*37
$GPGGA,092241.00,4611.977808,N,01258.220712,E,1,06,1.5,142.53,M,46.25,M,,*67
$GPGLL,4611.977808,N,01258.220712,E,092241.00,A,A*64
$GPVTG,148.9,T,149.0,M,001.4,N,002.7,K,A*2B
$GPGSV,2,1,07,02,36,064,43,12,47,090,33,14,19,242,40,25,78,041,45*77
$GPGSV,2,2,07,29,65,232,41,30,44,297,44,31,36,309,44,,,,*42
$GPGSA,M,3,02,14,25,29,30,31,,,,,,,2.5,1.5,2.0*35
Trace #25 at position 6.000000
$GPZDA,092240.04,09,10,2011,00,00*65
$GPRMC,092240.00,A,4611.978174,N,01258.220554,E,001.3,178.5,091011,0.2,E,A*37
$GPGGA,092241.00,4611.977808,N,01258.220712,E,1,06,1.5,142.53,M,46.25,M,,*67
$GPGLL,4611.977808,N,01258.220712,E,092241.00,A,A*64
$GPVTG,148.9,T,149.0,M,001.4,N,002.7,K,A*2B
$GPGSV,2,1,07,02,36,064,43,12,47,090,33,14,19,242,40,25,78,041,45*77
$GPGSV,2,2,07,29,65,232,41,30,44,297,44,31,36,309,44,,,,*42
$GPGSA,M,3,02,14,25,29,30,31,,,,,,,2.5,1.5,2.0*35
Trace #26 at position 6.250000
$GPZDA,092240.04,09,10,2011,00,00*65
$GPRMC,092240.00,A,4611.978174,N,01258.220554,E,001.3,178.5,091011,0.2,E,A*37
$GPGGA,092241.00,4611.977808,N,01258.220712,E,1,06,1.5,142.53,M,46.25,M,,*67
$GPGLL,4611.977808,N,01258.220712,E,092241.00,A,A*64
$GPVTG,148.9,T,149.0,M,001.4,N,002.7,K,A*2B
$GPGSV,2,1,07,02,36,064,43,12,47,090,33,14,19,242,40,25,78,041,45*77
$GPGSV,2,2,07,29,65,232,41,30,44,297,44,31,36,309,44,,,,*42
$GPGSA,M,3,02,14,25,29,30,31,,,,,,,2.5,1.5,2.0*35
Trace #27 at position 6.500000
$GPZDA,092241.04,09,10,2011,00,00*64
$GPRMC,092241.00,A,4611.977808,N,01258.220712,E,001.4,148.9,091011,0.2,E,A*33
$GPGGA,092242.00,4611.977382,N,01258.221028,E,1,06,1.5,142.46,M,46.25,M,,*66
$GPGLL,4611.977382,N,01258.221028,E,092242.00,A,A*61
$GPVTG,152.4,T,152.6,M,002.0,N,003.6,K,A*26
$GPGSV,2,1,07,02,36,064,44,12,47,090,36,14,19,242,40,25,78,041,46*76
$GPGSV,2,2,07,29,65,232,42,30,44,297,43,31,36,309,44,,,,*46
$GPGSA,M,3,02,14,25,29,30,31,,,,,,,2.5,1.5,2.0*35
Trace #28 at position 6.750000
$GPZDA,092241.04,09,10,2011,00,00*64
$GPRMC,092241.00,A,4611.977808,N,01258.220712,E,001.4,148.9,091011,0.2,E,A*33
$GPGGA,092242.00,4611.977382,N,01258.221028,E,1,06,1.5,142.46,M,46.25,M,,*66
$GPGLL,4611.977382,N,01258.221028,E,092242.00,A,A*61
$GPVTG,152.4,T,152.6,M,002.0,N,003.6,K,A*26
$GPGSV,2,1,07,02,36,064,44,12,47,090,36,14,19,242,40,25,78,041,46*76
$GPGSV,2,2,07,29,65,232,42,30,44,297,43,31,36,309,44,,,,*46
$GPGSA,M,3,02,14,25,29,30,31,,,,,,,2.5,1.5,2.0*35
Trace #29 at position 7.000000
$GPZDA,092241.04,09,10,2011,00,00*64
$GPRMC,092241.00,A,4611.977808,N,01258.220712,E,001.4,148.9,091011,0.2,E,A*33
$GPGGA,092242.00,4611.977382,N,01258.221028,E,1,06,1.5,142.46,M,46.25,M,,*66
$GPGLL,4611.977382,N,01258.221028,E,092242.00,A,A*61
$GPVTG,152.4,T,152.6,M,002.0,N,003.6,K,A*26
$GPGSV,2,1,07,02,36,064,44,12,47,090,36,14,19,242,40,25,78,041,46*76
$GPGSV,2,2,07,29,65,232,42,30,44,297,43,31,36,309,44,,,,*46
$GPGSA,M,3,02,14,25,29,30,31,,,,,,,2.5,1.5,2.0*35
Trace #30 at position 7.250000
$GPZDA,092242.03,09,10,2011,00,00*60
$GPRMC,092242.00,A,4611.977382,N,01258.221028,E,002.0,152.4,091011,0.2,E,A*37
$GPGGA,092243.00,4611.976990,N,01258.221265,E,1,06,1.5,142.45,M,46.25,M,,*67
$GPGLL,4611.976990,N,01258.221265,E,092243.00,A,A*63
$GPVTG,159.5,T,159.6,M,001.1,N,002.0,K,A*22
$GPGSV,2,1,07,02,36,064,44,12,47,090,37,14,19,242,40,25,78,041,45*74
$GPGSV,2,2,07,29,65,232,42,30,44,297,43,31,36,309,45,,,,*47
$GPGSA,M,3,02,14,25,29,30,31,,,,,,,2.5,1.5,2.0*35
Trace #31 at position 7.500000
$GPZDA,092242.03,09,10,2011,00,00*60
$GPRMC,092242.00,A,4611.977382,N,01258.221028,E,002.0,152.4,091011,0.2,E,A*37
$GPGGA,092243.00,4611.976990,N,01258.221265,E,1,06,1.5,142.45,M,46.25,M,,*67
$GPGLL,4611.976990,N,01258.221265,E,092243.00,A,A*63
$GPVTG,159.5,T,159.6,M,001.1,N,002.0,K,A*22
$GPGSV,2,1,07,02,36,064,44,12,47,090,37,14,19,242,40,25,78,041,45*74
$GPGSV,2,2,07,29,65,232,42,30,44,297,43,31,36,309,45,,,,*47
$GPGSA,M,3,02,14,25,29,30,31,,,,,,,2.5,1.5,2.0*35
Trace #32 at position 7.750000
$GPZDA,092242.03,09,10,2011,00,00*60
$GPRMC,092242.00,A,4611.977382,N,01258.221028,E,002.0,152.4,091011,0.2,E,A*37
$GPGGA,092243.00,4611.976990,N,01258.221265,E,1,06,1.5,142.45,M,46.25,M,,*67
$GPGLL,4611.976990,N,01258.221265,E,092243.00,A,A*63
$GPVTG,159.5,T,159.6,M,001.1,N,002.0,K,A*22
$GPGSV,2,1,07,02,36,064,44,12,47,090,37,14,19,242,40,25,78,041,45*74
$GPGSV,2,2,07,29,65,232,42,30,44,297,43,31,36,309,45,,,,*47
$GPGSA,M,3,02,14,25,29,30,31,,,,,,,2.5,1.5,2.0*35
Trace #33 at position 8.000000
$GPZDA,092243.04,09,10,2011,00,00*66
$GPRMC,092243.00,A,4611.976990,N,01258.221265,E,001.1,159.5,091011,0.2,E,A*3D
$GPGGA,092244.00,4611.976563,N,01258.221432,E,1,06,1.5,142.54,M,46.25,M,,*64
$GPGLL,4611.976563,N,01258.221432,E,092244.00,A,A*60
$GPVTG,165.3,T,165.5,M,002.0,N,003.7,K,A*23
$GPGSV,2,1,07,02,36,064,43,12,47,090,37,14,19,242,39,25,78,041,45*7D
$GPGSV,2,2,07,29,65,232,41,30,44,297,43,31,36,309,44,,,,*45
$GPGSA,M,3,02,14,25,29,30,31,,,,,,,2.5,1.5,2.0*35
Trace #34 at position 8.250000
$GPZDA,092243.04,09,10,2011,00,00*66
$GPRMC,092243.00,A,4611.976990,N,01258.221265,E,001.1,159.5,091011,0.2,E,A*3D
$GPGGA,092244.00,4611.976563,N,01258.221432,E,1,06,1.5,142.54,M,46.25,M,,*64
$GPGLL,4611.976563,N,01258.221432,E,092244.00,A,A*60
$GPVTG,165.3,T,165.5,M,002.0,N,003.7,K,A*23
$GPGSV,2,1,07,02,36,064,43,12,47,090,37,14,19,242,39,25,78,041,45*7D
$GPGSV,2,2,07,29,65,232,41,30,44,297,43,31,36,309,44,,,,*45
$GPGSA,M,3,02,14,25,29,30,31,,,,,,,2.5,1.5,2.0*35
Trace #35 at position 8.500000
$GPZDA,092243.04,09,10,2011,00,00*66
$GPRMC,092243.00,A,4611.976990,N,01258.221265,E,001.1,159.5,091011,0.2,E,A*3D
$GPGGA,092244.00,4611.976563,N,01258.221432,E,1,06,1.5,142.54,M,46.25,M,,*64
$GPGLL,4611.976563,N,01258.221432,E,092244.00,A,A*60
$GPVTG,165.3,T,165.5,M,002.0,N,003.7,K,A*23
$GPGSV,2,1,07,02,36,064,43,12,47,090,37,14,19,242,39,25,78,041,45*7D
$GPGSV,2,2,07,29,65,232,41,30,44,297,43,31,36,309,44,,,,*45
$GPGSA,M,3,02,14,25,29,30,31,,,,,,,2.5,1.5,2.0*35
Trace #36 at position 8.750000
$GPZDA,092243.04,09,10,2011,00,00*66
$GPRMC,092243.00,A,4611.976990,N,01258.221265,E,001.1,159.5,091011,0.2,E,A*3D
$GPGGA,092244.00,4611.976563,N,01258.221432,E,1,06,1.5,142.54,M,46.25,M,,*64
$GPGLL,4611.976563,N,01258.221432,E,092244.00,A,A*60
$GPVTG,165.3,T,165.5,M,002.0,N,003.7,K,A*23
$GPGSV,2,1,07,02,36,064,43,12,47,090,37,14,19,242,39,25,78,041,45*7D
$GPGSV,2,2,07,29,65,232,41,30,44,297,43,31,36,309,44,,,,*45
$GPGSA,M,3,02,14,25,29,30,31,,,,,,,2.5,1.5,2.0*35
Trace #37 at position 9.000000
$GPZDA,092244.04,09,10,2011,00,00*61
$GPRMC,092244.00,A,4611.976563,N,01258.221432,E,002.0,165.3,091011,0.2,E,A*35
$GPGGA,092245.00,4611.976022,N,01258.221716,E,1,07,1.4,142.54,M,46.25,M,,*60
$GPGLL,4611.976022,N,01258.221716,E,092245.00,A,A*64
$GPVTG,155.4,T,155.5,M,002.0,N,003.7,K,A*24
$GPGSV,2,1,07,02,36,064,45,12,47,090,39,14,19,242,38,25,78,041,45*74
$GPGSV,2,2,07,29,65,232,42,30,44,297,43,31,36,309,44,,,,*46
$GPGSA,M,3,02,12,14,25,29,30,31,,,,,,2.5,1.4,2.0*37
Trace #38 at position 9.250000
$GPZDA,092244.04,09,10,2011,00,00*61
$GPRMC,092244.00,A,4611.976563,N,01258.221432,E,002.0,165.3,091011,0.2,E,A*35
$GPGGA,092245.00,4611.976022,N,01258.221716,E,1,07,1.4,142.54,M,46.25,M,,*60
$GPGLL,4611.976022,N,01258.221716,E,092245.00,A,A*64
$GPVTG,155.4,T,155.5,M,002.0,N,003.7,K,A*24
$GPGSV,2,1,07,02,36,064,45,12,47,090,39,14,19,242,38,25,78,041,45*74
$GPGSV,2,2,07,29,65,232,42,30,44,297,43,31,36,309,44,,,,*46
$GPGSA,M,3,02,12,14,25,29,30,31,,,,,,2.5,1.4,2.0*37
Trace #39 at position 9.500000
$GPZDA,092244.04,09,10,2011,00,00*61
$GPRMC,092244.00,A,4611.976563,N,01258.221432,E,002.0,165.3,091011,0.2,E,A*35
$GPGGA,092245.00,4611.976022,N,01258.221716,E,1,07,1.4,142.54,M,46.25,M,,*60
$GPGLL,4611.976022,N,01258.221716,E,092245.00,A,A*64
$GPVTG,155.4,T,155.5,M,002.0,N,003.7,K,A*24
$GPGSV,2,1,07,02,36,064,45,12,47,090,39,14,19,242,38,25,78,041,45*74
$GPGSV,2,2,07,29,65,232,42,30,44,297,43,31,36,309,44,,,,*46
$GPGSA,M,3,02,12,14,25,29,30,31,,,,,,2.5,1.4,2.0*37
Trace #40 at position 9.750000
$GPZDA,092244.04,09,10,2011,00,00*61
$GPRMC,092244.00,A,4611.976563,N,01258.221432,E,002.0,165.3,091011,0.2,E,A*35
$GPGGA,092245.00,4611.976022,N,01258.221716,E,1,07,1.4,142.54,M,46.25,M,,*60
$GPGLL,4611.976022,N,01258.221716,E,092245.00,A,A*64
$GPVTG,155.4,T,155.5,M,002.0,N,003.7,K,A*24
$GPGSV,2,1,07,02,36,064,45,12,47,090,39,14,19,242,38,25,78,041,45*74
$GPGSV,2,2,07,29,65,232,42,30,44,297,43,31,36,309,44,,,,*46
$GPGSA,M,3,02,12,14,25,29,30,31,,,,,,2.5,1.4,2.0*37
Trace #41 at position 10.000000
$GPZDA,092245.04,09,10,2011,00,00*60
$GPRMC,092245.00,A,4611.976022,N,01258.221716,E,002.0,155.4,091011,0.2,E,A*35
$GPGGA,092246.00,4611.975458,N,01258.222056,E,1,07,1.4,142.49,M,46.25,M,,*65
$GPGLL,4611.975458,N,01258.222056,E,092246.00,A,A*6D
$GPVTG,158.8,T,159.0,M,002.4,N,004.4,K,A*2C
$GPGSV,2,1,07,02,36,064,44,12,47,090,40,14,19,242,39,25,78,042,46*7A
$GPGSV,2,2,07,29,65,232,42,30,44,297,44,31,36,309,44,,,,*41
$GPGSA,M,3,02,12,14,25,29,30,31,,,,,,2.5,1.4,2.0*37
Trace #42 at position 10.250000
$GPZDA,092245.04,09,10,2011,00,00*60
$GPRMC,092245.00,A,4611.976022,N,01258.221716,E,002.0,155.4,091011,0.2,E,A*35
$GPGGA,092246.00,4611.975458,N,01258.222056,E,1,07,1.4,142.49,M,46.25,M,,*65
$GPGLL,4611.975458,N,01258.222056,E,092246.00,A,A*6D
$GPVTG,158.8,T,159.0,M,002.4,N,004.4,K,A*2C
$GPGSV,2,1,07,02,36,064,44,12,47,090,40,14,19,242,39,25,78,042,46*7A
$GPGSV,2,2,07,29,65,232,42,30,44,297,44,31,36,309,44,,,,*41
$GPGSA,M,3,02,12,14,25,29,30,31,,,,,,2.5,1.4,2.0*37
Trace #43 at position 10.500000
$GPZDA,092245.04,09,10,2011,00,00*60
$GPRMC,092245.00,A,4611.976022,N,01258.221716,E,002.0,155.4,091011,0.2,E,A*35
$GPGGA,092246.00,4611.975458,N,01258.222056,E,1,07,1.4,142.49,M,46.25,M,,*65
$GPGLL,4611.975458,N,01258.222056,E,092246.00,A,A*6D
$GPVTG,158.8,T,159.0,M,002.4,N,004.4,K,A*2C
$GPGSV,2,1,07,02,36,064,44,12,47,090,40,14,19,242,39,25,78,042,46*7A
$GPGSV,2,2,07,29,65,232,42,30,44,297,44,31,36,309,44,,,,*41
$GPGSA,M,3,02,12,14,25,29,30,31,,,,,,2.5,1.4,2.0*37
Trace #44 at position 10.750000
$GPZDA,092245.04,09,10,2011,00,00*60
$GPRMC,092245.00,A,4611.976022,N,01258.221716,E,002.0,155.4,091011,0.2,E,A*35
$GPGGA,092246.00,4611.975458,N,01258.222056,E,1,07,1.4,142.49,M,46.25,M,,*65
$GPGLL,4611.975458,N,01258.222056,E,092246.00,A,A*6D
$GPVTG,158.8,T,159.0,M,002.4,N,004.4,K,A*2C
$GPGSV,2,1,07,02,36,064,44,12,47,090,40,14,19,242,39,25,78,042,46*7A
$GPGSV,2,2,07,29,65,232,42,30,44,297,44,31,36,309,44,,,,*41
$GPGSA,M,3,02,12,14,25,29,30,31,,,,,,2.5,1.4,2.0*37
Trace #45 at position 11.000000
$GPZDA,092246.03,09,10,2011,00,00*64
$GPRMC,092246.00,A,4611.975458,N,01258.222056,E,002.4,158.8,091011,0.2,E,A*39
$GPGGA,092247.00,4611.975009,N,01258.222257,E,1,07,1.4,142.50,M,46.25,M,,*6F
$GPGLL,4611.975009,N,01258.222257,E,092247.00,A,A*6F
$GPVTG,172.2,T,172.4,M,000.9,N,001.7,K,A*2A
$GPGSV,2,1,07,02,36,064,45,12,47,090,40,14,19,242,39,25,78,042,45*78
$GPGSV,2,2,07,29,65,232,42,30,44,297,43,31,36,309,44,,,,*46
$GPGSA,M,3,02,12,14,25,29,30,31,,,,,,2.5,1.4,2.0*37
Trace #46 at position 11.250000
$GPZDA,092246.03,09,10,2011,00,00*64
$GPRMC,092246.00,A,4611.975458,N,01258.222056,E,002.4,158.8,091011,0.2,E,A*39
$GPGGA,092247.00,4611.975009,N,01258.222257,E,1,07,1.4,142.50,M,46.25,M,,*6F
$GPGLL,4611.975009,N,01258.222257,E,092247.00,A,A*6F
$GPVTG,172.2,T,172.4,M,000.9,N,001.7,K,A*2A
$GPGSV,2,1,07,02,36,064,45,12,47,090,40,14,19,242,39,25,78,042,45*78
$GPGSV,2,2,07,29,65,232,42,30,44,297,43,31,36,309,44,,,,*46
$GPGSA,M,3,02,12,14,25,29,30,31,,,,,,2.5,1.4,2.0*37
Trace #47 at position 11.500000
$GPZDA,092246.03,09,10,2011,00,00*64
$GPRMC,092246.00,A,4611.975458,N,01258.222056,E,002.4,158.8,091011,0.2,E,A*39
$GPGGA,092247.00,4611.975009,N,01258.222257,E,1,07,1.4,142.50,M,46.25,M,,*6F
$GPGLL,4611.975009,N,01258.222257,E,092247.00,A,A*6F
$GPVTG,172.2,T,172.4,M,000.9,N,001.7,K,A*2A
$GPGSV,2,1,07,02,36,064,45,12,47,090,40,14,19,242,39,25,78,042,45*78
$GPGSV,2,2,07,29,65,232,42,30,44,297,43,31,36,309,44,,,,*46
$GPGSA,M,3,02,12,14,25,29,30,31,,,,,,2.5,1.4,2.0*37
Trace #48 at position 11.750000
$GPZDA,092247.03,09,10,2011,00,00*65
$GPRMC,092247.00,A,4611.975009,N,01258.222257,E,000.9,172.2,091011,0.2,E,A*36
$GPGGA,092248.00,4611.974495,N,01258.222362,E,1,07,1.4,142.44,M,46.25,M,,*62
$GPGLL,4611.974495,N,01258.222362,E,092248.00,A,A*67
$GPVTG,173.3,T,173.4,M,002.7,N,005.0,K,A*24
$GPGSV,2,1,07,02,36,064,45,12,47,090,39,14,19,242,39,25,78,042,45*76
$GPGSV,2,2,07,29,65,232,41,30,44,297,44,31,36,309,44,,,,*42
$GPGSA,M,3,02,12,14,25,29,30,31,,,,,,2.5,1.4,2.0*37
Trace #49 at position 12.000000
$GPZDA,092247.03,09,10,2011,00,00*65
$GPRMC,092247.00,A,4611.975009,N,01258.222257,E,000.9,172.2,091011,0.2,E,A*36
$GPGGA,092248.00,4611.974495,N,01258.222362,E,1,07,1.4,142.44,M,46.25,M,,*62
$GPGLL,4611.974495,N,01258.222362,E,092248.00,A,A*67
$GPVTG,173.3,T,173.4,M,002.7,N,005.0,K,A*24
$GPGSV,2,1,07,02,36,064,45,12,47,090,39,14,19,242,39,25,78,042,45*76
$GPGSV,2,2,07,29,65,232,41,30,44,297,44,31,36,309,44,,,,*42
$GPGSA,M,3,02,12,14,25,29,30,31,,,,,,2.5,1.4,2.0*37
Trace #50 at position 12.250000
$GPZDA,092247.03,09,10,2011,00,00*65
$GPRMC,092247.00,A,4611.975009,N,01258.222257,E,000.9,172.2,091011,0.2,E,A*36
$GPGGA,092248.00,4611.974495,N,01258.222362,E,1,07,1.4,142.44,M,46.25,M,,*62
$GPGLL,4611.974495,N,01258.222362,E,092248.00,A,A*67
$GPVTG,173.3,T,173.4,M,002.7,N,005.0,K,A*24
$GPGSV,2,1,07,02,36,064,45,12,47,090,39,14,19,242,39,25,78,042,45*76
$GPGSV,2,2,07,29,65,232,41,30,44,297,44,31,36,309,44,,,,*42
$GPGSA,M,3,02,12,14,25,29,30,31,,,,,,2.5,1.4,2.0*37
Trace #51 at position 12.500000
$GPZDA,092247.03,09,10,2011,00,00*65
$GPRMC,092247.00,A,4611.975009,N,01258.222257,E,000.9,172.2,091011,0.2,E,A*36
$GPGGA,092248.00,4611.974495,N,01258.222362,E,1,07,1.4,142.44,M,46.25,M,,*62
$GPGLL,4611.974495,N,01258.222362,E,092248.00,A,A*67
$GPVTG,173.3,T,173.4,M,002.7,N,005.0,K,A*24
$GPGSV,2,1,07,02,36,064,45,12,47,090,39,14,19,242,39,25,78,042,45*76
$GPGSV,2,2,07,29,65,232,41,30,44,297,44,31,36,309,44,,,,*42
$GPGSA,M,3,02,12,14,25,29,30,31,,,,,,2.5,1.4,2.0*37
Trace #52 at position 12.750000
$GPZDA,092248.04,09,10,2011,00,00*6D
$GPRMC,092248.00,A,4611.974495,N,01258.222362,E,002.7,173.3,091011,0.2,E,A*32
$GPGGA,092249.00,4611.973783,N,01258.222585,E,1,07,1.4,142.20,M,46.25,M,,*6D
$GPGLL,4611.973783,N,01258.222585,E,092249.00,A,A*6A
$GPVTG,164.3,T,164.5,M,002.7,N,005.0,K,A*25
$GPGSV,2,1,07,02,36,064,45,12,47,090,39,14,19,242,39,25,78,042,45*76
$GPGSV,2,2,07,29,65,232,42,30,44,297,44,31,36,309,44,,,,*41
$GPGSA,M,3,02,12,14,25,29,30,31,,,,,,2.5,1.4,2.0*37
Trace #53 at position 13.000000
$GPZDA,092248.04,09,10,2011,00,00*6D
$GPRMC,092248.00,A,4611.974495,N,01258.222362,E,002.7,173.3,091011,0.2,E,A*32
$GPGGA,092249.00,4611.973783,N,01258.222585,E,1,07,1.4,142.20,M,46.25,M,,*6D
$GPGLL,4611.973783,N,01258.222585,E,092249.00,A,A*6A
$GPVTG,164.3,T,164.5,M,002.7,N,005.0,K,A*25
$GPGSV,2,1,07,02,36,064,45,12,47,090,39,14,19,242,39,25,78,042,45*76
$GPGSV,2,2,07,29,65,232,42,30,44,297,44,31,36,309,44,,,,*41
$GPGSA,M,3,02,12,14,25,29,30,31,,,,,,2.5,1.4,2.0*37
Trace #54 at position 13.250000
$GPZDA,092248.04,09,10,2011,00,00*6D
$GPRMC,092248.00,A,4611.974495,N,01258.222362,E,002.7,173.3,091011,0.2,E,A*32
$GPGGA,092249.00,4611.973783,N,01258.222585,E,1,07,1.4,142.20,M,46.25,M,,*6D
$GPGLL,4611.973783,N,01258.222585,E,092249.00,A,A*6A
$GPVTG,164.3,T,164.5,M,002.7,N,005.0,K,A*25
$GPGSV,2,1,07,02,36,064,45,12,47,090,39,14,19,242,39,25,78,042,45*76
$GPGSV,2,2,07,29,65,232,42,30,44,297,44,31,36,309,44,,,,*41
$GPGSA,M,3,02,12,14,25,29,30,31,,,,,,2.5,1.4,2.0*37
Trace #55 at position 13.500000
$GPZDA,092248.04,09,10,2011,00,00*6D
$GPRMC,092248.00,A,4611.974495,N,01258.222362,E,002.7,173.3,091011,0.2,E,A*32
$GPGGA,092249.00,4611.973783,N,01258.222585,E,1,07,1.4,142.20,M,46.25,M,,*6D
$GPGLL,4611.973783,N,01258.222585,E,092249.00,A,A*6A
$GPVTG,164.3,T,164.5,M,002.7,N,005.0,K,A*25
$GPGSV,2,1,07,02,36,064,45,12,47,090,39,14,19,242,39,25,78,042,45*76
$GPGSV,2,2,07,29,65,232,42,30,44,297,44,31,36,309,44,,,,*41
$GPGSA,M,3,02,12,14,25,29,30,31,,,,,,2.5,1.4,2.0*37
Trace #56 at position 13.750000
$GPZDA,092249.03,09,10,2011,00,00*6B
$GPRMC,092249.00,A,4611.973783,N,01258.222585,E,002.7,164.3,091011,0.2,E,A*39
$GPGGA,092250.00,4611.973169,N,01258.222866,E,1,07,1.4,142.09,M,46.25,M,,*6C
$GPGLL,4611.973169,N,01258.222866,E,092250.00,A,A*60
$GPVTG,162.2,T,162.4,M,002.1,N,004.0,K,A*22
$GPGSV,2,1,07,02,36,064,44,12,47,090,39,14,19,242,38,25,78,042,44*77
$GPGSV,2,2,07,29,65,232,42,30,44,297,44,31,36,309,44,,,,*41
$GPGSA,M,3,02,12,14,25,29,30,31,,,,,,2.5,1.4,2.0*37
Trace #57 at position 14.000000
$GPZDA,092249.03,09,10,2011,00,00*6B
$GPRMC,092249.00,A,4611.973783,N,01258.222585,E,002.7,164.3,091011,0.2,E,A*39
$GPGGA,092250.00,4611.973169,N,01258.222866,E,1,07,1.4,142.09,M,46.25,M,,*6C
$GPGLL,4611.973169,N,01258.222866,E,092250.00,A,A*60
$GPVTG,162.2,T,162.4,M,002.1,N,004.0,K,A*22
$GPGSV,2,1,07,02,36,064,44,12,47,090,39,14,19,242,38,25,78,042,44*77
$GPGSV,2,2,07,29,65,232,42,30,44,297,44,31,36,309,44,,,,*41
$GPGSA,M,3,02,12,14,25,29,30,31,,,,,,2.5,1.4,2.0*37
Trace #58 at position 14.250000
$GPZDA,092249.03,09,10,2011,00,00*6B
$GPRMC,092249.00,A,4611.973783,N,01258.222585,E,002.7,164.3,091011,0.2,E,A*39
$GPGGA,092250.00,4611.973169,N,01258.222866,E,1,07,1.4,142.09,M,46.25,M,,*6C
$GPGLL,4611.973169,N,01258.222866,E,092250.00,A,A*60
$GPVTG,162.2,T,162.4,M,002.1,N,004.0,K,A*22
$GPGSV,2,1,07,02,36,064,44,12,47,090,39,14,19,242,38,25,78,042,44*77
$GPGSV,2,2,07,29,65,232,42,30,44,297,44,31,36,309,44,,,,*41
$GPGSA,M,3,02,12,14,25,29,30,31,,,,,,2.5,1.4,2.0*37
Trace #59 at position 14.500000
$GPZDA,092250.04,09,10,2011,00,00*64
$GPRMC,092250.00,A,4611.973169,N,01258.222866,E,002.1,162.2,091011,0.2,E,A*32
$GPGGA,092251.00,4611.972628,N,01258.223165,E,1,07,1.4,142.11,M,46.25,M,,*6C
$GPGLL,4611.972628,N,01258.223165,E,092251.00,A,A*69
$GPVTG,158.2,T,158.4,M,002.3,N,004.3,K,A*23
$GPGSV,2,1,07,02,36,064,44,12,47,090,38,14,19,242,38,25,78,042,44*76
$GPGSV,2,2,07,29,65,232,42,30,44,297,44,31,36,309,44,,,,*41
$GPGSA,M,3,02,12,14,25,29,30,31,,,,,,2.5,1.4,2.0*37
Trace #60 at position 14.750000
$GPZDA,092250.04,09,10,2011,00,00*64
$GPRMC,092250.00,A,4611.973169,N,01258.222866,E,002.1,162.2,091011,0.2,E,A*32
$GPGGA,092251.00,4611.972628,N,01258.223165,E,1,07,1.4,142.11,M,46.25,M,,*6C
$GPGLL,4611.972628,N,01258.223165,E,092251.00,A,A*69
$GPVTG,158.2,T,158.4,M,002.3,N,004.3,K,A*23
$GPGSV,2,1,07,02,36,064,44,12,47,090,38,14,19,242,38,25,78,042,44*76
$GPGSV,2,2,07,29,65,232,42,30,44,297,44,31,36,309,44,,,,*41
$GPGSA,M,3,02,12,14,25,29,30,31,,,,,,2.5,1.4,2.0*37
Trace #61 at position 15.000000
$GPZDA,092250.04,09,10,2011,00,00*64
$GPRMC,092250.00,A,4611.973169,N,01258.222866,E,002.1,162.2,091011,0.2,E,A*32
$GPGGA,092251.00,4611.972628,N,01258.223165,E,1,07,1.4,142.11,M,46.25,M,,*6C
$GPGLL,4611.972628,N,01258.223165,E,092251.00,A,A*69
$GPVTG,158.2,T,158.4,M,002.3,N,004.3,K,A*23
$GPGSV,2,1,07,02,36,064,44,12,47,090,38,14,19,242,38,25,78,042,44*76
$GPGSV,2,2,07,29,65,232,42,30,44,297,44,31,36,309,44,,,,*41
$GPGSA,M,3,02,12,14,25,29,30,31,,,,,,2.5,1.4,2.0*37
Trace #62 at position 15.250000
$GPZDA,092250.04,09,10,2011,00,00*64
$GPRMC,092250.00,A,4611.973169,N,01258.222866,E,002.1,162.2,091011,0.2,E,A*32
$GPGGA,092251.00,4611.972628,N,01258.223165,E,1,07,1.4,142.11,M,46.25,M,,*6C
$GPGLL,4611.972628,N,01258.223165,E,092251.00,A,A*69
$GPVTG,158.2,T,158.4,M,002.3,N,004.3,K,A*23
$GPGSV,2,1,07,02,36,064,44,12,47,090,38,14,19,242,38,25,78,042,44*76
$GPGSV,2,2,07,29,65,232,42,30,44,297,44,31,36,309,44,,,,*41
$GPGSA,M,3,02,12,14,25,29,30,31,,,,,,2.5,1.4,2.0*37
Trace #63 at position 15.500000
$GPZDA,092250.04,09,10,2011,00,00*64
$GPRMC,092250.00,A,4611.973169,N,01258.222866,E,002.1,162.2,091011,0.2,E,A*32
$GPGGA,092251.00,4611.972628,N,01258.223165,E,1,07,1.4,142.11,M,46.25,M,,*6C
$GPGLL,4611.972628,N,01258.223165,E,092251.00,A,A*69
$GPVTG,158.2,T,158.4,M,002.3,N,004.3,K,A*23
$GPGSV,2,1,07,02,36,064,44,12,47,090,38,14,19,242,38,25,78,042,44*76
$GPGSV,2,2,07,29,65,232,42,30,44,297,44,31,36,309,44,,,,*41
$GPGSA,M,3,02,12,14,25,29,30,31,,,,,,2.5,1.4,2.0*37
Trace #64 at position 15.750000
$GPZDA,092251.03,09,10,2011,00,00*62
$GPRMC,092251.00,A,4611.972628,N,01258.223165,E,002.3,158.2,091011,0.2,E,A*30
$GPGGA,092252.00,4611.972073,N,01258.223405,E,1,07,1.4,141.98,M,46.25,M,,*66
$GPGLL,4611.972073,N,01258.223405,E,092252.00,A,A*61
$GPVTG,170.9,T,171.1,M,002.2,N,004.1,K,A*2F
$GPGSV,2,1,07,02,36,064,44,12,47,090,38,14,19,242,38,25,78,042,46*74
$GPGSV,2,2,07,29,65,232,42,30,44,297,43,31,36,309,43,,,,*41
$GPGSA,M,3,02,12,14,25,29,30,31,,,,,,2.4,1.4,2.0*36
Trace #65 at position 16.000000
$GPZDA,092251.03,09,10,2011,00,00*62
$GPRMC,092251.00,A,4611.972628,N,01258.223165,E,002.3,158.2,091011,0.2,E,A*30
$GPGGA,092252.00,4611.972073,N,01258.223405,E,1,07,1.4,141.98,M,46.25,M,,*66
$GPGLL,4611.972073,N,01258.223405,E,092252.00,A,A*61
$GPVTG,170.9,T,171.1,M,002.2,N,004.1,K,A*2F
$GPGSV,2,1,07,02,36,064,44,12,47,090,38,14,19,242,38,25,78,042,46*74
$GPGSV,2,2,07,29,65,232,42,30,44,297,43,31,36,309,43,,,,*41
$GPGSA,M,3,02,12,14,25,29,30,31,,,,,,2.4,1.4,2.0*36
Trace #66 at position 16.250000
$GPZDA,092251.03,09,10,2011,00,00*62
$GPRMC,092251.00,A,4611.972628,N,01258.223165,E,002.3,158.2,091011,0.2,E,A*30
$GPGGA,092252.00,4611.972073,N,01258.223405,E,1,07,1.4,141.98,M,46.25,M,,*66
$GPGLL,4611.972073,N,01258.223405,E,092252.00,A,A*61
$GPVTG,170.9,T,171.1,M,002.2,N,004.1,K,A*2F
$GPGSV,2,1,07,02,36,064,44,12,47,090,38,14,19,242,38,25,78,042,46*74
$GPGSV,2,2,07,29,65,232,42,30,44,297,43,31,36,309,43,,,,*41
$GPGSA,M,3,02,12,14,25,29,30,31,,,,,,2.4,1.4,2.0*36
Trace #67 at position 16.500000
$GPZDA,092252.03,09,10,2011,00,00*61
$GPRMC,092252.00,A,4611.972073,N,01258.223405,E,002.2,170.9,091011,0.2,E,A*38
$GPGGA,092253.00,4611.971523,N,01258.223728,E,1,07,1.4,141.82,M,46.25,M,,*63
$GPGLL,4611.971523,N,01258.223728,E,092253.00,A,A*6F
$GPVTG,148.2,T,148.4,M,002.5,N,004.6,K,A*20
$GPGSV,2,1,07,02,36,064,44,12,47,090,39,14,19,242,39,25,78,042,45*77
$GPGSV,2,2,07,29,65,232,42,30,44,297,43,31,36,309,43,,,,*41
$GPGSA,M,3,02,12,14,25,29,30,31,,,,,,2.4,1.4,2.0*36
Trace #68 at position 16.750000
$GPZDA,092252.03,09,10,2011,00,00*61
$GPRMC,092252.00,A,4611.972073,N,01258.223405,E,002.2,170.9,091011,0.2,E,A*38
$GPGGA,092253.00,4611.971523,N,01258.223728,E,1,07,1.4,141.82,M,46.25,M,,*63
$GPGLL,4611.971523,N,01258.223728,E,092253.00,A,A*6F
$GPVTG,148.2,T,148.4,M,002.5,N,004.6,K,A*20
$GPGSV,2,1,07,02,36,064,44,12,47,090,39,14,19,242,39,25,78,042,45*77
$GPGSV,2,2,07,29,65,232,42,30,44,297,43,31,36,309,43,,,,*41
$GPGSA,M,3,02,12,14,25,29,30,31,,,,,,2.4,1.4,2.0*36
Trace #69 at position 17.000000
$GPZDA,092252.03,09,10,2011,00,00*61
$GPRMC,092252.00,A,4611.972073,N,01258.223405,E,002.2,170.9,091011,0.2,E,A*38
$GPGGA,092253.00,4611.971523,N,01258.223728,E,1,07,1.4,141.82,M,46.25,M,,*63
$GPGLL,4611.971523,N,01258.223728,E,092253.00,A,A*6F
$GPVTG,148.2,T,148.4,M,002.5,N,004.6,K,A*20
$GPGSV,2,1,07,02,36,064,44,12,47,090,39,14,19,242,39,25,78,042,45*77
$GPGSV,2,2,07,29,65,232,42,30,44,297,43,31,36,309,43,,,,*41
$GPGSA,M,3,02,12,14,25,29,30,31,,,,,,2.4,1.4,2.0*36
Trace #70 at position 17.250000
$GPZDA,092252.03,09,10,2011,00,00*61
$GPRMC,092252.00,A,4611.972073,N,01258.223405,E,002.2,170.9,091011,0.2,E,A*38
$GPGGA,092253.00,4611.971523,N,01258.223728,E,1,07,1.4,141.82,M,46.25,M,,*63
$GPGLL,4611.971523,N,01258.223728,E,092253.00,A,A*6F
$GPVTG,148.2,T,148.4,M,002.5,N,004.6,K,A*20
$GPGSV,2,1,07,02,36,064,44,12,47,090,39,14,19,242,39,25,78,042,45*77
$GPGSV,2,2,07,29,65,232,42,30,44,297,43,31,36,309,43,,,,*41
$GPGSA,M,3,02,12,14,25,29,30,31,,,,,,2.4,1.4,2.0*36
Trace #71 at position 17.500000
$GPZDA,092253.04,09,10,2011,00,00*67
$GPRMC,092253.00,A,4611.971523,N,01258.223728,E,002.5,148.2,091011,0.2,E,A*31
$GPGGA,092254.00,4611.971117,N,01258.224103,E,1,07,1.4,141.87,M,46.25,M,,*6A
$GPGLL,4611.971117,N,01258.224103,E,092254.00,A,A*63
$GPVTG,147.1,T,147.3,M,001.3,N,002.4,K,A*25
$GPGSV,2,1,07,02,36,064,45,12,47,090,39,14,19,242,39,25,78,042,45*76
$GPGSV,2,2,07,29,65,233,42,30,44,297,42,31,36,309,43,,,,*41
$GPGSA,M,3,02,12,14,25,29,30,31,,,,,,2.4,1.4,2.0*36
Trace #72 at position 17.750000
$GPZDA,092253.04,09,10,2011,00,00*67
$GPRMC,092253.00,A,4611.971523,N,01258.223728,E,002.5,148.2,091011,0.2,E,A*31
$GPGGA,092254.00,4611.971117,N,01258.224103,E,1,07,1.4,141.87,M,46.25,M,,*6A
$GPGLL,4611.971117,N,01258.224103,E,092254.00,A,A*63
$GPVTG,147.1,T,147.3,M,001.3,N,002.4,K,A*25
$GPGSV,2,1,07,02,36,064,45,12,47,090,39,14,19,242,39,25,78,042,45*76
$GPGSV,2,2,07,29,65,233,42,30,44,297,42,31,36,309,43,,,,*41
$GPGSA,M,3,02,12,14,25,29,30,31,,,,,,2.4,1.4,2.0*36
Trace #73 at position 18.000000
$GPZDA,092253.04,09,10,2011,00,00*67
$GPRMC,092253.00,A,4611.971523,N,01258.223728,E,002.5,148.2,091011,0.2,E,A*31
$GPGGA,092254.00,4611.971117,N,01258.224103,E,1,07,1.4,141.87,M,46.25,M,,*6A
$GPGLL,4611.971117,N,01258.224103,E,092254.00,A,A*63
$GPVTG,147.1,T,147.3,M,001.3,N,002.4,K,A*25
$GPGSV,2,1,07,02,36,064,45,12,47,090,39,14,19,242,39,25,78,042,45*76
$GPGSV,2,2,07,29,65,233,42,30,44,297,42,31,36,309,43,,,,*41
$GPGSA,M,3,02,12,14,25,29,30,31,,,,,,2.4,1.4,2.0*36
Trace #74 at position 18.250000
$GPZDA,092253.04,09,10,2011,00,00*67
$GPRMC,092253.00,A,4611.971523,N,01258.223728,E,002.5,148.2,091011,0.2,E,A*31
$GPGGA,092254.00,4611.971117,N,01258.224103,E,1,07,1.4,141.87,M,46.25,M,,*6A
$GPGLL,4611.971117,N,01258.224103,E,092254.00,A,A*63
$GPVTG,147.1,T,147.3,M,001.3,N,002.4,K,A*25
$GPGSV,2,1,07,02,36,064,45,12,47,090,39,14,19,242,39,25,78,042,45*76
$GPGSV,2,2,07,29,65,233,42,30,44,297,42,31,36,309,43,,,,*41
$GPGSA,M,3,02,12,14,25,29,30,31,,,,,,2.4,1.4,2.0*36
Trace #75 at position 18.500000
$GPZDA,092254.03,09,10,2011,00,00*67
$GPRMC,092254.00,A,4611.971117,N,01258.224103,E,001.3,147.1,091011,0.2,E,A*34
$GPGGA,092255.00,4611.970780,N,01258.224316,E,1,07,1.4,141.93,M,46.25,M,,*61
$GPGLL,4611.970780,N,01258.224316,E,092255.00,A,A*6D
$GPVTG,161.2,T,161.4,M,001.5,N,002.8,K,A*2B
$GPGSV,2,1,07,02,36,064,45,12,47,090,38,14,19,242,39,25,78,042,45*77
$GPGSV,2,2,07,29,65,233,42,30,44,297,42,31,36,309,43,,,,*41
$GPGSA,M,3,02,12,14,25,29,30,31,,,,,,2.4,1.4,2.0*36
Trace #76 at position 18.750000
$GPZDA,092254.03,09,10,2011,00,00*67
$GPRMC,092254.00,A,4611.971117,N,01258.224103,E,001.3,147.1,091011,0.2,E,A*34
$GPGGA,092255.00,4611.970780,N,01258.224316,E,1,07,1.4,141.93,M,46.25,M,,*61
$GPGLL,4611.970780,N,01258.224316,E,092255.00,A,A*6D
$GPVTG,161.2,T,161.4,M,001.5,N,002.8,K,A*2B
$GPGSV,2,1,07,02,36,064,45,12,47,090,38,14,19,242,39,25,78,042,45*77
$GPGSV,2,2,07,29,65,233,42,30,44,297,42,31,36,309,43,,,,*41
$GPGSA,M,3,02,12,14,25,29,30,31,,,,,,2.4,1.4,2.0*36
Trace #77 at position 19.000000
$GPZDA,092254.03,09,10,2011,00,00*67
$GPRMC,092254.00,A,4611.971117,N,01258.224103,E,001.3,147.1,091011,0.2,E,A*34
$GPGGA,092255.00,4611.970780,N,01258.224316,E,1,07,1.4,141.93,M,46.25,M,,*61
$GPGLL,4611.970780,N,01258.224316,E,092255.00,A,A*6D
$GPVTG,161.2,T,161.4,M,001.5,N,002.8,K,A*2B
$GPGSV,2,1,07,02,36,064,45,12,47,090,38,14,19,242,39,25,78,042,45*77
$GPGSV,2,2,07,29,65,233,42,30,44,297,42,31,36,309,43,,,,*41
$GPGSA,M,3,02,12,14,25,29,30,31,,,,,,2.4,1.4,2.0*36
Trace #78 at position 19.250000
$GPZDA,092255.04,09,10,2011,00,00*61
$GPRMC,092255.00,A,4611.970780,N,01258.224316,E,001.5,161.2,091011,0.2,E,A*3B
$GPGGA,092256.00,4611.970383,N,01258.224406,E,1,07,1.4,142.05,M,46.25,M,,*6F
$GPGLL,4611.970383,N,01258.224406,E,092256.00,A,A*6F
$GPVTG,179.0,T,179.1,M,001.4,N,002.7,K,A*22
$GPGSV,2,1,07,02,36,064,45,12,47,090,39,14,19,242,41,25,78,042,45*79
$GPGSV,2,2,07,29,65,233,42,30,44,297,42,31,36,309,43,,,,*41
$GPGSA,M,3,02,12,14,25,29,30,31,,,,,,2.4,1.4,2.0*36
Trace #79 at position 19.500000
$GPZDA,092255.04,09,10,2011,00,00*61
$GPRMC,092255.00,A,4611.970780,N,01258.224316,E,001.5,161.2,091011,0.2,E,A*3B
$GPGGA,092256.00,4611.970383,N,01258.224406,E,1,07,1.4,142.05,M,46.25,M,,*6F
$GPGLL,4611.970383,N,01258.224406,E,092256.00,A,A*6F
$GPVTG,179.0,T,179.1,M,001.4,N,002.7,K,A*22
$GPGSV,2,1,07,02,36,064,45,12,47,090,39,14,19,242,41,25,78,042,45*79
$GPGSV,2,2,07,29,65,233,42,30,44,297,42,31,36,309,43,,,,*41
$GPGSA,M,3,02,12,14,25,29,30,31,,,,,,2.4,1.4,2.0*36
Trace #80 at position 19.750000
$GPZDA,092255.04,09,10,2011,00,00*61
$GPRMC,092255.00,A,4611.970780,N,01258.224316,E,001.5,161.2,091011,0.2,E,A*3B
$GPGGA,092256.00,4611.970383,N,01258.224406,E,1,07,1.4,142.05,M,46.25,M,,*6F
$GPGLL,4611.970383,N,01258.224406,E,092256.00,A,A*6F
$GPVTG,179.0,T,179.1,M,001.4,N,002.7,K,A*22
$GPGSV,2,1,07,02,36,064,45,12,47,090,39,14,19,242,41,25,78,042,45*79
$GPGSV,2,2,07,29,65,233,42,30,44,297,42,31,36,309,43,,,,*41
$GPGSA,M,3,02,12,14,25,29,30,31,,,,,,2.4,1.4,2.0*36
Trace #81 at position 20.000000
$GPZDA,092255.04,09,10,2011,00,00*61
$GPRMC,092255.00,A,4611.970780,N,01258.224316,E,001.5,161.2,091011,0.2,E,A*3B
$GPGGA,092256.00,4611.970383,N,01258.224406,E,1,07,1.4,142.05,M,46.25,M,,*6F
$GPGLL,4611.970383,N,01258.224406,E,092256.00,A,A*6F
$GPVTG,179.0,T,179.1,M,001.4,N,002.7,K,A*22
$GPGSV,2,1,07,02,36,064,45,12,47,090,39,14,19,242,41,25,78,042,45*79
$GPGSV,2,2,07,29,65,233,42,30,44,297,42,31,36,309,43,,,,*41
$GPGSA,M,3,02,12,14,25,29,30,31,,,,,,2.4,1.4,2.0*36
Trace #82 at position 20.250000
$GPZDA,092256.04,09,10,2011,00,00*62
$GPRMC,092256.00,A,4611.970383,N,01258.224406,E,001.4,179.0,091011,0.2,E,A*33
$GPGGA,092257.00,4611.970025,N,01258.224491,E,1,07,1.4,142.24,M,46.25,M,,*6C
$GPGLL,4611.970025,N,01258.224491,E,092257.00,A,A*6F
$GPVTG,160.6,T,160.8,M,001.2,N,002.2,K,A*2E
$GPGSV,2,1,07,02,36,064,45,12,47,090,40,14,19,242,39,25,78,042,45*78
$GPGSV,2,2,07,29,65,233,42,30,44,297,43,31,36,309,43,,,,*40
$GPGSA,M,3,02,12,14,25,29,30,31,,,,,,2.4,1.4,2.0*36
Trace #83 at position 20.500000
$GPZDA,092256.04,09,10,2011,00,00*62
$GPRMC,092256.00,A,4611.970383,N,01258.224406,E,001.4,179.0,091011,0.2,E,A*33
$GPGGA,092257.00,4611.970025,N,01258.224491,E,1,07,1.4,142.24,M,46.25,M,,*6C
$GPGLL,4611.970025,N,01258.224491,E,092257.00,A,A*6F
$GPVTG,160.6,T,160.8,M,001.2,N,002.2,K,A*2E
$GPGSV,2,1,07,02,36,064,45,12,47,090,40,14,19,242,39,25,78,042,45*78
$GPGSV,2,2,07,29,65,233,42,30,44,297,43,31,36,309,43,,,,*40
$GPGSA,M,3,02,12,14,25,29,30,31,,,,,,2.4,1.4,2.0*36
Trace #84 at position 20.750000
$GPZDA,092256.04,09,10,2011,00,00*62
$GPRMC,092256.00,A,4611.970383,N,01258.224406,E,001.4,179.0,091011,0.2,E,A*33
$GPGGA,092257.00,4611.970025,N,01258.224491,E,1,07,1.4,142.24,M,46.25,M,,*6C
$GPGLL,4611.970025,N,01258.224491,E,092257.00,A,A*6F
$GPVTG,160.6,T,160.8,M,001.2,N,002.2,K,A*2E
$GPGSV,2,1,07,02,36,064,45,12,47,090,40,14,19,242,39,25,78,042,45*78
$GPGSV,2,2,07,29,65,233,42,30,44,297,43,31,36,309,43,,,,*40
$GPGSA,M,3,02,12,14,25,29,30,31,,,,,,2.4,1.4,2.0*36
Trace #85 at position 21.000000
$GPZDA,092256.04,09,10,2011,00,00*62
$GPRMC,092256.00,A,4611.970383,N,01258.224406,E,001.4,179.0,091011,0.2,E,A*33
$GPGGA,092257.00,4611.970025,N,01258.224491,E,1,07,1.4,142.24,M,46.25,M,,*6C
$GPGLL,4611.970025,N,01258.224491,E,092257.00,A,A*6F
$GPVTG,160.6,T,160.8,M,001.2,N,002.2,K,A*2E
$GPGSV,2,1,07,02,36,064,45,12,47,090,40,14,19,242,39,25,78,042,45*78
$GPGSV,2,2,07,29,65,233,42,30,44,297,43,31,36,309,43,,,,*40
$GPGSA,M,3,02,12,14,25,29,30,31,,,,,,2.4,1.4,2.0*36
Trace #86 at position 21.250000
$GPZDA,092257.03,09,10,2011,00,00*64
$GPRMC,092257.00,A,4611.970025,N,01258.224491,E,001.2,160.6,091011,0.2,E,A*3B
$GPGGA,092258.00,4611.969560,N,01258.224796,E,1,07,1.4,142.19,M,46.25,M,,*65
$GPGLL,4611.969560,N,01258.224796,E,092258.00,A,A*68
$GPVTG,152.5,T,152.6,M,002.4,N,004.5,K,A*27
$GPGSV,2,1,07,02,36,064,45,12,47,090,40,14,19,242,39,25,78,042,45*78
$GPGSV,2,2,07,29,65,233,43,30,44,297,42,31,36,309,44,,,,*47
$GPGSA,M,3,02,12,14,25,29,30,31,,,,,,2.4,1.4,2.0*36
Trace #87 at position 21.500000
$GPZDA,092257.03,09,10,2011,00,00*64
$GPRMC,092257.00,A,4611.970025,N,01258.224491,E,001.2,160.6,091011,0.2,E,A*3B
$GPGGA,092258.00,4611.969560,N,01258.224796,E,1,07,1.4,142.19,M,46.25,M,,*65
$GPGLL,4611.969560,N,01258.224796,E,092258.00,A,A*68
$GPVTG,152.5,T,152.6,M,002.4,N,004.5,K,A*27
$GPGSV,2,1,07,02,36,064,45,12,47,090,40,14,19,242,39,25,78,042,45*78
$GPGSV,2,2,07,29,65,233,43,30,44,297,42,31,36,309,44,,,,*47
$GPGSA,M,3,02,12,14,25,29,30,31,,,,,,2.4,1.4,2.0*36
Trace #88 at position 21.750000
$GPZDA,092257.03,09,10,2011,00,00*64
$GPRMC,092257.00,A,4611.970025,N,01258.224491,E,001.2,160.6,091011,0.2,E,A*3B
$GPGGA,092258.00,4611.969560,N,01258.224796,E,1,07,1.4,142.19,M,46.25,M,,*65
$GPGLL,4611.969560,N,01258.224796,E,092258.00,A,A*68
$GPVTG,152.5,T,152.6,M,002.4,N,004.5,K,A*27
$GPGSV,2,1,07,02,36,064,45,12,47,090,40,14,19,242,39,25,78,042,45*78
$GPGSV,2,2,07,29,65,233,43,30,44,297,42,31,36,309,44,,,,*47
$GPGSA,M,3,02,12,14,25,29,30,31,,,,,,2.4,1.4,2.0*36
Trace #89 at position 22.000000
$GPZDA,092258.04,09,10,2011,00,00*6C
$GPRMC,092258.00,A,4611.969560,N,01258.224796,E,002.4,152.5,091011,0.2,E,A*3B
$GPGGA,092259.00,4611.968942,N,01258.225159,E,1,07,1.4,141.95,M,46.25,M,,*6A
$GPGLL,4611.968942,N,01258.225159,E,092259.00,A,A*60
$GPVTG,160.8,T,161.0,M,002.4,N,004.5,K,A*2D
$GPGSV,2,1,07,02,36,064,45,12,47,090,37,14,19,242,39,25,78,042,45*78
$GPGSV,2,2,07,29,65,233,42,30,44,297,42,31,36,309,43,,,,*41
$GPGSA,M,3,02,12,14,25,29,30,31,,,,,,2.4,1.4,2.0*36
Trace #90 at position 22.250000
$GPZDA,092258.04,09,10,2011,00,00*6C
$GPRMC,092258.00,A,4611.969560,N,01258.224796,E,002.4,152.5,091011,0.2,E,A*3B
$GPGGA,092259.00,4611.968942,N,01258.225159,E,1,07,1.4,141.95,M,46.25,M,,*6A
$GPGLL,4611.968942,N,01258.225159,E,092259.00,A,A*60
$GPVTG,160.8,T,161.0,M,002.4,N,004.5,K,A*2D
$GPGSV,2,1,07,02,36,064,45,12,47,090,37,14,19,242,39,25,78,042,45*78
$GPGSV,2,2,07,29,65,233,42,30,44,297,42,31,36,309,43,,,,*41
$GPGSA,M,3,02,12,14,25,29,30,31,,,,,,2.4,1.4,2.0*36
Trace #91 at position 22.500000
$GPZDA,092258.04,09,10,2011,00,00*6C
$GPRMC,092258.00,A,4611.969560,N,01258.224796,E,002.4,152.5,091011,0.2,E,A*3B
$GPGGA,092259.00,4611.968942,N,01258.225159,E,1,07,1.4,141.95,M,46.25,M,,*6A
$GPGLL,4611.968942,N,01258.225159,E,092259.00,A,A*60
$GPVTG,160.8,T,161.0,M,002.4,N,004.5,K,A*2D
$GPGSV,2,1,07,02,36,064,45,12,47,090,37,14,19,242,39,25,78,042,45*78
$GPGSV,2,2,07,29,65,233,42,30,44,297,42,31,36,309,43,,,,*41
$GPGSA,M,3,02,12,14,25,29,30,31,,,,,,2.4,1.4,2.0*36
Trace #92 at position 22.750000
$GPZDA,092259.04,09,10,2011,00,00*6D
$GPRMC,092259.00,A,4611.968942,N,01258.225159,E,002.4,160.8,091011,0.2,E,A*3F
$GPGGA,092300.00,4611.968357,N,01258.225354,E,1,07,1.4,141.74,M,46.25,M,,*69
$GPGLL,4611.968357,N,01258.225354,E,092300.00,A,A*6C
$GPVTG,173.0,T,173.2,M,002.0,N,003.7,K,A*27
$GPGSV,2,1,07,02,36,064,45,12,47,090,37,14,19,242,38,25,78,042,45*79
$GPGSV,2,2,07,29,65,233,43,30,45,297,43,31,36,309,43,,,,*40
$GPGSA,M,3,02,12,14,25,29,30,31,,,,,,2.4,1.4,2.0*36
Trace #93 at position 23.000000
$GPZDA,092259.04,09,10,2011,00,00*6D
$GPRMC,092259.00,A,4611.968942,N,01258.225159,E,002.4,160.8,091011,0.2,E,A*3F
$GPGGA,092300.00,4611.968357,N,01258.225354,E,1,07,1.4,141.74,M,46.25,M,,*69
$GPGLL,4611.968357,N,01258.225354,E,092300.00,A,A*6C
$GPVTG,173.0,T,173.2,M,002.0,N,003.7,K,A*27
$GPGSV,2,1,07,02,36,064,45,12,47,090,37,14,19,242,38,25,78,042,45*79
$GPGSV,2,2,07,29,65,233,43,30,45,297,43,31,36,309,43,,,,*40
$GPGSA,M,3,02,12,14,25,29,30,31,,,,,,2.4,1.4,2.0*36
Trace #94 at position 23.250000
$GPZDA,092259.04,09,10,2011,00,00*6D
$GPRMC,092259.00,A,4611.968942,N,01258.225159,E,002.4,160.8,091011,0.2,E,A*3F
$GPGGA,092300.00,4611.968357,N,01258.225354,E,1,07,1.4,141.74,M,46.25,M,,*69
$GPGLL,4611.968357,N,01258.225354,E,092300.00,A,A*6C
$GPVTG,173.0,T,173.2,M,002.0,N,003.7,K,A*27
$GPGSV,2,1,07,02,36,064,45,12,47,090,37,14,19,242,38,25,78,042,45*79
$GPGSV,2,2,07,29,65,233,43,30,45,297,43,31,36,309,43,,,,*40
$GPGSA,M,3,02,12,14,25,29,30,31,,,,,,2.4,1.4,2.0*36
Trace #95 at position 23.500000
$GPZDA,092259.04,09,10,2011,00,00*6D
$GPRMC,092259.00,A,4611.968942,N,01258.225159,E,002.4,160.8,091011,0.2,E,A*3F
$GPGGA,092300.00,4611.968357,N,01258.225354,E,1,07,1.4,141.74,M,46.25,M,,*69
$GPGLL,4611.968357,N,01258.225354,E,092300.00,A,A*6C
$GPVTG,173.0,T,173.2,M,002.0,N,003.7,K,A*27
$GPGSV,2,1,07,02,36,064,45,12,47,090,37,14,19,242,38,25,78,042,45*79
$GPGSV,2,2,07,29,65,233,43,30,45,297,43,31,36,309,43,,,,*40
$GPGSA,M,3,02,12,14,25,29,30,31,,,,,,2.4,1.4,2.0*36
Trace #96 at position 23.750000
$GPZDA,092300.03,09,10,2011,00,00*67
$GPRMC,092300.00,A,4611.968357,N,01258.225354,E,002.0,173.0,091011,0.2,E,A*3D
$GPGGA,092301.00,4611.967918,N,01258.225373,E,1,07,1.4,141.64,M,46.25,M,,*62
$GPGLL,4611.967918,N,01258.225373,E,092301.00,A,A*66
$GPVTG,187.9,T,188.0,M,001.3,N,002.4,K,A*21
$GPGSV,2,1,07,02,36,064,44,12,47,090,38,14,19,242,39,25,78,042,45*76
$GPGSV,2,2,07,29,65,233,41,30,45,297,43,31,36,309,43,,,,*42
$GPGSA,M,3,02,12,14,25,29,30,31,,,,,,2.4,1.4,2.0*36
Trace #97 at position 24.000000
$GPZDA,092300.03,09,10,2011,00,00*67
$GPRMC,092300.00,A,4611.968357,N,01258.225354,E,002.0,173.0,091011,0.2,E,A*3D
$GPGGA,092301.00,4611.967918,N,01258.225373,E,1,07,1.4,141.64,M,46.25,M,,*62
$GPGLL,4611.967918,N,01258.225373,E,092301.00,A,A*66
$GPVTG,187.9,T,188.0,M,001.3,N,002.4,K,A*21
$GPGSV,2,1,07,02,36,064,44,12,47,090,38,14,19,242,39,25,78,042,45*76
$GPGSV,2,2,07,29,65,233,41,30,45,297,43,31,36,309,43,,,,*42
$GPGSA,M,3,02,12,14,25,29,30,31,,,,,,2.4,1.4,2.0*36
Trace #98 at position 24.250000
$GPZDA,092300.03,09,10,2011,00,00*67
$GPRMC,092300.00,A,4611.968357,N,01258.225354,E,002.0,173.0,091011,0.2,E,A*3D
$GPGGA,092301.00,4611.967918,N,01258.225373,E,1,07,1.4,141.64,M,46.25,M,,*62
$GPGLL,4611.967918,N,01258.225373,E,092301.00,A,A*66
$GPVTG,187.9,T,188.0,M,001.3,N,002.4,K,A*21
$GPGSV,2,1,07,02,36,064,44,12,47,090,38,14,19,242,39,25,78,042,45*76
$GPGSV,2,2,07,29,65,233,41,30,45,297,43,31,36,309,43,,,,*42
$GPGSA,M,3,02,12,14,25,29,30,31,,,,,,2.4,1.4,2.0*36
Trace #99 at position 24.500000
$GPZDA,092300.03,09,10,2011,00,00*67
$GPRMC,092300.00,A,4611.968357,N,01258.225354,E,002.0,173.0,091011,0.2,E,A*3D
$GPGGA,092301.00,4611.967918,N,01258.225373,E,1,07,1.4,141.64,M,46.25,M,,*62
$GPGLL,4611.967918,N,01258.225373,E,092301.00,A,A*66
$GPVTG,187.9,T,188.0,M,001.3,N,002.4,K,A*21
$GPGSV,2,1,07,02,36,064,44,12,47,090,38,14,19,242,39,25,78,042,45*76
$GPGSV,2,2,07,29,65,233,41,30,45,297,43,31,36,309,43,,,,*42
$GPGSA,M,3,02,12,14,25,29,30,31,,,,,,2.4,1.4,2.0*36
Trace #100 at position 24.750000
$GPZDA,092301.03,09,10,2011,00,00*66
$GPRMC,092301.00,A,4611.967918,N,01258.225373,E,001.3,187.9,091011,0.2,E,A*35
$GPGGA,092302.00,4611.967512,N,01258.225446,E,1,07,1.4,141.62,M,46.25,M,,*60
$GPGLL,4611.967512,N,01258.225446,E,092302.00,A,A*62
$GPVTG,166.8,T,167.0,M,001.8,N,003.4,K,A*24
$GPGSV,2,1,07,02,36,063,45,12,47,090,37,14,19,242,38,25,78,042,46*7D
$GPGSV,2,2,07,29,65,233,41,30,45,297,43,31,36,309,44,,,,*45
$GPGSA,M,3,02,12,14,25,29,30,31,,,,,,2.4,1.4,2.0*36
Trace #101 at position 25.000000
$GPZDA,092301.03,09,10,2011,00,00*66
$GPRMC,092301.00,A,4611.967918,N,01258.225373,E,001.3,187.9,091011,0.2,E,A*35
$GPGGA,092302.00,4611.967512,N,01258.225446,E,1,07,1.4,141.62,M,46.25,M,,*60
$GPGLL,4611.967512,N,01258.225446,E,092302.00,A,A*62
$GPVTG,166.8,T,167.0,M,001.8,N,003.4,K,A*24
$GPGSV,2,1,07,02,36,063,45,12,47,090,37,14,19,242,38,25,78,042,46*7D
$GPGSV,2,2,07,29,65,233,41,30,45,297,43,31,36,309,44,,,,*45
$GPGSA,M,3,02,12,14,25,29,30,31,,,,,,2.4,1.4,2.0*36
Trace #102 at position 25.250000
$GPZDA,092301.03,09,10,2011,00,00*66
$GPRMC,092301.00,A,4611.967918,N,01258.225373,E,001.3,187.9,091011,0.2,E,A*35
$GPGGA,092302.00,4611.967512,N,01258.225446,E,1,07,1.4,141.62,M,46.25,M,,*60
$GPGLL,4611.967512,N,01258.225446,E,092302.00,A,A*62
$GPVTG,166.8,T,167.0,M,001.8,N,003.4,K,A*24
$GPGSV,2,1,07,02,36,063,45,12,47,090,37,14,19,242,38,25,78,042,46*7D
$GPGSV,2,2,07,29,65,233,41,30,45,297,43,31,36,309,44,,,,*45
$GPGSA,M,3,02,12,14,25,29,30,31,,,,,,2.4,1.4,2.0*36
Trace #103 at position 25.500000
$GPZDA,092301.03,09,10,2011,00,00*66
$GPRMC,092301.00,A,4611.967918,N,01258.225373,E,001.3,187.9,091011,0.2,E,A*35
$GPGGA,092302.00,4611.967512,N,01258.225446,E,1,07,1.4,141.62,M,46.25,M,,*60
$GPGLL,4611.967512,N,01258.225446,E,092302.00,A,A*62
$GPVTG,166.8,T,167.0,M,001.8,N,003.4,K,A*24
$GPGSV,2,1,07,02,36,063,45,12,47,090,37,14,19,242,38,25,78,042,46*7D
$GPGSV,2,2,07,29,65,233,41,30,45,297,43,31,36,309,44,,,,*45
$GPGSA,M,3,02,12,14,25,29,30,31,,,,,,2.4,1.4,2.0*36
Trace #104 at position 25.750000
$GPZDA,092302.03,09,10,2011,00,00*65
$GPRMC,092302.00,A,4611.967512,N,01258.225446,E,001.8,166.8,091011,0.2,E,A*34
$GPGGA,092303.00,4611.967074,N,01258.225615,E,1,07,1.4,141.61,M,46.25,M,,*63
$GPGLL,4611.967074,N,01258.225615,E,092303.00,A,A*62
$GPVTG,169.6,T,169.8,M,001.5,N,002.7,K,A*2C
$GPGSV,2,1,07,02,36,063,45,12,47,090,38,14,19,242,38,25,78,042,45*71
$GPGSV,2,2,07,29,65,233,43,30,45,297,42,31,36,309,44,,,,*46
$GPGSA,M,3,02,12,14,25,29,30,31,,,,,,2.4,1.4,2.0*36
Trace #105 at position 26.000000
$GPZDA,092305.04,09,10,2011,00,00*65
$GPRMC,092305.00,A,4611.966266,N,01258.225937,E,000.8,181.3,091011,0.2,E,A*3E
$GPGGA,092306.00,4611.966199,N,01258.225944,E,1,07,1.4,141.59,M,46.25,M,,*65
$GPGLL,4611.966199,N,01258.225944,E,092306.00,A,A*6F
$GPVTG,336.9,T,337.1,M,000.4,N,000.7,K,A*29
$GPGSV,2,1,07,02,36,063,46,12,46,090,40,14,19,242,39,25,78,042,46*7E
$GPGSV,2,2,07,29,65,233,42,30,45,297,43,31,36,309,44,,,,*46
$GPGSA,M,3,02,12,14,25,29,30,31,,,,,,2.4,1.4,2.0*36
Trace #106 at position 26.250000
$GPZDA,092305.04,09,10,2011,00,00*65
$GPRMC,092305.00,A,4611.966266,N,01258.225937,E,000.8,181.3,091011,0.2,E,A*3E
$GPGGA,092306.00,4611.966199,N,01258.225944,E,1,07,1.4,141.59,M,46.25,M,,*65
$GPGLL,4611.966199,N,01258.225944,E,092306.00,A,A*6F
$GPVTG,336.9,T,337.1,M,000.4,N,000.7,K,A*29
$GPGSV,2,1,07,02,36,063,46,12,46,090,40,14,19,242,39,25,78,042,46*7E
$GPGSV,2,2,07,29,65,233,42,30,45,297,43,31,36,309,44,,,,*46
$GPGSA,M,3,02,12,14,25,29,30,31,,,,,,2.4,1.4,2.0*36
Trace #107 at position 26.500000
$GPZDA,092306.03,09,10,2011,00,00*61
$GPRMC,092306.00,A,4611.966199,N,01258.225944,E,000.4,336.9,091011,0.2,E,A*32
$GPGGA,092307.00,4611.966275,N,01258.225912,E,1,06,1.5,141.64,M,46.25,M,,*68
$GPGLL,4611.966275,N,01258.225912,E,092307.00,A,A*6C
$GPVTG,17.5,T,17.7,M,000.1,N,000.1,K,A*21
$GPGSV,2,1,07,02,36,063,44,12,46,090,32,14,19,242,39,25,78,042,46*79
$GPGSV,2,2,07,29,65,233,41,30,45,297,43,31,36,309,44,,,,*45
$GPGSA,M,3,02,14,25,29,30,31,,,,,,,2.5,1.5,2.0*35
Trace #108 at position 26.750000
$GPZDA,092306.03,09,10,2011,00,00*61
$GPRMC,092306.00,A,4611.966199,N,01258.225944,E,000.4,336.9,091011,0.2,E,A*32
$GPGGA,092307.00,4611.966275,N,01258.225912,E,1,06,1.5,141.64,M,46.25,M,,*68
$GPGLL,4611.966275,N,01258.225912,E,092307.00,A,A*6C
$GPVTG,17.5,T,17.7,M,000.1,N,000.1,K,A*21
$GPGSV,2,1,07,02,36,063,44,12,46,090,32,14,19,242,39,25,78,042,46*79
$GPGSV,2,2,07,29,65,233,41,30,45,297,43,31,36,309,44,,,,*45
$GPGSA,M,3,02,14,25,29,30,31,,,,,,,2.5,1.5,2.0*35
Trace #109 at position 27.000000
$GPZDA,092306.03,09,10,2011,00,00*61
$GPRMC,092306.00,A,4611.966199,N,01258.225944,E,000.4,336.9,091011,0.2,E,A*32
$GPGGA,092307.00,4611.966275,N,01258.225912,E,1,06,1.5,141.64,M,46.25,M,,*68
$GPGLL,4611.966275,N,01258.225912,E,092307.00,A,A*6C
$GPVTG,17.5,T,17.7,M,000.1,N,000.1,K,A*21
$GPGSV,2,1,07,02,36,063,44,12,46,090,32,14,19,242,39,25,78,042,46*79
$GPGSV,2,2,07,29,65,233,41,30,45,297,43,31,36,309,44,,,,*45
$GPGSA,M,3,02,14,25,29,30,31,,,,,,,2.5,1.5,2.0*35
Trace #110 at position 27.250000
$GPZDA,092306.03,09,10,2011,00,00*61
$GPRMC,092306.00,A,4611.966199,N,01258.225944,E,000.4,336.9,091011,0.2,E,A*32
$GPGGA,092307.00,4611.966275,N,01258.225912,E,1,06,1.5,141.64,M,46.25,M,,*68
$GPGLL,4611.966275,N,01258.225912,E,092307.00,A,A*6C
$GPVTG,17.5,T,17.7,M,000.1,N,000.1,K,A*21
$GPGSV,2,1,07,02,36,063,44,12,46,090,32,14,19,242,39,25,78,042,46*79
$GPGSV,2,2,07,29,65,233,41,30,45,297,43,31,36,309,44,,,,*45
$GPGSA,M,3,02,14,25,29,30,31,,,,,,,2.5,1.5,2.0*35
Trace #111 at position 27.500000
$GPZDA,092307.03,09,10,2011,00,00*60
$GPRMC,092307.00,A,4611.966275,N,01258.225912,E,000.1,17.5,091011,0.2,E,A*08
$GPGGA,092308.00,4611.966119,N,01258.226032,E,1,06,1.5,141.68,M,46.25,M,,*6A
$GPGLL,4611.966119,N,01258.226032,E,092308.00,A,A*62
$GPVTG,154.2,T,154.4,M,001.5,N,002.8,K,A*2B
$GPGSV,2,1,07,02,36,063,45,12,46,090,38,14,19,242,39,25,78,042,46*72
$GPGSV,2,2,07,29,65,233,42,30,45,297,44,31,36,309,44,,,,*41
$GPGSA,M,3,02,14,25,29,30,31,,,,,,,2.5,1.5,2.0*35
Trace #112 at position 27.750000
$GPZDA,092307.03,09,10,2011,00,00*60
$GPRMC,092307.00,A,4611.966275,N,01258.225912,E,000.1,17.5,091011,0.2,E,A*08
$GPGGA,092308.00,4611.966119,N,01258.226032,E,1,06,1.5,141.68,M,46.25,M,,*6A
$GPGLL,4611.966119,N,01258.226032,E,092308.00,A,A*62
$GPVTG,154.2,T,154.4,M,001.5,N,002.8,K,A*2B
$GPGSV,2,1,07,02,36,063,45,12,46,090,38,14,19,242,39,25,78,042,46*72
$GPGSV,2,2,07,29,65,233,42,30,45,297,44,31,36,309,44,,,,*41
$GPGSA,M,3,02,14,25,29,30,31,,,,,,,2.5,1.5,2.0*35
Trace #113 at position 28.000000
$GPZDA,092307.03,09,10,2011,00,00*60
$GPRMC,092307.00,A,4611.966275,N,01258.225912,E,000.1,17.5,091011,0.2,E,A*08
$GPGGA,092308.00,4611.966119,N,01258.226032,E,1,06,1.5,141.68,M,46.25,M,,*6A
$GPGLL,4611.966119,N,01258.226032,E,092308.00,A,A*62
$GPVTG,154.2,T,154.4,M,001.5,N,002.8,K,A*2B
$GPGSV,2,1,07,02,36,063,45,12,46,090,38,14,19,242,39,25,78,042,46*72
$GPGSV,2,2,07,29,65,233,42,30,45,297,44,31,36,309,44,,,,*41
$GPGSA,M,3,02,14,25,29,30,31,,,,,,,2.5,1.5,2.0*35
Trace #114 at position 28.250000
$GPZDA,092307.03,09,10,2011,00,00*60
$GPRMC,092307.00,A,4611.966275,N,01258.225912,E,000.1,17.5,091011,0.2,E,A*08
$GPGGA,092308.00,4611.966119,N,01258.226032,E,1,06,1.5,141.68,M,46.25,M,,*6A
$GPGLL,4611.966119,N,01258.226032,E,092308.00,A,A*62
$GPVTG,154.2,T,154.4,M,001.5,N,002.8,K,A*2B
$GPGSV,2,1,07,02,36,063,45,12,46,090,38,14,19,242,39,25,78,042,46*72
$GPGSV,2,2,07,29,65,233,42,30,45,297,44,31,36,309,44,,,,*41
$GPGSA,M,3,02,14,25,29,30,31,,,,,,,2.5,1.5,2.0*35
Trace #115 at position 28.500000
$GPZDA,092308.04,09,10,2011,00,00*68
$GPRMC,092308.00,A,4611.966119,N,01258.226032,E,001.5,154.2,091011,0.2,E,A*32
$GPGGA,092309.00,4611.965658,N,01258.226266,E,1,06,1.5,141.72,M,46.25,M,,*62
$GPGLL,4611.965658,N,01258.226266,E,092309.00,A,A*61
$GPVTG,164.1,T,164.3,M,002.3,N,004.3,K,A*27
$GPGSV,2,1,07,02,36,063,44,12,46,090,35,14,19,242,40,25,78,042,47*71
$GPGSV,2,2,07,29,65,233,41,30,45,297,43,31,36,309,44,,,,*45
$GPGSA,M,3,02,14,25,29,30,31,,,,,,,2.5,1.5,2.0*35
Trace #116 at position 28.750000
$GPZDA,092308.04,09,10,2011,00,00*68
$GPRMC,092308.00,A,4611.966119,N,01258.226032,E,001.5,154.2,091011,0.2,E,A*32
$GPGGA,092309.00,4611.965658,N,01258.226266,E,1,06,1.5,141.72,M,46.25,M,,*62
$GPGLL,4611.965658,N,01258.226266,E,092309.00,A,A*61
$GPVTG,164.1,T,164.3,M,002.3,N,004.3,K,A*27
$GPGSV,2,1,07,02,36,063,44,12,46,090,35,14,19,242,40,25,78,042,47*71
$GPGSV,2,2,07,29,65,233,41,30,45,297,43,31,36,309,44,,,,*45
