Trace #1 at position 0.000000
$GPZDA,122502.02,06,10,2011,00,00*67
$GPRMC,122450.00,V,,,,,,,,,,N*7D
$GPGGA,,,,,,0,04,,,M,,M,,*62
$GPGLL,,,,,,V,N*64
$GPVTG,,T,,,,N,,K,N*61
$GPGSV,3,1,10,05,12,036,,16,34,309,40,31,25,219,38,18,20,147,*7A
$GPGSV,3,2,10,29,40,077,37,30,49,156,,21,77,156,31,25,12,140,*7C
$GPGSV,3,3,10,03,15,279,30,06,30,279,40,,,,,,,,*7D
$GPGSA,M,1,,,,,,,,,,,,,2.2,1.2,1.8*36
Trace #2 at position 0.250000
$GPZDA,122511.03,06,10,2011,00,00*64
$GPRMC,122511.00,A,4611.975609,N,01258.204540,E,000.2,0.0,061011,0.2,E,A*39
$GPGGA,122512.00,4611.975630,N,01258.204611,E,1,05,1.4,136.90,M,46.25,M,,*61
$GPGLL,4611.975630,N,01258.204611,E,122512.00,A,A*6C
$GPVTG,82.7,T,82.8,M,000.4,N,000.7,K,A*2F
$GPGSV,3,1,10,05,11,036,,16,34,309,41,31,25,219,37,18,20,147,*77
$GPGSV,3,2,10,29,40,077,38,30,48,156,,21,77,156,32,25,12,140,*71
$GPGSV,3,3,10,03,15,279,29,06,30,279,38,,,,,,,,*7A
$GPGSA,M,3,16,31,29,21,06,,,,,,,,3.1,1.4,2.8*38
Trace #3 at position 0.500000
$GPZDA,122515.03,06,10,2011,00,00*60
$GPRMC,122515.00,A,4611.975562,N,01258.204652,E,000.1,161.7,061011,0.2,E,A*31
$GPGGA,122516.00,4611.975513,N,01258.204663,E,1,05,1.4,137.11,M,46.25,M,,*6A
$GPGLL,4611.975513,N,01258.204663,E,122516.00,A,A*6F
$GPVTG,170.6,T,170.8,M,000.1,N,000.2,K,A*2E
$GPGSV,3,1,10,05,11,036,,16,34,309,40,31,25,219,36,18,20,147,*77
$GPGSV,3,2,10,29,40,077,39,30,48,156,,21,77,156,34,25,12,140,*76
$GPGSV,3,3,10,03,15,279,33,06,30,279,36,,,,,,,,*7F
$GPGSA,M,3,16,31,29,21,06,,,,,,,,3.1,1.4,2.8*38
Trace #4 at position 0.750000
$GPZDA,122516.03,06,10,2011,00,00*63
$GPRMC,122516.00,A,4611.975513,N,01258.204663,E,000.1,170.6,061011,0.2,E,A*37
$GPGGA,122517.00,4611.975460,N,01258.204652,E,1,05,1.4,137.15,M,46.25,M,,*68
$GPGLL,4611.975460,N,01258.204652,E,122517.00,A,A*69
$GPVTG,210.2,T,210.4,M,000.2,N,000.3,K,A*24
$GPGSV,3,1,10,05,11,036,,16,35,309,40,31,25,219,35,18,20,147,*75
$GPGSV,3,2,10,29,40,077,40,30,48,156,,21,77,156,34,25,12,140,*78
$GPGSV,3,3,10,03,15,279,32,06,30,279,36,,,,,,,,*7E
$GPGSA,M,3,16,31,29,21,06,,,,,,,,3.1,1.4,2.8*38
Trace #5 at position 1.000000
$GPZDA,122518.04,06,10,2011,00,00*6A
$GPRMC,122518.00,A,4611.975404,N,01258.204659,E,000.2,147.5,061011,0.2,E,A*33
$GPGGA,122519.00,4611.975310,N,01258.204698,E,1,06,1.4,137.11,M,46.25,M,,*67
$GPGLL,4611.975310,N,01258.204698,E,122519.00,A,A*61
$GPVTG,170.6,T,170.8,M,000.4,N,000.8,K,A*21
$GPGSV,3,1,10,05,11,036,,16,35,309,40,31,25,219,37,18,20,147,*77
$GPGSV,3,2,10,29,40,077,39,30,48,156,,21,77,156,35,25,12,140,*77
$GPGSV,3,3,10,03,15,279,33,06,30,279,37,,,,,,,,*7E
$GPGSA,M,3,16,31,29,21,03,06,,,,,,,2.8,1.4,2.4*3F
Trace #6 at position 1.250000
$GPZDA,122519.04,06,10,2011,00,00*6B
$GPRMC,122519.00,A,4611.975310,N,01258.204698,E,000.4,170.6,061011,0.2,E,A*3C
$GPGGA,122520.00,4611.975192,N,01258.204725,E,1,06,1.4,137.03,M,46.25,M,,*61
$GPGLL,4611.975192,N,01258.204725,E,122520.00,A,A*64
$GPVTG,171.9,T,172.1,M,000.4,N,000.7,K,A*2B
$GPGSV,3,1,10,05,11,036,,16,35,309,40,31,25,219,37,18,20,147,*77
$GPGSV,3,2,10,29,40,077,39,30,48,156,,21,77,156,34,25,12,140,*76
$GPGSV,3,3,10,03,15,279,34,06,30,279,36,,,,,,,,*78
$GPGSA,M,3,16,31,29,21,03,06,,,,,,,2.8,1.4,2.4*3F
Trace #7 at position 1.500000
$GPZDA,122520.03,06,10,2011,00,00*66
$GPRMC,122520.00,A,4611.975192,N,01258.204725,E,000.4,171.9,061011,0.2,E,A*37
$GPGGA,122521.00,4611.975097,N,01258.204739,E,1,06,1.4,137.02,M,46.25,M,,*68
$GPGLL,4611.975097,N,01258.204739,E,122521.00,A,A*6C
$GPVTG,179.1,T,179.3,M,000.3,N,000.6,K,A*24
$GPGSV,3,1,10,05,11,036,,16,35,309,40,31,25,219,36,18,20,147,*76
$GPGSV,3,2,10,29,39,077,40,30,48,156,,21,77,156,35,25,12,140,*77
$GPGSV,3,3,10,03,15,279,34,06,30,279,36,,,,,,,,*78
$GPGSA,M,3,16,31,29,21,03,06,,,,,,,2.8,1.4,2.4*3F
Trace #8 at position 1.750000
$GPZDA,122521.03,06,10,2011,00,00*67
$GPRMC,122521.00,A,4611.975097,N,01258.204739,E,000.3,179.1,061011,0.2,E,A*38
$GPGGA,122522.00,4611.975042,N,01258.204763,E,1,06,1.4,137.06,M,46.25,M,,*68
$GPGLL,4611.975042,N,01258.204763,E,122522.00,A,A*68
$GPVTG,132.8,T,132.9,M,000.1,N,000.2,K,A*21
$GPGSV,3,1,10,05,11,036,,16,35,309,39,31,25,219,36,18,20,147,*78
$GPGSV,3,2,10,29,39,077,39,30,48,156,,21,77,156,35,25,12,140,*79
$GPGSV,3,3,10,03,15,279,34,06,30,279,38,,,,,,,,*76
$GPGSA,M,3,16,31,29,21,03,06,,,,,,,2.8,1.4,2.4*3F
Trace #9 at position 2.000000
$GPZDA,122523.04,06,10,2011,00,00*62
$GPRMC,122523.00,A,4611.975046,N,01258.204796,E,000.2,22.3,061011,0.2,E,A*0F
$GPGGA,122524.00,4611.975007,N,01258.204789,E,1,06,1.4,137.05,M,46.25,M,,*68
$GPGLL,4611.975007,N,01258.204789,E,122524.00,A,A*6B
$GPVTG,205.9,T,206.0,M,000.3,N,000.6,K,A*2C
$GPGSV,3,1,10,05,11,036,,16,35,309,40,31,25,219,35,18,20,147,*75
$GPGSV,3,2,10,29,39,077,40,30,48,156,,21,77,156,34,25,12,140,*76
$GPGSV,3,3,10,03,15,279,34,06,30,279,37,,,,,,,,*79
$GPGSA,M,3,16,31,29,21,03,06,,,,,,,2.8,1.4,2.4*3F
Trace #10 at position 2.250000
$GPZDA,122524.04,06,10,2011,00,00*65
$GPRMC,122524.00,A,4611.975007,N,01258.204789,E,000.3,205.9,061011,0.2,E,A*3F
$GPGGA,122525.00,4611.974897,N,01258.204813,E,1,06,1.4,137.05,M,46.25,M,,*65
$GPGLL,4611.974897,N,01258.204813,E,122525.00,A,A*66
$GPVTG,151.0,T,151.1,M,000.4,N,000.8,K,A*2E
$GPGSV,3,1,10,05,11,036,,16,35,309,40,31,25,219,35,18,20,147,*75
$GPGSV,3,2,10,29,39,077,39,30,48,156,,21,77,156,35,25,12,140,*79
$GPGSV,3,3,10,03,15,279,34,06,30,279,37,,,,,,,,*79
$GPGSA,M,3,16,31,29,21,03,06,,,,,,,2.8,1.4,2.4*3F
Trace #11 at position 2.500000
$GPZDA,122525.03,06,10,2011,00,00*63
$GPRMC,122525.00,A,4611.974897,N,01258.204813,E,000.4,151.0,061011,0.2,E,A*3E
$GPGGA,122526.00,4611.974757,N,01258.204919,E,1,06,1.4,137.08,M,46.25,M,,*63
$GPGLL,4611.974757,N,01258.204919,E,122526.00,A,A*6D
$GPVTG,150.2,T,150.3,M,000.6,N,001.2,K,A*27
$GPGSV,3,1,10,05,11,036,,16,35,309,40,31,25,219,36,18,20,147,*76
$GPGSV,3,2,10,29,39,077,40,30,48,156,,21,77,156,34,25,12,140,*76
$GPGSV,3,3,10,03,15,279,35,06,30,279,37,,,,,,,,*78
$GPGSA,M,3,16,31,29,21,03,06,,,,,,,2.8,1.4,2.4*3F
Trace #12 at position 2.750000
$GPZDA,122527.03,06,10,2011,00,00*61
$GPRMC,122527.00,A,4611.974638,N,01258.204994,E,000.3,176.0,061011,0.2,E,A*3B
$GPGGA,122528.00,4611.974562,N,01258.205014,E,1,06,1.4,137.16,M,46.25,M,,*63
$GPGLL,4611.974562,N,01258.205014,E,122528.00,A,A*62
$GPVTG,172.2,T,172.3,M,000.2,N,000.5,K,A*25
$GPGSV,3,1,10,05,11,036,,16,35,308,39,31,25,219,36,18,20,147,*79
$GPGSV,3,2,10,29,39,077,40,30,48,156,,21,77,156,34,25,12,140,*76
$GPGSV,3,3,10,03,15,279,34,06,30,279,37,,,,,,,,*79
$GPGSA,M,3,16,31,29,21,03,06,,,,,,,2.8,1.4,2.4*3F
Trace #13 at position 3.000000
$GPZDA,122528.04,06,10,2011,00,00*69
$GPRMC,122528.00,A,4611.974562,N,01258.205014,E,000.2,172.2,061011,0.2,E,A*3F
$GPGGA,122529.00,4611.974476,N,01258.205041,E,1,06,1.4,137.16,M,46.25,M,,*66
$GPGLL,4611.974476,N,01258.205041,E,122529.00,A,A*67
$GPVTG,170.6,T,170.8,M,000.3,N,000.6,K,A*28
$GPGSV,3,1,10,05,11,036,,16,35,308,40,31,25,219,37,18,20,147,*76
$GPGSV,3,2,10,29,39,077,39,30,48,156,,21,77,156,34,25,12,140,*78
$GPGSV,3,3,10,03,15,279,34,06,30,279,36,,,,,,,,*78
$GPGSA,M,3,16,31,29,21,03,06,,,,,,,2.8,1.4,2.4*3F
Trace #14 at position 3.250000
$GPZDA,122528.04,06,10,2011,00,00*69
$GPRMC,122528.00,A,4611.974562,N,01258.205014,E,000.2,172.2,061011,0.2,E,A*3F
$GPGGA,122529.00,4611.974476,N,01258.205041,E,1,06,1.4,137.16,M,46.25,M,,*66
$GPGLL,4611.974476,N,01258.205041,E,122529.00,A,A*67
$GPVTG,170.6,T,170.8,M,000.3,N,000.6,K,A*28
$GPGSV,3,1,10,05,11,036,,16,35,308,40,31,25,219,37,18,20,147,*76
$GPGSV,3,2,10,29,39,077,39,30,48,156,,21,77,156,34,25,12,140,*78
$GPGSV,3,3,10,03,15,279,34,06,30,279,36,,,,,,,,*78
$GPGSA,M,3,16,31,29,21,03,06,,,,,,,2.8,1.4,2.4*3F
Trace #15 at position 3.500000
$GPZDA,122530.03,06,10,2011,00,00*67
$GPRMC,122530.00,A,4611.974383,N,01258.205072,E,000.3,165.3,061011,0.2,E,A*39
$GPGGA,122531.00,4611.974273,N,01258.205134,E,1,06,1.4,137.20,M,46.25,M,,*6A
$GPGLL,4611.974273,N,01258.205134,E,122531.00,A,A*6E
$GPVTG,152.9,T,153.1,M,000.5,N,000.9,K,A*26
$GPGSV,3,1,10,05,11,036,,16,35,308,41,31,25,219,35,18,20,147,*75
$GPGSV,3,2,10,29,39,077,38,30,48,156,,21,77,155,35,25,12,140,*7B
$GPGSV,3,3,10,03,15,279,35,06,30,279,37,,,,,,,,*78
$GPGSA,M,3,16,31,29,21,03,06,,,,,,,2.8,1.4,2.4*3F
Trace #16 at position 3.750000
$GPZDA,122531.03,06,10,2011,00,00*66
$GPRMC,122531.00,A,4611.974273,N,01258.205134,E,000.5,152.9,061011,0.2,E,A*3D
$GPGGA,122532.00,4611.974159,N,01258.205160,E,1,06,1.4,137.21,M,46.25,M,,*62
$GPGLL,4611.974159,N,01258.205160,E,122532.00,A,A*67
$GPVTG,201.3,T,201.5,M,000.3,N,000.6,K,A*20
$GPGSV,3,1,10,05,11,036,,16,35,308,40,31,25,219,36,18,20,147,*77
$GPGSV,3,2,10,29,39,077,38,30,48,156,,21,77,155,35,25,12,140,*7B
$GPGSV,3,3,10,03,15,279,32,06,30,279,36,,,,,,,,*7E
$GPGSA,M,3,16,31,29,21,03,06,,,,,,,2.8,1.4,2.4*3F
Trace #17 at position 4.000000
$GPZDA,122532.04,06,10,2011,00,00*62
$GPRMC,122532.00,A,4611.974159,N,01258.205160,E,000.3,201.3,061011,0.2,E,A*3D
$GPGGA,122533.00,4611.974056,N,01258.205177,E,1,06,1.4,137.21,M,46.25,M,,*6B
$GPGLL,4611.974056,N,01258.205177,E,122533.00,A,A*6E
$GPVTG,154.5,T,154.6,M,000.4,N,000.7,K,A*23
$GPGSV,3,1,10,05,11,036,,16,35,308,40,31,25,219,36,18,20,147,*77
$GPGSV,3,2,10,29,39,077,39,30,48,156,,21,77,155,36,25,12,140,*79
$GPGSV,3,3,10,03,15,279,34,06,30,279,38,,,,,,,,*76
$GPGSA,M,3,16,31,29,21,03,06,,,,,,,2.8,1.4,2.4*3F
Trace #18 at position 4.250000
$GPZDA,122532.04,06,10,2011,00,00*62
$GPRMC,122532.00,A,4611.974159,N,01258.205160,E,000.3,201.3,061011,0.2,E,A*3D
$GPGGA,122533.00,4611.974056,N,01258.205177,E,1,06,1.4,137.21,M,46.25,M,,*6B
$GPGLL,4611.974056,N,01258.205177,E,122533.00,A,A*6E
$GPVTG,154.5,T,154.6,M,000.4,N,000.7,K,A*23
$GPGSV,3,1,10,05,11,036,,16,35,308,40,31,25,219,36,18,20,147,*77
$GPGSV,3,2,10,29,39,077,39,30,48,156,,21,77,155,36,25,12,140,*79
$GPGSV,3,3,10,03,15,279,34,06,30,279,38,,,,,,,,*76
$GPGSA,M,3,16,31,29,21,03,06,,,,,,,2.8,1.4,2.4*3F
Trace #19 at position 4.500000
$GPZDA,122533.04,06,10,2011,00,00*63
$GPRMC,122533.00,A,4611.974056,N,01258.205177,E,000.4,154.5,061011,0.2,E,A*36
$GPGGA,122534.00,4611.973925,N,01258.205263,E,1,06,1.4,137.15,M,46.25,M,,*67
$GPGLL,4611.973925,N,01258.205263,E,122534.00,A,A*65
$GPVTG,158.3,T,158.4,M,000.6,N,001.1,K,A*22
$GPGSV,3,1,10,05,11,036,,16,35,308,40,31,25,219,36,18,20,147,*77
$GPGSV,3,2,10,29,39,077,40,30,48,156,,21,77,155,36,25,12,140,*77
$GPGSV,3,3,10,03,15,279,33,06,30,279,36,,,,,,,,*7F
$GPGSA,M,3,16,31,29,21,03,06,,,,,,,2.8,1.4,2.4*3F
Trace #20 at position 4.750000
$GPZDA,122534.03,06,10,2011,00,00*63
$GPRMC,122534.00,A,4611.973925,N,01258.205263,E,000.6,158.3,061011,0.2,E,A*35
$GPGGA,122535.00,4611.973816,N,01258.205308,E,1,06,1.4,137.03,M,46.25,M,,*6C
$GPGLL,4611.973816,N,01258.205308,E,122535.00,A,A*69
$GPVTG,189.1,T,189.2,M,000.2,N,000.3,K,A*21
$GPGSV,3,1,10,05,11,036,,16,35,308,39,31,25,219,34,18,20,146,*7A
$GPGSV,3,2,10,29,39,077,39,30,48,156,,21,77,155,35,25,12,140,*7A
$GPGSV,3,3,10,03,15,279,34,06,30,279,37,,,,,,,,*79
$GPGSA,M,3,16,31,29,21,03,06,,,,,,,2.8,1.4,2.4*3F
Trace #21 at position 5.000000
$GPZDA,122534.03,06,10,2011,00,00*63
$GPRMC,122534.00,A,4611.973925,N,01258.205263,E,000.6,158.3,061011,0.2,E,A*35
$GPGGA,122535.00,4611.973816,N,01258.205308,E,1,06,1.4,137.03,M,46.25,M,,*6C
$GPGLL,4611.973816,N,01258.205308,E,122535.00,A,A*69
$GPVTG,189.1,T,189.2,M,000.2,N,000.3,K,A*21
$GPGSV,3,1,10,05,11,036,,16,35,308,39,31,25,219,34,18,20,146,*7A
$GPGSV,3,2,10,29,39,077,39,30,48,156,,21,77,155,35,25,12,140,*7A
$GPGSV,3,3,10,03,15,279,34,06,30,279,37,,,,,,,,*79
$GPGSA,M,3,16,31,29,21,03,06,,,,,,,2.8,1.4,2.4*3F
Trace #22 at position 5.250000
$GPZDA,122535.03,06,10,2011,00,00*62
$GPRMC,122535.00,A,4611.973816,N,01258.205308,E,000.2,189.1,061011,0.2,E,A*33
$GPGGA,122536.00,4611.973705,N,01258.205338,E,1,06,1.4,136.94,M,46.25,M,,*6E
$GPGLL,4611.973705,N,01258.205338,E,122536.00,A,A*64
$GPVTG,167.2,T,167.4,M,000.6,N,001.1,K,A*23
$GPGSV,3,1,10,05,11,036,,16,35,308,41,31,25,219,35,18,20,146,*74
$GPGSV,3,2,10,29,39,077,39,30,48,156,,21,77,155,35,25,12,140,*7A
$GPGSV,3,3,10,03,15,279,35,06,30,279,36,,,,,,,,*79
$GPGSA,M,3,16,31,29,21,03,06,,,,,,,2.8,1.4,2.4*3F
Trace #23 at position 5.500000
$GPZDA,122536.03,06,10,2011,00,00*61
$GPRMC,122536.00,A,4611.973705,N,01258.205338,E,000.6,167.2,061011,0.2,E,A*39
$GPGGA,122537.00,4611.973597,N,01258.205410,E,1,06,1.4,136.90,M,46.25,M,,*6F
$GPGLL,4611.973597,N,01258.205410,E,122537.00,A,A*61
$GPVTG,126.6,T,126.8,M,000.2,N,000.4,K,A*2B
$GPGSV,3,1,10,05,11,036,,16,35,308,40,31,25,219,35,18,20,146,*75
$GPGSV,3,2,10,29,39,077,39,30,48,156,,21,77,155,36,25,12,140,*79
$GPGSV,3,3,10,03,15,279,35,06,30,279,36,,,,,,,,*79
$GPGSA,M,3,16,31,29,21,03,06,,,,,,,2.8,1.4,2.4*3F
Trace #24 at position 5.750000
$GPZDA,122537.03,06,10,2011,00,00*60
$GPRMC,122537.00,A,4611.973597,N,01258.205410,E,000.2,126.6,061011,0.2,E,A*39
$GPGGA,122538.00,4611.973540,N,01258.205478,E,1,06,1.4,136.87,M,46.25,M,,*62
$GPGLL,4611.973540,N,01258.205478,E,122538.00,A,A*6A
$GPVTG,137.5,T,137.6,M,000.2,N,000.3,K,A*21
$GPGSV,3,1,10,05,11,036,,16,35,308,39,31,25,219,35,18,20,146,*7B
$GPGSV,3,2,10,29,39,077,40,30,48,156,,21,77,155,35,25,12,140,*74
$GPGSV,3,3,10,03,15,279,34,06,30,279,36,,,,,,,,*78
$GPGSA,M,3,16,31,29,21,03,06,,,,,,,2.8,1.4,2.4*3F
Trace #25 at position 6.000000
$GPZDA,122537.03,06,10,2011,00,00*60
$GPRMC,122537.00,A,4611.973597,N,01258.205410,E,000.2,126.6,061011,0.2,E,A*39
$GPGGA,122538.00,4611.973540,N,01258.205478,E,1,06,1.4,136.87,M,46.25,M,,*62
$GPGLL,4611.973540,N,01258.205478,E,122538.00,A,A*6A
$GPVTG,137.5,T,137.6,M,000.2,N,000.3,K,A*21
$GPGSV,3,1,10,05,11,036,,16,35,308,39,31,25,219,35,18,20,146,*7B
$GPGSV,3,2,10,29,39,077,40,30,48,156,,21,77,155,35,25,12,140,*74
$GPGSV,3,3,10,03,15,279,34,06,30,279,36,,,,,,,,*78
$GPGSA,M,3,16,31,29,21,03,06,,,,,,,2.8,1.4,2.4*3F
Trace #26 at position 6.250000
$GPZDA,122538.04,06,10,2011,00,00*68
$GPRMC,122538.00,A,4611.973540,N,01258.205478,E,000.2,137.5,061011,0.2,E,A*31
$GPGGA,122539.00,4611.973396,N,01258.205580,E,1,06,1.4,136.88,M,46.25,M,,*67
$GPGLL,4611.973396,N,01258.205580,E,122539.00,A,A*60
$GPVTG,152.3,T,152.5,M,000.8,N,001.5,K,A*29
$GPGSV,3,1,10,05,11,036,,16,35,308,40,31,25,219,36,18,20,146,*76
$GPGSV,3,2,10,29,39,077,38,30,48,156,,21,77,155,35,25,11,140,*78
$GPGSV,3,3,10,03,15,279,33,06,30,279,36,,,,,,,,*7F
$GPGSA,M,3,16,31,29,21,03,06,,,,,,,2.8,1.4,2.4*3F
Trace #27 at position 6.500000
$GPZDA,122539.04,06,10,2011,00,00*69
$GPRMC,122539.00,A,4611.973396,N,01258.205580,E,000.8,152.3,061011,0.2,E,A*34
$GPGGA,122540.00,4611.973189,N,01258.205737,E,1,06,1.4,136.93,M,46.25,M,,*61
$GPGLL,4611.973189,N,01258.205737,E,122540.00,A,A*6C
$GPVTG,143.7,T,143.9,M,000.8,N,001.4,K,A*20
$GPGSV,3,1,10,05,11,036,,16,35,308,39,31,25,219,35,18,20,146,*7B
$GPGSV,3,2,10,29,39,077,38,30,48,156,,21,77,155,35,25,11,140,*78
$GPGSV,3,3,10,03,15,279,34,06,30,279,37,,,,,,,,*79
$GPGSA,M,3,16,31,29,21,03,06,,,,,,,2.8,1.4,2.4*3F
Trace #28 at position 6.750000
$GPZDA,122540.03,06,10,2011,00,00*60
$GPRMC,122540.00,A,4611.973189,N,01258.205737,E,000.8,143.7,061011,0.2,E,A*3C
$GPGGA,122541.00,4611.972999,N,01258.205882,E,1,06,1.4,136.80,M,46.25,M,,*6B
$GPGLL,4611.972999,N,01258.205882,E,122541.00,A,A*64
$GPVTG,150.2,T,150.4,M,000.7,N,001.3,K,A*20
$GPGSV,3,1,10,05,11,036,,16,35,308,40,31,25,219,35,18,20,146,*75
$GPGSV,3,2,10,29,39,077,39,30,48,156,,21,77,155,32,25,11,140,*7E
$GPGSV,3,3,10,03,15,279,31,06,30,279,36,,,,,,,,*7D
$GPGSA,M,3,16,31,29,21,03,06,,,,,,,2.8,1.4,2.4*3F
Trace #29 at position 7.000000
$GPZDA,122540.03,06,10,2011,00,00*60
$GPRMC,122540.00,A,4611.973189,N,01258.205737,E,000.8,143.7,061011,0.2,E,A*3C
$GPGGA,122541.00,4611.972999,N,01258.205882,E,1,06,1.4,136.80,M,46.25,M,,*6B
$GPGLL,4611.972999,N,01258.205882,E,122541.00,A,A*64
$GPVTG,150.2,T,150.4,M,000.7,N,001.3,K,A*20
$GPGSV,3,1,10,05,11,036,,16,35,308,40,31,25,219,35,18,20,146,*75
$GPGSV,3,2,10,29,39,077,39,30,48,156,,21,77,155,32,25,11,140,*7E
$GPGSV,3,3,10,03,15,279,31,06,30,279,36,,,,,,,,*7D
$GPGSA,M,3,16,31,29,21,03,06,,,,,,,2.8,1.4,2.4*3F
Trace #30 at position 7.250000
$GPZDA,122541.03,06,10,2011,00,00*61
$GPRMC,122541.00,A,4611.972999,N,01258.205882,E,000.7,150.2,061011,0.2,E,A*3C
$GPGGA,122542.00,4611.972852,N,01258.205933,E,1,06,1.4,136.56,M,46.25,M,,*6E
$GPGLL,4611.972852,N,01258.205933,E,122542.00,A,A*6A
$GPVTG,188.0,T,188.1,M,000.3,N,000.6,K,A*27
$GPGSV,3,1,10,05,11,036,,16,35,308,40,31,25,219,34,18,20,146,*74
$GPGSV,3,2,10,29,39,077,39,30,48,156,,21,77,155,30,25,11,140,*7C
$GPGSV,3,3,10,03,15,279,33,06,30,279,37,,,,,,,,*7E
$GPGSA,M,3,16,31,29,21,03,06,,,,,,,2.8,1.4,2.4*3F
Trace #31 at position 7.500000
$GPZDA,122541.03,06,10,2011,00,00*61
$GPRMC,122541.00,A,4611.972999,N,01258.205882,E,000.7,150.2,061011,0.2,E,A*3C
$GPGGA,122542.00,4611.972852,N,01258.205933,E,1,06,1.4,136.56,M,46.25,M,,*6E
$GPGLL,4611.972852,N,01258.205933,E,122542.00,A,A*6A
$GPVTG,188.0,T,188.1,M,000.3,N,000.6,K,A*27
$GPGSV,3,1,10,05,11,036,,16,35,308,40,31,25,219,34,18,20,146,*74
$GPGSV,3,2,10,29,39,077,39,30,48,156,,21,77,155,30,25,11,140,*7C
$GPGSV,3,3,10,03,15,279,33,06,30,279,37,,,,,,,,*7E
$GPGSA,M,3,16,31,29,21,03,06,,,,,,,2.8,1.4,2.4*3F
Trace #32 at position 7.750000
$GPZDA,122542.03,06,10,2011,00,00*62
$GPRMC,122542.00,A,4611.972852,N,01258.205933,E,000.3,188.0,061011,0.2,E,A*31
$GPGGA,122543.00,4611.972710,N,01258.205919,E,1,06,1.4,136.47,M,46.25,M,,*6E
$GPGLL,4611.972710,N,01258.205919,E,122543.00,A,A*6A
$GPVTG,178.7,T,178.9,M,000.6,N,001.1,K,A*2B
$GPGSV,3,1,10,05,11,036,27,16,35,308,40,31,25,219,36,18,20,146,*73
$GPGSV,3,2,10,29,39,077,38,30,48,156,,21,77,155,31,25,11,140,*7C
$GPGSV,3,3,10,03,15,279,34,06,30,279,37,,,,,,,,*79
$GPGSA,M,3,16,31,29,21,03,06,,,,,,,2.8,1.4,2.4*3F
Trace #33 at position 8.000000
$GPZDA,122543.04,06,10,2011,00,00*64
$GPRMC,122543.00,A,4611.972710,N,01258.205919,E,000.6,178.7,061011,0.2,E,A1258.205916,E,1,05,1.6,136.84,M,46.25,M,,*6F
$GPGLL,4611.972537,N,01258.205916,E,122544.00,A,A*65
$GPVTG,172.8,T,173.0,M,000.4,N,000.7,K,A*29
$GPGSV,3,1,10,05,11,036,29,16,35,308,41,31,25,219,36,18,20,146,*7C
$GPGSV,3,2,10,29,39,077,38,30,48,156,,21,77,155,30,25,11,140,*7D
$GPGSV,3,3,10,03,15,279,34,06,30,279,37,,,,,,,,*79
$GPGSA,M,3,16,31,29,03,06,,,,,,,,5.4,1.6,5.1*37
Trace #34 at position 8.250000
$GPZDA,122543.04,06,10,2011,00,00*64
$GPRMC,122543.00,A,4611.972710,N,01258.205919,E,000.6,178.7,061011,0.2,E,A1258.205916,E,1,05,1.6,136.84,M,46.25,M,,*6F
$GPGLL,4611.972537,N,01258.205916,E,122544.00,A,A*65
$GPVTG,172.8,T,173.0,M,000.4,N,000.7,K,A*29
$GPGSV,3,1,10,05,11,036,29,16,35,308,41,31,25,219,36,18,20,146,*7C
$GPGSV,3,2,10,29,39,077,38,30,48,156,,21,77,155,30,25,11,140,*7D
$GPGSV,3,3,10,03,15,279,34,06,30,279,37,,,,,,,,*79
$GPGSA,M,3,16,31,29,03,06,,,,,,,,5.4,1.6,5.1*37
Trace #35 at position 8.500000
$GPZDA,122544.04,06,10,2011,00,00*63
$GPRMC,122544.00,A,4611.972537,N,01258.205916,E,000.4,172.8,061011,0.2,E,A*34
$GPGGA,122545.03,N,01258.205892,E,122545.00,A,A*6D
$GPVTG,193.8,T,194.0,M,000.6,N,001.2,K,A*29
$GPGSV,3,1,10,05,11,036,29,16,35,308,39,31,25,219,35,18,20,146,*70
$GPGSV,3,2,10,29,39,077,40,30,48,156,,21,77,155,31,25,11,140,*73
$GPGSV,3,3,10,03,15,279,33,06,30,279,36,,,,,,,,*7F
$GPGSA,M,3,16,31,29,03,06,,,,,,,,5.4,1.6,5.1*37
Trace #36 at position 8.750000
$GPZDA,122545.03,06,10,2011,00,00*65
$GPRMC,122545.00,A,4611.972353,N,01258.205892,E,000.6,193.8,061011,0.2,E,A*31
$GPGGA,122546.00,4611.972247,N,01258.206008,E,1,05,1.6,136.56,M,46.25,M,,*67
*75
$GPGSV,3,2,10,29,39,077,40,30,48,156,,21,77,155,31,25,11,140,*73
$GPGSV,3,3,10,03,15,279,,06,30,279,37,,,,,,,,*7E
$GPGSA,M,3,16,31,29,03,06,,,,,,,,5.4,1.6,5.1*37
Trace #37 at position 9.000000
$GPZDA,122545.03,06,10,2011,00,00*65
$GPRMC,122545.00,A,4611.972353,N,01258.205892,E,000.6,193.8,061011,0.2,E,A*31
$GPGGA,122546.00,4611.972247,N,01258.206008,E,1,05,1.6,136.56,M,46.25,M,,*67
*75
$GPGSV,3,2,10,29,39,077,40,30,48,156,,21,77,155,31,25,11,140,*73
$GPGSV,3,3,10,03,15,279,,06,30,279,37,,,,,,,,*7E
$GPGSA,M,3,16,31,29,03,06,,,,,,,,5.4,1.6,5.1*37
Trace #38 at position 9.250000
$GPZDA,122545.03,06,10,2011,00,00*65
$GPRMC,122545.00,A,4611.972353,N,01258.205892,E,000.6,193.8,061011,0.2,E,A*31
$GPGGA,122546.00,4611.972247,N,01258.206008,E,1,05,1.6,136.56,M,46.25,M,,*67
*75
$GPGSV,3,2,10,29,39,077,40,30,48,156,,21,77,155,31,25,11,140,*73
$GPGSV,3,3,10,03,15,279,,06,30,279,37,,,,,,,,*7E
$GPGSA,M,3,16,31,29,03,06,,,,,,,,5.4,1.6,5.1*37
Trace #39 at position 9.500000
$GPZDA,122545.03,06,10,2011,00,00*65
$GPRMC,122545.00,A,4611.972353,N,01258.205892,E,000.6,193.8,061011,0.2,E,A*31
$GPGGA,122546.00,4611.972247,N,01258.206008,E,1,05,1.6,136.56,M,46.25,M,,*67
*75
$GPGSV,3,2,10,29,39,077,40,30,48,156,,21,77,155,31,25,11,140,*73
$GPGSV,3,3,10,03,15,279,,06,30,279,37,,,,,,,,*7E
$GPGSA,M,3,16,31,29,03,06,,,,,,,,5.4,1.6,5.1*37
Trace #40 at position 9.750000
$GPZDA,122545.03,06,10,2011,00,00*65
$GPRMC,122545.00,A,4611.972353,N,01258.205892,E,000.6,193.8,061011,0.2,E,A*31
$GPGGA,122546.00,4611.972247,N,01258.206008,E,1,05,1.6,136.56,M,46.25,M,,*67
*75
$GPGSV,3,2,10,29,39,077,40,30,48,156,,21,77,155,31,25,11,140,*73
$GPGSV,3,3,10,03,15,279,,06,30,279,37,,,,,,,,*7E
$GPGSA,M,3,16,31,29,03,06,,,,,,,,5.4,1.6,5.1*37
Trace #41 at position 10.000000
$GPZDA,122546.03,06,10,2011,00,00*66
$GPRMC,122546.00,A,4611.972247,N,01258.206008,E,000.7,79.4,061011,0.2,E,A*06
$GPGGA,122547.00,4611.972156,N,01258.206271,E,1,06,1.4,135.68,M,46.25,M,,*66
$GPGLL,4611.972156,N,01258.206271,E,122547.00,A,A*6C
$GPVTG,125.6,T,125.7,M,000.8,N,001.6,K,A*2D
$GPGSV,3,1,10,05,11,036,30,16,35,308,40,31,25,219M,3,16,31,29,21,03,06,,,,,,,2.8,1.4,2.4*3F
$GPZDA,122547.04,06,10,2011,00,00*60
$GPRMC,122547.00,A,4611.972156,N,01258.206271,E,000.8,125.6,061011,0.2,E,A*3D
$GPGGA,122548.00,4611.971961,N,01258.206342,E,1,06,1.4,135.88,M,46.25,M,,*69
$GPGLL,4611.971961,N,01258.206342,E,122548.00,A,A*6D
$GPVTG,200.7,T,200.9,M,000.7,N,001.2,K,A*29
$GPGSV,3,1,10,05,11,036,29,16,35,308,39,31,25,219,35,18,20,146,*70
$GPGSV,3,2,10,29,39,077,39,30,48,156,,21,77,155,33,25,11,140,*7F
$GPGSV,3,3,10,03,15,279,33,06,30,279,36,06,10,2011,00,00*6F
$GPRMC,122548.00,A,4611.971961,N,01258.206342,E,000.7,200.7,061011,0.2,E,A*36
$GPGGA,122549.00,4611.971719,N,01258.206368,E,1,05,1.4,136.04,M,46.25,M,,*65
$GPGLL,4611.971719,N,01258.206368,E,122549.00,A,A*65
$GPVTG,153.5,T,153.6,M,001.0,N,001.8,K,A*28
$GPGSV,3,1,10,05,11,036,29,16,35,308,40,31,25,219,36,18,20,146,*7D
$GPGSV,3,2,10,29,39,077,40,30,48,156,,21,77,155,33,25,11,140,*71
$GPGSV,3,3,10,03,15,279,32,06,30,279,37,,,,,,,,*7F
$GPGSA,M,3,16,31,29,21,06,,,,,,,,3.1,1.4,2.8*38
Trace #42 at position 10.250000
368,E,001.0,153.5,061011,0.2,E,A*3F
$GPGGA,122550.00,4611.971486,N,01258.206546,E,1,06,1.4,136.20,M,46.25,M,,*67
$GPGLL,4611.971486,N,01258.206546,E,122550.00,A,A*62
$GPVTG,135.7,T,135.8,M,000.8,N,001.6,K,A*23
$GPGSV,3,1,10,05,11,036,33,16,35,308,40,31,25,219,36,18,20,146,*76
$GPGSV,3,2,10,29,39,077,38,30,48,156,,21,77,155,35,25,11,140,*78
$GPGSV,3,3,10,03,15,279,32,06,30,279,37,,,,,,,,*7F
$GPGSA,M,3,16,31,29,21,03,06,,,,,,,2.8,1.4,2.4*3F
Trace #43 at position 10.500000
$GPZDA,122550.04,06,10,2011,00,00*66
$GPRMC,122550.00,A,4611$GPGGA,122551.00,4611.971244,N,01258.206708,E,1,06,1.4,136.35,M,46.25,M,,*62
$GPGLL,4611.971244,N,01258.206708,E,122551.00,A,A*63
$GPVTG,154.7,T,154.8,M,001.0,N,001.9,K,A*25
$GPGSV,3,1,10,05,11,036,,16,35,308,40,31,25,219,33,18,20,146,*73
$GPGSV,3,2,10,29,39,077,39,30,48,156,,21,77,155,33,25,11,140,*7F
$GPGSV,3,3,10,03,15,280,32,06,30,279,36,,,,,,,,*78
$GPGSA,M,3,16,31,29,21,03,06,,,,,,,2.8,1.4,2.4*3F
Trace #44 at position 10.750000
$GPZDA,122550.04,06,10,2011,00,00*66
$GPRMC,122550.00,A,4611$GPGGA,122551.00,4611.971244,N,01258.206708,E,1,06,1.4,136.35,M,46.25,M,,*62
$GPGLL,4611.971244,N,01258.206708,E,122551.00,A,A*63
$GPVTG,154.7,T,154.8,M,001.0,N,001.9,K,A*25
$GPGSV,3,1,10,05,11,036,,16,35,308,40,31,25,219,33,18,20,146,*73
$GPGSV,3,2,10,29,39,077,39,30,48,156,,21,77,155,33,25,11,140,*7F
$GPGSV,3,3,10,03,15,280,32,06,30,279,36,,,,,,,,*78
$GPGSA,M,3,16,31,29,21,03,06,,,,,,,2.8,1.4,2.4*3F
Trace #45 at position 11.000000
$GPZDA,122551.03,06,10,2011,00,00*60
$GPRMC,122551.00,A,4611.971244,N,01258.206708,E,001.0,154.7,06$GPGGA,122552.00,4611.970991,N,01258.206834,E,1,06,1.4,136.54,M,46.25,M,,*64
$GPGLL,4611.970991,N,01258.206834,E,122552.00,A,A*62
$GPVTG,151.9,T,152.1,M,000.8,N,001.6,K,A*27
$GPGSV,3,1,10,05,11,036,30,16,35,308,40,31,25,219,34,18,20,146,*77
$GPGSV,3,2,10,29,39,077,39,30,48,156,,21,77,155,33,25,11,140,*7F
$GPGSV,3,3,10,03,15,280,32,06,30,279,36,,,,,,,,*78
$GPGSA,M,3,16,31,29,21,03,06,,,,,,,2.8,1.4,2.4*3F
Trace #46 at position 11.250000
$GPZDA,122552.04,06,10,2011,00,00*64
$GPRMC,122552.00,A,4611.970991,N,01258.206834,E,000.8,151.9,$GPGGA,122553.00,4611.970765,N,01258.206932,E,1,06,1.4,136.53,M,46.25,M,,*60
$GPGLL,4611.970765,N,01258.206932,E,122553.00,A,A*61
$GPVTG,157.3,T,157.5,M,000.8,N,001.5,K,A*29
$GPGSV,3,1,10,05,11,036,,16,35,308,39,31,25,219,34,18,20,146,*7A
$GPGSV,3,2,10,29,39,077,39,30,48,156,,21,77,155,33,25,11,140,*7F
$GPGSV,3,3,10,03,15,280,32,06,30,279,37,,,,,,,,*79
$GPGSA,M,3,16,31,29,21,03,06,,,,,,,2.8,1.4,2.4*3F
Trace #47 at position 11.500000
$GPZDA,122553.04,06,10,2011,00,00*65
$GPRMC,122553.00,A,4611.970765,N,01258.206932,E,000.8,157.3,06$GPGGA,122554.00,4611.970506,N,01258.206972,E,1,05,1.4,136.41,M,46.25,M,,*64
$GPGLL,4611.970506,N,01258.206972,E,122554.00,A,A*65
$GPVTG,176.2,T,176.3,M,001.0,N,001.9,K,A*2B
$GPGSV,3,1,10,05,11,036,28,16,35,308,41,31,25,219,34,18,20,146,*7F
$GPGSV,3,2,10,29,39,077,39,30,48,156,,21,77,155,34,25,11,140,*78
$GPGSV,3,3,10,03,15,280,32,06,30,279,36,,,,,,,,*78
$GPGSA,M,3,16,31,29,21,06,,,,,,,,3.1,1.4,2.8*38
Trace #48 at position 11.750000
$GPZDA,122554.03,06,10,2011,00,00*65
$GPRMC,122554.00,A,4611.970506,N,01258.206972,E,001.0,176.2,06$GPGGA,122555.00,4611.970257,N,01258.206947,E,1,06,1.4,136.52,M,46.25,M,,*61
$GPGLL,4611.970257,N,01258.206947,E,122555.00,A,A*61
$GPVTG,188.1,T,188.3,M,000.7,N,001.4,K,A*23
$GPGSV,3,1,10,05,11,036,30,16,35,308,41,31,25,219,36,18,20,146,*74
$GPGSV,3,2,10,29,39,077,39,30,48,156,,21,77,155,34,25,11,140,*78
$GPGSV,3,3,10,03,15,280,31,06,30,279,37,,,,,,,,*7A
$GPGSA,M,3,16,31,29,21,03,06,,,,,,,2.8,1.4,2.4*3F
Trace #49 at position 12.000000
$GPZDA,122554.03,06,10,2011,00,00*65
$GPRMC,122554.00,A,4611.970506,N,01258.206972,E,001.0,176.2,06$GPGGA,122555.00,4611.970257,N,01258.206947,E,1,06,1.4,136.52,M,46.25,M,,*61
$GPGLL,4611.970257,N,01258.206947,E,122555.00,A,A*61
$GPVTG,188.1,T,188.3,M,000.7,N,001.4,K,A*23
$GPGSV,3,1,10,05,11,036,30,16,35,308,41,31,25,219,36,18,20,146,*74
$GPGSV,3,2,10,29,39,077,39,30,48,156,,21,77,155,34,25,11,140,*78
$GPGSV,3,3,10,03,15,280,31,06,30,279,37,,,,,,,,*7A
$GPGSA,M,3,16,31,29,21,03,06,,,,,,,2.8,1.4,2.4*3F
Trace #50 at position 12.250000
$GPZDA,122555.04,06,10,2011,00,00*63
$GPRMC,122555.00,A,4611.970257,N,01258.206947,E,000.7,188.1,$GPGGA,122556.00,4611.970106,N,01258.207065,E,1,05,1.4,136.73,M,46.25,M,,*6D
$GPGLL,4611.970106,N,01258.207065,E,122556.00,A,A*6D
$GPVTG,112.5,T,112.7,M,000.8,N,001.5,K,A*2D
$GPGSV,3,1,10,05,11,036,28,16,35,308,41,31,25,219,34,18,20,146,*7F
$GPGSV,3,2,10,29,39,077,39,30,48,156,,21,77,155,35,25,11,140,*79
$GPGSV,3,3,10,03,15,280,28,06,30,279,36,,,,,,,,*73
$GPGSA,M,3,16,31,29,21,06,,,,,,,,3.1,1.4,2.8*38
Trace #51 at position 12.500000
$GPZDA,122556.04,06,10,2011,00,00*60
$GPRMC,122556.00,A,4611.970106,N,01258.207065,E,000.8,112.5,0605,1.4,136.87,M,46.25,M,,*63
$GPGLL,4611.970040,N,01258.207224,E,122557.00,A,A*68
$GPVTG,96.7,T,96.8,M,000.2,N,000.3,K,A*2D
$GPGSV,3,1,10,05,11,036,27,16,35,308,39,31,25,219,34,18,20,146,*7F
$GPGSV,3,2,10,29,39,077,39,30,48,156,,21,77,155,35,25,11,140,*79
$GPGSV,3,3,10,03,15,280,27,06,30,279,37,,,,,,,,*7D
$GPGSA,M,3,16,31,29,21,06,,,,,,,,3.1,1.4,2.8*38
Trace #52 at position 12.750000
$GPZDA,122556.04,06,10,2011,00,00*60
$GPRMC,122556.00,A,4611.970106,N,01258.207065,E,000.8,112.5,0605,1.4,136.87,M,46.25,M,,*63
$GPGLL,4611.970040,N,01258.207224,E,122557.00,A,A*68
$GPVTG,96.7,T,96.8,M,000.2,N,000.3,K,A*2D
$GPGSV,3,1,10,05,11,036,27,16,35,308,39,31,25,219,34,18,20,146,*7F
$GPGSV,3,2,10,29,39,077,39,30,48,156,,21,77,155,35,25,11,140,*79
$GPGSV,3,3,10,03,15,280,27,06,30,279,37,,,,,,,,*7D
$GPGSA,M,3,16,31,29,21,06,,,,,,,,3.1,1.4,2.8*38
Trace #53 at position 13.000000
$GPZDA,122557.03,06,10,2011,00,00*66
$GPRMC,122557.00,A,4611.970040,N,01258.207224,E,000.2,96.7,061011,0.2,E,A*0B
$GPGGA,122558.00,4611.969942,N,012,001.0,K,A*29
$GPGSV,3,1,10,05,11,036,27,16,35,308,40,31,25,219,35,18,20,146,*70
$GPGSV,3,2,10,29,39,077,38,30,48,156,,21,77,155,35,25,11,140,*78
$GPGSV,3,3,10,03,15,280,30,06,30,279,37,,,,,,,,*7B
$GPGSA,M,3,16,31,29,21,06,,,,,,,,3.1,1.4,2.8*38
Trace #54 at position 13.250000
$GPZDA,122558.04,06,10,2011,00,00*6E
$GPRMC,122558.00,A,4611.969942,N,01258.207191,E,000.5,209.6,061011,0.2,E,A*38
$GPGGA,122559.00,4611.969788,N,01258.207551,E,1,05,1.4,136.55,M,46.25,M,,*6C
$GPGLL,4611.969788,N,01258.207551,E,122559.00,A,A*68
$GPVTG,101.6,73
$GPGSV,3,2,10,29,39,077,40,30,48,156,,21,77,155,31,25,11,140,*73
$GPGSV,3,3,10,03,15,280,31,06,30,279,37,,,,,,,,*7A
$GPGSA,M,3,16,31,29,21,06,,,,,,,,3.1,1.4,2.8*38
Trace #55 at position 13.500000
$GPZDA,122558.04,06,10,2011,00,00*6E
$GPRMC,122558.00,A,4611.969942,N,01258.207191,E,000.5,209.6,061011,0.2,E,A*38
$GPGGA,122559.00,4611.969788,N,01258.207551,E,1,05,1.4,136.55,M,46.25,M,,*6C
$GPGLL,4611.969788,N,01258.207551,E,122559.00,A,A*68
$GPVTG,101.6,73
$GPGSV,3,2,10,29,39,077,40,30,48,156,,21,77,155,31,25,11,140,*73
$GPGSV,3,3,10,03,15,280,31,06,30,279,37,,,,,,,,*7A
$GPGSA,M,3,16,31,29,21,06,,,,,,,,3.1,1.4,2.8*38
Trace #56 at position 13.750000
$GPZDA,122559.03,06,10,2011,00,00*68
$GPRMC,122559.00,A,4611.969788,N,01258.207551,E,002.3,101.6,061011,0.2,E,A*36
$GPGGA,,,,,,0,04,,,M,,M,,*62
$GPGLL,,,,,,V,N*64
$GPVTG,,T,,,,N,,K,N*61
$GPGSV,3,1,10,05,11,036,28,16,35,308,41,31,25,219,35,18,20,146,*7E
$GPGSV,3,2,10,29,39,077,40,30,48,156,,21,77,155,33,25,11,140,*71
$GPGSV,3,3,10,03$GPGGA,122601.00,4611.969618,N,01258.208240,E,1,05,1.4,136.18,M,46.25,M,,*6B
$GPGLL,4611.969618,N,01258.208240,E,122601.00,A,A*66
$GPVTG,263.0,T,263.1,M,000.2,N,000.4,K,A*24
$GPGSV,3,1,10,05,11,036,29,16,35,308,40,31,25,219,35,18,20,146,*7E
$GPGSV,3,2,10,29,39,077,39,30,48,156,,21,77,155,33,25,11,140,*7F
$GPGSV,3,3,10,03,15,280,,06,30,279,33,,,,,,,,*7C
$GPGSA,M,3,16,31,29,21,06,,,,,,,,3.1,1.4,2.8*38
Trace #57 at position 14.000000
$GPZDA,122601.03,06,10,2011,00,00*66
$GPRMC,122601.00,A,4611.969618,N,01258.208240,E,000.2,263.0,0610$GPGGA,122602.00,4611.969480,N,01258.208033,E,1,05,1.4,136.17,M,46.25,M,,*62
$GPGLL,4611.969480,N,01258.208033,E,122602.00,A,A*60
$GPVTG,214.1,T,214.3,M,000.8,N,001.5,K,A*2D
$GPGSV,3,1,10,05,11,036,26,16,35,308,41,31,25,219,33,18,20,146,*76
$GPGSV,3,2,10,29,39,077,40,30,48,156,,21,77,155,32,25,11,140,*70
$GPGSV,3,3,10,03,15,280,32,06,30,279,34,,,,,,,,*7A
$GPGSA,M,3,16,31,29,21,06,,,,,,,,3.1,1.4,2.8*38
Trace #58 at position 14.250000
$GPZDA,122602.03,06,10,2011,00,00*65
$GPRMC,122602.00,A,4611.969480,N,01258.208033,E,000.8,214.1,06$GPGGA,,,,,,0,04,,,M,,M,,*62
$GPGLL,,,,,,V,N*64
$GPVTG,,T,,,,N,,K,N*61
$GPGSV,3,1,10,05,11,036,27,16,35,308,40,31,25,219,33,18,21,146,*77
$GPGSV,3,2,10,29,39,077,40,30,48,156,,21,77,155,,25,11,140,*71
$GPGSV,3,3,10,03,15,280,32,06,30,279,35,,,,,,,,*7B
$GPGSA,M,1,,,,,,,,,,,,,3.1,1.4,2.8*31
Trace #59 at position 14.500000
$GPZDA,122603.02,06,10,2011,00,00*65
$GPRMC,122602.00,V,,,,,,,,,,N*78
$GPGGA,,,,,,0,04,,,M,,M,,*62
$GPGLL,,,,,,V,N*64
$GPVTG,,T,,,,N,,K,N*61
$GPGSV,3,1,10,05,11,036,28,16,35,308,41,31,25,219,34,18,21,146,*7E
$GPGSV,3,2,10,29,39,077,40,30,48,156,,21,77,155,32,25,11,140,*70
$GPGSV,3,3,10,03,15,280,32,06,30,279,35,,,,,,,,*7B
$GPGSA,M,1,,,,,,,,,,,,,3.1,1.4,2.8*31
Trace #60 at position 14.750000
$GPZDA,122604.02,06,10,2011,00,00*62
$GPRMC,122602.00,V,,,,,,,,,,N*78
$GPGGA,122605.00,4611.969059,N,01258.207813,E,1,05,1.6,135.40,M,46.25,M,,*63
$GPGLL,4611.969059,N,01258.207813,E,122605.00,A,A*62
$GPVTG,154.2,T,154.3,M,000.2,N,000.4,K,A*24
$GPGSV,3,1,10,05,11,036,30,16,35,308,41,31,25,219,35,18,21,146,*76
$GPGSV,3,2,10,29,39,077,40,30,48,156,,21,77,155,31,25,11,140,*73
$GPGSV,3,3,10,03,15,280,33,06,30,279,36,,,,,,,,*79
$GPGSA,M,3,16,31,29,03,06,,,,,,,,5.4,1.6,5.1*37
Trace #61 at position 15.000000
$GPZDA,122604.02,06,10,2011,00,00*62
$GPRMC,122602.00,V,,,,,,,,,,N*78
$GPGGA,122605.00,4611.969059,N,01258.207813,E,1,05,1.6,135.40,M,46.25,M,,*63
$GPGLL,4611.969059,N,01258.207813,E,122605.00,A,A*62
$GPVTG,154.2,T,154.3,M,000.2,N,000.4,K,A*24
$GPGSV,3,1,10,05,11,036,30,16,35,308,41,31,25,219,35,18,21,146,*76
$GPGSV,3,2,10,29,39,077,40,30,48,156,,21,77,155,31,25,11,140,*73
$GPGSV,3,3,10,03,15,280,33,06,30,279,36,,,,,,,,*79
$GPGSA,M,3,16,31,29,03,06,,,,,,,,5.4,1.6,5.1*37
Trace #62 at position 15.250000
$GPZDA,122605.03,06,10,2011,00,00*62
$GPRMC,122605.00,A,4611.969059,N,01258.207813,E,000.2,154.2,061011,0.2,E,A*3B
$GPGGA,122606.00,4611.968934,N,01258.207831,E,1,05,1.6,135.25,M,46.25,M,,*60
$GPGLL,4611.968934,N,01258.207831,E,122606.00,A,A*62
$GPVTG,176.3,T,176.5,M,000.3,N,000.5,K,A*23
$GPGSV,3,1,10,05,11,036,31,16,35,308,41,31,25,219,36,18,21,146,*74
$GPGSV,3,2,10,29,39,077,39,30,48,156,,21,77,155,,25,11,140,*7F
$GPGSV,3,3,10,03,15,280,34,06,30,279,36,,,,,,,,*7E
$GPGSA,M,3,16,31,29,03,06,,,,,,,,5.4,1.6,5.1*37
Trace #63 at position 15.500000
$GPZDA,122605.03,06,10,2011,00,00*62
$GPRMC,122605.00,A,4611.969059,N,01258.207813,E,000.2,154.2,061011,0.2,E,A*3B
$GPGGA,122606.00,4611.968934,N,01258.207831,E,1,05,1.6,135.25,M,46.25,M,,*60
$GPGLL,4611.968934,N,01258.207831,E,122606.00,A,A*62
$GPVTG,176.3,T,176.5,M,000.3,N,000.5,K,A*23
$GPGSV,3,1,10,05,11,036,31,16,35,308,41,31,25,219,36,18,21,146,*74
$GPGSV,3,2,10,29,39,077,39,30,48,156,,21,77,155,,25,11,140,*7F
$GPGSV,3,3,10,03,15,280,34,06,30,279,36,,,,,,,,*7E
$GPGSA,M,3,16,31,29,03,06,,,,,,,,5.4,1.6,5.1*37
Trace #64 at position 15.750000
$GPZDA,122606.03,06,10,2011,00,00*61
$GPRMC,122606.00,A,4611.968934,N,01258.207831,E,000.3,176.3,061011,0.2,E,A*3B
$GPGGA,122607.00,4611.968734,N,01258.207858,E,1,05,1.6,135.25,M,46.25,M,,*60
$GPGLL,4611.968734,N,01258.207858,E,122607.00,A,A*62
$GPVTG,169.2,T,169.3,M,000.8,N,001.4,K,A*2F
$GPGSV,3,1,10,05,11,036,29,16,35,308,40,31,25,219,35,18,21,146,*7F
$GPGSV,3,2,10,29,39,077,39,30,48,156,,21,77,154,,25,11,140,*7E
$GPGSV,3,3,10,03,15,280,34,06,30,279,36,,,,,,,,*7E
$GPGSA,M,3,16,31,29,03,06,,,,,,,,5.4,1.6,5.1*37
Trace #65 at position 16.000000
$GPZDA,122607.03,06,10,2011,00,00*60
$GPRMC,122607.00,A,4611.968734,N,01258.207858,E,000.8,169.2,061011,0.2,E,A*3F
$GPGGA,122608.00,4611.968482,N,01258.207943,E,1,05,1.6,135.16,M,46.25,M,,*6A
$GPGLL,4611.968482,N,01258.207943,E,122608.00,A,A*68
$GPVTG,154.4,T,154.5,M,000.8,N,001.5,K,A*2E
$GPGSV,3,1,10,05,11,036,29,16,35,308,40,31,25,219,35,18,21,146,*7F
$GPGSV,3,2,10,29,39,077,39,30,48,156,,21,77,154,32,25,11,140,*7F
$GPGSV,3,3,10,03,15,280,32,06,30,279,36,,,,,,,,*78
$GPGSA,M,3,16,31,29,03,06,,,,,,,,5.4,1.6,5.1*37
Trace #66 at position 16.250000
$GPZDA,122608.04,06,10,2011,00,00*68
$GPRMC,122608.00,A,4611.968482,N,01258.207943,E,000.8,154.4,061011,0.2,E,A*3D
$GPGGA,122609.00,4611.968239,N,01258.208180,E,1,05,1.6,135.15,M,46.25,M,,*66
$GPGLL,4611.968239,N,01258.208180,E,122609.00,A,A*67
$GPVTG,125.5,T,125.6,M,001.2,N,002.3,K,A*22
$GPGSV,3,1,10,05,11,036,31,16,35,308,41,31,25,219,37,18,21,146,*75
$GPGSV,3,2,10,29,39,077,39,30,48,156,,21,77,154,33,25,11,140,*7E
$GPGSV,3,3,10,03,15,280,31,06,30,279,32,,,,,,,,*7F
$GPGSA,M,3,16,31,29,03,06,,,,,,,,5.4,1.6,5.1*37
Trace #67 at position 16.500000
$GPZDA,122608.04,06,10,2011,00,00*68
$GPRMC,122608.00,A,4611.968482,N,01258.207943,E,000.8,154.4,061011,0.2,E,A*3D
$GPGGA,122609.00,4611.968239,N,01258.208180,E,1,05,1.6,135.15,M,46.25,M,,*66
$GPGLL,4611.968239,N,01258.208180,E,122609.00,A,A*67
$GPVTG,125.5,T,125.6,M,001.2,N,002.3,K,A*22
$GPGSV,3,1,10,05,11,036,31,16,35,308,41,31,25,219,37,18,21,146,*75
$GPGSV,3,2,10,29,39,077,39,30,48,156,,21,77,154,33,25,11,140,*7E
$GPGSV,3,3,10,03,15,280,31,06,30,279,32,,,,,,,,*7F
$GPGSA,M,3,16,31,29,03,06,,,,,,,,5.4,1.6,5.1*37
Trace #68 at position 16.750000
$GPZDA,122609.04,06,10,2011,00,00*69
$GPRMC,122609.00,A,4611.968239,N,01258.208180,E,001.2,125.5,061011,0.2,E,A*3E
$GPGGA,122610.00,4611.967921,N,01258.208084,E,1,05,1.6,136.73,M,46.25,M,,*65
$GPGLL,4611.967921,N,01258.208084,E,122610.00,A,A*67
$GPVTG,224.5,T,224.6,M,001.9,N,003.6,K,A*2D
$GPGSV,3,1,10,05,11,036,307,39,30,48,156,,21,77,154,32,25,11,140,*7F
$GPGSV,3,3,10,03,15,280,31,06,30,279,33,,,,,,,,*7E
$GPGSA,M,3,16,31,29,03,06,,,,,,,,5.4,1.6,5.1*37
Trace #69 at position 17.000000
$GPZDA,122609.04,06,10,2011,00,00*69
$GPRMC,122609.00,A,4611.968239,N,01258.208180,E,001.2,125.5,061011,0.2,E,A*3E
$GPGGA,122610.00,4611.967921,N,01258.208084,E,1,05,1.6,136.73,M,46.25,M,,*65
$GPGLL,4611.967921,N,01258.208084,E,122610.00,A,A*67
$GPVTG,224.5,T,224.6,M,001.9,N,003.6,K,A*2D
$GPGSV,3,1,10,05,11,036,307,39,30,48,156,,21,77,154,32,25,11,140,*7F
$GPGSV,3,3,10,03,15,280,31,06,30,279,33,,,,,,,,*7E
$GPGSA,M,3,16,31,29,03,06,,,,,,,,5.4,1.6,5.1*37
Trace #70 at position 17.250000
$GPZDA,122610.03,06,10,2011,00,00*66
$GPRMC,122610.00,A,4611.967921,N,01258.208084,E,001.9,224.5,061011,0.2,E,A*37
$GPGGA,122611.00,4611.967669,N,01258.207875,E,1,06,1.4,138.07,M,46.25,M,,*62
$GPGLL,4611.967669,N,01258.207875,E,122611.00,A,A*6C
$GPVTG,154.7,T,154.9,M,000.5,N,000.9,K,A*21
$GPGSV,3,1,10,05,11,036,31,16,35,308,40,31,25,219,36,18,21,146,*75
$GPGS3F
$GPZDA,122611.04,06,10,2011,00,00*60
$GPRMC,122611.00,A,4611.967669,N,01258.207875,E,000.5,154.7,061011,0.2,E,A*37
$GPGGA,122612.00,4611.967507,N,01258.207945,E,1,06,1.4,137.75,M,46.25,M,,*62
$GPGLL,4611.967507,N,01258.207945,E,122612.00,A,A*66
$GPVTG,178.0,T,178.2,M,000.7,N,001.3,K,A*24
$GPGSV,3,1,10,05,11,036,28,16,35,308,40,31,25,219,34,18,21,146,*7F
$GPGSV,3,2,10,29,39,077,39,30,48,156,,21,77,154,34,25,11,140,*79
$GPGSV,3,3,10,03,15,280,32,06,30,279,35,,,,,,,,*7B
$GPGSA,M,3,16,31,29,21,03,06258.207945,E,000.7,178.0,061011,0.2,E,A*36
Trace #71 at position 17.500000
$GPZDA,122610.03,06,10,2011,00,00*66
$GPRMC,122610.00,A,4611.967921,N,01258.208084,E,001.9,224.5,061011,0.2,E,A*37
$GPGGA,122611.00,4611.967669,N,01258.207875,E,1,06,1.4,138.07,M,46.25,M,,*62
$GPGLL,4611.967669,N,01258.207875,E,122611.00,A,A*6C
$GPVTG,154.7,T,154.9,M,000.5,N,000.9,K,A*21
$GPGSV,3,1,10,05,11,036,31,16,35,308,40,31,25,219,36,18,21,146,*75
$GPGS3F
$GPZDA,122611.04,06,10,2011,00,00*60
$GPRMC,122611.00,A,4611.967669,N,01258.207875,E,000.5,154.7,061011,0.2,E,A*37
$GPGGA,122612.00,4611.967507,N,01258.207945,E,1,06,1.4,137.75,M,46.25,M,,*62
$GPGLL,4611.967507,N,01258.207945,E,122612.00,A,A*66
$GPVTG,178.0,T,178.2,M,000.7,N,001.3,K,A*24
$GPGSV,3,1,10,05,11,036,28,16,35,308,40,31,25,219,34,18,21,146,*7F
$GPGSV,3,2,10,29,39,077,39,30,48,156,,21,77,154,34,25,11,140,*79
$GPGSV,3,3,10,03,15,280,32,06,30,279,35,,,,,,,,*7B
$GPGSA,M,3,16,31,29,21,03,06258.207945,E,000.7,178.0,061011,0.2,E,A*36
Trace #72 at position 17.750000
$GPGGA,122613.00,4611.967442,N,01258.208053,E,1,05,2.6,137.80,M,46.25,M,,*6A
$GPGLL,4611.967442,N,01258.208053,E,122613.00,A,A*66
$GPVTG,150.9,T,151.1,M,000.8,N,001.5,K,A*26
$GPGSV,3,1,10,05,11,036,27,16,35,308,41,31,25,219,,18,21,146,*76
$GPGSV,3,2,10,29,39,077,39,30,48,156,,21,77,154,33,25,11,140,*7E
$GPGSV,3,3,10,03,15,280,,06,30,279,36,,,,,,,,*79
$GPGSA,M,3,16,29,21,03,06,,,,,,,,3.8,2.6,2.8*31
Trace #73 at position 18.000000
$GPZDA,122613.04,06,10,2011,00,00*62
$GPRMC,122613.00,A,461$GPGGA,122614.00,4611.967394,N,01258.208214,E,1,05,2.6,138.23,M,46.25,M,,*66
$GPGLL,4611.967394,N,01258.208214,E,122614.00,A,A*6C
$GPVTG,147.6,T,147.8,M,000.6,N,001.2,K,A*28
$GPGSV,3,1,10,05,11,036,30,16,35,308,41,31,25,219,34,18,21,146,*77
$GPGSV,3,2,10,29,39,077,40,30,48,156,,21,77,154,34,25,11,140,*77
$GPGSV,3,3,10,03,15,280,,06,30,279,35,,,,,,,,*7A
$GPGSA,M,3,16,29,21,03,06,,,,,,,,3.8,2.6,2.8*31
Trace #74 at position 18.250000
$GPZDA,122614.03,06,10,2011,00,00*62
$GPRMC,122614.00,A,4611.967394,N,01258.208214,E,000.6,147.6,0610$GPGGA,122615.00,4611.967335,N,01258.208307,E,1,05,2.6,138.60,M,46.25,M,,*68
$GPGLL,4611.967335,N,01258.208307,E,122615.00,A,A*65
$GPVTG,174.2,T,174.3,M,000.8,N,001.4,K,A*2F
$GPGSV,3,1,10,05,11,036,29,16,35,308,40,31,25,219,35,18,21,146,*7F
$GPGSV,3,2,10,29,39,077,39,30,48,156,,21,77,154,34,25,11,140,*79
$GPGSV,3,3,10,03,15,280,32,06,30,279,34,,,,,,,,*7A
$GPGSA,M,3,16,29,21,03,06,,,,,,,,3.8,2.6,2.8*31
Trace #75 at position 18.500000
$GPZDA,122614.03,06,10,2011,00,00*62
$GPRMC,122614.00,A,4611.967394,N,01258.208214,E,000.6,147.6,0610$GPGGA,122615.00,4611.967335,N,01258.208307,E,1,05,2.6,138.60,M,46.25,M,,*68
$GPGLL,4611.967335,N,01258.208307,E,122615.00,A,A*65
$GPVTG,174.2,T,174.3,M,000.8,N,001.4,K,A*2F
$GPGSV,3,1,10,05,11,036,29,16,35,308,40,31,25,219,35,18,21,146,*7F
$GPGSV,3,2,10,29,39,077,39,30,48,156,,21,77,154,34,25,11,140,*79
$GPGSV,3,3,10,03,15,280,32,06,30,279,34,,,,,,,,*7A
$GPGSA,M,3,16,29,21,03,06,,,,,,,,3.8,2.6,2.8*31
Trace #76 at position 18.750000
$GPZDA,122615.03,06,10,2011,00,00*63
$GPRMC,122615.00,A,4611.967335,N,01258.208307,E,000.8,174.2,06$GPGGA,122616.00,4611.967265,N,01258.208493,E,1,04,3.3,138.88,M,46.25,M,,*66
$GPGLL,4611.967265,N,01258.208493,E,122616.00,A,A*68
$GPVTG,139.2,T,139.4,M,001.3,N,002.4,K,A*21
$GPGSV,3,1,10,05,11,036,28,16,35,308,40,31,25,219,36,18,21,146,*7D
$GPGSV,3,2,10,29,39,077,39,30,48,156,,21,77,154,34,25,11,140,*79
$GPGSV,3,3,10,03,15,280,31,06,30,279,36,,,,,,,,*7B
$GPGSA,M,3,16,29,21,06,,,,,,,,,5.6,3.3,4.6*36
Trace #77 at position 19.000000
$GPZDA,122615.03,06,10,2011,00,00*63
$GPRMC,122615.00,A,4611.967335,N,01258.208307,E,000.8,174.2,06$GPGGA,122616.00,4611.967265,N,01258.208493,E,1,04,3.3,138.88,M,46.25,M,,*66
$GPGLL,4611.967265,N,01258.208493,E,122616.00,A,A*68
$GPVTG,139.2,T,139.4,M,001.3,N,002.4,K,A*21
$GPGSV,3,1,10,05,11,036,28,16,35,308,40,31,25,219,36,18,21,146,*7D
$GPGSV,3,2,10,29,39,077,39,30,48,156,,21,77,154,34,25,11,140,*79
$GPGSV,3,3,10,03,15,280,31,06,30,279,36,,,,,,,,*7B
$GPGSA,M,3,16,29,21,06,,,,,,,,,5.6,3.3,4.6*36
Trace #78 at position 19.250000
$GPZDA,122616.03,06,10,2011,00,00*60
$GPRMC,122616.00,A,4611.967265,N,01258.208493,E,001.3,139.2,0610$GPGGA,122617.00,4611.967032,N,01258.208697,E,1,05,1.4,138.66,M,46.25,M,,*65
$GPGLL,4611.967032,N,01258.208697,E,122617.00,A,A*6F
$GPVTG,126.1,T,126.2,M,000.4,N,000.8,K,A*2C
$GPGSV,3,1,10,05,11,036,29,16,35,308,41,31,24,219,36,18,21,146,*7C
$GPGSV,3,2,10,29,39,077,39,30,48,156,,21,77,154,35,25,11,140,*78
$GPGSV,3,3,10,03,15,280,32,06,30,279,36,,,,,,,,*78
$GPGSA,M,3,16,31,29,21,06,,,,,,,,3.1,1.4,2.7*37
Trace #79 at position 19.500000
$GPZDA,122617.03,06,10,2011,00,00*61
$GPRMC,122617.00,A,4611.967032,N,01258.208697,E,000.4,126.1,0646.25,M,,*6F
$GPGLL,4611.966821,N,01258.208773,E,122618.00,A,A*60
$GPVTG,163.9,T,164.0,M,000.8,N,001.5,K,A*21
$GPGSV,3,1,10,05,11,036,27,16,35,308,40,31,24,219,37,18,21,146,*72
$GPGSV,3,2,10,29,39,077,38,30,48,156,,21,77,154,34,25,11,140,*78
$GPGSV,3,3,10,03,15,280,31,06,30,279,37,,,,,,,,*7A
$GPGSA,M,3,16,31,29,21,03,06,,,,,,,2.8,1.4,2.4*3F
Trace #80 at position 19.750000
$GPZDA,122617.03,06,10,2011,00,00*61
$GPRMC,122617.00,A,4611.967032,N,01258.208697,E,000.4,126.1,0646.25,M,,*6F
$GPGLL,4611.966821,N,01258.208773,E,122618.00,A,A*60
$GPVTG,163.9,T,164.0,M,000.8,N,001.5,K,A*21
$GPGSV,3,1,10,05,11,036,27,16,35,308,40,31,24,219,37,18,21,146,*72
$GPGSV,3,2,10,29,39,077,38,30,48,156,,21,77,154,34,25,11,140,*78
$GPGSV,3,3,10,03,15,280,31,06,30,279,37,,,,,,,,*7A
$GPGSA,M,3,16,31,29,21,03,06,,,,,,,2.8,1.4,2.4*3F
Trace #81 at position 20.000000
$GPZDA,122619.04,06,10,2011,00,00*68
$GPRMC,122619.00,A,4611.966524,N,01258.208886,E,001.0,148.9,061011,0.2,E,A*30
$GPGGA,122620.00,4611.966220,N,01258.208977,E,1,05,1.4,138.40,M,46.25,M,,*64
$GPGLL,4611.966220,N,01258.208977,E,122620.00,A,A*6A
$GPVTG,172,,,,,,,,*78
$GPGSA,M,3,16,31,29,21,06,,,,,,,,3.1,1.4,2.7*37
Trace #82 at position 20.250000
$GPZDA,122619.04,06,10,2011,00,00*68
$GPRMC,122619.00,A,4611.966524,N,01258.208886,E,001.0,148.9,061011,0.2,E,A*30
$GPGGA,122620.00,4611.966220,N,01258.208977,E,1,05,1.4,138.40,M,46.25,M,,*64
$GPGLL,4611.966220,N,01258.208977,E,122620.00,A,A*6A
$GPVTG,172,,,,,,,,*78
$GPGSA,M,3,16,31,29,21,06,,,,,,,,3.1,1.4,2.7*37
Trace #83 at position 20.500000
$GPZDA,122619.04,06,10,2011,00,00*68
$GPRMC,122619.00,A,4611.966524,N,01258.208886,E,001.0,148.9,061011,0.2,E,A*30
$GPGGA,122620.00,4611.966220,N,01258.208977,E,1,05,1.4,138.40,M,46.25,M,,*64
$GPGLL,4611.966220,N,01258.208977,E,122620.00,A,A*6A
$GPVTG,172,,,,,,,,*78
$GPGSA,M,3,16,31,29,21,06,,,,,,,,3.1,1.4,2.7*37
Trace #84 at position 20.750000
$GPZDA,122619.04,06,10,2011,00,00*68
$GPRMC,122619.00,A,4611.966524,N,01258.208886,E,001.0,148.9,061011,0.2,E,A*30
$GPGGA,122620.00,4611.966220,N,01258.208977,E,1,05,1.4,138.40,M,46.25,M,,*64
$GPGLL,4611.966220,N,01258.208977,E,122620.00,A,A*6A
$GPVTG,172,,,,,,,,*78
$GPGSA,M,3,16,31,29,21,06,,,,,,,,3.1,1.4,2.7*37
Trace #85 at position 21.000000
$GPZDA,122620.03,06,10,2011,00,00*65
$GPRMC,122620.00,A,4611.966220,N,01258.208977,E,001.0,172.1,061011,0.2,E,A*37
$GPGGA,122621.00,4611.965988,N,01258.208971,E,1,05,1.4,138.33,M,46.25,M,,*6D
$GPGLL,4611.965988,N,01258.208971,E,122621.00,A,A*67
$GPVTG,188.9,T,189.1,M,000.4,N,000.7,K,A*29
$GPGSV,3,1,10,05,11,036,28,16,35,308,41,31,24,219,36,18,21,146,*7D
$GPGSV,3,2,10,29,39,077,39,30,48,156,32,21,77,154,33,25,11,140,*7F
$GPGSV,3,3,10,03,15,
$GPZDA,122621.03,06,10,2011,00,00*64
$GPRMC,122621.00,A,4611.965988,N,01258.208971,E,000.4,188.9,061011,0.2,E,A*32
$GPGGA,122622.00,4611.965785,N,01258.208958,E,1,06,1.4,138.04,M,46.25,M,,*61
$GPGLL,4611.965785,N,01258.208958,E,122622.00,A,A*6C
$GPVTG,175.2,T,175.3,M,000.9,N,001.6,K,A*2C
$GPGSV,3,1,10,05,11,036,30,16,35,308,41,31,24,219,36,18,21,146,*74
$GPGSV,3,2,10,29,39,077,39,30,48,156,30,21,77,154,33,25,11,140,*7D
$GPGSV,3,3,10,03,15,280,34,06,30,279,36,,,,,,,,*7E
$GPGSA,M,3,16,31,29,21,03,06,$GPGGA,122623.00,4611.965525,N,01258.209128,E,1,06,1.4,137.73,M,46.25,M,,*69
Trace #86 at position 21.250000
$GPGLL,4611.965525,N,01258.209128,E,122623.00,A,A*6B
$GPVTG,134.9,T,135.0,M,001.3,N,002.3,K,A*28
$GPGSV,3,1,10,05,11,036,31,16,35,308,40,31,24,219,36,18,21,146,*74
$GPGSV,3,2,10,29,39,077,39,30,48,156,30,21,77,154,32,25,11,140,*7C
$GPGSV,3,3,10,03,15,280,34,06,30,279,36,,,,,,,,*7E
$GPGSA,M,3,16,31,29,21,03,06,,,,,,,2.8,1.4,2.4*3F
Trace #87 at position 21.500000
$GPZDA,122623.04,06,10,2011,00,00*61
$GPRMC,122623.00,A,4611.965525,N,01258.209128,E,001.3,134.$GPGGA,122624.00,4611.965277,N,01258.209265,E,1,06,1.4,137.59,M,46.25,M,,*6C
$GPGLL,4611.965277,N,01258.209265,E,122624.00,A,A*66
$GPVTG,184.3,T,184.5,M,000.8,N,001.5,K,A*29
$GPGSV,3,1,10,05,11,036,27,16,35,308,40,31,24,219,36,18,21,146,*73
$GPGSV,3,2,10,29,39,077,39,30,48,156,30,21,77,154,32,25,11,140,*7C
$GPGSV,3,3,10,03,15,280,31,06,30,279,38,,,,,,,,*75
$GPGSA,M,3,16,31,29,21,03,06,,,,,,,2.8,1.4,2.4*3F
Trace #88 at position 21.750000
$GPZDA,122623.04,06,10,2011,00,00*61
$GPRMC,122623.00,A,4611.965525,N,01258.209128,E,001.3,134.$GPGGA,122624.00,4611.965277,N,01258.209265,E,1,06,1.4,137.59,M,46.25,M,,*6C
$GPGLL,4611.965277,N,01258.209265,E,122624.00,A,A*66
$GPVTG,184.3,T,184.5,M,000.8,N,001.5,K,A*29
$GPGSV,3,1,10,05,11,036,27,16,35,308,40,31,24,219,36,18,21,146,*73
$GPGSV,3,2,10,29,39,077,39,30,48,156,30,21,77,154,32,25,11,140,*7C
$GPGSV,3,3,10,03,15,280,31,06,30,279,38,,,,,,,,*75
$GPGSA,M,3,16,31,29,21,03,06,,,,,,,2.8,1.4,2.4*3F
Trace #89 at position 22.000000
$GPZDA,122624.04,06,10,2011,00,00*66
$GPRMC,122624.00,A,4611.965277,N,01258.209265,E,000.8,184.$GPGGA,122625.00,4611.965032,N,01258.209331,E,1,06,1.4,137.90,M,46.25,M,,*6B
$GPGLL,4611.965032,N,01258.209331,E,122625.00,A,A*64
$GPVTG,148.8,T,149.0,M,001.0,N,001.8,K,A*22
$GPGSV,3,1,10,05,11,036,29,16,35,308,41,31,24,219,36,18,21,146,*7C
$GPGSV,3,2,10,29,39,077,39,30,48,156,31,21,77,154,34,25,11,140,*7B
$GPGSV,3,3,10,03,15,280,31,06,30,279,36,,,,,,,,*7B
$GPGSA,M,3,16,31,29,21,03,06,,,,,,,2.8,1.4,2.4*3F
Trace #90 at position 22.250000
$GPZDA,122624.04,06,10,2011,00,00*66
$GPRMC,122624.00,A,4611.965277,N,01258.209265,E,000.8,184.$GPGGA,122625.00,4611.965032,N,01258.209331,E,1,06,1.4,137.90,M,46.25,M,,*6B
$GPGLL,4611.965032,N,01258.209331,E,122625.00,A,A*64
$GPVTG,148.8,T,149.0,M,001.0,N,001.8,K,A*22
$GPGSV,3,1,10,05,11,036,29,16,35,308,41,31,24,219,36,18,21,146,*7C
$GPGSV,3,2,10,29,39,077,39,30,48,156,31,21,77,154,34,25,11,140,*7B
$GPGSV,3,3,10,03,15,280,31,06,30,279,36,,,,,,,,*7B
$GPGSA,M,3,16,31,29,21,03,06,,,,,,,2.8,1.4,2.4*3F
Trace #91 at position 22.500000
$GPZDA,122625.03,06,10,2011,00,00*60
$GPRMC,122625.00,A,4611.965032,N,01258.209331,E,001.0,148.$GPGGA,122626.00,4611.964813,N,01258.209413,E,1,06,1.4,138.46,M,46.25,M,,*61
$GPGLL,4611.964813,N,01258.209413,E,122626.00,A,A*6A
$GPVTG,180.1,T,180.2,M,000.7,N,001.3,K,A*25
$GPGSV,3,1,10,05,11,036,31,16,35,308,40,31,24,219,36,18,21,146,*74
$GPGSV,3,2,10,29,39,077,39,30,48,156,30,21,77,154,34,25,11,140,*7A
$GPGSV,3,3,10,03,15,280,,06,30,279,37,,,,,,,,*78
$GPGSA,M,3,16,31,29,21,03,06,,,,,,,2.8,1.4,2.4*3F
Trace #92 at position 22.750000
$GPZDA,122626.03,06,10,2011,00,00*63
$GPRMC,122626.00,A,4611.964813,N,01258.209413,E,000.7,180.1,$GPGGA,122627.00,4611.964601,N,01258.209426,E,1,05,1.4,138.63,M,46.25,M,,*6F
$GPGLL,4611.964601,N,01258.209426,E,122627.00,A,A*60
$GPVTG,169.3,T,169.4,M,000.8,N,001.5,K,A*28
$GPGSV,3,1,10,05,11,036,28,16,35,308,40,31,24,219,33,18,21,146,*79
$GPGSV,3,2,10,29,39,077,40,30,48,156,31,21,77,154,32,25,11,140,*73
$GPGSV,3,3,10,03,15,280,31,06,31,279,37,,,,,,,,*7B
$GPGSA,M,3,16,31,29,21,06,,,,,,,,3.1,1.4,2.7*37
Trace #93 at position 23.000000
$GPZDA,122626.03,06,10,2011,00,00*63
$GPRMC,122626.00,A,4611.964813,N,01258.209413,E,000.7,180.1,$GPGGA,122627.00,4611.964601,N,01258.209426,E,1,05,1.4,138.63,M,46.25,M,,*6F
$GPGLL,4611.964601,N,01258.209426,E,122627.00,A,A*60
$GPVTG,169.3,T,169.4,M,000.8,N,001.5,K,A*28
$GPGSV,3,1,10,05,11,036,28,16,35,308,40,31,24,219,33,18,21,146,*79
$GPGSV,3,2,10,29,39,077,40,30,48,156,31,21,77,154,32,25,11,140,*73
$GPGSV,3,3,10,03,15,280,31,06,31,279,37,,,,,,,,*7B
$GPGSA,M,3,16,31,29,21,06,,,,,,,,3.1,1.4,2.7*37
Trace #94 at position 23.250000
$GPZDA,122627.04,06,10,2011,00,00*65
$GPRMC,122627.00,A,4611.964601,N,01258.209426,E,000.8,169.3,$GPGGA,122628.00,4611.964366,N,01258.209520,E,1,05,1.4,138.34,M,46.25,M,,*61
$GPGLL,4611.964366,N,01258.209520,E,122628.00,A,A*6C
$GPVTG,154.0,T,154.2,M,000.9,N,001.6,K,A*2F
$GPGSV,3,1,10,05,11,036,29,16,35,308,41,31,24,219,34,18,21,146,*7E
$GPGSV,3,2,10,29,39,077,40,30,48,156,33,21,77,154,32,25,11,140,*71
$GPGSV,3,3,10,03,15,280,32,06,31,279,37,,,,,,,,*78
$GPGSA,M,3,16,31,29,21,06,,,,,,,,3.1,1.4,2.7*37
Trace #95 at position 23.500000
$GPZDA,122628.04,06,10,2011,00,00*6A
$GPRMC,122628.00,A,4611.964366,N,01258.209520,E,000.9,154.0,05,1.4,137.90,M,46.25,M,,*63
$GPGLL,4611.964211,N,01258.209664,E,122629.00,A,A*6F
$GPVTG,120.3,T,120.4,M,000.5,N,000.9,K,A*28
$GPGSV,3,1,10,05,11,036,28,16,35,308,39,31,24,219,35,18,21,146,*71
$GPGSV,3,2,10,29,39,077,39,30,48,156,31,21,77,154,32,25,11,140,*7D
$GPGSV,3,3,10,03,15,280,32,06,31,279,37,,,,,,,,*78
$GPGSA,M,3,16,31,29,21,06,,,,,,,,3.1,1.4,2.7*37
Trace #96 at position 23.750000
$GPZDA,122629.03,06,10,2011,00,00*6C
$GPRMC,122629.00,A,4611.964211,N,01258.209664,E,000.5,120.3,061011,0.2,E,A*33
$GPGGA,122630.00,4611.964033,,A*69
$GPVTG,157.1,T,157.3,M,001.0,N,001.9,K,A*28
$GPGSV,3,1,10,05,11,036,30,16,35,308,39,31,24,219,35,18,21,146,*78
$GPGSV,3,2,10,29,39,077,39,30,48,156,32,21,77,154,32,25,11,140,*7E
$GPGSV,3,3,10,03,15,280,33,06,31,279,37,,,,,,,,*79
$GPGSA,M,3,16,31,29,21,06,,,,,,,,3.1,1.4,2.7*37
Trace #97 at position 24.000000
$GPZDA$GPGGA,122636.00,4611.962662,N,01258.210083,E,1,05,1.4,136.39,M,46.25,M,,*6E
$GPGLL,4611.962662,N,01258.210083,E,122636.00,A,A*60
$GPVTG,160.3,T,160.5,M,000.7,N,001.4,K,A*27
$GPGSV,3,1,10,05,11,036,,16,35,308,40,31,24,219,39,18,21,146,*79
$GPGSV,3,2,10,29,39,077,39,30,48,157,29,21,77,154,32,25,11,140,*75
$GPGSV,3,3,10,03,15,280,31,06,31,279,37,,,,,,,,*7B
$GPGSA,M,3,16,31,29,21,06,,,,,,,,3.1,1.4,2.7*37
Trace #98 at position 24.250000
$GPZDA,122636.03,06,10,2011,00,00*62
$GPRMC,122636.00,A,4611.962662,N,01258.210083,E,000.7,160.3,06$GPGGA,122637.00,4611.962607,N,01258.210158,E,1,05,1.4,136.35,M,46.25,M,,*67
$GPGLL,4611.962607,N,01258.210158,E,122637.00,A,A*65
$GPVTG,52.4,T,52.6,M,000.1,N,000.2,K,A*22
$GPGSV,3,1,10,05,11,036,,16,35,308,39,31,24,219,38,18,21,146,*76
$GPGSV,3,2,10,29,39,077,38,30,48,157,24,21,77,154,32,25,11,140,*79
$GPGSV,3,3,10,03,15,280,32,06,31,279,36,,,,,,,,*79
$GPGSA,M,3,16,31,29,21,06,,,,,,,,3.1,1.4,2.7*37
Trace #99 at position 24.500000
$GPZDA,122637.03,06,10,2011,00,00*63
$GPRMC,122637.00,A,4611.962607,N,01258.210158,E,000.1,52.4,06101$GPGGA,122638.00,4611.962640,N,01258.210169,E,1,05,1.4,136.29,M,46.25,M,,*64
$GPGLL,4611.962640,N,01258.210169,E,122638.00,A,A*6B
$GPVTG,257.0,T,257.2,M,000.1,N,000.1,K,A*21
$GPGSV,3,1,10,05,11,036,,16,35,308,41,31,24,219,39,18,21,146,*78
$GPGSV,3,2,10,29,39,077,39,30,48,157,26,21,77,154,32,25,11,140,*7A
$GPGSV,3,3,10,03,15,280,33,06,31,279,36,,,,,,,,*78
$GPGSA,M,3,16,31,29,21,06,,,,,,,,3.1,1.4,2.7*37
Trace #100 at position 24.750000
$GPZDA,122637.03,06,10,2011,00,00*63
$GPRMC,122637.00,A,4611.962607,N,01258.210158,E,000.1,52.4,06101$GPGGA,122638.00,4611.962640,N,01258.210169,E,1,05,1.4,136.29,M,46.25,M,,*64
$GPGLL,4611.962640,N,01258.210169,E,122638.00,A,A*6B
$GPVTG,257.0,T,257.2,M,000.1,N,000.1,K,A*21
$GPGSV,3,1,10,05,11,036,,16,35,308,41,31,24,219,39,18,21,146,*78
$GPGSV,3,2,10,29,39,077,39,30,48,157,26,21,77,154,32,25,11,140,*7A
$GPGSV,3,3,10,03,15,280,33,06,31,279,36,,,,,,,,*78
$GPGSA,M,3,16,31,29,21,06,,,,,,,,3.1,1.4,2.7*37
Trace #101 at position 25.000000
$GPZDA,122638.04,06,10,2011,00,00*6B
$GPRMC,122638.00,A,4611.962640,N,01258.210169,E,000.1,257.0,06$GPGGA,122639.00,4611.962672,N,01258.210174,E,1,06,1.4,136.32,M,46.25,M,,*61
$GPGLL,4611.962672,N,01258.210174,E,122639.00,A,A*67
$GPVTG,21.1,T,21.2,M,000.1,N,000.2,K,A*23
$GPGSV,3,1,10,05,11,036,,16,35,308,40,31,24,219,37,18,21,146,*77
$GPGSV,3,2,10,29,39,077,38,30,48,157,29,21,77,154,31,25,11,140,*77
$GPGSV,3,3,10,03,15,280,33,06,31,279,36,,,,,,,,*78
$GPGSA,M,3,16,31,29,21,03,06,,,,,,,2.8,1.4,2.4*3F
Trace #102 at position 25.250000
$GPZDA,122638.04,06,10,2011,00,00*6B
$GPRMC,122638.00,A,4611.962640,N,01258.210169,E,000.1,257.0,06$GPGGA,122639.00,4611.962672,N,01258.210174,E,1,06,1.4,136.32,M,46.25,M,,*61
$GPGLL,4611.962672,N,01258.210174,E,122639.00,A,A*67
$GPVTG,21.1,T,21.2,M,000.1,N,000.2,K,A*23
$GPGSV,3,1,10,05,11,036,,16,35,308,40,31,24,219,37,18,21,146,*77
$GPGSV,3,2,10,29,39,077,38,30,48,157,29,21,77,154,31,25,11,140,*77
$GPGSV,3,3,10,03,15,280,33,06,31,279,36,,,,,,,,*78
$GPGSA,M,3,16,31,29,21,03,06,,,,,,,2.8,1.4,2.4*3F
Trace #103 at position 25.500000
$GPZDA,122639.04,06,10,2011,00,00*6A
$GPRMC,122639.00,A,4611.962672,N,01258.210174,E,000.1,21.1,061$GPGGA,122640.00,4611.962693,N,01258.210189,E,1,06,1.4,136.32,M,46.25,M,,*62
$GPGLL,4611.962693,N,01258.210189,E,122640.00,A,A*64
$GPVTG,182.6,T,182.7,M,000.1,N,000.1,K,A*22
$GPGSV,3,1,10,05,11,036,,16,35,308,38,31,24,219,36,18,21,146,*79
$GPGSV,3,2,10,29,39,077,40,30,48,157,28,21,77,154,31,25,11,140,*79
$GPGSV,3,3,10,03,15,280,32,06,31,279,36,,,,,,,,*79
$GPGSA,M,3,16,31,29,21,03,06,,,,,,,2.8,1.4,2.4*3F
Trace #104 at position 25.750000
$GPZDA,122640.04,06,10,2011,00,00*64
$GPRMC,122640.00,A,4611.962693,N,01258.210189,E,000.1,182.6,$GPGGA,122641.00,4611.962698,N,01258.210193,E,1,06,1.4,136.32,M,46.25,M,,*63
$GPGLL,4611.962698,N,01258.210193,E,122641.00,A,A*65
$GPVTG,214.6,T,214.8,M,000.0,N,000.1,K,A*2C
$GPGSV,3,1,10,05,11,036,,16,35,308,39,31,24,219,36,18,21,146,*78
$GPGSV,3,2,10,29,39,077,41,30,48,157,28,21,77,154,34,25,11,140,*7D
$GPGSV,3,3,10,03,15,280,33,06,31,279,36,,,,,,,,*78
$GPGSA,M,3,16,31,29,21,03,06,,,,,,,2.8,1.4,2.4*3F
Trace #105 at position 26.000000
$GPZDA,122640.04,06,10,2011,00,00*64
$GPRMC,122640.00,A,4611.962693,N,01258.210189,E,000.1,182.6,$GPGGA,122641.00,4611.962698,N,01258.210193,E,1,06,1.4,136.32,M,46.25,M,,*63
$GPGLL,4611.962698,N,01258.210193,E,122641.00,A,A*65
$GPVTG,214.6,T,214.8,M,000.0,N,000.1,K,A*2C
$GPGSV,3,1,10,05,11,036,,16,35,308,39,31,24,219,36,18,21,146,*78
$GPGSV,3,2,10,29,39,077,41,30,48,157,28,21,77,154,34,25,11,140,*7D
$GPGSV,3,3,10,03,15,280,33,06,31,279,36,,,,,,,,*78
$GPGSA,M,3,16,31,29,21,03,06,,,,,,,2.8,1.4,2.4*3F
Trace #106 at position 26.250000
$GPZDA,122641.03,06,10,2011,00,00*62
$GPRMC,122641.00,A,4611.962698,N,01258.210193,E,000.0,214.6,06,1.4,136.25,M,46.25,M,,*66
$GPGLL,4611.962626,N,01258.210196,E,122642.00,A,A*66
$GPVTG,178.4,T,178.6,M,000.6,N,001.2,K,A*24
$GPGSV,3,1,10,05,11,036,,16,35,308,39,31,24,219,36,18,21,146,*78
$GPGSV,3,2,10,29,39,077,39,30,48,157,31,21,77,154,35,25,11,140,*7B
$GPGSV,3,3,10,03,15,280,34,06,31,279,35,,,,,,,,*7C
$GPGSA,M,3,16,31,29,21,03,06,,,,,,,2.8,1.4,2.4*3F
Trace #107 at position 26.500000
$GPZDA,122641.03,06,10,2011,00,00*62
$GPRMC,122641.00,A,4611.962698,N,01258.210193,E,000.0,214.6,06,1.4,136.25,M,46.25,M,,*66
$GPGLL,4611.962626,N,01258.210196,E,122642.00,A,A*66
$GPVTG,178.4,T,178.6,M,000.6,N,001.2,K,A*24
$GPGSV,3,1,10,05,11,036,,16,35,308,39,31,24,219,36,18,21,146,*78
$GPGSV,3,2,10,29,39,077,39,30,48,157,31,21,77,154,35,25,11,140,*7B
$GPGSV,3,3,10,03,15,280,34,06,31,279,35,,,,,,,,*7C
$GPGSA,M,3,16,31,29,21,03,06,,,,,,,2.8,1.4,2.4*3F
Trace #108 at position 26.750000
$GPZDA,122642.03,06,10,2011,00,00*61
$GPRMC,122642.00,A,4611.962626,N,01258.210196,E,000.6,178.4,061011,0.2,E,A*33
$GPGGA,122643.00,4611.962478,27
$GPGSV,3,1,10,05,11,036,,16,35,308,39,31,24,219,33,18,21,146,*7D
$GPGSV,3,2,10,29,39,077,40,30,48,157,31,21,77,153,35,25,11,140,*72
$GPGSV,3,3,10,03,15,280,34,06,31,279,37,,,,,,,,*7E
$GPGSA,M,3,16,31,29,21,03,06,,,,,,,2.8,1.4,2.4*3F
Trace #109 at position 27.000000
$GPZDA,122643.04,06,10,2011,00,00*67
$GPRMC,122643.00,A,4611.962478,N,01258.210247,E,000.6,159.4,061011,0.2,E,A*37
$GPGGA,122644.00,4611.962387,N,01258.210279,E,1,06,1.4,136.20,M,46.25,M,,*69
$GPGLL,4611.962387,N,01258.210279,E,122644.00,A,A*6C
$GPVTG,216.6,T,216.8,M9,36,,,,,,,,*79
$GPGSA,M,3,16,31,29,21,03,06,,,,,,,2.8,1.4,2.4*3F
Trace #110 at position 27.250000
$GPZDA,122643.04,06,10,2011,00,00*67
$GPRMC,122643.00,A,4611.962478,N,01258.210247,E,000.6,159.4,061011,0.2,E,A*37
$GPGGA,122644.00,4611.962387,N,01258.210279,E,1,06,1.4,136.20,M,46.25,M,,*69
$GPGLL,4611.962387,N,01258.210279,E,122644.00,A,A*6C
$GPVTG,216.6,T,216.8,M9,36,,,,,,,,*79
