Trace #1 at position 0.000000
$GPZDA,082955.03,09,10,2011,00,00*6C
$GPRMC,082955.00,A,4611.954119,N,01258.226292,E,000.0,343.0,091011,0.2,$GPGGA,082956.00,4611.954133,N,01258.226290,E,1,05,1.6,140.15,M,46.25,M,,*62
$GPGLL,4611.954133,N,01258.226290,E,082956.00,A,A*61
$GPVTG,78.1,T,78.2,M,000.0,N,000.1,K,A*21
$GPGSV,3,1,09,02,37,092,45,04,19,046,41,09,30,148,46,12,66,060,44*75
$GPGSV,3,2,09,14,34,265,33,25,68,307,34,29,40,217,43,30,24,284,*7F
$GPGSV,3,3,09,31,15,314,,,,,,,,,,,,,*40
$GPGSA,M,3,02,04,09,12,29,,,,,,,,3.0,1.6,2.5*3A
Trace #2 at position 0.250000
$GPZDA,083001.04,09,10,2011,00,00*62
$GPRMC,083001.00,A,4611.954122,N,01258.226318,E,000.0,135.1,091011,0.2,E,A*3A
$GPGGA,083002.00,4611.954090,N,01258.226381,E,1,06,1.2,140.29,M,46.25,M,,*6A
$GPGLL,4611.954090,N,01258.226381,E,083002.00,A,A*61
$GPVTG,220.3,T,220.4,M,000.0,N,000.0,K,A*24
$GPGSV,3,1,09,02,37,092,45,04,19,046,40,09,30,148,44,12,66,061,44*77
$GPGSV,3,2,09,14,34,265,,,*40
$GPGSA,M,3,02,04,09,12,14,29,,,,,,,2.6,1.2,2.4*3D
Trace #3 at position 0.500000
$GPZDA,083001.04,09,10,2011,00,00*62
$GPRMC,083001.00,A,4611.954122,N,01258.226318,E,000.0,135.1,091011,0.2,E,A*3A
$GPGGA,083002.00,4611.954090,N,01258.226381,E,1,06,1.2,140.29,M,46.25,M,,*6A
$GPGLL,4611.954090,N,01258.226381,E,083002.00,A,A*61
$GPVTG,220.3,T,220.4,M,000.0,N,000.0,K,A*24
$GPGSV,3,1,09,02,37,092,45,04,19,046,40,09,30,148,44,12,66,061,44*77
$GPGSV,3,2,09,14,34,265,,,*40
$GPGSA,M,3,02,04,09,12,14,29,,,,,,,2.6,1.2,2.4*3D
Trace #4 at position 0.750000
$GPZDA,083001.04,09,10,2011,00,00*62
$GPRMC,083001.00,A,4611.954122,N,01258.226318,E,000.0,135.1,091011,0.2,E,A*3A
$GPGGA,083002.00,4611.954090,N,01258.226381,E,1,06,1.2,140.29,M,46.25,M,,*6A
$GPGLL,4611.954090,N,01258.226381,E,083002.00,A,A*61
$GPVTG,220.3,T,220.4,M,000.0,N,000.0,K,A*24
$GPGSV,3,1,09,02,37,092,45,04,19,046,40,09,30,148,44,12,66,061,44*77
$GPGSV,3,2,09,14,34,265,,,*40
$GPGSA,M,3,02,04,09,12,14,29,,,,,,,2.6,1.2,2.4*3D
Trace #5 at position 1.000000
$GPZDA,083002.04,09,10,2011,00,00*61
$GPRMC,083002.00,A,4611.954090,N,01258.226381,E,000.0,220.3,091011,0.2,E,A*34
$GPGGA,083003.00,4611.954061,N,01258.226432,E,1,06,1.2,140.32,M,46.25,M,,*60
$GPGLL,4611.954061,N,01258.226432,E,083003.00,A,A*61
$GPVTG,192.5,T,192.7,M,000.0,N,000.0,K,A*21
$GPGSV,3,1,09,02,37,092,45,04,19,046,40,09,30,148,45,12,66,061,44*76
$GPGSV,3,2,09,14,34,265,39,25,68,307,39,29,40,217,44,30,24,284,33*7F
$GPGSV,3,3,09,31,15,2.4*3D
$GPZDA,083003.04,09,10,2011,00,00*60
$GPRMC,083003.00,A,4611.954061,N,01258.226432,E,000.0,192.5,091011,0.2,E,A*38
$GPGGA,083004.00,4611.954035,N,01258.226479,E,1,06,1.2,140.35,M,46.25,M,,*6E
$GPGLL,4611.954035,N,01258.226479,E,083004.00,A,A*68
$GPVTG,175.3,T,175.4,M,000.0,N,000.0,K,A*24
$GPGSV,3,1,09,02,37,092,45,04,19,046,40,09,30,148,45,12,66,061,44*76
$GPGSV,3,2,09,14,34,265,39,25,68,307,39,29,40,217,44,30,24,284,34*78
$GPGSV,3,3,09,31,15,314,,,,,,,,,,,,,*40
$GPGSA,M,3,02,04,09,12,14,294611.954035,N,01258.226479,E,000.0,175.3,091011,0.2,E,A*3E
Trace #6 at position 1.250000
$GPZDA,083002.04,09,10,2011,00,00*61
$GPRMC,083002.00,A,4611.954090,N,01258.226381,E,000.0,220.3,091011,0.2,E,A*34
$GPGGA,083003.00,4611.954061,N,01258.226432,E,1,06,1.2,140.32,M,46.25,M,,*60
$GPGLL,4611.954061,N,01258.226432,E,083003.00,A,A*61
$GPVTG,192.5,T,192.7,M,000.0,N,000.0,K,A*21
$GPGSV,3,1,09,02,37,092,45,04,19,046,40,09,30,148,45,12,66,061,44*76
$GPGSV,3,2,09,14,34,265,39,25,68,307,39,29,40,217,44,30,24,284,33*7F
$GPGSV,3,3,09,31,15,2.4*3D
$GPZDA,083003.04,09,10,2011,00,00*60
$GPRMC,083003.00,A,4611.954061,N,01258.226432,E,000.0,192.5,091011,0.2,E,A*38
$GPGGA,083004.00,4611.954035,N,01258.226479,E,1,06,1.2,140.35,M,46.25,M,,*6E
$GPGLL,4611.954035,N,01258.226479,E,083004.00,A,A*68
$GPVTG,175.3,T,175.4,M,000.0,N,000.0,K,A*24
$GPGSV,3,1,09,02,37,092,45,04,19,046,40,09,30,148,45,12,66,061,44*76
$GPGSV,3,2,09,14,34,265,39,25,68,307,39,29,40,217,44,30,24,284,34*78
$GPGSV,3,3,09,31,15,314,,,,,,,,,,,,,*40
$GPGSA,M,3,02,04,09,12,14,294611.954035,N,01258.226479,E,000.0,175.3,091011,0.2,E,A*3E
Trace #7 at position 1.500000
$GPGGA,083005.00,4611.954017,N,01258.226520,E,1,07,1.1,140.45,M,46.25,M,,*67
$GPGLL,4611.954017,N,01258.226520,E,083005.00,A,A*64
$GPVTG,150.2,T,150.3,M,000.0,N,000.1,K,A*23
$GPGSV,3,1,09,02,37,092,46,04,19,046,40,09,30,148,44,12,66,061,44*74
$GPGSV,3,2,09,14,34,265,39,25,68,307,39,29,40,217,44,30,24,284,34*78
$GPGSV,3,3,09,31,15,314,,,,,,,,,,,,,*40
$GPGSA,M,3,02,04,09,12,14,25,29,,,,,,2.3,1.1,2.0*38
Trace #8 at position 1.750000
$GPZDA,083005.04,09,10,2011,00,00*66
$GP$GPGGA,083006.00,4611.954001,N,01258.226552,E,1,07,1.1,140.53,M,46.25,M,,*61
$GPGLL,4611.954001,N,01258.226552,E,083006.00,A,A*65
$GPVTG,284.5,T,284.7,M,000.0,N,000.1,K,A*20
$GPGSV,3,1,09,02,37,092,45,04,19,046,41,09,30,148,44,12,66,061,44*76
$GPGSV,3,2,09,14,34,265,39,25,68,307,39,29,40,217,44,30,24,284,33*7F
$GPGSV,3,3,09,31,15,314,,,,,,,,,,,,,*40
$GPGSA,M,3,02,04,09,12,14,25,29,,,,,,2.3,1.1,2.0*38
Trace #9 at position 2.000000
$GPZDA,083006.04,09,10,2011,00,00*65
$GPRMC,083006.00,A,4611.954001,N,01258.226552,E,000.0,284.5,091$GPGGA,083007.00,4611.953986,N,01258.226587,E,1,07,1.1,140.58,M,46.25,M,,*62
$GPGLL,4611.953986,N,01258.226587,E,083007.00,A,A*6D
$GPVTG,101.8,T,101.9,M,000.0,N,000.1,K,A*23
$GPGSV,3,1,09,02,37,092,45,04,19,046,40,09,30,148,44,12,66,061,44*77
$GPGSV,3,2,09,14,34,265,38,25,68,307,40,29,40,217,44,30,24,284,34*77
$GPGSV,3,3,09,31,15,314,,,,,,,,,,,,,*40
$GPGSA,M,3,02,04,09,12,14,25,29,,,,,,2.3,1.1,2.0*38
Trace #10 at position 2.250000
$GPZDA,083006.04,09,10,2011,00,00*65
$GPRMC,083006.00,A,4611.954001,N,01258.226552,E,000.0,284.5,091$GPGGA,083007.00,4611.953986,N,01258.226587,E,1,07,1.1,140.58,M,46.25,M,,*62
$GPGLL,4611.953986,N,01258.226587,E,083007.00,A,A*6D
$GPVTG,101.8,T,101.9,M,000.0,N,000.1,K,A*23
$GPGSV,3,1,09,02,37,092,45,04,19,046,40,09,30,148,44,12,66,061,44*77
$GPGSV,3,2,09,14,34,265,38,25,68,307,40,29,40,217,44,30,24,284,34*77
$GPGSV,3,3,09,31,15,314,,,,,,,,,,,,,*40
$GPGSA,M,3,02,04,09,12,14,25,29,,,,,,2.3,1.1,2.0*38
Trace #11 at position 2.500000
$GPZDA,083006.04,09,10,2011,00,00*65
$GPRMC,083006.00,A,4611.954001,N,01258.226552,E,000.0,284.5,091$GPGGA,083007.00,4611.953986,N,01258.226587,E,1,07,1.1,140.58,M,46.25,M,,*62
$GPGLL,4611.953986,N,01258.226587,E,083007.00,A,A*6D
$GPVTG,101.8,T,101.9,M,000.0,N,000.1,K,A*23
$GPGSV,3,1,09,02,37,092,45,04,19,046,40,09,30,148,44,12,66,061,44*77
$GPGSV,3,2,09,14,34,265,38,25,68,307,40,29,40,217,44,30,24,284,34*77
$GPGSV,3,3,09,31,15,314,,,,,,,,,,,,,*40
$GPGSA,M,3,02,04,09,12,14,25,29,,,,,,2.3,1.1,2.0*38
Trace #12 at position 2.750000
$GPZDA,083007.04,09,10,2011,00,00*64
$GPRMC,083007.00,A,4611.953986,N,01258.226587,E,000.0,101.8,091$GPGGA,083008.00,4611.954054,N,01258.226575,E,1,07,1.1,140.57,M,46.25,M,,*6E
$GPGLL,4611.954054,N,01258.226575,E,083008.00,A,A*6E
$GPVTG,338.2,T,338.3,M,000.6,N,001.2,K,A*27
$GPGSV,3,1,09,02,37,092,46,04,19,046,40,09,30,148,45,12,66,061,44*75
$GPGSV,3,2,09,14,34,265,38,25,68,307,44,29,40,217,45,30,24,284,34*72
$GPGSV,3,3,09,31,15,314,,,,,,,,,,,,,*40
$GPGSA,M,3,02,04,09,12,14,25,29,,,,,,2.3,1.1,2.0*38
Trace #13 at position 3.000000
$GPZDA,083007.04,09,10,2011,00,00*64
$GPRMC,083007.00,A,4611.953986,N,01258.226587,E,000.0,101.8,091$GPGGA,083008.00,4611.954054,N,01258.226575,E,1,07,1.1,140.57,M,46.25,M,,*6E
$GPGLL,4611.954054,N,01258.226575,E,083008.00,A,A*6E
$GPVTG,338.2,T,338.3,M,000.6,N,001.2,K,A*27
$GPGSV,3,1,09,02,37,092,46,04,19,046,40,09,30,148,45,12,66,061,44*75
$GPGSV,3,2,09,14,34,265,38,25,68,307,44,29,40,217,45,30,24,284,34*72
$GPGSV,3,3,09,31,15,314,,,,,,,,,,,,,*40
$GPGSA,M,3,02,04,09,12,14,25,29,,,,,,2.3,1.1,2.0*38
Trace #14 at position 3.250000
$GPZDA,083007.04,09,10,2011,00,00*64
$GPRMC,083007.00,A,4611.953986,N,01258.226587,E,000.0,101.8,091$GPGGA,083008.00,4611.954054,N,01258.226575,E,1,07,1.1,140.57,M,46.25,M,,*6E
$GPGLL,4611.954054,N,01258.226575,E,083008.00,A,A*6E
$GPVTG,338.2,T,338.3,M,000.6,N,001.2,K,A*27
$GPGSV,3,1,09,02,37,092,46,04,19,046,40,09,30,148,45,12,66,061,44*75
$GPGSV,3,2,09,14,34,265,38,25,68,307,44,29,40,217,45,30,24,284,34*72
$GPGSV,3,3,09,31,15,314,,,,,,,,,,,,,*40
$GPGSA,M,3,02,04,09,12,14,25,29,,,,,,2.3,1.1,2.0*38
Trace #15 at position 3.500000
$GPZDA,083008.04,09,10,2011,00,00*6B
$GPRMC,083008.00,A,4611.954054,N,01258.226575,E,000.6,338.2,091$GPGGA,083009.00,4611.954236,N,01258.226516,E,1,07,1.1,140.55,M,46.25,M,,*6E
$GPGLL,4611.954236,N,01258.226516,E,083009.00,A,A*6C
$GPVTG,348.5,T,348.7,M,000.9,N,001.6,K,A*2F
$GPGSV,3,1,09,02,37,092,46,04,19,046,39,09,30,148,43,12,66,061,44*7D
$GPGSV,3,2,09,14,34,265,37,25,68,307,46,29,40,217,47,30,24,284,36*7F
$GPGSV,3,3,09,31,15,314,,,,,,,,,,,,,*40
$GPGSA,M,3,02,04,09,12,14,25,29,,,,,,2.3,1.1,2.0*38
Trace #16 at position 3.750000
$GPZDA,083008.04,09,10,2011,00,00*6B
$GPRMC,083008.00,A,4611.954054,N,01258.226575,E,000.6,338.2,091$GPGGA,083009.00,4611.954236,N,01258.226516,E,1,07,1.1,140.55,M,46.25,M,,*6E
$GPGLL,4611.954236,N,01258.226516,E,083009.00,A,A*6C
$GPVTG,348.5,T,348.7,M,000.9,N,001.6,K,A*2F
$GPGSV,3,1,09,02,37,092,46,04,19,046,39,09,30,148,43,12,66,061,44*7D
$GPGSV,3,2,09,14,34,265,37,25,68,307,46,29,40,217,47,30,24,284,36*7F
$GPGSV,3,3,09,31,15,314,,,,,,,,,,,,,*40
$GPGSA,M,3,02,04,09,12,14,25,29,,,,,,2.3,1.1,2.0*38
Trace #17 at position 4.000000
$GPZDA,083008.04,09,10,2011,00,00*6B
$GPRMC,083008.00,A,4611.954054,N,01258.226575,E,000.6,338.2,091$GPGGA,083009.00,4611.954236,N,01258.226516,E,1,07,1.1,140.55,M,46.25,M,,*6E
$GPGLL,4611.954236,N,01258.226516,E,083009.00,A,A*6C
$GPVTG,348.5,T,348.7,M,000.9,N,001.6,K,A*2F
$GPGSV,3,1,09,02,37,092,46,04,19,046,39,09,30,148,43,12,66,061,44*7D
$GPGSV,3,2,09,14,34,265,37,25,68,307,46,29,40,217,47,30,24,284,36*7F
$GPGSV,3,3,09,31,15,314,,,,,,,,,,,,,*40
$GPGSA,M,3,02,04,09,12,14,25,29,,,,,,2.3,1.1,2.0*38
Trace #18 at position 4.250000
$GPZDA,083009.04,09,10,2011,00,00*6A
$GPRMC,083009.00,A,4611.954236,N,01258.226516,E,000.9,348.5,091$GPGGA,083010.00,4611.954399,N,01258.226432,E,1,07,1.1,140.61,M,46.25,M,,*62
$GPGLL,4611.954399,N,01258.226432,E,083010.00,A,A*67
$GPVTG,320.0,T,320.2,M,000.6,N,001.0,K,A*26
$GPGSV,3,1,09,02,37,092,44,04,19,046,39,09,30,148,43,12,66,061,42*79
$GPGSV,3,2,09,14,34,265,38,25,68,307,44,29,40,217,47,30,24,284,37*73
$GPGSV,3,3,09,31,15,314,,,,,,,,,,,,,*40
$GPGSA,M,3,02,04,09,12,14,25,29,,,,,,2.3,1.1,2.0*38
Trace #19 at position 4.500000
$GPZDA,083009.04,09,10,2011,00,00*6A
$GPRMC,083009.00,A,4611.954236,N,01258.226516,E,000.9,348.5,091$GPGGA,083010.00,4611.954399,N,01258.226432,E,1,07,1.1,140.61,M,46.25,M,,*62
$GPGLL,4611.954399,N,01258.226432,E,083010.00,A,A*67
$GPVTG,320.0,T,320.2,M,000.6,N,001.0,K,A*26
$GPGSV,3,1,09,02,37,092,44,04,19,046,39,09,30,148,43,12,66,061,42*79
$GPGSV,3,2,09,14,34,265,38,25,68,307,44,29,40,217,47,30,24,284,37*73
$GPGSV,3,3,09,31,15,314,,,,,,,,,,,,,*40
$GPGSA,M,3,02,04,09,12,14,25,29,,,,,,2.3,1.1,2.0*38
Trace #20 at position 4.750000
$GPZDA,083009.04,09,10,2011,00,00*6A
$GPRMC,083009.00,A,4611.954236,N,01258.226516,E,000.9,348.5,091$GPGGA,083010.00,4611.954399,N,01258.226432,E,1,07,1.1,140.61,M,46.25,M,,*62
$GPGLL,4611.954399,N,01258.226432,E,083010.00,A,A*67
$GPVTG,320.0,T,320.2,M,000.6,N,001.0,K,A*26
$GPGSV,3,1,09,02,37,092,44,04,19,046,39,09,30,148,43,12,66,061,42*79
$GPGSV,3,2,09,14,34,265,38,25,68,307,44,29,40,217,47,30,24,284,37*73
$GPGSV,3,3,09,31,15,314,,,,,,,,,,,,,*40
$GPGSA,M,3,02,04,09,12,14,25,29,,,,,,2.3,1.1,2.0*38
Trace #21 at position 5.000000
$GPZDA,083010.04,09,10,2011,00,00*62
$GPRMC,083010.00,A,4611.954399,N,01258.226432,E,000.6,320.0,091$GPGGA,083011.00,4611.954601,N,01258.226408,E,1,07,1.1,140.67,M,46.25,M,,*68
$GPGLL,4611.954601,N,01258.226408,E,083011.00,A,A*6B
$GPVTG,8.3,T,8.5,M,001.1,N,002.0,K,A*27
$GPGSV,3,1,09,02,37,092,43,04,19,046,37,09,30,148,44,12,66,061,44*71
$GPGSV,3,2,09,14,34,265,37,25,68,307,45,29,40,217,47,30,24,284,34*7E
$GPGSV,3,3,09,31,15,314,,,,,,,,,,,,,*40
$GPGSA,M,3,02,04,09,12,14,25,29,,,,,,2.3,1.1,2.0*38
Trace #22 at position 5.250000
$GPZDA,083010.04,09,10,2011,00,00*62
$GPRMC,083010.00,A,4611.954399,N,01258.226432,E,000.6,320.0,091$GPGGA,083011.00,4611.954601,N,01258.226408,E,1,07,1.1,140.67,M,46.25,M,,*68
$GPGLL,4611.954601,N,01258.226408,E,083011.00,A,A*6B
$GPVTG,8.3,T,8.5,M,001.1,N,002.0,K,A*27
$GPGSV,3,1,09,02,37,092,43,04,19,046,37,09,30,148,44,12,66,061,44*71
$GPGSV,3,2,09,14,34,265,37,25,68,307,45,29,40,217,47,30,24,284,34*7E
$GPGSV,3,3,09,31,15,314,,,,,,,,,,,,,*40
$GPGSA,M,3,02,04,09,12,14,25,29,,,,,,2.3,1.1,2.0*38
Trace #23 at position 5.500000
$GPZDA,083010.04,09,10,2011,00,00*62
$GPRMC,083010.00,A,4611.954399,N,01258.226432,E,000.6,320.0,091$GPGGA,083011.00,4611.954601,N,01258.226408,E,1,07,1.1,140.67,M,46.25,M,,*68
$GPGLL,4611.954601,N,01258.226408,E,083011.00,A,A*6B
$GPVTG,8.3,T,8.5,M,001.1,N,002.0,K,A*27
$GPGSV,3,1,09,02,37,092,43,04,19,046,37,09,30,148,44,12,66,061,44*71
$GPGSV,3,2,09,14,34,265,37,25,68,307,45,29,40,217,47,30,24,284,34*7E
$GPGSV,3,3,09,31,15,314,,,,,,,,,,,,,*40
$GPGSA,M,3,02,04,09,12,14,25,29,,,,,,2.3,1.1,2.0*38
Trace #24 at position 5.750000
$GPZDA,083010.04,09,10,2011,00,00*62
$GPRMC,083010.00,A,4611.954399,N,01258.226432,E,000.6,320.0,091$GPGGA,083011.00,4611.954601,N,01258.226408,E,1,07,1.1,140.67,M,46.25,M,,*68
$GPGLL,4611.954601,N,01258.226408,E,083011.00,A,A*6B
$GPVTG,8.3,T,8.5,M,001.1,N,002.0,K,A*27
$GPGSV,3,1,09,02,37,092,43,04,19,046,37,09,30,148,44,12,66,061,44*71
$GPGSV,3,2,09,14,34,265,37,25,68,307,45,29,40,217,47,30,24,284,34*7E
$GPGSV,3,3,09,31,15,314,,,,,,,,,,,,,*40
$GPGSA,M,3,02,04,09,12,14,25,29,,,,,,2.3,1.1,2.0*38
Trace #25 at position 6.000000
$GPZDA,083011.04,09,10,2011,00,00*63
$GPRMC,083011.00,A,4611.954601,N,01258.226408,E,001.1,8.3,091011,0.$GPGGA,083012.00,4611.954711,N,01258.226410,E,1,07,1.1,140.73,M,46.25,M,,*67
$GPGLL,4611.954711,N,01258.226410,E,083012.00,A,A*61
$GPVTG,218.0,T,218.1,M,000.3,N,000.5,K,A*24
$GPGSV,3,1,09,02,37,092,45,04,19,046,39,09,30,148,43,12,66,061,44*7E
$GPGSV,3,2,09,14,34,265,38,25,68,307,44,29,40,217,47,30,24,284,36*72
$GPGSV,3,3,09,31,15,314,,,,,,,,,,,,,*40
$GPGSA,M,3,02,04,09,12,14,25,29,,,,,,2.3,1.1,2.0*38
Trace #26 at position 6.250000
$GPZDA,083011.04,09,10,2011,00,00*63
$GPRMC,083011.00,A,4611.954601,N,01258.226408,E,001.1,8.3,091011,0.$GPGGA,083012.00,4611.954711,N,01258.226410,E,1,07,1.1,140.73,M,46.25,M,,*67
$GPGLL,4611.954711,N,01258.226410,E,083012.00,A,A*61
$GPVTG,218.0,T,218.1,M,000.3,N,000.5,K,A*24
$GPGSV,3,1,09,02,37,092,45,04,19,046,39,09,30,148,43,12,66,061,44*7E
$GPGSV,3,2,09,14,34,265,38,25,68,307,44,29,40,217,47,30,24,284,36*72
$GPGSV,3,3,09,31,15,314,,,,,,,,,,,,,*40
$GPGSA,M,3,02,04,09,12,14,25,29,,,,,,2.3,1.1,2.0*38
Trace #27 at position 6.500000
$GPZDA,083012.04,09,10,2011,00,00*60
$GPRMC,083012.00,A,4611.954711,N,01258.226410,E,000.3,218.0,091E,083013.00,A,A*6F
$GPVTG,354.1,T,354.3,M,001.4,N,002.6,K,A*20
$GPGSV,3,1,09,02,37,092,44,04,19,046,38,09,30,148,42,12,66,061,43*78
$GPGSV,3,2,09,14,34,265,37,25,68,307,45,29,40,217,47,30,24,284,37*7D
$GPGSV,3,3,09,31,15,314,,,,,,,,,,,,,*40
$GPGSA,M,3,02,04,09,12,14,25,29,,,,,,2.3,1.1,2.0*38
Trace #28 at position 6.750000
$GPZDA,083012.04,09,10,2011,00,00*60
$GPRMC,083012.00,A,4611.954711,N,01258.226410,E,000.3,218.0,091E,083013.00,A,A*6F
$GPVTG,354.1,T,354.3,M,001.4,N,002.6,K,A*20
$GPGSV,3,1,09,02,37,092,44,04,19,046,38,09,30,148,42,12,66,061,43*78
$GPGSV,3,2,09,14,34,265,37,25,68,307,45,29,40,217,47,30,24,284,37*7D
$GPGSV,3,3,09,31,15,314,,,,,,,,,,,,,*40
$GPGSA,M,3,02,04,09,12,14,25,29,,,,,,2.3,1.1,2.0*38
Trace #29 at position 7.000000
$GPZDA,083012.04,09,10,2011,00,00*60
$GPRMC,083012.00,A,4611.954711,N,01258.226410,E,000.3,218.0,091E,083013.00,A,A*6F
$GPVTG,354.1,T,354.3,M,001.4,N,002.6,K,A*20
$GPGSV,3,1,09,02,37,092,44,04,19,046,38,09,30,148,42,12,66,061,43*78
$GPGSV,3,2,09,14,34,265,37,25,68,307,45,29,40,217,47,30,24,284,37*7D
$GPGSV,3,3,09,31,15,314,,,,,,,,,,,,,*40
$GPGSA,M,3,02,04,09,12,14,25,29,,,,,,2.3,1.1,2.0*38
Trace #30 at position 7.250000
$GPZDA,083013.04,09,10,2011,00,00*61
$GPRMC,083013.00,A,4611.954875,N,01258.226351,E,001.4,354.1,091011,0.2,E,A*3F
$GPGGA,083014.00,4611.955218,N,01258.226199,E,1,07,1.1,140.69,M,46.25,M,,*63
$GPGLL,4611.955218
$GPGSV,3,1,09,02,37,092,45,04,19,046,37,09,30,148,43,12,66,061,43*77
$GPGSV,3,2,09,14,34,265,38,25,68,307,44,29,40,217,47,30,24,284,36*72
$GPGSV,3,3,09,31,15,314,,,,,,,,,,,,,*40
$GPGSA,M,3,02,04,09,12,14,25,29,,,,,,2.3,1.1,2.0*38
Trace #31 at position 7.500000
$GPZDA,083013.04,09,10,2011,00,00*61
$GPRMC,083013.00,A,4611.954875,N,01258.226351,E,001.4,354.1,091011,0.2,E,A*3F
$GPGGA,083014.00,4611.955218,N,01258.226199,E,1,07,1.1,140.69,M,46.25,M,,*63
$GPGLL,4611.955218
$GPGSV,3,1,09,02,37,092,45,04,19,046,37,09,30,148,43,12,66,061,43*77
$GPGSV,3,2,09,14,34,265,38,25,68,307,44,29,40,217,47,30,24,284,36*72
$GPGSV,3,3,09,31,15,314,,,,,,,,,,,,,*40
$GPGSA,M,3,02,04,09,12,14,25,29,,,,,,2.3,1.1,2.0*38
Trace #32 at position 7.750000
$GPZDA,083013.04,09,10,2011,00,00*61
$GPRMC,083013.00,A,4611.954875,N,01258.226351,E,001.4,354.1,091011,0.2,E,A*3F
$GPGGA,083014.00,4611.955218,N,01258.226199,E,1,07,1.1,140.69,M,46.25,M,,*63
$GPGLL,4611.955218
$GPGSV,3,1,09,02,37,092,45,04,19,046,37,09,30,148,43,12,66,061,43*77
$GPGSV,3,2,09,14,34,265,38,25,68,307,44,29,40,217,47,30,24,284,36*72
$GPGSV,3,3,09,31,15,314,,,,,,,,,,,,,*40
$GPGSA,M,3,02,04,09,12,14,25,29,,,,,,2.3,1.1,2.0*38
Trace #33 at position 8.000000
$GPZDA,083014.04,09,10,2011,00,00*66
$GPRMC,083014.00,A,4611.955218,N,01258.226199,E,001.3,329.7,091011,0.2,E,A*35
$GPGGA,083015.00,4611.955490,N,01258.226010,E,1,05,3.9,140.87,M,46.25,M,,*6C
$GPGLL,4611.955490,N,01258.226010,E,083015.00,A,A*69
$GPVTG,345.4,T,345.5,M,001.39,40,217,46,30,24,284,36*7C
$GPGSV,3,3,09,31,15,314,,,,,,,,,,,,,*40
$GPGSA,M,3,02,09,12,25,29,,,,,,,,9.7,3.9,8.9*3F
Trace #34 at position 8.250000
$GPZDA,083014.04,09,10,2011,00,00*66
$GPRMC,083014.00,A,4611.955218,N,01258.226199,E,001.3,329.7,091011,0.2,E,A*35
$GPGGA,083015.00,4611.955490,N,01258.226010,E,1,05,3.9,140.87,M,46.25,M,,*6C
$GPGLL,4611.955490,N,01258.226010,E,083015.00,A,A*69
$GPVTG,345.4,T,345.5,M,001.39,40,217,46,30,24,284,36*7C
$GPGSV,3,3,09,31,15,314,,,,,,,,,,,,,*40
$GPGSA,M,3,02,09,12,25,29,,,,,,,,9.7,3.9,8.9*3F
Trace #35 at position 8.500000
$GPZDA,083014.04,09,10,2011,00,00*66
$GPRMC,083014.00,A,4611.955218,N,01258.226199,E,001.3,329.7,091011,0.2,E,A*35
$GPGGA,083015.00,4611.955490,N,01258.226010,E,1,05,3.9,140.87,M,46.25,M,,*6C
$GPGLL,4611.955490,N,01258.226010,E,083015.00,A,A*69
$GPVTG,345.4,T,345.5,M,001.39,40,217,46,30,24,284,36*7C
$GPGSV,3,3,09,31,15,314,,,,,,,,,,,,,*40
$GPGSA,M,3,02,09,12,25,29,,,,,,,,9.7,3.9,8.9*3F
Trace #36 at position 8.750000
$GPZDA,083014.04,09,10,2011,00,00*66
$GPRMC,083014.00,A,4611.955218,N,01258.226199,E,001.3,329.7,091011,0.2,E,A*35
$GPGGA,083015.00,4611.955490,N,01258.226010,E,1,05,3.9,140.87,M,46.25,M,,*6C
$GPGLL,4611.955490,N,01258.226010,E,083015.00,A,A*69
$GPVTG,345.4,T,345.5,M,001.39,40,217,46,30,24,284,36*7C
$GPGSV,3,3,09,31,15,314,,,,,,,,,,,,,*40
$GPGSA,M,3,02,09,12,25,29,,,,,,,,9.7,3.9,8.9*3F
Trace #37 at position 9.000000
$GPZDA,083014.04,09,10,2011,00,00*66
$GPRMC,083014.00,A,4611.955218,N,01258.226199,E,001.3,329.7,091011,0.2,E,A*35
$GPGGA,083015.00,4611.955490,N,01258.226010,E,1,05,3.9,140.87,M,46.25,M,,*6C
$GPGLL,4611.955490,N,01258.226010,E,083015.00,A,A*69
$GPVTG,345.4,T,345.5,M,001.39,40,217,46,30,24,284,36*7C
$GPGSV,3,3,09,31,15,314,,,,,,,,,,,,,*40
$GPGSA,M,3,02,09,12,25,29,,,,,,,,9.7,3.9,8.9*3F
Trace #38 at position 9.250000
$GPZDA,083015.04,09,10,2011,00,00*67
$GPRMC,083015.00,A,4611.955490,N,01258.226010,E,001.3,345.4,091011,0.2,E,A*3B
$GPGGA,083016.00,4611.955811,N,01258.225895,E,1,06,1.8,141.04,M,46.25,M,,*66
$GPGLL,4611.955811,N,01258.225895,E,083016.00,A,A*69
$GPVTG,348.6,T,348.8,M,001.5,N,002.8,K,A*23
$GPGSV,3,1,09,02,37,092,44,04,19,046,37,09,30,148,43,12,66,061,42*77
$GPGSV,3,2,09,14,34,265,39,258.225895,E,001.5,348.6,091011,0.2,E,A*32
$GPGGA,083017.00,4611.956192,N,01258.225757,E,1,07,1.3,140.94,M,46.25,M,,*65
$GPGLL,4611.956192,N,01258.225757,E,083017.00,A,A*68
$GPVTG,345.1,T,345.2,M,001.3,N,002.4,K,A*24
$GPGSV,3,1,09,02,37,092,45,04,19,046,37,09,30,148,42,12,66,061,41*74
$GPGSV,3,2,09,14,34,265,39,25,68,307,44,29,40,217,47,30,24,284,40*72
$GPGSV,3,3,09,31,15,314,,,,,,,,,,,,,*40
$GPGSA,M,3,02,09,12,14,25,29,30,,,,,,2.7,1.3,2.4*3D
Trace #39 at position 9.500000
$GPZDA,083015.04,09,10,2011,00,00*67
$GPRMC,083015.00,A,4611.955490,N,01258.226010,E,001.3,345.4,091011,0.2,E,A*3B
$GPGGA,083016.00,4611.955811,N,01258.225895,E,1,06,1.8,141.04,M,46.25,M,,*66
$GPGLL,4611.955811,N,01258.225895,E,083016.00,A,A*69
$GPVTG,348.6,T,348.8,M,001.5,N,002.8,K,A*23
$GPGSV,3,1,09,02,37,092,44,04,19,046,37,09,30,148,43,12,66,061,42*77
$GPGSV,3,2,09,14,34,265,39,258.225895,E,001.5,348.6,091011,0.2,E,A*32
$GPGGA,083017.00,4611.956192,N,01258.225757,E,1,07,1.3,140.94,M,46.25,M,,*65
$GPGLL,4611.956192,N,01258.225757,E,083017.00,A,A*68
$GPVTG,345.1,T,345.2,M,001.3,N,002.4,K,A*24
$GPGSV,3,1,09,02,37,092,45,04,19,046,37,09,30,148,42,12,66,061,41*74
$GPGSV,3,2,09,14,34,265,39,25,68,307,44,29,40,217,47,30,24,284,40*72
$GPGSV,3,3,09,31,15,314,,,,,,,,,,,,,*40
$GPGSA,M,3,02,09,12,14,25,29,30,,,,,,2.7,1.3,2.4*3D
Trace #40 at position 9.750000
$GPZDA,083017.04,09,10,2011,00,00*65
$GPRMC,083017.00,A,46$GPGGA,083018.00,4611.956493,N,01258.225511,E,1,06,1.8,141.17,M,46.25,M,,*6E
$GPGLL,4611.956493,N,01258.225511,E,083018.00,A,A*63
$GPVTG,322.0,T,322.2,M,001.6,N,003.0,K,A*25
$GPGSV,3,1,09,02,37,092,45,04,19,046,37,09,30,148,40,12,66,061,43*74
$GPGSV,3,2,09,14,34,265,39,25,68,307,41,29,40,217,46,30,24,284,34*75
$GPGSV,3,3,09,31,15,314,,,,,,,,,,,,,*40
$GPGSA,M,3,02,09,12,14,25,29,,,,,,,4.1,1.8,3.6*36
Trace #41 at position 10.000000
$GPZDA,083017.04,09,10,2011,00,00*65
$GPRMC,083017.00,A,46$GPGGA,083018.00,4611.956493,N,01258.225511,E,1,06,1.8,141.17,M,46.25,M,,*6E
$GPGLL,4611.956493,N,01258.225511,E,083018.00,A,A*63
$GPVTG,322.0,T,322.2,M,001.6,N,003.0,K,A*25
$GPGSV,3,1,09,02,37,092,45,04,19,046,37,09,30,148,40,12,66,061,43*74
$GPGSV,3,2,09,14,34,265,39,25,68,307,41,29,40,217,46,30,24,284,34*75
$GPGSV,3,3,09,31,15,314,,,,,,,,,,,,,*40
$GPGSA,M,3,02,09,12,14,25,29,,,,,,,4.1,1.8,3.6*36
Trace #42 at position 10.250000
$GPZDA,083017.04,09,10,2011,00,00*65
$GPRMC,083017.00,A,46$GPGGA,083018.00,4611.956493,N,01258.225511,E,1,06,1.8,141.17,M,46.25,M,,*6E
$GPGLL,4611.956493,N,01258.225511,E,083018.00,A,A*63
$GPVTG,322.0,T,322.2,M,001.6,N,003.0,K,A*25
$GPGSV,3,1,09,02,37,092,45,04,19,046,37,09,30,148,40,12,66,061,43*74
$GPGSV,3,2,09,14,34,265,39,25,68,307,41,29,40,217,46,30,24,284,34*75
$GPGSV,3,3,09,31,15,314,,,,,,,,,,,,,*40
$GPGSA,M,3,02,09,12,14,25,29,,,,,,,4.1,1.8,3.6*36
Trace #43 at position 10.500000
$GPZDA,083018.04,09,10,2011,00,00*6A
$GPRMC,083018.00,A,4611.956493,N,01258.225511,E,001.6,322.0,09101$GPGGA,083019.00,4611.956769,N,01258.225231,E,1,06,1.8,141.47,M,46.25,M,,*69
$GPGLL,4611.956769,N,01258.225231,E,083019.00,A,A*61
$GPVTG,330.9,T,331.1,M,001.2,N,002.2,K,A*29
$GPGSV,3,1,09,02,37,092,45,04,19,046,37,09,30,148,44,12,66,061,42*71
$GPGSV,3,2,09,14,34,265,40,25,68,307,43,29,40,217,47,30,24,284,38*74
$GPGSV,3,3,09,31,15,314,,,,,,,,,,,,,*40
$GPGSA,M,3,02,09,12,14,25,29,,,,,,,4.1,1.8,3.6*36
Trace #44 at position 10.750000
$GPZDA,083018.04,09,10,2011,00,00*6A
$GPRMC,083018.00,A,4611.956493,N,01258.225511,E,001.6,322.0,09101$GPGGA,083019.00,4611.956769,N,01258.225231,E,1,06,1.8,141.47,M,46.25,M,,*69
$GPGLL,4611.956769,N,01258.225231,E,083019.00,A,A*61
$GPVTG,330.9,T,331.1,M,001.2,N,002.2,K,A*29
$GPGSV,3,1,09,02,37,092,45,04,19,046,37,09,30,148,44,12,66,061,42*71
$GPGSV,3,2,09,14,34,265,40,25,68,307,43,29,40,217,47,30,24,284,38*74
$GPGSV,3,3,09,31,15,314,,,,,,,,,,,,,*40
$GPGSA,M,3,02,09,12,14,25,29,,,,,,,4.1,1.8,3.6*36
Trace #45 at position 11.000000
$GPZDA,083018.04,09,10,2011,00,00*6A
$GPRMC,083018.00,A,4611.956493,N,01258.225511,E,001.6,322.0,09101$GPGGA,083019.00,4611.956769,N,01258.225231,E,1,06,1.8,141.47,M,46.25,M,,*69
$GPGLL,4611.956769,N,01258.225231,E,083019.00,A,A*61
$GPVTG,330.9,T,331.1,M,001.2,N,002.2,K,A*29
$GPGSV,3,1,09,02,37,092,45,04,19,046,37,09,30,148,44,12,66,061,42*71
$GPGSV,3,2,09,14,34,265,40,25,68,307,43,29,40,217,47,30,24,284,38*74
$GPGSV,3,3,09,31,15,314,,,,,,,,,,,,,*40
$GPGSA,M,3,02,09,12,14,25,29,,,,,,,4.1,1.8,3.6*36
Trace #46 at position 11.250000
$GPZDA,083019.04,09,10,2011,00,00*6B
$GPRMC,083019.00,A,4611.956769,N,01258.225231,E,001.2,330.9,09101$GPGGA,083020.00,4611.957209,N,01258.225109,E,1,07,1.3,141.47,M,46.25,M,,*63
$GPGLL,4611.957209,N,01258.225109,E,083020.00,A,A*61
$GPVTG,358.3,T,358.5,M,001.9,N,003.6,K,A*28
$GPGSV,3,1,09,02,37,092,45,04,19,046,37,09,30,148,44,12,66,061,40*73
$GPGSV,3,2,09,14,34,265,40,25,68,307,43,29,40,217,47,30,24,284,40*7B
$GPGSV,3,3,09,31,15,314,,,,,,,,,,,,,*40
$GPGSA,M,3,02,09,12,14,25,29,30,,,,,,2.7,1.3,2.4*3D
Trace #47 at position 11.500000
$GPZDA,083019.04,09,10,2011,00,00*6B
$GPRMC,083019.00,A,4611.956769,N,01258.225231,E,001.2,330.9,09101$GPGGA,083020.00,4611.957209,N,01258.225109,E,1,07,1.3,141.47,M,46.25,M,,*63
$GPGLL,4611.957209,N,01258.225109,E,083020.00,A,A*61
$GPVTG,358.3,T,358.5,M,001.9,N,003.6,K,A*28
$GPGSV,3,1,09,02,37,092,45,04,19,046,37,09,30,148,44,12,66,061,40*73
$GPGSV,3,2,09,14,34,265,40,25,68,307,43,29,40,217,47,30,24,284,40*7B
$GPGSV,3,3,09,31,15,314,,,,,,,,,,,,,*40
$GPGSA,M,3,02,09,12,14,25,29,30,,,,,,2.7,1.3,2.4*3D
Trace #48 at position 11.750000
$GPZDA,083019.04,09,10,2011,00,00*6B
$GPRMC,083019.00,A,4611.956769,N,01258.225231,E,001.2,330.9,09101$GPGGA,083020.00,4611.957209,N,01258.225109,E,1,07,1.3,141.47,M,46.25,M,,*63
$GPGLL,4611.957209,N,01258.225109,E,083020.00,A,A*61
$GPVTG,358.3,T,358.5,M,001.9,N,003.6,K,A*28
$GPGSV,3,1,09,02,37,092,45,04,19,046,37,09,30,148,44,12,66,061,40*73
$GPGSV,3,2,09,14,34,265,40,25,68,307,43,29,40,217,47,30,24,284,40*7B
$GPGSV,3,3,09,31,15,314,,,,,,,,,,,,,*40
$GPGSA,M,3,02,09,12,14,25,29,30,,,,,,2.7,1.3,2.4*3D
Trace #49 at position 12.000000
$GPZDA,083019.04,09,10,2011,00,00*6B
$GPRMC,083019.00,A,4611.956769,N,01258.225231,E,001.2,330.9,09101$GPGGA,083020.00,4611.957209,N,01258.225109,E,1,07,1.3,141.47,M,46.25,M,,*63
$GPGLL,4611.957209,N,01258.225109,E,083020.00,A,A*61
$GPVTG,358.3,T,358.5,M,001.9,N,003.6,K,A*28
$GPGSV,3,1,09,02,37,092,45,04,19,046,37,09,30,148,44,12,66,061,40*73
$GPGSV,3,2,09,14,34,265,40,25,68,307,43,29,40,217,47,30,24,284,40*7B
$GPGSV,3,3,09,31,15,314,,,,,,,,,,,,,*40
$GPGSA,M,3,02,09,12,14,25,29,30,,,,,,2.7,1.3,2.4*3D
Trace #50 at position 12.250000
$GPZDA,083020.04,09,10,2011,00,00*61
$GPRMC,083020.00,A,4611.957209,N,01258.225109,E,001.9,358.3,091$GPGGA,083021.00,4611.957696,N,01258.225013,E,1,07,1.3,141.42,M,46.25,M,,*6F
$GPGLL,4611.957696,N,01258.225013,E,083021.00,A,A*68
$GPVTG,343.7,T,343.8,M,001.5,N,002.8,K,A*22
$GPGSV,3,1,09,02,37,092,44,04,19,046,36,09,30,148,44,12,66,061,42*71
$GPGSV,3,2,09,14,34,265,40,25,68,307,42,29,40,217,47,30,24,284,40*7A
$GPGSV,3,3,09,31,15,314,,,,,,,,,,,,,*40
$GPGSA,M,3,02,09,12,14,25,29,30,,,,,,2.7,1.3,2.4*3D
Trace #51 at position 12.500000
$GPZDA,083020.04,09,10,2011,00,00*61
$GPRMC,083020.00,A,4611.957209,N,01258.225109,E,001.9,358.3,091$GPGGA,083021.00,4611.957696,N,01258.225013,E,1,07,1.3,141.42,M,46.25,M,,*6F
$GPGLL,4611.957696,N,01258.225013,E,083021.00,A,A*68
$GPVTG,343.7,T,343.8,M,001.5,N,002.8,K,A*22
$GPGSV,3,1,09,02,37,092,44,04,19,046,36,09,30,148,44,12,66,061,42*71
$GPGSV,3,2,09,14,34,265,40,25,68,307,42,29,40,217,47,30,24,284,40*7A
$GPGSV,3,3,09,31,15,314,,,,,,,,,,,,,*40
$GPGSA,M,3,02,09,12,14,25,29,30,,,,,,2.7,1.3,2.4*3D
Trace #52 at position 12.750000
$GPZDA,083021.04,09,10,2011,00,00*60
$GPRMC,083021.00,A,4611.957696,N,01258.225013,E,001.5,343.7,091,N,01258.224865,E,083022.00,A,A*60
$GPVTG,341.5,T,341.7,M,001.0,N,001.8,K,A*29
$GPGSV,3,1,09,02,37,092,43,04,19,046,35,09,30,148,41,12,66,061,42*70
$GPGSV,3,2,09,14,34,265,40,25,68,307,42,29,40,217,47,30,24,284,40*7A
$GPGSV,3,3,09,31,15,314,,,,,,,,,,,,,*40
$GPGSA,M,3,02,09,12,14,25,29,30,,,,,,2.7,1.3,2.4*3D
Trace #53 at position 13.000000
$GPZDA,083021.04,09,10,2011,00,00*60
$GPRMC,083021.00,A,4611.957696,N,01258.225013,E,001.5,343.7,091,N,01258.224865,E,083022.00,A,A*60
$GPVTG,341.5,T,341.7,M,001.0,N,001.8,K,A*29
$GPGSV,3,1,09,02,37,092,43,04,19,046,35,09,30,148,41,12,66,061,42*70
$GPGSV,3,2,09,14,34,265,40,25,68,307,42,29,40,217,47,30,24,284,40*7A
$GPGSV,3,3,09,31,15,314,,,,,,,,,,,,,*40
$GPGSA,M,3,02,09,12,14,25,29,30,,,,,,2.7,1.3,2.4*3D
Trace #54 at position 13.250000
$GPZDA,083021.04,09,10,2011,00,00*60
$GPRMC,083021.00,A,4611.957696,N,01258.225013,E,001.5,343.7,091,N,01258.224865,E,083022.00,A,A*60
$GPVTG,341.5,T,341.7,M,001.0,N,001.8,K,A*29
$GPGSV,3,1,09,02,37,092,43,04,19,046,35,09,30,148,41,12,66,061,42*70
$GPGSV,3,2,09,14,34,265,40,25,68,307,42,29,40,217,47,30,24,284,40*7A
$GPGSV,3,3,09,31,15,314,,,,,,,,,,,,,*40
$GPGSA,M,3,02,09,12,14,25,29,30,,,,,,2.7,1.3,2.4*3D
Trace #55 at position 13.500000
$GPZDA,083021.04,09,10,2011,00,00*60
$GPRMC,083021.00,A,4611.957696,N,01258.225013,E,001.5,343.7,091,N,01258.224865,E,083022.00,A,A*60
$GPVTG,341.5,T,341.7,M,001.0,N,001.8,K,A*29
$GPGSV,3,1,09,02,37,092,43,04,19,046,35,09,30,148,41,12,66,061,42*70
$GPGSV,3,2,09,14,34,265,40,25,68,307,42,29,40,217,47,30,24,284,40*7A
$GPGSV,3,3,09,31,15,314,,,,,,,,,,,,,*40
$GPGSA,M,3,02,09,12,14,25,29,30,,,,,,2.7,1.3,2.4*3D
Trace #56 at position 13.750000
$GPZDA,083022.04,09,10,2011,00,00*63
$GPRMC,083022.00,A,4611.958041,N,01258.224865,E,001.0,341.5,091011,0.2,E,A*34
$GPGGA,083023.00,4611.958328,N,01258.224738,E,1,07,1.3,141.21,M,46.25,M,,*68
$G,N,002.0,K,A*22
$GPGSV,3,1,09,02,37,092,44,04,19,046,37,09,30,148,41,12,66,061,43*74
$GPGSV,3,2,09,14,34,265,37,25,68,307,43,29,40,217,47,30,24,284,38*74
$GPGSV,3,3,09,31,15,314,,,,,,,,,,,,,*40
$GPGSA,M,3,02,09,12,14,25,29,30,,,,,,2.7,1.3,2.4*3D
Trace #57 at position 14.000000
$GPZDA,083022.04,09,10,2011,00,00*63
$GPRMC,083022.00,A,4611.958041,N,01258.224865,E,001.0,341.5,091011,0.2,E,A*34
$GPGGA,083023.00,4611.958328,N,01258.224738,E,1,07,1.3,141.21,M,46.25,M,,*68
$G,N,002.0,K,A*22
$GPGSV,3,1,09,02,37,092,44,04,19,046,37,09,30,148,41,12,66,061,43*74
$GPGSV,3,2,09,14,34,265,37,25,68,307,43,29,40,217,47,30,24,284,38*74
$GPGSV,3,3,09,31,15,314,,,,,,,,,,,,,*40
$GPGSA,M,3,02,09,12,14,25,29,30,,,,,,2.7,1.3,2.4*3D
Trace #58 at position 14.250000
$GPZDA,083023.04,09,10,2011,00,00*62
$GPRMC,083023.00,A,4611.958328,N,01258.224738,E,001.1,342.5,091011,0.2,E,A*3C
$GPGGA,083024.00,4611.958703,N,01258.224510,E,1,06,1.4,141.00,M,46.25,M,,*6F
$GPGLL,4611.958703,N,01258.224510,E,083024.00,A,A*68
$GPVTG,333.55,25,68,307,43,29,40,217,47,30,24,284,40*79
$GPGSV,3,3,09,31,15,314,,,,,,,,,,,,,*40
$GPGSA,M,3,02,09,12,25,29,30,,,,,,,2.7,1.4,2.4*3F
Trace #59 at position 14.500000
$GPZDA,083023.04,09,10,2011,00,00*62
$GPRMC,083023.00,A,4611.958328,N,01258.224738,E,001.1,342.5,091011,0.2,E,A*3C
$GPGGA,083024.00,4611.958703,N,01258.224510,E,1,06,1.4,141.00,M,46.25,M,,*6F
$GPGLL,4611.958703,N,01258.224510,E,083024.00,A,A*68
$GPVTG,333.55,25,68,307,43,29,40,217,47,30,24,284,40*79
$GPGSV,3,3,09,31,15,314,,,,,,,,,,,,,*40
$GPGSA,M,3,02,09,12,25,29,30,,,,,,,2.7,1.4,2.4*3F
Trace #60 at position 14.750000
$GPZDA,083023.04,09,10,2011,00,00*62
$GPRMC,083023.00,A,4611.958328,N,01258.224738,E,001.1,342.5,091011,0.2,E,A*3C
$GPGGA,083024.00,4611.958703,N,01258.224510,E,1,06,1.4,141.00,M,46.25,M,,*6F
$GPGLL,4611.958703,N,01258.224510,E,083024.00,A,A*68
$GPVTG,333.55,25,68,307,43,29,40,217,47,30,24,284,40*79
$GPGSV,3,3,09,31,15,314,,,,,,,,,,,,,*40
$GPGSA,M,3,02,09,12,25,29,30,,,,,,,2.7,1.4,2.4*3F
Trace #61 at position 15.000000
$GPZDA,083023.04,09,10,2011,00,00*62
$GPRMC,083023.00,A,4611.958328,N,01258.224738,E,001.1,342.5,091011,0.2,E,A*3C
$GPGGA,083024.00,4611.958703,N,01258.224510,E,1,06,1.4,141.00,M,46.25,M,,*6F
$GPGLL,4611.958703,N,01258.224510,E,083024.00,A,A*68
$GPVTG,333.55,25,68,307,43,29,40,217,47,30,24,284,40*79
$GPGSV,3,3,09,31,15,314,,,,,,,,,,,,,*40
$GPGSA,M,3,02,09,12,25,29,30,,,,,,,2.7,1.4,2.4*3F
Trace #62 at position 15.250000
$GPZDA,083023.04,09,10,2011,00,00*62
$GPRMC,083023.00,A,4611.958328,N,01258.224738,E,001.1,342.5,091011,0.2,E,A*3C
$GPGGA,083024.00,4611.958703,N,01258.224510,E,1,06,1.4,141.00,M,46.25,M,,*6F
$GPGLL,4611.958703,N,01258.224510,E,083024.00,A,A*68
$GPVTG,333.55,25,68,307,43,29,40,217,47,30,24,284,40*79
$GPGSV,3,3,09,31,15,314,,,,,,,,,,,,,*40
$GPGSA,M,3,02,09,12,25,29,30,,,,,,,2.7,1.4,2.4*3F
Trace #63 at position 15.500000
$GPZDA,083023.04,09,10,2011,00,00*62
$GPRMC,083023.00,A,4611.958328,N,01258.224738,E,001.1,342.5,091011,0.2,E,A*3C
$GPGGA,083024.00,4611.958703,N,01258.224510,E,1,06,1.4,141.00,M,46.25,M,,*6F
$GPGLL,4611.958703,N,01258.224510,E,083024.00,A,A*68
$GPVTG,333.55,25,68,307,43,29,40,217,47,30,24,284,40*79
$GPGSV,3,3,09,31,15,314,,,,,,,,,,,,,*40
$GPGSA,M,3,02,09,12,25,29,30,,,,,,,2.7,1.4,2.4*3F
Trace #64 at position 15.750000
$GPZDA,083024.04,09,10,2011,00,00*65
$GPRMC,083024.00,A,4611.958703,N,01258.224510,E,001.6,333.5,091011,0.2,E,A*3F
$GPGGA,083025.00,4611.959076,N,01258.224240,E,1,06,1.4,140.90,M,46.25,M,,*60
$GPGLL,4611.959076,N,01258.224240,E,083025.00,A,A*6F
$GPVTG,330.5,T,330.7,M,001.2,N,002.2,K,A*22
$GPGSV,3,1,09,02,37,092,44,04,19,046,38,09,30,148,42,12,66,061,41*7A
$GPGSV,3,2,3025.04,09,10,2011,00,00*64
$GPRMC,083025.00,A,4611.959076,N,01258.224240,E,001.2,330.5,091011,0.2,E,A*3F
$GPGGA,083026.00,4611.959400,N,01258.224053,E,1,07,1.3,141.01,M,46.25,M,,*69
$GPGLL,4611.959400,N,01258.224053,E,083026.00,A,A*69
$GPVTG,336.3,T,336.4,M,001.3,N,002.3,K,A*27
$GPGSV,3,1,09,02,37,092,44,04,18,046,38,09,30,148,43,12,66,061,41*7A
$GPGSV,3,2,09,14,34,265,39,25,68,307,43,29,41,217,47,30,24,284,37*74
$GPGSV,3,3,09,31,15,314,,,,,,,,,,,,,*40
$GPGSA,M,3,02,09,12,14,25,29,30,,,,,,2.7,1.3,2$GPGGA,083027.00,4611.959765,N,01258.224022,E,1,07,1.3,141.00,M,46.25,M,,*6F
Trace #65 at position 16.000000
$GPZDA,083024.04,09,10,2011,00,00*65
$GPRMC,083024.00,A,4611.958703,N,01258.224510,E,001.6,333.5,091011,0.2,E,A*3F
$GPGGA,083025.00,4611.959076,N,01258.224240,E,1,06,1.4,140.90,M,46.25,M,,*60
$GPGLL,4611.959076,N,01258.224240,E,083025.00,A,A*6F
$GPVTG,330.5,T,330.7,M,001.2,N,002.2,K,A*22
$GPGSV,3,1,09,02,37,092,44,04,19,046,38,09,30,148,42,12,66,061,41*7A
$GPGSV,3,2,3025.04,09,10,2011,00,00*64
$GPRMC,083025.00,A,4611.959076,N,01258.224240,E,001.2,330.5,091011,0.2,E,A*3F
$GPGGA,083026.00,4611.959400,N,01258.224053,E,1,07,1.3,141.01,M,46.25,M,,*69
$GPGLL,4611.959400,N,01258.224053,E,083026.00,A,A*69
$GPVTG,336.3,T,336.4,M,001.3,N,002.3,K,A*27
$GPGSV,3,1,09,02,37,092,44,04,18,046,38,09,30,148,43,12,66,061,41*7A
$GPGSV,3,2,09,14,34,265,39,25,68,307,43,29,41,217,47,30,24,284,37*74
$GPGSV,3,3,09,31,15,314,,,,,,,,,,,,,*40
$GPGSA,M,3,02,09,12,14,25,29,30,,,,,,2.7,1.3,2$GPGGA,083027.00,4611.959765,N,01258.224022,E,1,07,1.3,141.00,M,46.25,M,,*6F
Trace #66 at position 16.250000
$GPGLL,4611.959765,N,01258.224022,E,083027.00,A,A*6E
$GPVTG,10.4,T,10.6,M,001.4,N,002.6,K,A*20
$GPGSV,3,1,09,02,37,092,44,04,18,046,37,09,30,148,42,12,66,061,41*74
$GPGSV,3,2,09,14,34,265,40,25,68,307,43,29,41,217,47,30,24,284,38*75
$GPGSV,3,3,09,31,15,314,,,,,,,,,,,,,*40
$GPGSA,M,3,02,09,12,14,25,29,30,,,,,,2.7,1.3,2.4*3D
Trace #67 at position 16.500000
$GPGLL,4611.959765,N,01258.224022,E,083027.00,A,A*6E
$GPVTG,10.4,T,10.6,M,001.4,N,002.6,K,A*20
$GPGSV,3,1,09,02,37,092,44,04,18,046,37,09,30,148,42,12,66,061,41*74
$GPGSV,3,2,09,14,34,265,40,25,68,307,43,29,41,217,47,30,24,284,38*75
$GPGSV,3,3,09,31,15,314,,,,,,,,,,,,,*40
$GPGSA,M,3,02,09,12,14,25,29,30,,,,,,2.7,1.3,2.4*3D
Trace #68 at position 16.750000
$GPGLL,4611.959765,N,01258.224022,E,083027.00,A,A*6E
$GPVTG,10.4,T,10.6,M,001.4,N,002.6,K,A*20
$GPGSV,3,1,09,02,37,092,44,04,18,046,37,09,30,148,42,12,66,061,41*74
$GPGSV,3,2,09,14,34,265,40,25,68,307,43,29,41,217,47,30,24,284,38*75
$GPGSV,3,3,09,31,15,314,,,,,,,,,,,,,*40
$GPGSA,M,3,02,09,12,14,25,29,30,,,,,,2.7,1.3,2.4*3D
Trace #69 at position 17.000000
$GPZDA,083027.04,09,10,2011,00,00*66
$GPRMC,083027.00,A,4611.959765,N,01258.224022,E,001.4,10.4,091011$GPGGA,083028.00,4611.960178,N,01258.223983,E,1,08,1.0,140.93,M,46.25,M,,*62
$GPGLL,4611.960178,N,01258.223983,E,083028.00,A,A*64
$GPVTG,342.1,T,342.3,M,001.5,N,002.8,K,A*2F
$GPGSV,3,1,09,02,37,092,44,04,18,046,40,09,30,148,41,12,66,061,43*75
$GPGSV,3,2,09,14,34,265,38,25,68,307,42,29,41,217,47,30,24,284,36*75
$GPGSV,3,3,09,31,15,314,,,,,,,,,,,,,*40
$GPGSA,M,3,02,04,09,12,14,25,29,30,,,,,2.0,1.0,1.7*3D
Trace #70 at position 17.250000
$GPZDA,083027.04,09,10,2011,00,00*66
$GPRMC,083027.00,A,4611.959765,N,01258.224022,E,001.4,10.4,091011$GPGGA,083028.00,4611.960178,N,01258.223983,E,1,08,1.0,140.93,M,46.25,M,,*62
$GPGLL,4611.960178,N,01258.223983,E,083028.00,A,A*64
$GPVTG,342.1,T,342.3,M,001.5,N,002.8,K,A*2F
$GPGSV,3,1,09,02,37,092,44,04,18,046,40,09,30,148,41,12,66,061,43*75
$GPGSV,3,2,09,14,34,265,38,25,68,307,42,29,41,217,47,30,24,284,36*75
$GPGSV,3,3,09,31,15,314,,,,,,,,,,,,,*40
$GPGSA,M,3,02,04,09,12,14,25,29,30,,,,,2.0,1.0,1.7*3D
Trace #71 at position 17.500000
$GPZDA,083027.04,09,10,2011,00,00*66
$GPRMC,083027.00,A,4611.959765,N,01258.224022,E,001.4,10.4,091011$GPGGA,083028.00,4611.960178,N,01258.223983,E,1,08,1.0,140.93,M,46.25,M,,*62
$GPGLL,4611.960178,N,01258.223983,E,083028.00,A,A*64
$GPVTG,342.1,T,342.3,M,001.5,N,002.8,K,A*2F
$GPGSV,3,1,09,02,37,092,44,04,18,046,40,09,30,148,41,12,66,061,43*75
$GPGSV,3,2,09,14,34,265,38,25,68,307,42,29,41,217,47,30,24,284,36*75
$GPGSV,3,3,09,31,15,314,,,,,,,,,,,,,*40
$GPGSA,M,3,02,04,09,12,14,25,29,30,,,,,2.0,1.0,1.7*3D
Trace #72 at position 17.750000
$GPZDA,083027.04,09,10,2011,00,00*66
$GPRMC,083027.00,A,4611.959765,N,01258.224022,E,001.4,10.4,091011$GPGGA,083028.00,4611.960178,N,01258.223983,E,1,08,1.0,140.93,M,46.25,M,,*62
$GPGLL,4611.960178,N,01258.223983,E,083028.00,A,A*64
$GPVTG,342.1,T,342.3,M,001.5,N,002.8,K,A*2F
$GPGSV,3,1,09,02,37,092,44,04,18,046,40,09,30,148,41,12,66,061,43*75
$GPGSV,3,2,09,14,34,265,38,25,68,307,42,29,41,217,47,30,24,284,36*75
$GPGSV,3,3,09,31,15,314,,,,,,,,,,,,,*40
$GPGSA,M,3,02,04,09,12,14,25,29,30,,,,,2.0,1.0,1.7*3D
Trace #73 at position 18.000000
$GPZDA,083028.04,09,10,2011,00,00*69
$GPRMC,083028.00,A,4611.960178,N,01258.223983,E,001.5,342.1,0$GPGGA,083029.00,4611.960595,N,01258.223860,E,1,07,1.1,140.99,M,46.25,M,,*6C
$GPGLL,4611.960595,N,01258.223860,E,083029.00,A,A*6E
$GPVTG,350.5,T,350.7,M,001.5,N,002.8,K,A*2F
$GPGSV,3,1,09,02,37,092,44,04,18,046,41,09,30,148,42,12,66,061,43*77
$GPGSV,3,2,09,14,34,265,39,25,68,307,40,29,41,217,46,30,24,284,28*78
$GPGSV,3,3,09,31,15,314,,,,,,,,,,,,,*40
$GPGSA,M,3,02,04,09,12,14,25,29,,,,,,2.3,1.1,2.0*38
Trace #74 at position 18.250000
$GPZDA,083028.04,09,10,2011,00,00*69
$GPRMC,083028.00,A,4611.960178,N,01258.223983,E,001.5,342.1,0$GPGGA,083029.00,4611.960595,N,01258.223860,E,1,07,1.1,140.99,M,46.25,M,,*6C
$GPGLL,4611.960595,N,01258.223860,E,083029.00,A,A*6E
$GPVTG,350.5,T,350.7,M,001.5,N,002.8,K,A*2F
$GPGSV,3,1,09,02,37,092,44,04,18,046,41,09,30,148,42,12,66,061,43*77
$GPGSV,3,2,09,14,34,265,39,25,68,307,40,29,41,217,46,30,24,284,28*78
$GPGSV,3,3,09,31,15,314,,,,,,,,,,,,,*40
$GPGSA,M,3,02,04,09,12,14,25,29,,,,,,2.3,1.1,2.0*38
Trace #75 at position 18.500000
$GPZDA,083028.04,09,10,2011,00,00*69
$GPRMC,083028.00,A,4611.960178,N,01258.223983,E,001.5,342.1,0$GPGGA,083029.00,4611.960595,N,01258.223860,E,1,07,1.1,140.99,M,46.25,M,,*6C
$GPGLL,4611.960595,N,01258.223860,E,083029.00,A,A*6E
$GPVTG,350.5,T,350.7,M,001.5,N,002.8,K,A*2F
$GPGSV,3,1,09,02,37,092,44,04,18,046,41,09,30,148,42,12,66,061,43*77
$GPGSV,3,2,09,14,34,265,39,25,68,307,40,29,41,217,46,30,24,284,28*78
$GPGSV,3,3,09,31,15,314,,,,,,,,,,,,,*40
$GPGSA,M,3,02,04,09,12,14,25,29,,,,,,2.3,1.1,2.0*38
Trace #76 at position 18.750000
$GPZDA,083029.04,09,10,2011,00,00*68
$GPRMC,083029.00,A,4611.960595,N,01258.223860,E,001.5,350.5,091$GPGGA,083030.00,4611.961025,N,01258.223756,E,1,07,1.1,141.03,M,46.25,M,,*63
$GPGLL,4611.961025,N,01258.223756,E,083030.00,A,A*63
$GPVTG,348.7,T,348.9,M,001.6,N,002.9,K,A*21
$GPGSV,3,1,09,02,37,092,44,04,18,046,38,09,30,148,44,12,66,061,41*7D
$GPGSV,3,2,09,14,34,265,40,25,68,307,43,29,41,217,46,30,24,284,38*74
$GPGSV,3,3,09,31,15,314,,,,,,,,,,,,,*40
$GPGSA,M,3,02,04,09,12,14,25,29,,,,,,2.3,1.1,2.0*38
Trace #77 at position 19.000000
$GPZDA,083029.04,09,10,2011,00,00*68
$GPRMC,083029.00,A,4611.960595,N,01258.223860,E,001.5,350.5,091$GPGGA,083030.00,4611.961025,N,01258.223756,E,1,07,1.1,141.03,M,46.25,M,,*63
$GPGLL,4611.961025,N,01258.223756,E,083030.00,A,A*63
$GPVTG,348.7,T,348.9,M,001.6,N,002.9,K,A*21
$GPGSV,3,1,09,02,37,092,44,04,18,046,38,09,30,148,44,12,66,061,41*7D
$GPGSV,3,2,09,14,34,265,40,25,68,307,43,29,41,217,46,30,24,284,38*74
$GPGSV,3,3,09,31,15,314,,,,,,,,,,,,,*40
$GPGSA,M,3,02,04,09,12,14,25,29,,,,,,2.3,1.1,2.0*38
Trace #78 at position 19.250000
$GPZDA,083029.04,09,10,2011,00,00*68
$GPRMC,083029.00,A,4611.960595,N,01258.223860,E,001.5,350.5,091$GPGGA,083030.00,4611.961025,N,01258.223756,E,1,07,1.1,141.03,M,46.25,M,,*63
$GPGLL,4611.961025,N,01258.223756,E,083030.00,A,A*63
$GPVTG,348.7,T,348.9,M,001.6,N,002.9,K,A*21
$GPGSV,3,1,09,02,37,092,44,04,18,046,38,09,30,148,44,12,66,061,41*7D
$GPGSV,3,2,09,14,34,265,40,25,68,307,43,29,41,217,46,30,24,284,38*74
$GPGSV,3,3,09,31,15,314,,,,,,,,,,,,,*40
$GPGSA,M,3,02,04,09,12,14,25,29,,,,,,2.3,1.1,2.0*38
Trace #79 at position 19.500000
$GPZDA,083030.04,09,10,2011,00,00*60
$GPRMC,083030.00,A,4611.961025,N,01258.223756,E,001.6,348.7,0911258.223668,E,1,07,1.1,141.08,M,46.25,M,,*6B
$GPGLL,4611.961458,N,01258.223668,E,083031.00,A,A*60
$GPVTG,356.5,T,356.7,M,001.6,N,002.9,K,A*2D
$GPGSV,3,1,09,02,37,092,44,04,18,046,38,09,30,148,43,12,66,061,40*7B
$GPGSV,3,2,09,14,34,265,40,25,68,307,42,29,41,217,46,30,24,284,38*75
$GPGSV,3,3,09,31,15,314,,,,,,,,,,,,,*40
$GPGSA,M,3,02,04,09,12,14,25,29,,,,,,2.3,1.1,2.0*38
Trace #80 at position 19.750000
$GPZDA,083030.04,09,10,2011,00,00*60
$GPRMC,083030.00,A,4611.961025,N,01258.223756,E,001.6,348.7,0911258.223668,E,1,07,1.1,141.08,M,46.25,M,,*6B
$GPGLL,4611.961458,N,01258.223668,E,083031.00,A,A*60
$GPVTG,356.5,T,356.7,M,001.6,N,002.9,K,A*2D
$GPGSV,3,1,09,02,37,092,44,04,18,046,38,09,30,148,43,12,66,061,40*7B
$GPGSV,3,2,09,14,34,265,40,25,68,307,42,29,41,217,46,30,24,284,38*75
$GPGSV,3,3,09,31,15,314,,,,,,,,,,,,,*40
$GPGSA,M,3,02,04,09,12,14,25,29,,,,,,2.3,1.1,2.0*38
Trace #81 at position 20.000000
$GPZDA,083030.04,09,10,2011,00,00*60
$GPRMC,083030.00,A,4611.961025,N,01258.223756,E,001.6,348.7,0911258.223668,E,1,07,1.1,141.08,M,46.25,M,,*6B
$GPGLL,4611.961458,N,01258.223668,E,083031.00,A,A*60
$GPVTG,356.5,T,356.7,M,001.6,N,002.9,K,A*2D
$GPGSV,3,1,09,02,37,092,44,04,18,046,38,09,30,148,43,12,66,061,40*7B
$GPGSV,3,2,09,14,34,265,40,25,68,307,42,29,41,217,46,30,24,284,38*75
$GPGSV,3,3,09,31,15,314,,,,,,,,,,,,,*40
$GPGSA,M,3,02,04,09,12,14,25,29,,,,,,2.3,1.1,2.0*38
Trace #82 at position 20.250000
$GPZDA,083031.04,09,10,2011,00,00*61
$GPRMC,083031.00,A,4611.961458,N,01258.223668,E,001.6,356.5,091011,0.2,E,A*34
$GPGGA,083032.00PGLL,4611.961857,N,01258.223643,E,083032.00,A,A*69
$GPVTG,4.4,T,4.5,M,001.3,N,002.5,K,A*27
$GPGSV,3,1,09,02,37,092,44,04,18,046,38,09,30,148,43,12,66,061,42*79
$GPGSV,3,2,09,14,34,265,40,25,68,307,41,29,41,217,46,30,24,284,38*76
$GPGSV,3,3,09,31,15,314,,,,,,,,,,,,,*40
$GPGSA,M,3,02,04,09,12,14,25,29,,,,,,2.3,1.1,2.0*38
Trace #83 at position 20.500000
$GPZDA,083031.04,09,10,2011,00,00*61
$GPRMC,083031.00,A,4611.961458,N,01258.223668,E,001.6,356.5,091011,0.2,E,A*34
$GPGGA,083032.00PGLL,4611.961857,N,01258.223643,E,083032.00,A,A*69
$GPVTG,4.4,T,4.5,M,001.3,N,002.5,K,A*27
$GPGSV,3,1,09,02,37,092,44,04,18,046,38,09,30,148,43,12,66,061,42*79
$GPGSV,3,2,09,14,34,265,40,25,68,307,41,29,41,217,46,30,24,284,38*76
$GPGSV,3,3,09,31,15,314,,,,,,,,,,,,,*40
$GPGSA,M,3,02,04,09,12,14,25,29,,,,,,2.3,1.1,2.0*38
Trace #84 at position 20.750000
$GPZDA,083031.04,09,10,2011,00,00*61
$GPRMC,083031.00,A,4611.961458,N,01258.223668,E,001.6,356.5,091011,0.2,E,A*34
$GPGGA,083032.00PGLL,4611.961857,N,01258.223643,E,083032.00,A,A*69
$GPVTG,4.4,T,4.5,M,001.3,N,002.5,K,A*27
$GPGSV,3,1,09,02,37,092,44,04,18,046,38,09,30,148,43,12,66,061,42*79
$GPGSV,3,2,09,14,34,265,40,25,68,307,41,29,41,217,46,30,24,284,38*76
$GPGSV,3,3,09,31,15,314,,,,,,,,,,,,,*40
$GPGSA,M,3,02,04,09,12,14,25,29,,,,,,2.3,1.1,2.0*38
Trace #85 at position 21.000000
$GPZDA,083032.04,09,10,2011,00,00*62
$GPRMC,083032.00,A,4611.961857,N,01258.223643,E,001.3,4.4,091011,0.2,E,A*3D
$GPGGA,083033.00,4611.962202,N,01258.223423,E,1,07,1.1,141.10,M,46.25,V,3,1,09,02,37,092,44,04,18,046,38,09,30,148,42,12,66,061,42*78
$GPGSV,3,2,09,14,34,265,40,25,68,307,44,29,41,217,47,30,24,284,36*7C
$GPGSV,3,3,09,31,15,314,,,,,,,,,,,,,*40
$GPGSA,M,3,02,04,09,12,14,25,29,,,,,,2.3,1.1,2.0*38
Trace #86 at position 21.250000
$GPZDA,083032.04,09,10,2011,00,00*62
$GPRMC,083032.00,A,4611.961857,N,01258.223643,E,001.3,4.4,091011,0.2,E,A*3D
$GPGGA,083033.00,4611.962202,N,01258.223423,E,1,07,1.1,141.10,M,46.25,V,3,1,09,02,37,092,44,04,18,046,38,09,30,148,42,12,66,061,42*78
$GPGSV,3,2,09,14,34,265,40,25,68,307,44,29,41,217,47,30,24,284,36*7C
$GPGSV,3,3,09,31,15,314,,,,,,,,,,,,,*40
$GPGSA,M,3,02,04,09,12,14,25,29,,,,,,2.3,1.1,2.0*38
Trace #87 at position 21.500000
$GPZDA,083032.04,09,10,2011,00,00*62
$GPRMC,083032.00,A,4611.961857,N,01258.223643,E,001.3,4.4,091011,0.2,E,A*3D
$GPGGA,083033.00,4611.962202,N,01258.223423,E,1,07,1.1,141.10,M,46.25,V,3,1,09,02,37,092,44,04,18,046,38,09,30,148,42,12,66,061,42*78
$GPGSV,3,2,09,14,34,265,40,25,68,307,44,29,41,217,47,30,24,284,36*7C
$GPGSV,3,3,09,31,15,314,,,,,,,,,,,,,*40
$GPGSA,M,3,02,04,09,12,14,25,29,,,,,,2.3,1.1,2.0*38
Trace #88 at position 21.750000
$GPZDA,083033.04,09,10,2011,00,00*63
$GPRMC,083033.00,A,4611.962202,N,01258.223423,E,001.6,315.2,091011,0.2,E,A*31
$GPGGA,083034.00,4611.962512,N,01258.223164,E,1,07,1.1,141.22,M,46.25,M,,*61
$GPGLL,4611.962512,N,01258.223164,E,083034.00,A,A*62
$GPVTG,349.8,T,349.9,M,001.0,N,001,,,,,,,,,,,*40
$GPGSA,M,3,02,04,09,12,14,25,29,,,,,,2.3,1.1,2.0*38
Trace #89 at position 22.000000
$GPZDA,083033.04,09,10,2011,00,00*63
$GPRMC,083033.00,A,4611.962202,N,01258.223423,E,001.6,315.2,091011,0.2,E,A*31
$GPGGA,083034.00,4611.962512,N,01258.223164,E,1,07,1.1,141.22,M,46.25,M,,*61
$GPGLL,4611.962512,N,01258.223164,E,083034.00,A,A*62
$GPVTG,349.8,T,349.9,M,001.0,N,001,,,,,,,,,,,*40
$GPGSA,M,3,02,04,09,12,14,25,29,,,,,,2.3,1.1,2.0*38
Trace #90 at position 22.250000
$GPZDA,083033.04,09,10,2011,00,00*63
$GPRMC,083033.00,A,4611.962202,N,01258.223423,E,001.6,315.2,091011,0.2,E,A*31
$GPGGA,083034.00,4611.962512,N,01258.223164,E,1,07,1.1,141.22,M,46.25,M,,*61
$GPGLL,4611.962512,N,01258.223164,E,083034.00,A,A*62
$GPVTG,349.8,T,349.9,M,001.0,N,001,,,,,,,,,,,*40
$GPGSA,M,3,02,04,09,12,14,25,29,,,,,,2.3,1.1,2.0*38
Trace #91 at position 22.500000
$GPZDA,083033.04,09,10,2011,00,00*63
$GPRMC,083033.00,A,4611.962202,N,01258.223423,E,001.6,315.2,091011,0.2,E,A*31
$GPGGA,083034.00,4611.962512,N,01258.223164,E,1,07,1.1,141.22,M,46.25,M,,*61
$GPGLL,4611.962512,N,01258.223164,E,083034.00,A,A*62
$GPVTG,349.8,T,349.9,M,001.0,N,001,,,,,,,,,,,*40
$GPGSA,M,3,02,04,09,12,14,25,29,,,,,,2.3,1.1,2.0*38
Trace #92 at position 22.750000
$GPZDA,083033.04,09,10,2011,00,00*63
$GPRMC,083033.00,A,4611.962202,N,01258.223423,E,001.6,315.2,091011,0.2,E,A*31
$GPGGA,083034.00,4611.962512,N,01258.223164,E,1,07,1.1,141.22,M,46.25,M,,*61
$GPGLL,4611.962512,N,01258.223164,E,083034.00,A,A*62
$GPVTG,349.8,T,349.9,M,001.0,N,001,,,,,,,,,,,*40
$GPGSA,M,3,02,04,09,12,14,25,29,,,,,,2.3,1.1,2.0*38
Trace #93 at position 23.000000
$GPZDA,083033.04,09,10,2011,00,00*63
$GPRMC,083033.00,A,4611.962202,N,01258.223423,E,001.6,315.2,091011,0.2,E,A*31
$GPGGA,083034.00,4611.962512,N,01258.223164,E,1,07,1.1,141.22,M,46.25,M,,*61
$GPGLL,4611.962512,N,01258.223164,E,083034.00,A,A*62
$GPVTG,349.8,T,349.9,M,001.0,N,001,,,,,,,,,,,*40
$GPGSA,M,3,02,04,09,12,14,25,29,,,,,,2.3,1.1,2.0*38
Trace #94 at position 23.250000
$GPZDA,083034.04,09,10,2011,00,00*64
$GPRMC,083034.00,A,4611.962512,N,01258.223164,E,001.0,349.8,091011,0.2,E,A*33
$GPGGA,083035.00,4611.962858,N,01258.222993,E,1,07,1.1,141.23,M,46.25,M,,*63
$GPGLL,4611.962858,N,01258.222993,E,083035.00,A,A*61
$GPVTG,333.9,T,334.1,M,001.5,N,002.8,K,A*22
$GPGSV,3,1,09,02,37,092,45,04,18,046,36,09,30,148,44,12,66,061,43*70
$GPGSV,3,2,09,14,34,265,39,25,68,307,42,29,41,217,48,30,24,284,37*7A
$GPGSV,3,C,083035.00,A,4611.962858,N,01258.222993,E,001.5,333.9,091011,0.2,E,A*39
$GPGGA,083036.00,4611.963243,N,01258.222873,E,1,07,1.1,141.19,M,46.25,M,,*67
$GPGLL,4611.963243,N,01258.222873,E,083036.00,A,A*6C
$GPVTG,3.7,T,3.9,M,001.3,N,002.4,K,A*29
$GPGSV,3,1,09,02,37,092,44,04,18,046,38,09,30,148,43,12,66,061,42*79
$GPGSV,3,2,09,14,34,265,39,25,68,307,44,29,41,217,47,30,24,284,38*7C
$GPGSV,3,3,09,31,15,314,,,,,,,,,,,,,*40
$GPGSA,M,3,02,04,09,12,14,25,29,,,,,,2.3,1.1,2.0*38
Trace #95 at position 23.500000
$GPZDA,083034.04,09,10,2011,00,00*64
$GPRMC,083034.00,A,4611.962512,N,01258.223164,E,001.0,349.8,091011,0.2,E,A*33
$GPGGA,083035.00,4611.962858,N,01258.222993,E,1,07,1.1,141.23,M,46.25,M,,*63
$GPGLL,4611.962858,N,01258.222993,E,083035.00,A,A*61
$GPVTG,333.9,T,334.1,M,001.5,N,002.8,K,A*22
$GPGSV,3,1,09,02,37,092,45,04,18,046,36,09,30,148,44,12,66,061,43*70
$GPGSV,3,2,09,14,34,265,39,25,68,307,42,29,41,217,48,30,24,284,37*7A
$GPGSV,3,C,083035.00,A,4611.962858,N,01258.222993,E,001.5,333.9,091011,0.2,E,A*39
$GPGGA,083036.00,4611.963243,N,01258.222873,E,1,07,1.1,141.19,M,46.25,M,,*67
$GPGLL,4611.963243,N,01258.222873,E,083036.00,A,A*6C
$GPVTG,3.7,T,3.9,M,001.3,N,002.4,K,A*29
$GPGSV,3,1,09,02,37,092,44,04,18,046,38,09,30,148,43,12,66,061,42*79
$GPGSV,3,2,09,14,34,265,39,25,68,307,44,29,41,217,47,30,24,284,38*7C
$GPGSV,3,3,09,31,15,314,,,,,,,,,,,,,*40
$GPGSA,M,3,02,04,09,12,14,25,29,,,,,,2.3,1.1,2.0*38
Trace #96 at position 23.750000
$GPZDA,083034.04,09,10,2011,00,00*64
$GPRMC,083034.00,A,4611.962512,N,01258.223164,E,001.0,349.8,091011,0.2,E,A*33
$GPGGA,083035.00,4611.962858,N,01258.222993,E,1,07,1.1,141.23,M,46.25,M,,*63
$GPGLL,4611.962858,N,01258.222993,E,083035.00,A,A*61
$GPVTG,333.9,T,334.1,M,001.5,N,002.8,K,A*22
$GPGSV,3,1,09,02,37,092,45,04,18,046,36,09,30,148,44,12,66,061,43*70
$GPGSV,3,2,09,14,34,265,39,25,68,307,42,29,41,217,48,30,24,284,37*7A
$GPGSV,3,C,083035.00,A,4611.962858,N,01258.222993,E,001.5,333.9,091011,0.2,E,A*39
$GPGGA,083036.00,4611.963243,N,01258.222873,E,1,07,1.1,141.19,M,46.25,M,,*67
$GPGLL,4611.963243,N,01258.222873,E,083036.00,A,A*6C
$GPVTG,3.7,T,3.9,M,001.3,N,002.4,K,A*29
$GPGSV,3,1,09,02,37,092,44,04,18,046,38,09,30,148,43,12,66,061,42*79
$GPGSV,3,2,09,14,34,265,39,25,68,307,44,29,41,217,47,30,24,284,38*7C
$GPGSV,3,3,09,31,15,314,,,,,,,,,,,,,*40
$GPGSA,M,3,02,04,09,12,14,25,29,,,,,,2.3,1.1,2.0*38
Trace #97 at position 24.000000
$GPZDA,083036.04,09,10,2011,00,3C
$GPGGA,083037.00,4611.963546,N,01258.222750,E,1,07,1.1,141.31,M,46.25,M,,*60
$GPGLL,4611.963546,N,01258.222750,E,083037.00,A,A*61
$GPVTG,318.1,T,318.3,M,001.0,N,001.8,K,A*29
$GPGSV,3,1,09,02,37,092,45,04,18,046,39,09,30,148,45,12,66,061,42*7F
$GPGSV,3,2,09,14,34,265,39,25,68,307,43,29,41,217,47,30,24,284,38*7B
$GPGSV,3,3,09,31,15,314,,,,,,,,,,,,,*40
$GPGSA,M,3,02,04,09,12,14,25,29,,,,,,2.3,1.1,2.0*38
Trace #98 at position 24.250000
$GPZDA,083036.04,09,10,2011,00,3C
$GPGGA,083037.00,4611.963546,N,01258.222750,E,1,07,1.1,141.31,M,46.25,M,,*60
$GPGLL,4611.963546,N,01258.222750,E,083037.00,A,A*61
$GPVTG,318.1,T,318.3,M,001.0,N,001.8,K,A*29
$GPGSV,3,1,09,02,37,092,45,04,18,046,39,09,30,148,45,12,66,061,42*7F
$GPGSV,3,2,09,14,34,265,39,25,68,307,43,29,41,217,47,30,24,284,38*7B
$GPGSV,3,3,09,31,15,314,,,,,,,,,,,,,*40
$GPGSA,M,3,02,04,09,12,14,25,29,,,,,,2.3,1.1,2.0*38
Trace #99 at position 24.500000
$GPZDA,083036.04,09,10,2011,00,3C
$GPGGA,083037.00,4611.963546,N,01258.222750,E,1,07,1.1,141.31,M,46.25,M,,*60
$GPGLL,4611.963546,N,01258.222750,E,083037.00,A,A*61
$GPVTG,318.1,T,318.3,M,001.0,N,001.8,K,A*29
$GPGSV,3,1,09,02,37,092,45,04,18,046,39,09,30,148,45,12,66,061,42*7F
$GPGSV,3,2,09,14,34,265,39,25,68,307,43,29,41,217,47,30,24,284,38*7B
$GPGSV,3,3,09,31,15,314,,,,,,,,,,,,,*40
$GPGSA,M,3,02,04,09,12,14,25,29,,,,,,2.3,1.1,2.0*38
Trace #100 at position 24.750000
$GPZDA,083036.04,09,10,2011,00,3C
$GPGGA,083037.00,4611.963546,N,01258.222750,E,1,07,1.1,141.31,M,46.25,M,,*60
$GPGLL,4611.963546,N,01258.222750,E,083037.00,A,A*61
$GPVTG,318.1,T,318.3,M,001.0,N,001.8,K,A*29
$GPGSV,3,1,09,02,37,092,45,04,18,046,39,09,30,148,45,12,66,061,42*7F
$GPGSV,3,2,09,14,34,265,39,25,68,307,43,29,41,217,47,30,24,284,38*7B
$GPGSV,3,3,09,31,15,314,,,,,,,,,,,,,*40
$GPGSA,M,3,02,04,09,12,14,25,29,,,,,,2.3,1.1,2.0*38
Trace #101 at position 25.000000
$GPZDA,083040.04,09,10,2011,00,00*67
$GPRMC,083040.00,A,4611.964750,N,01258.222059,E,001.5,328.1,091$GPGGA,083041.00,4611.965169,N,01258.221817,E,1,07,1.1,141.30,M,46.25,M,,*60
$GPGLL,4611.965169,N,01258.221817,E,083041.00,A,A*60
$GPVTG,341.2,T,341.3,M,001.6,N,003.0,K,A*26
$GPGSV,3,1,09,02,37,092,44,04,18,046,38,09,30,148,42,12,66,061,43*79
$GPGSV,3,2,09,14,34,265,40,25,69,307,41,29,41,217,47,30,24,284,37*79
$GPGSV,3,3,09,31,15,314,,,,,,,,,,,,,*40
$GPGSA,M,3,02,04,09,12,14,25,29,,,,,,2.3,1.1,2.0*38
Trace #102 at position 25.250000
$GPZDA,083040.04,09,10,2011,00,00*67
$GPRMC,083040.00,A,4611.964750,N,01258.222059,E,001.5,328.1,091$GPGGA,083041.00,4611.965169,N,01258.221817,E,1,07,1.1,141.30,M,46.25,M,,*60
$GPGLL,4611.965169,N,01258.221817,E,083041.00,A,A*60
$GPVTG,341.2,T,341.3,M,001.6,N,003.0,K,A*26
$GPGSV,3,1,09,02,37,092,44,04,18,046,38,09,30,148,42,12,66,061,43*79
$GPGSV,3,2,09,14,34,265,40,25,69,307,41,29,41,217,47,30,24,284,37*79
$GPGSV,3,3,09,31,15,314,,,,,,,,,,,,,*40
$GPGSA,M,3,02,04,09,12,14,25,29,,,,,,2.3,1.1,2.0*38
Trace #103 at position 25.500000
$GPZDA,083041.04,09,10,2011,00,00*66
$GPRMC,083041.00,A,4611.965169,N,01258.221817,E,001.6,341.2,091$GPGGA,083042.00,4611.965660,N,01258.221752,E,1,07,1.1,141.14,M,46.25,M,,*65
$GPGLL,4611.965660,N,01258.221752,E,083042.00,A,A*63
$GPVTG,4.5,T,4.7,M,001.9,N,003.5,K,A*2F
$GPGSV,3,1,09,02,37,092,44,04,18,046,39,09,30,148,43,12,66,061,43*79
$GPGSV,3,2,09,14,34,265,38,25,69,307,41,29,41,217,46,30,24,284,37*77
$GPGSV,3,3,09,31,15,314,,,,,,,,,,,,,*40
$GPGSA,M,3,02,04,09,12,14,25,29,,,,,,2.3,1.1,2.0*38
Trace #104 at position 25.750000
$GPZDA,083041.04,09,10,2011,00,00*66
$GPRMC,083041.00,A,4611.965169,N,01258.221817,E,001.6,341.2,091$GPGGA,083042.00,4611.965660,N,01258.221752,E,1,07,1.1,141.14,M,46.25,M,,*65
$GPGLL,4611.965660,N,01258.221752,E,083042.00,A,A*63
$GPVTG,4.5,T,4.7,M,001.9,N,003.5,K,A*2F
$GPGSV,3,1,09,02,37,092,44,04,18,046,39,09,30,148,43,12,66,061,43*79
$GPGSV,3,2,09,14,34,265,38,25,69,307,41,29,41,217,46,30,24,284,37*77
$GPGSV,3,3,09,31,15,314,,,,,,,,,,,,,*40
$GPGSA,M,3,02,04,09,12,14,25,29,,,,,,2.3,1.1,2.0*38
Trace #105 at position 26.000000
$GPZDA,083041.04,09,10,2011,00,00*66
$GPRMC,083041.00,A,4611.965169,N,01258.221817,E,001.6,341.2,091$GPGGA,083042.00,4611.965660,N,01258.221752,E,1,07,1.1,141.14,M,46.25,M,,*65
$GPGLL,4611.965660,N,01258.221752,E,083042.00,A,A*63
$GPVTG,4.5,T,4.7,M,001.9,N,003.5,K,A*2F
$GPGSV,3,1,09,02,37,092,44,04,18,046,39,09,30,148,43,12,66,061,43*79
$GPGSV,3,2,09,14,34,265,38,25,69,307,41,29,41,217,46,30,24,284,37*77
$GPGSV,3,3,09,31,15,314,,,,,,,,,,,,,*40
$GPGSA,M,3,02,04,09,12,14,25,29,,,,,,2.3,1.1,2.0*38
Trace #106 at position 26.250000
$GPZDA,083042.04,09,10,2011,00,00*65
$GPRMC,083042.00,A,4611.965660,N,01258.221752,E,001.9,4.5,091011,0.$GPGGA,083043.00,4611.966076,N,01258.221501,E,1,07,1.1,141.12,M,46.25,M,,*64
$GPGLL,4611.966076,N,01258.221501,E,083043.00,A,A*64
$GPVTG,304.8,T,304.9,M,001.7,N,003.2,K,A*25
$GPGSV,3,1,09,02,37,092,43,04,18,046,40,09,30,148,43,12,66,061,42*71
$GPGSV,3,2,09,14,34,265,40,25,69,307,41,29,41,217,46,30,24,284,36*79
$GPGSV,3,3,09,31,15,314,,,,,,,,,,,,,*40
$GPGSA,M,3,02,04,09,12,14,25,29,,,,,,2.3,1.1,2.0*38
Trace #107 at position 26.500000
$GPZDA,083042.04,09,10,2011,00,00*65
$GPRMC,083042.00,A,4611.965660,N,01258.221752,E,001.9,4.5,091011,0.$GPGGA,083043.00,4611.966076,N,01258.221501,E,1,07,1.1,141.12,M,46.25,M,,*64
$GPGLL,4611.966076,N,01258.221501,E,083043.00,A,A*64
$GPVTG,304.8,T,304.9,M,001.7,N,003.2,K,A*25
$GPGSV,3,1,09,02,37,092,43,04,18,046,40,09,30,148,43,12,66,061,42*71
$GPGSV,3,2,09,14,34,265,40,25,69,307,41,29,41,217,46,30,24,284,36*79
$GPGSV,3,3,09,31,15,314,,,,,,,,,,,,,*40
$GPGSA,M,3,02,04,09,12,14,25,29,,,,,,2.3,1.1,2.0*38
Trace #108 at position 26.750000
$GPZDA,083042.04,09,10,2011,00,00*65
$GPRMC,083042.00,A,4611.965660,N,01258.221752,E,001.9,4.5,091011,0.$GPGGA,083043.00,4611.966076,N,01258.221501,E,1,07,1.1,141.12,M,46.25,M,,*64
$GPGLL,4611.966076,N,01258.221501,E,083043.00,A,A*64
$GPVTG,304.8,T,304.9,M,001.7,N,003.2,K,A*25
$GPGSV,3,1,09,02,37,092,43,04,18,046,40,09,30,148,43,12,66,061,42*71
$GPGSV,3,2,09,14,34,265,40,25,69,307,41,29,41,217,46,30,24,284,36*79
$GPGSV,3,3,09,31,15,314,,,,,,,,,,,,,*40
$GPGSA,M,3,02,04,09,12,14,25,29,,,,,,2.3,1.1,2.0*38
Trace #109 at position 27.000000
$GPZDA,083043.04,09,10,2011,00,00*64
$GPRMC,083043.00,A,4611.966076,N,01258.221501,E,001.7,304.8,09146.25,M,,*67
$GPGLL,4611.966431,N,01258.221148,E,083044.00,A,A*6D
$GPVTG,339.3,T,339.5,M,001.5,N,002.8,K,A*2B
$GPGSV,3,1,09,02,37,092,44,04,18,046,39,09,30,148,42,12,66,061,42*79
$GPGSV,3,2,09,14,34,265,39,25,69,307,42,29,41,217,46,30,24,284,35*77
$GPGSV,3,3,09,31,15,314,31,,,,,,,,,,,,*42
$GPGSA,M,3,02,04,09,12,14,25,29,,,,,,2.3,1.1,2.0*38
Trace #110 at position 27.250000
$GPZDA,083043.04,09,10,2011,00,00*64
$GPRMC,083043.00,A,4611.966076,N,01258.221501,E,001.7,304.8,09146.25,M,,*67
$GPGLL,4611.966431,N,01258.221148,E,083044.00,A,A*6D
$GPVTG,339.3,T,339.5,M,001.5,N,002.8,K,A*2B
$GPGSV,3,1,09,02,37,092,44,04,18,046,39,09,30,148,42,12,66,061,42*79
$GPGSV,3,2,09,14,34,265,39,25,69,307,42,29,41,217,46,30,24,284,35*77
$GPGSV,3,3,09,31,15,314,31,,,,,,,,,,,,*42
$GPGSA,M,3,02,04,09,12,14,25,29,,,,,,2.3,1.1,2.0*38
Trace #111 at position 27.500000
$GPZDA,083043.04,09,10,2011,00,00*64
$GPRMC,083043.00,A,4611.966076,N,01258.221501,E,001.7,304.8,09146.25,M,,*67
$GPGLL,4611.966431,N,01258.221148,E,083044.00,A,A*6D
$GPVTG,339.3,T,339.5,M,001.5,N,002.8,K,A*2B
$GPGSV,3,1,09,02,37,092,44,04,18,046,39,09,30,148,42,12,66,061,42*79
$GPGSV,3,2,09,14,34,265,39,25,69,307,42,29,41,217,46,30,24,284,35*77
$GPGSV,3,3,09,31,15,314,31,,,,,,,,,,,,*42
$GPGSA,M,3,02,04,09,12,14,25,29,,,,,,2.3,1.1,2.0*38
Trace #112 at position 27.750000
$GPZDA,083044.04,09,10,2011,00,00*63
