Trace #1 at position 0.000000
$GPZDA,092419.03,08,10,2011,00,00*69
$GPRMC,092419.00,A,4611.976647,N,01258.207680,E,000.1,169.5,081011,0.2,E,A*39
$GPGGA,092420.00,4611.976637,N,01258.207682,E,1,06,1.5,140.03,M,46.25,M,,*6F
$GPGLL,4611.976637,N,01258.207682,E,092420.00,A,A*6B
$GPVTG,303.9,T,304.1,M,000.0,N,000.0,K,A*2C
$GPGSV,2,1,07,02,36,065,42,12,48,089,37,14,20,243,43,25,79,035,48*73
$GPGSV,2,2,07,29,64,231,42,30,44,297,49,31,35,309,47,,,,*4E
$GPGSA,M,3,02,14,25,29,30,31,,,,,,,2.6,1.5,2.1*37
Trace #2 at position 0.250000
$GPZDA,092426.03,08,10,2011,00,00*65
$GPRMC,092426.00,A,4611.976624,N,01258.207704,E,000.0,184.4,081011,0.2,E,A*3E
$GPGGA,092427.00,4611.976581,N,01258.207677,E,1,05,2.7,140.09,M,46.25,M,,*64
$GPGLL,4611.976581,N,01258.207677,E,092427.00,A,A*68
$GPVTG,202.8,T,203.0,M,000.4,N,000.7,K,A*29
$GPGSV,2,1,07,02,36,065,45,12,48,089,25,14,20,243,31,25,79,035,48*72
$GPGSV,2,2,07,29,64,231,39,30,44,297,48,31,35,309,49,,,,*4D
$GPGSA,M,3,02,25,29,30,31,,,,,,,,5.0,2.7,4.2*37
Trace #3 at position 0.500000
$GPZDA,092428.04,08,10,2011,00,00*6C
$GPRMC,092428.00,A,4611.976568,N,01258.207657,E,000.1,5.8,081011,0.2,E,A*39
$GPGGA,092429.00,4611.976558,N,01258.207664,E,1,06,1.5,140.12,M,46.25,M,,*64
$GPGLL,4611.976558,N,01258.207664,E,092429.00,A,A*60
$GPVTG,182.3,T,182.5,M,000.3,N,000.5,K,A*23
$GPGSV,2,1,07,02,36,065,43,12,48,089,35,14,20,243,44,25,79,035,47*78
$GPGSV,2,2,07,29,64,231,45,30,44,297,48,31,35,309,48,,,,*47
$GPGSA,M,3,02,14,25,29,30,31,,,,,,,2.6,1.5,2.1*37
Trace #4 at position 0.750000
$GPZDA,092429.03,08,10,2011,00,00*6A
$GPRMC,092429.00,A,4611.976558,N,01258.207664,E,000.3,182.3,081011,0.2,E,A*3C
$GPGGA,092430.00,4611.976481,N,01258.207695,E,1,06,1.5,140.14,M,46.25,M,,*61
$GPGLL,4611.976481,N,01258.207695,E,092430.00,A,A*63
$GPVTG,155.8,T,155.9,M,000.3,N,000.6,K,A*27
$GPGSV,2,1,07,02,36,065,43,12,48,089,35,14,20,243,43,25,79,036,46*7D
$GPGSV,2,2,07,29,64,231,45,30,44,297,47,31,35,309,48,,,,*48
$GPGSA,M,3,02,14,25,29,30,31,,,,,,,2.6,1.5,2.1*37
Trace #5 at position 1.000000
$GPZDA,092431.03,08,10,2011,00,00*63
$GPRMC,092431.00,A,4611.976437,N,01258.207753,E,000.1,88.9,081011,0.2,E,A*0B
$GPGGA,092432.00,4611.976362,N,01258.207815,E,1,06,1.5,140.27,M,46.25,M,,*6F
$GPGLL,4611.976362,N,01258.207815,E,092432.00,A,A*6D
$GPVTG,160.2,T,160.4,M,000.6,N,001.0,K,A*22
$GPGSV,2,1,07,02,36,065,43,12,47,089,31,14,20,243,44,25,79,036,46*71
$GPGSV,2,2,07,29,64,231,45,30,44,297,48,31,35,309,47,,,,*48
$GPGSA,M,3,02,14,25,29,30,31,,,,,,,2.6,1.5,2.1*37
Trace #6 at position 1.250000
$GPZDA,092432.03,08,10,2011,00,00*60
$GPRMC,092432.00,A,4611.976362,N,01258.207815,E,000.6,160.2,081011,0.2,E,A*39
$GPGGA,092433.00,4611.976236,N,01258.207846,E,1,06,1.5,140.24,M,46.25,M,,*6B
$GPGLL,4611.976236,N,01258.207846,E,092433.00,A,A*6A
$GPVTG,186.9,T,187.0,M,000.3,N,000.6,K,A*2E
$GPGSV,2,1,07,02,36,065,42,12,47,089,35,14,20,243,44,25,79,036,46*74
$GPGSV,2,2,07,29,64,231,45,30,44,297,47,31,35,309,47,,,,*47
$GPGSA,M,3,02,14,25,29,30,31,,,,,,,2.6,1.5,2.1*37
Trace #7 at position 1.500000
$GPZDA,092432.03,08,10,2011,00,00*60
$GPRMC,092432.00,A,4611.976362,N,01258.207815,E,000.6,160.2,081011,0.2,E,A*39
$GPGGA,092433.00,4611.976236,N,01258.207846,E,1,06,1.5,140.24,M,46.25,M,,*6B
$GPGLL,4611.976236,N,01258.207846,E,092433.00,A,A*6A
$GPVTG,186.9,T,187.0,M,000.3,N,000.6,K,A*2E
$GPGSV,2,1,07,02,36,065,42,12,47,089,35,14,20,243,44,25,79,036,46*74
$GPGSV,2,2,07,29,64,231,45,30,44,297,47,31,35,309,47,,,,*47
$GPGSA,M,3,02,14,25,29,30,31,,,,,,,2.6,1.5,2.1*37
Trace #8 at position 1.750000
$GPZDA,092433.04,08,10,2011,00,00*66
$GPRMC,092433.00,A,4611.976236,N,01258.207846,E,000.3,186.9,081011,0.2,E,A*38
$GPGGA,092434.00,4611.976169,N,01258.207828,E,1,06,1.5,140.18,M,46.25,M,,*62
$GPGLL,4611.976169,N,01258.207828,E,092434.00,A,A*6C
$GPVTG,200.8,T,201.0,M,000.1,N,000.3,K,A*28
$GPGSV,2,1,07,02,36,065,43,12,47,089,34,14,20,243,45,25,79,036,45*76
$GPGSV,2,2,07,29,64,231,45,30,44,297,47,31,35,309,47,,,,*47
$GPGSA,M,3,02,14,25,29,30,31,,,,,,,2.6,1.5,2.1*37
Trace #9 at position 2.000000
$GPZDA,092433.04,08,10,2011,00,00*66
$GPRMC,092433.00,A,4611.976236,N,01258.207846,E,000.3,186.9,081011,0.2,E,A*38
$GPGGA,092434.00,4611.976169,N,01258.207828,E,1,06,1.5,140.18,M,46.25,M,,*62
$GPGLL,4611.976169,N,01258.207828,E,092434.00,A,A*6C
$GPVTG,200.8,T,201.0,M,000.1,N,000.3,K,A*28
$GPGSV,2,1,07,02,36,065,43,12,47,089,34,14,20,243,45,25,79,036,45*76
$GPGSV,2,2,07,29,64,231,45,30,44,297,47,31,35,309,47,,,,*47
$GPGSA,M,3,02,14,25,29,30,31,,,,,,,2.6,1.5,2.1*37
Trace #10 at position 2.250000
$GPZDA,092435.03,08,10,2011,00,00*67
$GPRMC,092435.00,A,4611.976059,N,01258.207925,E,000.8,140.9,081011,0.2,E,A*30
$GPGGA,092436.00,4611.975892,N,01258.207998,E,1,06,1.5,140.21,M,46.25,M,,*6E
$GPGLL,4611.975892,N,01258.207998,E,092436.00,A,A*6A
$GPVTG,195.3,T,195.4,M,000.6,N,001.0,K,A*23
$GPGSV,2,1,07,02,36,065,43,12,47,089,30,14,20,243,44,25,79,036,46*70
$GPGSV,2,2,07,29,64,231,44,30,44,297,47,31,35,309,47,,,,*46
$GPGSA,M,3,02,14,25,29,30,31,,,,,,,2.6,1.5,2.1*37
Trace #11 at position 2.500000
$GPZDA,092435.03,08,10,2011,00,00*67
$GPRMC,092435.00,A,4611.976059,N,01258.207925,E,000.8,140.9,081011,0.2,E,A*30
$GPGGA,092436.00,4611.975892,N,01258.207998,E,1,06,1.5,140.21,M,46.25,M,,*6E
$GPGLL,4611.975892,N,01258.207998,E,092436.00,A,A*6A
$GPVTG,195.3,T,195.4,M,000.6,N,001.0,K,A*23
$GPGSV,2,1,07,02,36,065,43,12,47,089,30,14,20,243,44,25,79,036,46*70
$GPGSV,2,2,07,29,64,231,44,30,44,297,47,31,35,309,47,,,,*46
$GPGSA,M,3,02,14,25,29,30,31,,,,,,,2.6,1.5,2.1*37
Trace #12 at position 2.750000
$GPZDA,092436.03,08,10,2011,00,00*64
$GPRMC,092436.00,A,4611.975892,N,01258.207998,E,000.6,195.3,081011,0.2,E,A*35
$GPGGA,092437.00,4611.975758,N,01258.208045,E,1,06,1.5,140.29,M,46.25,M,,*68
$GPGLL,4611.975758,N,01258.208045,E,092437.00,A,A*64
$GPVTG,132.6,T,132.8,M,000.5,N,000.9,K,A*21
$GPGSV,2,1,07,02,36,065,42,12,47,089,,14,20,243,44,25,79,036,46*72
$GPGSV,2,2,07,29,64,231,44,30,44,297,47,31,35,309,47,,,,*46
$GPGSA,M,3,02,14,25,29,30,31,,,,,,,2.6,1.5,2.1*37
Trace #13 at position 3.000000
$GPZDA,092436.03,08,10,2011,00,00*64
$GPRMC,092436.00,A,4611.975892,N,01258.207998,E,000.6,195.3,081011,0.2,E,A*35
$GPGGA,092437.00,4611.975758,N,01258.208045,E,1,06,1.5,140.29,M,46.25,M,,*68
$GPGLL,4611.975758,N,01258.208045,E,092437.00,A,A*64
$GPVTG,132.6,T,132.8,M,000.5,N,000.9,K,A*21
$GPGSV,2,1,07,02,36,065,42,12,47,089,,14,20,243,44,25,79,036,46*72
$GPGSV,2,2,07,29,64,231,44,30,44,297,47,31,35,309,47,,,,*46
$GPGSA,M,3,02,14,25,29,30,31,,,,,,,2.6,1.5,2.1*37
Trace #14 at position 3.250000
$GPZDA,092437.03,08,10,2011,00,00*65
$GPRMC,092437.00,A,4611.975758,N,01258.208045,E,000.5,132.6,081011,0.2,E,A*30
$GPGGA,092438.00,4611.975641,N,01258.208139,E,1,06,1.5,140.31,M,46.25,M,,*6D
$GPGLL,4611.975641,N,01258.208139,E,092438.00,A,A*68
$GPVTG,161.6,T,161.7,M,000.4,N,000.7,K,A*21
$GPGSV,2,1,07,02,36,065,43,12,47,089,,14,20,243,43,25,79,036,46*74
$GPGSV,2,2,07,29,64,232,44,30,44,297,47,31,35,309,47,,,,*45
$GPGSA,M,3,02,14,25,29,30,31,,,,,,,2.6,1.5,2.1*37
Trace #15 at position 3.500000
$GPZDA,092438.04,08,10,2011,00,00*6D
$GPRMC,092438.00,A,4611.975641,N,01258.208139,E,000.4,161.6,081011,0.2,E,A*3B
$GPGGA,092439.00,4611.975466,N,01258.208288,E,1,06,1.5,140.33,M,46.25,M,,*60
$GPGLL,4611.975466,N,01258.208288,E,092439.00,A,A*67
$GPVTG,137.4,T,137.6,M,001.0,N,001.8,K,A*29
$GPGSV,2,1,07,02,36,065,43,12,47,089,33,14,20,243,44,25,79,036,47*72
$GPGSV,2,2,07,29,64,232,45,30,44,297,47,31,35,309,47,,,,*44
$GPGSA,M,3,02,14,25,29,30,31,,,,,,,2.6,1.5,2.1*37
Trace #16 at position 3.750000
$GPZDA,092438.04,08,10,2011,00,00*6D
$GPRMC,092438.00,A,4611.975641,N,01258.208139,E,000.4,161.6,081011,0.2,E,A*3B
$GPGGA,092439.00,4611.975466,N,01258.208288,E,1,06,1.5,140.33,M,46.25,M,,*60
$GPGLL,4611.975466,N,01258.208288,E,092439.00,A,A*67
$GPVTG,137.4,T,137.6,M,001.0,N,001.8,K,A*29
$GPGSV,2,1,07,02,36,065,43,12,47,089,33,14,20,243,44,25,79,036,47*72
$GPGSV,2,2,07,29,64,232,45,30,44,297,47,31,35,309,47,,,,*44
$GPGSA,M,3,02,14,25,29,30,31,,,,,,,2.6,1.5,2.1*37
Trace #17 at position 4.000000
$GPZDA,092439.04,08,10,2011,00,00*6C
$GPRMC,092439.00,A,4611.975466,N,01258.208288,E,001.0,137.4,081011,0.2,E,A*30
$GPGGA,092440.00,4611.975262,N,01258.208384,E,1,06,1.5,140.35,M,46.25,M,,*67
$GPGLL,4611.975262,N,01258.208384,E,092440.00,A,A*66
$GPVTG,194.2,T,194.3,M,000.6,N,001.0,K,A*25
$GPGSV,2,1,07,02,36,065,42,12,47,089,31,14,20,243,44,25,79,036,45*73
$GPGSV,2,2,07,29,64,232,45,30,44,297,47,31,35,309,48,,,,*4B
$GPGSA,M,3,02,14,25,29,30,31,,,,,,,2.6,1.5,2.1*37
Trace #18 at position 4.250000
$GPZDA,092440.03,08,10,2011,00,00*65
$GPRMC,092440.00,A,4611.975262,N,01258.208384,E,000.6,194.2,081011,0.2,E,A*39
$GPGGA,092441.00,4611.975094,N,01258.208531,E,1,06,1.5,140.38,M,46.25,M,,*68
$GPGLL,4611.975094,N,01258.208531,E,092441.00,A,A*64
$GPVTG,114.7,T,114.9,M,001.0,N,001.9,K,A*24
$GPGSV,2,1,07,02,36,065,42,12,47,089,33,14,20,243,44,25,79,036,45*71
$GPGSV,2,2,07,29,64,232,45,30,44,297,47,31,35,309,46,,,,*45
$GPGSA,M,3,02,14,25,29,30,31,,,,,,,2.6,1.5,2.1*37
Trace #19 at position 4.500000
$GPZDA,092441.03,08,10,2011,00,00*64
$GPRMC,092441.00,A,4611.975094,N,01258.208531,E,001.0,114.7,081011,0.2,E,A*31
$GPGGA,092442.00,4611.974933,N,01258.208836,E,1,06,1.5,140.44,M,46.25,M,,*6F
$GPGLL,4611.974933,N,01258.208836,E,092442.00,A,A*68
$GPVTG,119.8,T,119.9,M,000.9,N,001.7,K,A*2D
$GPGSV,2,1,07,02,36,065,43,12,47,089,32,14,20,243,44,25,79,036,46*72
$GPGSV,2,2,07,29,64,232,45,30,44,297,47,31,35,309,47,,,,*44
$GPGSA,M,3,02,14,25,29,30,31,,,,,,,2.6,1.5,2.1*37
Trace #20 at position 4.750000
$GPZDA,092441.03,08,10,2011,00,00*64
$GPRMC,092441.00,A,4611.975094,N,01258.208531,E,001.0,114.7,081011,0.2,E,A*31
$GPGGA,092442.00,4611.974933,N,01258.208836,E,1,06,1.5,140.44,M,46.25,M,,*6F
$GPGLL,4611.974933,N,01258.208836,E,092442.00,A,A*68
$GPVTG,119.8,T,119.9,M,000.9,N,001.7,K,A*2D
$GPGSV,2,1,07,02,36,065,43,12,47,089,32,14,20,243,44,25,79,036,46*72
$GPGSV,2,2,07,29,64,232,45,30,44,297,47,31,35,309,47,,,,*44
$GPGSA,M,3,02,14,25,29,30,31,,,,,,,2.6,1.5,2.1*37
Trace #21 at position 5.000000
$GPZDA,092442.03,08,10,2011,00,00*67
$GPRMC,092442.00,A,4611.974933,N,01258.208836,E,000.9,119.8,081011,0.2,E,A*37
$GPGGA,092443.00,4611.974750,N,01258.209046,E,1,06,1.5,140.46,M,46.25,M,,*69
$GPGLL,4611.974750,N,01258.209046,E,092443.00,A,A*6C
$GPVTG,136.4,T,136.5,M,000.8,N,001.5,K,A*2E
$GPGSV,2,1,07,02,36,065,42,12,47,089,32,14,20,243,43,25,79,036,45*77
$GPGSV,2,2,07,29,64,232,44,30,44,297,48,31,35,309,47,,,,*4A
$GPGSA,M,3,02,14,25,29,30,31,,,,,,,2.6,1.5,2.1*37
Trace #22 at position 5.250000
$GPZDA,092443.04,08,10,2011,00,00*61
$GPRMC,092443.00,A,4611.974750,N,01258.209046,E,000.8,136.4,081011,0.2,E,A*33
$GPGGA,092444.00,4611.974550,N,01258.209093,E,1,06,1.5,140.47,M,46.25,M,,*65
$GPGLL,4611.974550,N,01258.209093,E,092444.00,A,A*61
$GPVTG,180.9,T,181.0,M,000.6,N,001.1,K,A*2D
$GPGSV,2,1,07,02,36,065,42,12,47,089,34,14,20,243,43,25,79,036,45*71
$GPGSV,2,2,07,29,64,232,45,30,44,297,47,31,35,309,46,,,,*45
$GPGSA,M,3,02,14,25,29,30,31,,,,,,,2.6,1.5,2.1*37
Trace #23 at position 5.500000
$GPZDA,092444.03,08,10,2011,00,00*61
$GPRMC,092444.00,A,4611.974550,N,01258.209093,E,000.6,180.9,081011,0.2,E,A*30
$GPGGA,092445.00,4611.974333,N,01258.209085,E,1,06,1.5,140.40,M,46.25,M,,*67
$GPGLL,4611.974333,N,01258.209085,E,092445.00,A,A*64
$GPVTG,164.1,T,164.2,M,000.8,N,001.5,K,A*2C
$GPGSV,2,1,07,02,36,065,43,12,47,089,32,14,20,243,44,25,79,036,46*72
$GPGSV,2,2,07,29,64,232,44,30,44,297,48,31,35,309,46,,,,*4B
$GPGSA,M,3,02,14,25,29,30,31,,,,,,,2.6,1.5,2.1*37
Trace #24 at position 5.750000
$GPZDA,092445.03,08,10,2011,00,00*60
$GPRMC,092445.00,A,4611.974333,N,01258.209085,E,000.8,164.1,081011,0.2,E,A*39
$GPGGA,092446.00,4611.974152,N,01258.209189,E,1,06,1.5,140.34,M,46.25,M,,*6F
$GPGLL,4611.974152,N,01258.209189,E,092446.00,A,A*6F
$GPVTG,123.3,T,123.4,M,000.7,N,001.2,K,A*20
$GPGSV,2,1,07,02,36,065,42,12,47,089,31,14,20,243,43,25,79,036,46*77
$GPGSV,2,2,07,29,64,232,45,30,44,297,48,31,35,309,47,,,,*4B
$GPGSA,M,3,02,14,25,29,30,31,,,,,,,2.6,1.5,2.1*37
Trace #25 at position 6.000000
$GPZDA,092446.03,08,10,2011,00,00*63
$GPRMC,092446.00,A,4611.974152,N,01258.209189,E,000.7,123.3,081011,0.2,E,A*3C
$GPGGA,092447.00,4611.974026,N,01258.209273,E,1,06,1.5,140.34,M,46.25,M,,*6A
$GPGLL,4611.974026,N,01258.209273,E,092447.00,A,A*6A
$GPVTG,154.2,T,154.4,M,000.4,N,000.7,K,A*26
$GPGSV,2,1,07,02,36,065,43,12,47,089,33,14,20,243,44,25,79,036,46*73
$GPGSV,2,2,07,29,64,232,45,30,44,297,48,31,35,309,47,,,,*4B
$GPGSA,M,3,02,14,25,29,30,31,,,,,,,2.6,1.5,2.1*37
Trace #26 at position 6.250000
$GPZDA,092447.03,08,10,2011,00,00*62
$GPRMC,092447.00,A,4611.974026,N,01258.209273,E,000.4,154.2,081011,0.2,E,A*3B
$GPGGA,092448.00,4611.973831,N,01258.209261,E,1,06,1.5,140.25,M,46.25,M,,*6F
$GPGLL,4611.973831,N,01258.209261,E,092448.00,A,A*6F
$GPVTG,178.6,T,178.7,M,000.9,N,001.6,K,A*2C
$GPGSV,2,1,07,02,36,065,42,12,47,089,30,14,20,243,43,25,79,036,46*76
$GPGSV,2,2,07,29,64,232,45,30,44,297,47,31,35,309,47,,,,*44
$GPGSA,M,3,02,14,25,29,30,31,,,,,,,2.6,1.5,2.1*37
Trace #27 at position 6.500000
$GPZDA,092447.03,08,10,2011,00,00*62
$GPRMC,092447.00,A,4611.974026,N,01258.209273,E,000.4,154.2,081011,0.2,E,A*3B
$GPGGA,092448.00,4611.973831,N,01258.209261,E,1,06,1.5,140.25,M,46.25,M,,*6F
$GPGLL,4611.973831,N,01258.209261,E,092448.00,A,A*6F
$GPVTG,178.6,T,178.7,M,000.9,N,001.6,K,A*2C
$GPGSV,2,1,07,02,36,065,42,12,47,089,30,14,20,243,43,25,79,036,46*76
$GPGSV,2,2,07,29,64,232,45,30,44,297,47,31,35,309,47,,,,*44
$GPGSA,M,3,02,14,25,29,30,31,,,,,,,2.6,1.5,2.1*37
Trace #28 at position 6.750000
$GPZDA,092448.04,08,10,2011,00,00*6A
$GPRMC,092448.00,A,4611.973831,N,01258.209261,E,000.9,178.6,081011,0.2,E,A*39
$GPGGA,092449.00,4611.973615,N,01258.209329,E,1,06,1.5,140.25,M,46.25,M,,*6B
$GPGLL,4611.973615,N,01258.209329,E,092449.00,A,A*6B
$GPVTG,136.6,T,136.8,M,000.8,N,001.5,K,A*21
$GPGSV,2,1,07,02,36,065,43,12,47,089,29,14,20,243,44,25,79,036,45*7B
$GPGSV,2,2,07,29,64,232,45,30,44,297,47,31,35,309,46,,,,*45
$GPGSA,M,3,02,14,25,29,30,31,,,,,,,2.6,1.5,2.1*37
Trace #29 at position 7.000000
$GPZDA,092449.03,08,10,2011,00,00*6C
$GPRMC,092449.00,A,4611.973615,N,01258.209329,E,000.8,136.6,081011,0.2,E,A*36
$GPGGA,092450.00,4611.973502,N,01258.209473,E,1,06,1.5,140.35,M,46.25,M,,*6F
$GPGLL,4611.973502,N,01258.209473,E,092450.00,A,A*6E
$GPVTG,102.1,T,102.2,M,000.5,N,000.8,K,A*2D
$GPGSV,2,1,07,02,36,065,43,12,47,089,35,14,20,243,45,25,79,036,46*74
$GPGSV,2,2,07,29,64,232,45,30,44,297,48,31,35,309,46,,,,*4A
$GPGSA,M,3,02,14,25,29,30,31,,,,,,,2.6,1.5,2.1*37
Trace #30 at position 7.250000
$GPZDA,092450.03,08,10,2011,00,00*64
$GPRMC,092450.00,A,4611.973502,N,01258.209473,E,000.5,102.1,081011,0.2,E,A*3E
$GPGGA,092451.00,4611.973361,N,01258.209534,E,1,06,1.5,140.37,M,46.25,M,,*6D
$GPGLL,4611.973361,N,01258.209534,E,092451.00,A,A*6E
$GPVTG,168.4,T,168.6,M,000.8,N,001.4,K,A*2C
$GPGSV,2,1,07,02,36,065,42,12,47,089,33,14,20,243,45,25,79,036,46*73
$GPGSV,2,2,07,29,64,232,45,30,44,297,47,31,35,309,46,,,,*45
$GPGSA,M,3,02,14,25,29,30,31,,,,,,,2.6,1.5,2.1*37
Trace #31 at position 7.500000
$GPZDA,092450.03,08,10,2011,00,00*64
$GPRMC,092450.00,A,4611.973502,N,01258.209473,E,000.5,102.1,081011,0.2,E,A*3E
$GPGGA,092451.00,4611.973361,N,01258.209534,E,1,06,1.5,140.37,M,46.25,M,,*6D
$GPGLL,4611.973361,N,01258.209534,E,092451.00,A,A*6E
$GPVTG,168.4,T,168.6,M,000.8,N,001.4,K,A*2C
$GPGSV,2,1,07,02,36,065,42,12,47,089,33,14,20,243,45,25,79,036,46*73
$GPGSV,2,2,07,29,64,232,45,30,44,297,47,31,35,309,46,,,,*45
$GPGSA,M,3,02,14,25,29,30,31,,,,,,,2.6,1.5,2.1*37
Trace #32 at position 7.750000
$GPZDA,092451.03,08,10,2011,00,00*65
$GPRMC,092451.00,A,4611.973361,N,01258.209534,E,000.8,168.4,081011,0.2,E,A*3A
$GPGGA,092452.00,4611.973173,N,01258.209623,E,1,06,1.5,140.39,M,46.25,M,,*64
$GPGLL,4611.973173,N,01258.209623,E,092452.00,A,A*69
$GPVTG,130.9,T,131.1,M,000.8,N,001.4,K,A*27
$GPGSV,2,1,07,02,36,065,42,12,47,089,33,14,20,243,45,25,79,036,46*73
$GPGSV,2,2,07,29,64,232,45,30,44,297,48,31,35,309,46,,,,*4A
$GPGSA,M,3,02,14,25,29,30,31,,,,,,,2.6,1.5,2.1*37
Trace #33 at position 8.000000
$GPZDA,092452.03,08,10,2011,00,00*66
$GPRMC,092452.00,A,4611.973173,N,01258.209623,E,000.8,130.9,081011,0.2,E,A*3D
$GPGGA,092453.00,4611.973010,N,01258.209671,E,1,06,1.5,140.43,M,46.25,M,,*6B
$GPGLL,4611.973010,N,01258.209671,E,092453.00,A,A*6B
$GPVTG,184.1,T,184.3,M,000.6,N,001.1,K,A*27
$GPGSV,2,1,07,02,36,065,42,12,47,089,34,14,20,243,45,25,79,036,46*74
$GPGSV,2,2,07,29,64,232,44,30,44,297,48,31,35,309,46,,,,*4B
$GPGSA,M,3,02,14,25,29,30,31,,,,,,,2.6,1.5,2.1*37
Trace #34 at position 8.250000
$GPZDA,092453.04,08,10,2011,00,00*60
$GPRMC,092453.00,A,4611.973010,N,01258.209671,E,000.6,184.1,081011,0.2,E,A*36
$GPGGA,092454.00,4611.972812,N,01258.209748,E,1,06,1.5,140.41,M,46.25,M,,*6E
$GPGLL,4611.972812,N,01258.209748,E,092454.00,A,A*6C
$GPVTG,136.8,T,137.0,M,001.0,N,001.9,K,A*23
$GPGSV,2,1,07,02,36,065,43,12,47,089,30,14,20,243,44,25,79,037,46*71
$GPGSV,2,2,07,29,64,232,44,30,44,297,47,31,35,309,47,,,,*45
$GPGSA,M,3,02,14,25,29,30,31,,,,,,,2.6,1.5,2.1*37
Trace #35 at position 8.500000
$GPZDA,092453.04,08,10,2011,00,00*60
$GPRMC,092453.00,A,4611.973010,N,01258.209671,E,000.6,184.1,081011,0.2,E,A*36
$GPGGA,092454.00,4611.972812,N,01258.209748,E,1,06,1.5,140.41,M,46.25,M,,*6E
$GPGLL,4611.972812,N,01258.209748,E,092454.00,A,A*6C
$GPVTG,136.8,T,137.0,M,001.0,N,001.9,K,A*23
$GPGSV,2,1,07,02,36,065,43,12,47,089,30,14,20,243,44,25,79,037,46*71
$GPGSV,2,2,07,29,64,232,44,30,44,297,47,31,35,309,47,,,,*45
$GPGSA,M,3,02,14,25,29,30,31,,,,,,,2.6,1.5,2.1*37
Trace #36 at position 8.750000
$GPZDA,092454.04,08,10,2011,00,00*67
$GPRMC,092454.00,A,4611.972812,N,01258.209748,E,001.0,136.8,081011,0.2,E,A*36
$GPGGA,092455.00,4611.972648,N,01258.209849,E,1,06,1.5,140.41,M,46.25,M,,*60
$GPGLL,4611.972648,N,01258.209849,E,092455.00,A,A*62
$GPVTG,158.3,T,158.4,M,000.4,N,000.7,K,A*27
$GPGSV,2,1,07,02,36,065,42,12,47,089,28,14,20,243,43,25,79,037,46*7E
$GPGSV,2,2,07,29,64,232,45,30,44,297,48,31,35,309,47,,,,*4B
$GPGSA,M,3,02,14,25,29,30,31,,,,,,,2.6,1.5,2.1*37
Trace #37 at position 9.000000
$GPZDA,092455.03,08,10,2011,00,00*61
$GPRMC,092455.00,A,4611.972648,N,01258.209849,E,000.4,158.3,081011,0.2,E,A*3E
$GPGGA,092456.00,4611.972491,N,01258.209830,E,1,06,1.5,140.37,M,46.25,M,,*6A
$GPGLL,4611.972491,N,01258.209830,E,092456.00,A,A*69
$GPVTG,180.9,T,181.1,M,000.7,N,001.2,K,A*2E
$GPGSV,2,1,07,02,36,065,42,12,47,089,30,14,20,243,43,25,79,037,47*76
$GPGSV,2,2,07,29,64,232,44,30,44,297,47,31,35,309,47,,,,*45
$GPGSA,M,3,02,14,25,29,30,31,,,,,,,2.6,1.5,2.1*37
Trace #38 at position 9.250000
$GPZDA,092455.03,08,10,2011,00,00*61
$GPRMC,092455.00,A,4611.972648,N,01258.209849,E,000.4,158.3,081011,0.2,E,A*3E
$GPGGA,092456.00,4611.972491,N,01258.209830,E,1,06,1.5,140.37,M,46.25,M,,*6A
$GPGLL,4611.972491,N,01258.209830,E,092456.00,A,A*69
$GPVTG,180.9,T,181.1,M,000.7,N,001.2,K,A*2E
$GPGSV,2,1,07,02,36,065,42,12,47,089,30,14,20,243,43,25,79,037,47*76
$GPGSV,2,2,07,29,64,232,44,30,44,297,47,31,35,309,47,,,,*45
$GPGSA,M,3,02,14,25,29,30,31,,,,,,,2.6,1.5,2.1*37
Trace #39 at position 9.500000
$GPZDA,092456.03,08,10,2011,00,00*62
$GPRMC,092456.00,A,4611.972491,N,01258.209830,E,000.7,180.9,081011,0.2,E,A*39
$GPGGA,092457.00,4611.972257,N,01258.209797,E,1,06,1.5,140.29,M,46.25,M,,*6A
$GPGLL,4611.972257,N,01258.209797,E,092457.00,A,A*66
$GPVTG,179.3,T,179.4,M,001.0,N,001.8,K,A*2C
$GPGSV,2,1,07,02,36,065,43,12,47,089,30,14,20,243,44,25,79,037,46*71
$GPGSV,2,2,07,29,64,232,45,30,44,297,48,31,35,309,47,,,,*4B
$GPGSA,M,3,02,14,25,29,30,31,,,,,,,2.6,1.5,2.1*37
Trace #40 at position 9.750000
$GPZDA,092456.03,08,10,2011,00,00*62
$GPRMC,092456.00,A,4611.972491,N,01258.209830,E,000.7,180.9,081011,0.2,E,A*39
$GPGGA,092457.00,4611.972257,N,01258.209797,E,1,06,1.5,140.29,M,46.25,M,,*6A
$GPGLL,4611.972257,N,01258.209797,E,092457.00,A,A*66
$GPVTG,179.3,T,179.4,M,001.0,N,001.8,K,A*2C
$GPGSV,2,1,07,02,36,065,43,12,47,089,30,14,20,243,44,25,79,037,46*71
$GPGSV,2,2,07,29,64,232,45,30,44,297,48,31,35,309,47,,,,*4B
$GPGSA,M,3,02,14,25,29,30,31,,,,,,,2.6,1.5,2.1*37
Trace #41 at position 10.000000
$GPZDA,092457.03,08,10,2011,00,00*63
$GPRMC,092457.00,A,4611.972257,N,01258.209797,E,001.0,179.3,081011,0.2,E,A*3C
$GPGGA,092458.00,4611.971951,N,01258.209844,E,1,06,1.5,140.18,M,46.25,M,,*68
$GPGLL,4611.971951,N,01258.209844,E,092458.00,A,A*66
$GPVTG,164.2,T,164.4,M,001.3,N,002.4,K,A*21
$GPGSV,2,1,07,02,36,065,43,12,47,089,33,14,20,243,44,25,79,037,46*72
$GPGSV,2,2,07,29,64,232,44,30,45,297,47,31,35,309,47,,,,*44
$GPGSA,M,3,02,14,25,29,30,31,,,,,,,2.6,1.5,2.1*37
Trace #42 at position 10.250000
$GPZDA,092457.03,08,10,2011,00,00*63
$GPRMC,092457.00,A,4611.972257,N,01258.209797,E,001.0,179.3,081011,0.2,E,A*3C
$GPGGA,092458.00,4611.971951,N,01258.209844,E,1,06,1.5,140.18,M,46.25,M,,*68
$GPGLL,4611.971951,N,01258.209844,E,092458.00,A,A*66
$GPVTG,164.2,T,164.4,M,001.3,N,002.4,K,A*21
$GPGSV,2,1,07,02,36,065,43,12,47,089,33,14,20,243,44,25,79,037,46*72
$GPGSV,2,2,07,29,64,232,44,30,45,297,47,31,35,309,47,,,,*44
$GPGSA,M,3,02,14,25,29,30,31,,,,,,,2.6,1.5,2.1*37
Trace #43 at position 10.500000
$GPZDA,092458.04,08,10,2011,00,00*6B
$GPRMC,092458.00,A,4611.971951,N,01258.209844,E,001.3,164.2,081011,0.2,E,A*32
$GPGGA,092459.00,4611.971726,N,01258.209946,E,1,06,1.5,140.14,M,46.25,M,,*68
$GPGLL,4611.971726,N,01258.209946,E,092459.00,A,A*6A
$GPVTG,145.5,T,145.6,M,000.5,N,000.9,K,A*2C
$GPGSV,2,1,07,02,36,065,43,12,47,089,31,14,20,243,45,25,79,037,46*71
$GPGSV,2,2,07,29,64,232,45,30,45,297,48,31,35,309,46,,,,*4B
$GPGSA,M,3,02,14,25,29,30,31,,,,,,,2.6,1.5,2.1*37
Trace #44 at position 10.750000
$GPZDA,092459.03,08,10,2011,00,00*6D
$GPRMC,092459.00,A,4611.971726,N,01258.209946,E,000.5,145.5,081011,0.2,E,A*3D
$GPGGA,092500.00,4611.971527,N,01258.210049,E,1,06,1.5,140.19,M,46.25,M,,*65
$GPGLL,4611.971527,N,01258.210049,E,092500.00,A,A*6A
$GPVTG,160.1,T,160.3,M,001.1,N,002.1,K,A*22
$GPGSV,2,1,07,02,36,065,43,12,47,089,34,14,20,243,44,25,79,037,46*75
$GPGSV,2,2,07,29,64,232,44,30,45,297,47,31,35,309,47,,,,*44
$GPGSA,M,3,02,14,25,29,30,31,,,,,,,2.6,1.5,2.1*37
Trace #45 at position 11.000000
$GPZDA,092459.03,08,10,2011,00,00*6D
$GPRMC,092459.00,A,4611.971726,N,01258.209946,E,000.5,145.5,081011,0.2,E,A*3D
$GPGGA,092500.00,4611.971527,N,01258.210049,E,1,06,1.5,140.19,M,46.25,M,,*65
$GPGLL,4611.971527,N,01258.210049,E,092500.00,A,A*6A
$GPVTG,160.1,T,160.3,M,001.1,N,002.1,K,A*22
$GPGSV,2,1,07,02,36,065,43,12,47,089,34,14,20,243,44,25,79,037,46*75
$GPGSV,2,2,07,29,64,232,44,30,45,297,47,31,35,309,47,,,,*44
$GPGSA,M,3,02,14,25,29,30,31,,,,,,,2.6,1.5,2.1*37
Trace #46 at position 11.250000
$GPZDA,092500.03,08,10,2011,00,00*60
$GPRMC,092500.00,A,4611.971527,N,01258.210049,E,001.1,160.1,081011,0.2,E,A*3B
$GPGGA,092501.00,4611.971289,N,01258.210126,E,1,06,1.5,140.27,M,46.25,M,,*62
$GPGLL,4611.971289,N,01258.210126,E,092501.00,A,A*60
$GPVTG,170.0,T,170.1,M,000.7,N,001.2,K,A*26
$GPGSV,2,1,07,02,36,065,43,12,47,089,33,14,20,243,43,25,79,037,47*74
$GPGSV,2,2,07,29,64,232,45,30,45,297,47,31,35,309,47,,,,*45
$GPGSA,M,3,02,14,25,29,30,31,,,,,,,2.6,1.5,2.1*37
Trace #47 at position 11.500000
$GPZDA,092500.03,08,10,2011,00,00*60
$GPRMC,092500.00,A,4611.971527,N,01258.210049,E,001.1,160.1,081011,0.2,E,A*3B
$GPGGA,092501.00,4611.971289,N,01258.210126,E,1,06,1.5,140.27,M,46.25,M,,*62
$GPGLL,4611.971289,N,01258.210126,E,092501.00,A,A*60
$GPVTG,170.0,T,170.1,M,000.7,N,001.2,K,A*26
$GPGSV,2,1,07,02,36,065,43,12,47,089,33,14,20,243,43,25,79,037,47*74
$GPGSV,2,2,07,29,64,232,45,30,45,297,47,31,35,309,47,,,,*45
$GPGSA,M,3,02,14,25,29,30,31,,,,,,,2.6,1.5,2.1*37
Trace #48 at position 11.750000
$GPZDA,092501.03,08,10,2011,00,00*61
$GPRMC,092501.00,A,4611.971289,N,01258.210126,E,000.7,170.0,081011,0.2,E,A*36
$GPGGA,092502.00,4611.971141,N,01258.210239,E,1,06,1.5,140.35,M,46.25,M,,*68
$GPGLL,4611.971141,N,01258.210239,E,092502.00,A,A*69
$GPVTG,121.4,T,121.5,M,000.7,N,001.2,K,A*26
$GPGSV,2,1,07,02,36,065,43,12,47,089,32,14,20,243,42,25,79,037,47*74
$GPGSV,2,2,07,29,64,232,45,30,45,297,47,31,35,309,46,,,,*44
$GPGSA,M,3,02,14,25,29,30,31,,,,,,,2.6,1.5,2.1*37
Trace #49 at position 12.000000
$GPZDA,092502.03,08,10,2011,00,00*62
$GPRMC,092502.00,A,4611.971141,N,01258.210239,E,000.7,121.4,081011,0.2,E,A*3F
$GPGGA,092503.00,4611.970961,N,01258.210378,E,1,06,1.5,140.37,M,46.25,M,,*64
$GPGLL,4611.970961,N,01258.210378,E,092503.00,A,A*67
$GPVTG,161.6,T,161.7,M,000.9,N,001.6,K,A*2C
$GPGSV,2,1,07,02,36,065,43,12,47,089,34,14,20,243,44,25,79,037,46*75
$GPGSV,2,2,07,29,64,232,45,30,45,297,48,31,35,309,47,,,,*4A
$GPGSA,M,3,02,14,25,29,30,31,,,,,,,2.6,1.5,2.1*37
Trace #50 at position 12.250000
$GPZDA,092502.03,08,10,2011,00,00*62
$GPRMC,092502.00,A,4611.971141,N,01258.210239,E,000.7,121.4,081011,0.2,E,A*3F
$GPGGA,092503.00,4611.970961,N,01258.210378,E,1,06,1.5,140.37,M,46.25,M,,*64
$GPGLL,4611.970961,N,01258.210378,E,092503.00,A,A*67
$GPVTG,161.6,T,161.7,M,000.9,N,001.6,K,A*2C
$GPGSV,2,1,07,02,36,065,43,12,47,089,34,14,20,243,44,25,79,037,46*75
$GPGSV,2,2,07,29,64,232,45,30,45,297,48,31,35,309,47,,,,*4A
$GPGSA,M,3,02,14,25,29,30,31,,,,,,,2.6,1.5,2.1*37
Trace #51 at position 12.500000
$GPZDA,092503.04,08,10,2011,00,00*64
$GPRMC,092503.00,A,4611.970961,N,01258.210378,E,000.9,161.6,081011,0.2,E,A*39
$GPGGA,092504.00,4611.970711,N,01258.210499,E,1,06,1.5,140.36,M,46.25,M,,*63
$GPGLL,4611.970711,N,01258.210499,E,092504.00,A,A*61
$GPVTG,150.0,T,150.2,M,001.0,N,001.8,K,A*29
$GPGSV,2,1,07,02,36,065,43,12,47,089,35,14,20,243,44,25,79,037,45*77
$GPGSV,2,2,07,29,64,232,45,30,45,297,48,31,35,309,46,,,,*4B
$GPGSA,M,3,02,14,25,29,30,31,,,,,,,2.6,1.5,2.1*37
Trace #52 at position 12.750000
$GPZDA,092503.04,08,10,2011,00,00*64
$GPRMC,092503.00,A,4611.970961,N,01258.210378,E,000.9,161.6,081011,0.2,E,A*39
$GPGGA,092504.00,4611.970711,N,01258.210499,E,1,06,1.5,140.36,M,46.25,M,,*63
$GPGLL,4611.970711,N,01258.210499,E,092504.00,A,A*61
$GPVTG,150.0,T,150.2,M,001.0,N,001.8,K,A*29
$GPGSV,2,1,07,02,36,065,43,12,47,089,35,14,20,243,44,25,79,037,45*77
$GPGSV,2,2,07,29,64,232,45,30,45,297,48,31,35,309,46,,,,*4B
$GPGSA,M,3,02,14,25,29,30,31,,,,,,,2.6,1.5,2.1*37
Trace #53 at position 13.000000
$GPZDA,092504.03,08,10,2011,00,00*64
$GPRMC,092504.00,A,4611.970711,N,01258.210499,E,001.0,150.0,081011,0.2,E,A*33
$GPGGA,092505.00,4611.970475,N,01258.210625,E,1,06,1.5,140.33,M,46.25,M,,*63
$GPGLL,4611.970475,N,01258.210625,E,092505.00,A,A*64
$GPVTG,157.2,T,157.3,M,000.9,N,001.6,K,A*2C
$GPGSV,2,1,07,02,36,065,43,12,47,089,32,14,20,243,44,25,79,037,45*70
$GPGSV,2,2,07,29,64,232,45,30,45,297,47,31,35,309,47,,,,*45
$GPGSA,M,3,02,14,25,29,30,31,,,,,,,2.6,1.5,2.1*37
Trace #54 at position 13.250000
$GPZDA,092504.03,08,10,2011,00,00*64
$GPRMC,092504.00,A,4611.970711,N,01258.210499,E,001.0,150.0,081011,0.2,E,A*33
$GPGGA,092505.00,4611.970475,N,01258.210625,E,1,06,1.5,140.33,M,46.25,M,,*63
$GPGLL,4611.970475,N,01258.210625,E,092505.00,A,A*64
$GPVTG,157.2,T,157.3,M,000.9,N,001.6,K,A*2C
$GPGSV,2,1,07,02,36,065,43,12,47,089,32,14,20,243,44,25,79,037,45*70
$GPGSV,2,2,07,29,64,232,45,30,45,297,47,31,35,309,47,,,,*45
$GPGSA,M,3,02,14,25,29,30,31,,,,,,,2.6,1.5,2.1*37
Trace #55 at position 13.500000
$GPZDA,092505.03,08,10,2011,00,00*65
$GPRMC,092505.00,A,4611.970475,N,01258.210625,E,000.9,157.2,081011,0.2,E,A*3B
$GPGGA,092506.00,4611.970323,N,01258.210697,E,1,06,1.5,140.37,M,46.25,M,,*69
$GPGLL,4611.970323,N,01258.210697,E,092506.00,A,A*6A
$GPVTG,130.7,T,130.8,M,000.3,N,000.5,K,A*2A
$GPGSV,2,1,07,02,36,065,43,12,47,089,28,14,20,243,45,25,79,037,45*7A
$GPGSV,2,2,07,29,64,232,45,30,45,297,47,31,35,309,46,,,,*44
$GPGSA,M,3,02,14,25,29,30,31,,,,,,,2.6,1.5,2.1*37
Trace #56 at position 13.750000
$GPZDA,092506.03,08,10,2011,00,00*66
$GPRMC,092506.00,A,4611.970323,N,01258.210697,E,000.3,130.7,081011,0.2,E,A*3B
$GPGGA,092507.00,4611.970208,N,01258.210799,E,1,06,1.5,140.36,M,46.25,M,,*6E
$GPGLL,4611.970208,N,01258.210799,E,092507.00,A,A*6C
$GPVTG,132.1,T,132.3,M,000.6,N,001.2,K,A*24
$GPGSV,2,1,07,02,36,065,43,12,47,089,37,14,20,243,42,25,79,037,47*71
$GPGSV,2,2,07,29,64,232,45,30,45,297,47,31,35,309,45,,,,*47
$GPGSA,M,3,02,14,25,29,30,31,,,,,,,2.6,1.5,2.1*37
Trace #57 at position 14.000000
$GPZDA,092506.03,08,10,2011,00,00*66
$GPRMC,092506.00,A,4611.970323,N,01258.210697,E,000.3,130.7,081011,0.2,E,A*3B
$GPGGA,092507.00,4611.970208,N,01258.210799,E,1,06,1.5,140.36,M,46.25,M,,*6E
$GPGLL,4611.970208,N,01258.210799,E,092507.00,A,A*6C
$GPVTG,132.1,T,132.3,M,000.6,N,001.2,K,A*24
$GPGSV,2,1,07,02,36,065,43,12,47,089,37,14,20,243,42,25,79,037,47*71
$GPGSV,2,2,07,29,64,232,45,30,45,297,47,31,35,309,45,,,,*47
$GPGSA,M,3,02,14,25,29,30,31,,,,,,,2.6,1.5,2.1*37
Trace #58 at position 14.250000
$GPZDA,092507.03,08,10,2011,00,00*67
$GPRMC,092507.00,A,4611.970208,N,01258.210799,E,000.6,132.1,081011,0.2,E,A*3C
$GPGGA,092508.00,4611.970044,N,01258.210953,E,1,06,1.5,140.42,M,46.25,M,,*60
$GPGLL,4611.970044,N,01258.210953,E,092508.00,A,A*61
$GPVTG,132.0,T,132.1,M,000.7,N,001.3,K,A*27
$GPGSV,2,1,07,02,36,065,43,12,47,089,31,14,20,243,45,25,79,037,45*72
$GPGSV,2,2,07,29,64,232,45,30,45,297,48,31,35,309,47,,,,*4A
$GPGSA,M,3,02,14,25,29,30,31,,,,,,,2.6,1.5,2.1*37
Trace #59 at position 14.500000
$GPZDA,092508.04,08,10,2011,00,00*6F
$GPRMC,092508.00,A,4611.970044,N,01258.210953,E,000.7,132.0,081011,0.2,E,A*31
$GPGGA,092509.00,4611.969898,N,01258.211049,E,1,06,1.5,140.52,M,46.25,M,,*62
$GPGLL,4611.969898,N,01258.211049,E,092509.00,A,A*62
$GPVTG,141.5,T,141.6,M,000.4,N,000.7,K,A*23
$GPGSV,2,1,07,02,36,065,42,12,47,089,34,14,20,243,44,25,79,037,45*77
$GPGSV,2,2,07,29,64,232,46,30,45,297,48,31,35,309,47,,,,*49
$GPGSA,M,3,02,14,25,29,30,31,,,,,,,2.6,1.5,2.1*37
Trace #60 at position 14.750000
$GPZDA,092508.04,08,10,2011,00,00*6F
$GPRMC,092508.00,A,4611.970044,N,01258.210953,E,000.7,132.0,081011,0.2,E,A*31
$GPGGA,092509.00,4611.969898,N,01258.211049,E,1,06,1.5,140.52,M,46.25,M,,*62
$GPGLL,4611.969898,N,01258.211049,E,092509.00,A,A*62
$GPVTG,141.5,T,141.6,M,000.4,N,000.7,K,A*23
$GPGSV,2,1,07,02,36,065,42,12,47,089,34,14,20,243,44,25,79,037,45*77
$GPGSV,2,2,07,29,64,232,46,30,45,297,48,31,35,309,47,,,,*49
$GPGSA,M,3,02,14,25,29,30,31,,,,,,,2.6,1.5,2.1*37
Trace #61 at position 15.000000
$GPZDA,092509.04,08,10,2011,00,00*6E
$GPRMC,092509.00,A,4611.969898,N,01258.211049,E,000.4,141.5,081011,0.2,E,A*30
$GPGGA,092510.00,4611.969689,N,01258.211094,E,1,06,1.5,140.52,M,46.25,M,,*64
$GPGLL,4611.969689,N,01258.211094,E,092510.00,A,A*64
$GPVTG,168.7,T,168.9,M,000.9,N,001.7,K,A*22
$GPGSV,2,1,07,02,36,064,43,12,47,089,33,14,20,243,45,25,79,037,45*71
$GPGSV,2,2,07,29,64,232,46,30,45,297,48,31,35,309,46,,,,*48
$GPGSA,M,3,02,14,25,29,30,31,,,,,,,2.6,1.5,2.1*37
Trace #62 at position 15.250000
$GPZDA,092509.04,08,10,2011,00,00*6E
$GPRMC,092509.00,A,4611.969898,N,01258.211049,E,000.4,141.5,081011,0.2,E,A*30
$GPGGA,092510.00,4611.969689,N,01258.211094,E,1,06,1.5,140.52,M,46.25,M,,*64
$GPGLL,4611.969689,N,01258.211094,E,092510.00,A,A*64
$GPVTG,168.7,T,168.9,M,000.9,N,001.7,K,A*22
$GPGSV,2,1,07,02,36,064,43,12,47,089,33,14,20,243,45,25,79,037,45*71
$GPGSV,2,2,07,29,64,232,46,30,45,297,48,31,35,309,46,,,,*48
$GPGSA,M,3,02,14,25,29,30,31,,,,,,,2.6,1.5,2.1*37
Trace #63 at position 15.500000
$GPZDA,092510.03,08,10,2011,00,00*61
$GPRMC,092510.00,A,4611.969689,N,01258.211094,E,000.9,168.7,081011,0.2,E,A*32
$GPGGA,092511.00,4611.969449,N,01258.211127,E,1,06,1.5,140.41,M,46.25,M,,*60
$GPGLL,4611.969449,N,01258.211127,E,092511.00,A,A*62
$GPVTG,168.2,T,168.4,M,000.6,N,001.0,K,A*22
$GPGSV,2,1,07,02,36,064,44,12,47,089,33,14,20,243,43,25,79,037,47*72
$GPGSV,2,2,07,29,64,232,45,30,45,297,48,31,35,309,47,,,,*4A
$GPGSA,M,3,02,14,25,29,30,31,,,,,,,2.6,1.5,2.1*37
Trace #64 at position 15.750000
$GPZDA,092511.03,08,10,2011,00,00*60
$GPRMC,092511.00,A,4611.969449,N,01258.211127,E,000.6,168.2,081011,0.2,E,A*3E
$GPGGA,092512.00,4611.969250,N,01258.211188,E,1,06,1.5,140.33,M,46.25,M,,*6D
$GPGLL,4611.969250,N,01258.211188,E,092512.00,A,A*6A
$GPVTG,154.4,T,154.5,M,000.7,N,001.3,K,A*27
$GPGSV,2,1,07,02,36,064,43,12,47,089,31,14,20,243,45,25,79,037,45*73
$GPGSV,2,2,07,29,64,232,45,30,45,297,48,31,35,309,47,,,,*4A
$GPGSA,M,3,02,14,25,29,30,31,,,,,,,2.6,1.5,2.1*37
Trace #65 at position 16.000000
$GPZDA,092511.03,08,10,2011,00,00*60
$GPRMC,092511.00,A,4611.969449,N,01258.211127,E,000.6,168.2,081011,0.2,E,A*3E
$GPGGA,092512.00,4611.969250,N,01258.211188,E,1,06,1.5,140.33,M,46.25,M,,*6D
$GPGLL,4611.969250,N,01258.211188,E,092512.00,A,A*6A
$GPVTG,154.4,T,154.5,M,000.7,N,001.3,K,A*27
$GPGSV,2,1,07,02,36,064,43,12,47,089,31,14,20,243,45,25,79,037,45*73
$GPGSV,2,2,07,29,64,232,45,30,45,297,48,31,35,309,47,,,,*4A
$GPGSA,M,3,02,14,25,29,30,31,,,,,,,2.6,1.5,2.1*37
Trace #66 at position 16.250000
$GPZDA,092512.03,08,10,2011,00,00*63
$GPRMC,092512.00,A,4611.969250,N,01258.211188,E,000.7,154.4,081011,0.2,E,A*3E
$GPGGA,092513.00,4611.969023,N,01258.211281,E,1,06,1.5,140.34,M,46.25,M,,*67
$GPGLL,4611.969023,N,01258.211281,E,092513.00,A,A*67
$GPVTG,158.8,T,158.9,M,000.8,N,001.4,K,A*2F
$GPGSV,2,1,07,02,36,064,42,12,47,089,34,14,20,243,43,25,79,037,45*71
$GPGSV,2,2,07,29,64,232,44,30,45,297,47,31,35,309,47,,,,*44
$GPGSA,M,3,02,14,25,29,30,31,,,,,,,2.6,1.5,2.1*37
Trace #67 at position 16.500000
$GPZDA,092512.03,08,10,2011,00,00*63
$GPRMC,092512.00,A,4611.969250,N,01258.211188,E,000.7,154.4,081011,0.2,E,A*3E
$GPGGA,092513.00,4611.969023,N,01258.211281,E,1,06,1.5,140.34,M,46.25,M,,*67
$GPGLL,4611.969023,N,01258.211281,E,092513.00,A,A*67
$GPVTG,158.8,T,158.9,M,000.8,N,001.4,K,A*2F
$GPGSV,2,1,07,02,36,064,42,12,47,089,34,14,20,243,43,25,79,037,45*71
$GPGSV,2,2,07,29,64,232,44,30,45,297,47,31,35,309,47,,,,*44
$GPGSA,M,3,02,14,25,29,30,31,,,,,,,2.6,1.5,2.1*37
Trace #68 at position 16.750000
$GPZDA,092513.04,08,10,2011,00,00*65
$GPRMC,092513.00,A,4611.969023,N,01258.211281,E,000.8,158.8,081011,0.2,E,A*3C
$GPGGA,092514.00,4611.968823,N,01258.211377,E,1,06,1.5,140.33,M,46.25,M,,*66
$GPGLL,4611.968823,N,01258.211377,E,092514.00,A,A*61
$GPVTG,145.1,T,145.3,M,000.5,N,001.0,K,A*25
$GPGSV,2,1,07,02,36,064,42,12,47,089,29,14,20,243,44,25,79,037,46*79
$GPGSV,2,2,07,29,64,232,45,30,45,297,48,31,35,309,47,,,,*4A
$GPGSA,M,3,02,14,25,29,30,31,,,,,,,2.6,1.5,2.1*37
Trace #69 at position 17.000000
$GPZDA,092513.04,08,10,2011,00,00*65
$GPRMC,092513.00,A,4611.969023,N,01258.211281,E,000.8,158.8,081011,0.2,E,A*3C
$GPGGA,092514.00,4611.968823,N,01258.211377,E,1,06,1.5,140.33,M,46.25,M,,*66
$GPGLL,4611.968823,N,01258.211377,E,092514.00,A,A*61
$GPVTG,145.1,T,145.3,M,000.5,N,001.0,K,A*25
$GPGSV,2,1,07,02,36,064,42,12,47,089,29,14,20,243,44,25,79,037,46*79
$GPGSV,2,2,07,29,64,232,45,30,45,297,48,31,35,309,47,,,,*4A
$GPGSA,M,3,02,14,25,29,30,31,,,,,,,2.6,1.5,2.1*37
Trace #70 at position 17.250000
$GPZDA,092514.03,08,10,2011,00,00*65
$GPRMC,092514.00,A,4611.968823,N,01258.211377,E,000.5,145.1,081011,0.2,E,A*32
$GPGGA,092515.00,4611.968579,N,01258.211402,E,1,06,1.5,140.29,M,46.25,M,,*6B
$GPGLL,4611.968579,N,01258.211402,E,092515.00,A,A*67
$GPVTG,187.2,T,187.4,M,001.0,N,001.9,K,A*2C
$GPGSV,2,1,07,02,36,064,43,12,47,089,33,14,20,243,44,25,79,037,46*73
$GPGSV,2,2,07,29,64,232,44,30,45,297,48,31,35,309,47,,,,*4B
$GPGSA,M,3,02,14,25,29,30,31,,,,,,,2.6,1.5,2.1*37
Trace #71 at position 17.500000
$GPZDA,092514.03,08,10,2011,00,00*65
$GPRMC,092514.00,A,4611.968823,N,01258.211377,E,000.5,145.1,081011,0.2,E,A*32
$GPGGA,092515.00,4611.968579,N,01258.211402,E,1,06,1.5,140.29,M,46.25,M,,*6B
$GPGLL,4611.968579,N,01258.211402,E,092515.00,A,A*67
$GPVTG,187.2,T,187.4,M,001.0,N,001.9,K,A*2C
$GPGSV,2,1,07,02,36,064,43,12,47,089,33,14,20,243,44,25,79,037,46*73
$GPGSV,2,2,07,29,64,232,44,30,45,297,48,31,35,309,47,,,,*4B
$GPGSA,M,3,02,14,25,29,30,31,,,,,,,2.6,1.5,2.1*37
Trace #72 at position 17.750000
$GPZDA,092515.03,08,10,2011,00,00*64
$GPRMC,092515.00,A,4611.968579,N,01258.211402,E,001.0,187.2,081011,0.2,E,A*3D
$GPGGA,092516.00,4611.968295,N,01258.211439,E,1,06,1.5,140.28,M,46.25,M,,*64
$GPGLL,4611.968295,N,01258.211439,E,092516.00,A,A*69
$GPVTG,159.4,T,159.6,M,000.8,N,001.5,K,A*2D
$GPGSV,2,1,07,02,36,064,43,12,47,089,34,14,20,243,44,25,79,037,47*75
$GPGSV,2,2,07,29,64,232,45,30,45,297,48,31,35,309,47,,,,*4A
$GPGSA,M,3,02,14,25,29,30,31,,,,,,,2.6,1.5,2.0*36
Trace #73 at position 18.000000
$GPZDA,092516.03,08,10,2011,00,00*67
$GPRMC,092516.00,A,4611.968295,N,01258.211439,E,000.8,159.4,081011,0.2,E,A*3F
$GPGGA,092517.00,4611.968016,N,01258.211496,E,1,06,1.5,140.22,M,46.25,M,,*63
$GPGLL,4611.968016,N,01258.211496,E,092517.00,A,A*64
$GPVTG,182.0,T,182.1,M,001.0,N,001.9,K,A*2B
$GPGSV,2,1,07,02,36,064,43,12,47,089,,14,20,243,42,25,79,037,47*74
$GPGSV,2,2,07,29,64,232,44,30,45,297,47,31,35,309,46,,,,*45
$GPGSA,M,3,02,14,25,29,30,31,,,,,,,2.6,1.5,2.0*36
Trace #74 at position 18.250000
$GPZDA,092516.03,08,10,2011,00,00*67
$GPRMC,092516.00,A,4611.968295,N,01258.211439,E,000.8,159.4,081011,0.2,E,A*3F
$GPGGA,092517.00,4611.968016,N,01258.211496,E,1,06,1.5,140.22,M,46.25,M,,*63
$GPGLL,4611.968016,N,01258.211496,E,092517.00,A,A*64
$GPVTG,182.0,T,182.1,M,001.0,N,001.9,K,A*2B
$GPGSV,2,1,07,02,36,064,43,12,47,089,,14,20,243,42,25,79,037,47*74
$GPGSV,2,2,07,29,64,232,44,30,45,297,47,31,35,309,46,,,,*45
$GPGSA,M,3,02,14,25,29,30,31,,,,,,,2.6,1.5,2.0*36
Trace #75 at position 18.500000
$GPZDA,092517.03,08,10,2011,00,00*66
$GPRMC,092517.00,A,4611.968016,N,01258.211496,E,001.0,182.0,081011,0.2,E,A*39
$GPGGA,092518.00,4611.967768,N,01258.211490,E,1,06,1.5,140.18,M,46.25,M,,*62
$GPGLL,4611.967768,N,01258.211490,E,092518.00,A,A*6C
$GPVTG,189.3,T,189.4,M,000.5,N,001.0,K,A*20
$GPGSV,2,1,07,02,36,064,43,12,47,089,,14,20,243,45,25,79,038,45*7E
$GPGSV,2,2,07,29,64,232,45,30,45,297,47,31,35,309,48,,,,*4A
$GPGSA,M,3,02,14,25,29,30,31,,,,,,,2.6,1.5,2.0*36
Trace #76 at position 18.750000
$GPZDA,092518.04,08,10,2011,00,00*6E
$GPRMC,092518.00,A,4611.967768,N,01258.211490,E,000.5,189.3,081011,0.2,E,A*3D
$GPGGA,092519.00,4611.967522,N,01258.211646,E,1,06,1.5,140.18,M,46.25,M,,*66
$GPGLL,4611.967522,N,01258.211646,E,092519.00,A,A*68
$GPVTG,143.9,T,144.1,M,001.4,N,002.5,K,A*2E
$GPGSV,2,1,07,02,36,064,43,12,47,089,29,14,20,243,44,25,79,038,46*77
$GPGSV,2,2,07,29,64,232,44,30,45,297,47,31,35,309,47,,,,*44
$GPGSA,M,3,02,14,25,29,30,31,,,,,,,2.6,1.5,2.0*36
Trace #77 at position 19.000000
$GPZDA,092519.03,08,10,2011,00,00*68
$GPRMC,092519.00,A,4611.967522,N,01258.211646,E,001.4,143.9,081011,0.2,E,A*35
$GPGGA,092520.00,4611.967281,N,01258.211832,E,1,06,1.5,140.14,M,46.25,M,,*63
$GPGLL,4611.967281,N,01258.211832,E,092520.00,A,A*61
$GPVTG,166.8,T,167.0,M,000.5,N,001.0,K,A*2E
$GPGSV,2,1,07,02,36,064,42,12,47,089,,14,20,243,44,25,79,038,46*7D
$GPGSV,2,2,07,29,64,232,45,30,45,297,47,31,35,309,47,,,,*45
$GPGSA,M,3,02,14,25,29,30,31,,,,,,,2.6,1.5,2.0*36
Trace #78 at position 19.250000
$GPZDA,092520.03,08,10,2011,00,00*62
$GPRMC,092520.00,A,4611.967281,N,01258.211832,E,000.5,166.8,081011,0.2,E,A*3A
$GPGGA,092521.00,4611.967064,N,01258.211927,E,1,06,1.5,140.10,M,46.25,M,,*6A
$GPGLL,4611.967064,N,01258.211927,E,092521.00,A,A*6C
$GPVTG,158.3,T,158.4,M,001.0,N,001.9,K,A*2D
$GPGSV,2,1,07,02,36,064,43,12,47,089,,14,20,243,43,25,79,038,46*7B
$GPGSV,2,2,07,29,64,232,46,30,45,297,48,31,35,309,47,,,,*49
$GPGSA,M,3,02,14,25,29,30,31,,,,,,,2.6,1.5,2.0*36
Trace #79 at position 19.500000
$GPZDA,092520.03,08,10,2011,00,00*62
$GPRMC,092520.00,A,4611.967281,N,01258.211832,E,000.5,166.8,081011,0.2,E,A*3A
$GPGGA,092521.00,4611.967064,N,01258.211927,E,1,06,1.5,140.10,M,46.25,M,,*6A
$GPGLL,4611.967064,N,01258.211927,E,092521.00,A,A*6C
$GPVTG,158.3,T,158.4,M,001.0,N,001.9,K,A*2D
$GPGSV,2,1,07,02,36,064,43,12,47,089,,14,20,243,43,25,79,038,46*7B
$GPGSV,2,2,07,29,64,232,46,30,45,297,48,31,35,309,47,,,,*49
$GPGSA,M,3,02,14,25,29,30,31,,,,,,,2.6,1.5,2.0*36
Trace #80 at position 19.750000
$GPZDA,092521.03,08,10,2011,00,00*63
$GPRMC,092521.00,A,4611.967064,N,01258.211927,E,001.0,158.3,081011,0.2,E,A*35
$GPGGA,092522.00,4611.966788,N,01258.211982,E,1,06,1.5,139.97,M,46.25,M,,*63
$GPGLL,4611.966788,N,01258.211982,E,092522.00,A,A*64
$GPVTG,183.9,T,184.1,M,001.1,N,002.0,K,A*2E
$GPGSV,2,1,07,02,36,064,43,12,47,089,31,14,20,243,44,25,79,038,46*7E
$GPGSV,2,2,07,29,64,232,45,30,45,297,47,31,35,309,47,,,,*45
$GPGSA,M,3,02,14,25,29,30,31,,,,,,,2.6,1.5,2.0*36
Trace #81 at position 20.000000
$GPZDA,092521.03,08,10,2011,00,00*63
$GPRMC,092521.00,A,4611.967064,N,01258.211927,E,001.0,158.3,081011,0.2,E,A*35
$GPGGA,092522.00,4611.966788,N,01258.211982,E,1,06,1.5,139.97,M,46.25,M,,*63
$GPGLL,4611.966788,N,01258.211982,E,092522.00,A,A*64
$GPVTG,183.9,T,184.1,M,001.1,N,002.0,K,A*2E
$GPGSV,2,1,07,02,36,064,43,12,47,089,31,14,20,243,44,25,79,038,46*7E
$GPGSV,2,2,07,29,64,232,45,30,45,297,47,31,35,309,47,,,,*45
$GPGSA,M,3,02,14,25,29,30,31,,,,,,,2.6,1.5,2.0*36
Trace #82 at position 20.250000
$GPZDA,092522.03,08,10,2011,00,00*60
$GPRMC,092522.00,A,4611.966788,N,01258.211982,E,001.1,183.9,081011,0.2,E,A*30
$GPGGA,092523.00,4611.966613,N,01258.211959,E,1,06,1.5,139.87,M,46.25,M,,*66
$GPGLL,4611.966613,N,01258.211959,E,092523.00,A,A*60
$GPVTG,200.5,T,200.7,M,000.2,N,000.5,K,A*26
$GPGSV,2,1,07,02,36,064,42,12,47,089,34,14,20,243,44,25,79,038,46*7A
$GPGSV,2,2,07,29,64,232,45,30,45,297,47,31,35,309,47,,,,*45
$GPGSA,M,3,02,14,25,29,30,31,,,,,,,2.6,1.5,2.0*36
Trace #83 at position 20.500000
$GPZDA,092522.03,08,10,2011,00,00*60
$GPRMC,092522.00,A,4611.966788,N,01258.211982,E,001.1,183.9,081011,0.2,E,A*30
$GPGGA,092523.00,4611.966613,N,01258.211959,E,1,06,1.5,139.87,M,46.25,M,,*66
$GPGLL,4611.966613,N,01258.211959,E,092523.00,A,A*60
$GPVTG,200.5,T,200.7,M,000.2,N,000.5,K,A*26
$GPGSV,2,1,07,02,36,064,42,12,47,089,34,14,20,243,44,25,79,038,46*7A
$GPGSV,2,2,07,29,64,232,45,30,45,297,47,31,35,309,47,,,,*45
$GPGSA,M,3,02,14,25,29,30,31,,,,,,,2.6,1.5,2.0*36
Trace #84 at position 20.750000
$GPZDA,092523.04,08,10,2011,00,00*66
$GPRMC,092523.00,A,4611.966613,N,01258.211959,E,000.2,200.5,081011,0.2,E,A*32
$GPGGA,092524.00,4611.966413,N,01258.212059,E,1,06,1.5,139.81,M,46.25,M,,*6F
$GPGLL,4611.966413,N,01258.212059,E,092524.00,A,A*6F
$GPVTG,156.6,T,156.7,M,001.3,N,002.5,K,A*27
$GPGSV,2,1,07,02,36,064,43,12,47,089,31,14,20,243,45,25,79,038,47*7E
$GPGSV,2,2,07,29,64,232,45,30,45,297,47,31,35,309,47,,,,*45
$GPGSA,M,3,02,14,25,29,30,31,,,,,,,2.6,1.5,2.0*36
Trace #85 at position 21.000000
$GPZDA,092523.04,08,10,2011,00,00*66
$GPRMC,092523.00,A,4611.966613,N,01258.211959,E,000.2,200.5,081011,0.2,E,A*32
$GPGGA,092524.00,4611.966413,N,01258.212059,E,1,06,1.5,139.81,M,46.25,M,,*6F
$GPGLL,4611.966413,N,01258.212059,E,092524.00,A,A*6F
$GPVTG,156.6,T,156.7,M,001.3,N,002.5,K,A*27
$GPGSV,2,1,07,02,36,064,43,12,47,089,31,14,20,243,45,25,79,038,47*7E
$GPGSV,2,2,07,29,64,232,45,30,45,297,47,31,35,309,47,,,,*45
$GPGSA,M,3,02,14,25,29,30,31,,,,,,,2.6,1.5,2.0*36
Trace #86 at position 21.250000
$GPZDA,092525.03,08,10,2011,00,00*67
$GPRMC,092525.00,A,4611.966185,N,01258.212193,E,000.5,169.0,081011,0.2,E,A*3F
$GPGGA,092526.00,4611.966026,N,01258.212305,E,1,06,1.5,139.87,M,46.25,M,,*63
$GPGLL,4611.966026,N,01258.212305,E,092526.00,A,A*65
$GPVTG,146.3,T,146.5,M,000.8,N,001.5,K,A*29
$GPGSV,2,1,07,02,36,064,42,12,47,090,31,14,20,243,45,25,79,038,46*76
$GPGSV,2,2,07,29,64,232,45,30,45,297,48,31,35,309,47,,,,*4A
$GPGSA,M,3,02,14,25,29,30,31,,,,,,,2.6,1.5,2.0*36
Trace #87 at position 21.500000
$GPZDA,092525.03,08,10,2011,00,00*67
$GPRMC,092525.00,A,4611.966185,N,01258.212193,E,000.5,169.0,081011,0.2,E,A*3F
$GPGGA,092526.00,4611.966026,N,01258.212305,E,1,06,1.5,139.87,M,46.25,M,,*63
$GPGLL,4611.966026,N,01258.212305,E,092526.00,A,A*65
$GPVTG,146.3,T,146.5,M,000.8,N,001.5,K,A*29
$GPGSV,2,1,07,02,36,064,42,12,47,090,31,14,20,243,45,25,79,038,46*76
$GPGSV,2,2,07,29,64,232,45,30,45,297,48,31,35,309,47,,,,*4A
$GPGSA,M,3,02,14,25,29,30,31,,,,,,,2.6,1.5,2.0*36
Trace #88 at position 21.750000
$GPZDA,092526.03,08,10,2011,00,00*64
$GPRMC,092526.00,A,4611.966026,N,01258.212305,E,000.8,146.3,081011,0.2,E,A*3A
$GPGGA,092527.00,4611.965781,N,01258.212394,E,1,06,1.5,139.82,M,46.25,M,,*66
$GPGLL,4611.965781,N,01258.212394,E,092527.00,A,A*65
$GPVTG,180.8,T,180.9,M,001.1,N,002.0,K,A*20
$GPGSV,2,1,07,02,36,064,42,12,47,090,36,14,20,243,43,25,79,038,45*74
$GPGSV,2,2,07,29,64,232,44,30,45,297,48,31,35,309,47,,,,*4B
$GPGSA,M,3,02,14,25,29,30,31,,,,,,,2.6,1.5,2.0*36
Trace #89 at position 22.000000
$GPZDA,092526.03,08,10,2011,00,00*64
$GPRMC,092526.00,A,4611.966026,N,01258.212305,E,000.8,146.3,081011,0.2,E,A*3A
$GPGGA,092527.00,4611.965781,N,01258.212394,E,1,06,1.5,139.82,M,46.25,M,,*66
$GPGLL,4611.965781,N,01258.212394,E,092527.00,A,A*65
$GPVTG,180.8,T,180.9,M,001.1,N,002.0,K,A*20
$GPGSV,2,1,07,02,36,064,42,12,47,090,36,14,20,243,43,25,79,038,45*74
$GPGSV,2,2,07,29,64,232,44,30,45,297,48,31,35,309,47,,,,*4B
$GPGSA,M,3,02,14,25,29,30,31,,,,,,,2.6,1.5,2.0*36
Trace #90 at position 22.250000
$GPZDA,092527.03,08,10,2011,00,00*65
$GPRMC,092527.00,A,4611.965781,N,01258.212394,E,001.1,180.8,081011,0.2,E,A*33
$GPGGA,092528.00,4611.965568,N,01258.212438,E,1,06,1.5,139.76,M,46.25,M,,*66
$GPGLL,4611.965568,N,01258.212438,E,092528.00,A,A*6E
$GPVTG,157.7,T,157.8,M,000.5,N,001.0,K,A*28
$GPGSV,2,1,07,02,36,064,41,12,47,090,34,14,20,243,43,25,79,038,46*76
$GPGSV,2,2,07,29,64,232,45,30,45,297,47,31,35,309,47,,,,*45
$GPGSA,M,3,02,14,25,29,30,31,,,,,,,2.6,1.5,2.0*36
Trace #91 at position 22.500000
$GPZDA,092527.03,08,10,2011,00,00*65
$GPRMC,092527.00,A,4611.965781,N,01258.212394,E,001.1,180.8,081011,0.2,E,A*33
$GPGGA,092528.00,4611.965568,N,01258.212438,E,1,06,1.5,139.76,M,46.25,M,,*66
$GPGLL,4611.965568,N,01258.212438,E,092528.00,A,A*6E
$GPVTG,157.7,T,157.8,M,000.5,N,001.0,K,A*28
$GPGSV,2,1,07,02,36,064,41,12,47,090,34,14,20,243,43,25,79,038,46*76
$GPGSV,2,2,07,29,64,232,45,30,45,297,47,31,35,309,47,,,,*45
$GPGSA,M,3,02,14,25,29,30,31,,,,,,,2.6,1.5,2.0*36
Trace #92 at position 22.750000
$GPZDA,092528.04,08,10,2011,00,00*6D
$GPRMC,092528.00,A,4611.965568,N,01258.212438,E,000.5,157.7,081011,0.2,E,A*38
$GPGGA,092529.00,4611.965330,N,01258.212587,E,1,06,1.5,139.71,M,46.25,M,,*6E
$GPGLL,4611.965330,N,01258.212587,E,092529.00,A,A*61
$GPVTG,158.1,T,158.2,M,001.4,N,002.6,K,A*21
$GPGSV,2,1,07,02,36,064,43,12,47,090,32,14,20,243,43,25,79,038,47*73
$GPGSV,2,2,07,29,64,232,44,30,45,297,48,31,35,309,47,,,,*4B
$GPGSA,M,3,02,14,25,29,30,31,,,,,,,2.6,1.5,2.0*36
Trace #93 at position 23.000000
$GPZDA,092528.04,08,10,2011,00,00*6D
$GPRMC,092528.00,A,4611.965568,N,01258.212438,E,000.5,157.7,081011,0.2,E,A*38
$GPGGA,092529.00,4611.965330,N,01258.212587,E,1,06,1.5,139.71,M,46.25,M,,*6E
$GPGLL,4611.965330,N,01258.212587,E,092529.00,A,A*61
$GPVTG,158.1,T,158.2,M,001.4,N,002.6,K,A*21
$GPGSV,2,1,07,02,36,064,43,12,47,090,32,14,20,243,43,25,79,038,47*73
$GPGSV,2,2,07,29,64,232,44,30,45,297,48,31,35,309,47,,,,*4B
$GPGSA,M,3,02,14,25,29,30,31,,,,,,,2.6,1.5,2.0*36
Trace #94 at position 23.250000
$GPZDA,092529.03,08,10,2011,00,00*6B
$GPRMC,092529.00,A,4611.965330,N,01258.212587,E,001.4,158.1,081011,0.2,E,A*3E
$GPGGA,092530.00,4611.965024,N,01258.212652,E,1,06,1.5,139.59,M,46.25,M,,*61
$GPGLL,4611.965024,N,01258.212652,E,092530.00,A,A*64
$GPVTG,190.5,T,190.7,M,001.1,N,002.0,K,A*23
$GPGSV,2,1,07,02,36,064,43,12,47,090,30,14,20,243,44,25,79,038,46*77
$GPGSV,2,2,07,29,64,232,45,30,45,297,48,31,35,309,47,,,,*4A
$GPGSA,M,3,02,14,25,29,30,31,,,,,,,2.6,1.5,2.0*36
Trace #95 at position 23.500000
$GPZDA,092529.03,08,10,2011,00,00*6B
$GPRMC,092529.00,A,4611.965330,N,01258.212587,E,001.4,158.1,081011,0.2,E,A*3E
$GPGGA,092530.00,4611.965024,N,01258.212652,E,1,06,1.5,139.59,M,46.25,M,,*61
$GPGLL,4611.965024,N,01258.212652,E,092530.00,A,A*64
$GPVTG,190.5,T,190.7,M,001.1,N,002.0,K,A*23
$GPGSV,2,1,07,02,36,064,43,12,47,090,30,14,20,243,44,25,79,038,46*77
$GPGSV,2,2,07,29,64,232,45,30,45,297,48,31,35,309,47,,,,*4A
$GPGSA,M,3,02,14,25,29,30,31,,,,,,,2.6,1.5,2.0*36
Trace #96 at position 23.750000
$GPZDA,092530.03,08,10,2011,00,00*63
$GPRMC,092530.00,A,4611.965024,N,01258.212652,E,001.1,190.5,081011,0.2,E,A*3E
$GPGGA,092531.00,4611.964726,N,01258.212697,E,1,06,1.5,139.51,M,46.25,M,,*65
$GPGLL,4611.964726,N,01258.212697,E,092531.00,A,A*68
$GPVTG,165.0,T,165.1,M,001.4,N,002.6,K,A*23
$GPGSV,2,1,07,02,36,064,43,12,47,090,25,14,20,243,43,25,79,038,46*74
$GPGSV,2,2,07,29,64,232,45,30,45,297,47,31,35,309,47,,,,*45
$GPGSA,M,3,02,14,25,29,30,31,,,,,,,2.6,1.5,2.0*36
Trace #97 at position 24.000000
$GPZDA,092531.03,08,10,2011,00,00*62
$GPRMC,092531.00,A,4611.964726,N,01258.212697,E,001.4,165.0,081011,0.2,E,A*38
$GPGGA,092532.00,4611.964492,N,01258.212868,E,1,06,1.5,139.59,M,46.25,M,,*6C
$GPGLL,4611.964492,N,01258.212868,E,092532.00,A,A*69
$GPVTG,139.9,T,140.0,M,000.7,N,001.4,K,A*26
$GPGSV,2,1,07,02,36,064,43,12,47,090,28,14,20,243,43,25,79,038,46*79
$GPGSV,2,2,07,29,64,232,45,30,45,297,48,31,35,309,47,,,,*4A
$GPGSA,M,3,02,14,25,29,30,31,,,,,,,2.6,1.5,2.0*36
Trace #98 at position 24.250000
$GPZDA,092531.03,08,10,2011,00,00*62
$GPRMC,092531.00,A,4611.964726,N,01258.212697,E,001.4,165.0,081011,0.2,E,A*38
$GPGGA,092532.00,4611.964492,N,01258.212868,E,1,06,1.5,139.59,M,46.25,M,,*6C
$GPGLL,4611.964492,N,01258.212868,E,092532.00,A,A*69
$GPVTG,139.9,T,140.0,M,000.7,N,001.4,K,A*26
$GPGSV,2,1,07,02,36,064,43,12,47,090,28,14,20,243,43,25,79,038,46*79
$GPGSV,2,2,07,29,64,232,45,30,45,297,48,31,35,309,47,,,,*4A
$GPGSA,M,3,02,14,25,29,30,31,,,,,,,2.6,1.5,2.0*36
Trace #99 at position 24.500000
$GPZDA,092532.03,08,10,2011,00,00*61
$GPRMC,092532.00,A,4611.964492,N,01258.212868,E,000.7,139.9,081011,0.2,E,A*3B
$GPGGA,092533.00,4611.964278,N,01258.212930,E,1,06,1.5,139.64,M,46.25,M,,*6D
$GPGLL,4611.964278,N,01258.212930,E,092533.00,A,A*66
$GPVTG,190.6,T,190.7,M,001.2,N,002.1,K,A*22
$GPGSV,2,1,07,02,36,064,42,12,47,090,36,14,20,243,43,25,79,038,46*77
$GPGSV,2,2,07,29,64,232,45,30,45,297,48,31,35,309,47,,,,*4A
$GPGSA,M,3,02,14,25,29,30,31,,,,,,,2.6,1.5,2.0*36
Trace #100 at position 24.750000
$GPZDA,092532.03,08,10,2011,00,00*61
$GPRMC,092532.00,A,4611.964492,N,01258.212868,E,000.7,139.9,081011,0.2,E,A*3B
$GPGGA,092533.00,4611.964278,N,01258.212930,E,1,06,1.5,139.64,M,46.25,M,,*6D
$GPGLL,4611.964278,N,01258.212930,E,092533.00,A,A*66
$GPVTG,190.6,T,190.7,M,001.2,N,002.1,K,A*22
$GPGSV,2,1,07,02,36,064,42,12,47,090,36,14,20,243,43,25,79,038,46*77
$GPGSV,2,2,07,29,64,232,45,30,45,297,48,31,35,309,47,,,,*4A
$GPGSA,M,3,02,14,25,29,30,31,,,,,,,2.6,1.5,2.0*36
Trace #101 at position 25.000000
$GPZDA,092537.03,08,10,2011,00,00*64
$GPRMC,092537.00,A,4611.963563,N,01258.213355,E,000.2,335.6,081011,0.2,E,A*36
$GPGGA,092538.00,4611.963600,N,01258.213344,E,1,06,1.5,139.71,M,46.25,M,,*66
$GPGLL,4611.963600,N,01258.213344,E,092538.00,A,A*69
$GPVTG,127.9,T,128.1,M,000.1,N,000.1,K,A*24
$GPGSV,2,1,07,02,36,064,45,12,47,090,,14,20,243,43,25,79,038,46*75
$GPGSV,2,2,07,29,64,232,45,30,45,297,48,31,35,309,46,,,,*4B
$GPGSA,M,3,02,14,25,29,30,31,,,,,,,2.6,1.5,2.0*36
Trace #102 at position 25.250000
$GPZDA,092538.04,08,10,2011,00,00*6C
$GPRMC,092538.00,A,4611.963600,N,01258.213344,E,000.1,127.9,081011,0.2,E,A*32
$GPGGA,092539.00,4611.963614,N,01258.213341,E,1,06,1.5,139.71,M,46.25,M,,*67
$GPGLL,4611.963614,N,01258.213341,E,092539.00,A,A*68
$GPVTG,290.2,T,290.4,M,000.0,N,000.1,K,A*24
$GPGSV,2,1,07,02,36,064,45,12,47,090,,14,20,243,44,25,79,038,46*72
$GPGSV,2,2,07,29,64,232,45,30,45,297,48,31,35,309,46,,,,*4B
$GPGSA,M,3,02,14,25,29,30,31,,,,,,,2.6,1.5,2.0*36
Trace #103 at position 25.500000
$GPZDA,092538.04,08,10,2011,00,00*6C
$GPRMC,092538.00,A,4611.963600,N,01258.213344,E,000.1,127.9,081011,0.2,E,A*32
$GPGGA,092539.00,4611.963614,N,01258.213341,E,1,06,1.5,139.71,M,46.25,M,,*67
$GPGLL,4611.963614,N,01258.213341,E,092539.00,A,A*68
$GPVTG,290.2,T,290.4,M,000.0,N,000.1,K,A*24
$GPGSV,2,1,07,02,36,064,45,12,47,090,,14,20,243,44,25,79,038,46*72
$GPGSV,2,2,07,29,64,232,45,30,45,297,48,31,35,309,46,,,,*4B
$GPGSA,M,3,02,14,25,29,30,31,,,,,,,2.6,1.5,2.0*36
Trace #104 at position 25.750000
$GPZDA,092539.03,08,10,2011,00,00*6A
$GPRMC,092539.00,A,4611.963614,N,01258.213341,E,000.0,290.2,081011,0.2,E,A*36
$GPGGA,092540.00,4611.963626,N,01258.213330,E,1,06,1.5,139.72,M,46.25,M,,*6D
$GPGLL,4611.963626,N,01258.213330,E,092540.00,A,A*61
$GPVTG,167.7,T,167.9,M,000.0,N,000.1,K,A*2C
$GPGSV,2,1,07,02,36,064,45,12,47,090,,14,20,243,43,25,79,038,47*74
$GPGSV,2,2,07,29,64,232,46,30,45,297,48,31,35,309,47,,,,*49
$GPGSA,M,3,02,14,25,29,30,31,,,,,,,2.6,1.5,2.0*36
Trace #105 at position 26.000000
$GPZDA,092539.03,08,10,2011,00,00*6A
$GPRMC,092539.00,A,4611.963614,N,01258.213341,E,000.0,290.2,081011,0.2,E,A*36
$GPGGA,092540.00,4611.963626,N,01258.213330,E,1,06,1.5,139.72,M,46.25,M,,*6D
$GPGLL,4611.963626,N,01258.213330,E,092540.00,A,A*61
$GPVTG,167.7,T,167.9,M,000.0,N,000.1,K,A*2C
$GPGSV,2,1,07,02,36,064,45,12,47,090,,14,20,243,43,25,79,038,47*74
$GPGSV,2,2,07,29,64,232,46,30,45,297,48,31,35,309,47,,,,*49
$GPGSA,M,3,02,14,25,29,30,31,,,,,,,2.6,1.5,2.0*36
Trace #106 at position 26.250000
$GPZDA,092540.03,08,10,2011,00,00*64
$GPRMC,092540.00,A,4611.963626,N,01258.213330,E,000.0,167.7,081011,0.2,E,A*31
$GPGGA,092541.00,4611.963550,N,01258.213367,E,1,06,1.5,139.68,M,46.25,M,,*67
$GPGLL,4611.963550,N,01258.213367,E,092541.00,A,A*60
$GPVTG,161.2,T,161.3,M,000.7,N,001.3,K,A*27
$GPGSV,2,1,07,02,36,064,44,12,47,090,,14,20,243,42,25,79,038,46*75
$GPGSV,2,2,07,29,64,232,45,30,45,297,47,31,35,309,47,,,,*45
$GPGSA,M,3,02,14,25,29,30,31,,,,,,,2.6,1.5,2.0*36
Trace #107 at position 26.500000
$GPZDA,092540.03,08,10,2011,00,00*64
$GPRMC,092540.00,A,4611.963626,N,01258.213330,E,000.0,167.7,081011,0.2,E,A*31
$GPGGA,092541.00,4611.963550,N,01258.213367,E,1,06,1.5,139.68,M,46.25,M,,*67
$GPGLL,4611.963550,N,01258.213367,E,092541.00,A,A*60
$GPVTG,161.2,T,161.3,M,000.7,N,001.3,K,A*27
$GPGSV,2,1,07,02,36,064,44,12,47,090,,14,20,243,42,25,79,038,46*75
$GPGSV,2,2,07,29,64,232,45,30,45,297,47,31,35,309,47,,,,*45
$GPGSA,M,3,02,14,25,29,30,31,,,,,,,2.6,1.5,2.0*36
Trace #108 at position 26.750000
$GPZDA,092541.03,08,10,2011,00,00*65
$GPRMC,092541.00,A,4611.963550,N,01258.213367,E,000.7,161.2,081011,0.2,E,A*34
$GPGGA,092542.00,4611.963378,N,01258.213482,E,1,06,1.5,139.68,M,46.25,M,,*64
$GPGLL,4611.963378,N,01258.213482,E,092542.00,A,A*63
$GPVTG,149.1,T,149.2,M,000.8,N,001.4,K,A*2D
$GPGSV,2,1,07,02,36,064,43,12,47,090,,14,20,243,44,25,79,039,46*75
$GPGSV,2,2,07,29,64,232,45,30,45,297,47,31,35,309,47,,,,*45
$GPGSA,M,3,02,14,25,29,30,31,,,,,,,2.6,1.5,2.0*36
Trace #109 at position 27.000000
$GPZDA,092542.03,08,10,2011,00,00*66
$GPRMC,092542.00,A,4611.963378,N,01258.213482,E,000.8,149.1,081011,0.2,E,A*31
$GPGGA,092543.00,4611.963187,N,01258.213666,E,1,06,1.5,139.78,M,46.25,M,,*6E
$GPGLL,4611.963187,N,01258.213666,E,092543.00,A,A*68
$GPVTG,139.3,T,139.4,M,000.9,N,001.7,K,A*2B
$GPGSV,2,1,07,02,36,064,44,12,47,090,31,14,20,243,43,25,79,039,46*77
$GPGSV,2,2,07,29,64,232,44,30,45,297,47,31,35,309,47,,,,*44
$GPGSA,M,3,02,14,25,29,30,31,,,,,,,2.6,1.5,2.0*36
Trace #110 at position 27.250000
$GPZDA,092542.03,08,10,2011,00,00*66
$GPRMC,092542.00,A,4611.963378,N,01258.213482,E,000.8,149.1,081011,0.2,E,A*31
$GPGGA,092543.00,4611.963187,N,01258.213666,E,1,06,1.5,139.78,M,46.25,M,,*6E
$GPGLL,4611.963187,N,01258.213666,E,092543.00,A,A*68
$GPVTG,139.3,T,139.4,M,000.9,N,001.7,K,A*2B
$GPGSV,2,1,07,02,36,064,44,12,47,090,31,14,20,243,43,25,79,039,46*77
$GPGSV,2,2,07,29,64,232,44,30,45,297,47,31,35,309,47,,,,*44
$GPGSA,M,3,02,14,25,29,30,31,,,,,,,2.6,1.5,2.0*36
Trace #111 at position 27.500000
$GPZDA,092543.04,08,10,2011,00,00*60
$GPRMC,092543.00,A,4611.963187,N,01258.213666,E,000.9,139.3,081011,0.2,E,A*3E
$GPGGA,092544.00,4611.962959,N,01258.213822,E,1,06,1.5,139.89,M,46.25,M,,*63
$GPGLL,4611.962959,N,01258.213822,E,092544.00,A,A*6B
$GPVTG,162.6,T,162.7,M,001.0,N,001.8,K,A*2A
$GPGSV,2,1,07,02,36,064,44,12,47,090,30,14,20,243,44,25,79,039,47*70
$GPGSV,2,2,07,29,64,232,45,30,45,297,47,31,35,309,47,,,,*45
$GPGSA,M,3,02,14,25,29,30,31,,,,,,,2.6,1.5,2.0*36
Trace #112 at position 27.750000
$GPZDA,092543.04,08,10,2011,00,00*60
$GPRMC,092543.00,A,4611.963187,N,01258.213666,E,000.9,139.3,081011,0.2,E,A*3E
$GPGGA,092544.00,4611.962959,N,01258.213822,E,1,06,1.5,139.89,M,46.25,M,,*63
$GPGLL,4611.962959,N,01258.213822,E,092544.00,A,A*6B
$GPVTG,162.6,T,162.7,M,001.0,N,001.8,K,A*2A
$GPGSV,2,1,07,02,36,064,44,12,47,090,30,14,20,243,44,25,79,039,47*70
$GPGSV,2,2,07,29,64,232,45,30,45,297,47,31,35,309,47,,,,*45
$GPGSA,M,3,02,14,25,29,30,31,,,,,,,2.6,1.5,2.0*36
Trace #113 at position 28.000000
$GPZDA,092544.03,08,10,2011,00,00*60
$GPRMC,092544.00,A,4611.962959,N,01258.213822,E,001.0,162.6,081011,0.2,E,A*3E
$GPGGA,092545.00,4611.962732,N,01258.213955,E,1,06,1.5,139.93,M,46.25,M,,*6B
$GPGLL,4611.962732,N,01258.213955,E,092545.00,A,A*68
$GPVTG,143.1,T,143.3,M,000.9,N,001.7,K,A*2E
$GPGSV,2,1,07,02,36,064,44,12,47,090,34,14,20,243,44,25,79,039,46*75
$GPGSV,2,2,07,29,64,232,44,30,45,297,47,31,35,309,47,,,,*44
$GPGSA,M,3,02,14,25,29,30,31,,,,,,,2.6,1.5,2.0*36
Trace #114 at position 28.250000
$GPZDA,092544.03,08,10,2011,00,00*60
$GPRMC,092544.00,A,4611.962959,N,01258.213822,E,001.0,162.6,081011,0.2,E,A*3E
$GPGGA,092545.00,4611.962732,N,01258.213955,E,1,06,1.5,139.93,M,46.25,M,,*6B
$GPGLL,4611.962732,N,01258.213955,E,092545.00,A,A*68
$GPVTG,143.1,T,143.3,M,000.9,N,001.7,K,A*2E
$GPGSV,2,1,07,02,36,064,44,12,47,090,34,14,20,243,44,25,79,039,46*75
$GPGSV,2,2,07,29,64,232,44,30,45,297,47,31,35,309,47,,,,*44
$GPGSA,M,3,02,14,25,29,30,31,,,,,,,2.6,1.5,2.0*36
Trace #115 at position 28.500000
$GPZDA,092545.03,08,10,2011,00,00*61
$GPRMC,092545.00,A,4611.962732,N,01258.213955,E,000.9,143.1,081011,0.2,E,A*31
$GPGGA,092546.00,4611.962400,N,01258.213997,E,1,06,1.5,139.86,M,46.25,M,,*60
$GPGLL,4611.962400,N,01258.213997,E,092546.00,A,A*67
$GPVTG,187.5,T,187.6,M,001.7,N,003.2,K,A*27
$GPGSV,2,1,07,02,36,064,44,12,47,090,,14,20,243,42,25,79,039,47*75
$GPGSV,2,2,07,29,64,232,45,30,45,297,47,31,36,309,47,,,,*46
$GPGSA,M,3,02,14,25,29,30,31,,,,,,,2.6,1.5,2.0*36
Trace #116 at position 28.750000
$GPZDA,092545.03,08,10,2011,00,00*61
$GPRMC,092545.00,A,4611.962732,N,01258.213955,E,000.9,143.1,081011,0.2,E,A*31
$GPGGA,092546.00,4611.962400,N,01258.213997,E,1,06,1.5,139.86,M,46.25,M,,*60
$GPGLL,4611.962400,N,01258.213997,E,092546.00,A,A*67
$GPVTG,187.5,T,187.6,M,001.7,N,003.2,K,A*27
$GPGSV,2,1,07,02,36,064,44,12,47,090,,14,20,243,42,25,79,039,47*75
$GPGSV,2,2,07,29,64,232,45,30,45,297,47,31,36,309,47,,,,*46
$GPGSA,M,3,02,14,25,29,30,31,,,,,,,2.6,1.5,2.0*36
Trace #117 at position 29.000000
$GPZDA,092546.03,08,10,2011,00,00*62
