Trace #1 at position 0.000000
$GPZDA,085204.04,08,10,2011,00,00*62
$GPRMC,085204.00000.2,176.9,081011,0.2,E,A*3C
$GPGGA,085205.00,4611.976159,N,01258.206199,E,1,07,1.4,141.23,M,46.25,M,,*68
$GPGLL,4611.976159,N,01258.206199,E,085205.00,A,A*6F
$GPVTG,157.0,T,157.2,M,000.1,N,000.2,K,A*22
$GPGSV,2,1,08,02,38,082,38,09,22,150,34,12,59,073,39,14,30,256,44*76
$GPGSV,2,2,08,25,74,326,49,29,49,221,47,30,31,289,45,31,22,313,41*7E
$GPGSA,M,3,02,12,14,25,29,30,31,,,,,,2.8,1.4,2.4*3E
Trace #2 at position 0.250000
$GPZDA,085209.04,08,10,2011,00,00*6F
$GPRMC,085209.00,A,4611.976179,N,01258.206157,E,000.0,86.0,081011,0.2,E,A*0A
$GPGGA,085210.00,4611.976182,N,01258.206149,E,1,07,1.4,141.38,M,46.25,M,,*6D
$GPGLL,4611.976182,N,01258.206149,E,085210.00,A,A*60
$GPVTG,184.9,T,185.1,M,000.0,N,000.0,K,A*2A
$GPGSV,2,1,08,02,38,082,39,09,22,151,34,12,59,073,40,14,30,256,43*7F
$GPGSV,2,2,08,25,74,326,49,29,49,221,47,30,31,289,45,31,22,313,45*7A
$GPGSA,M,3,02,12,14,25,29,30,31,,,,,,2.8,1.4,2.4*3E
Trace #3 at position 0.500000
$GPZDA,085210.04,08,10,2011,00,00*67
$GPRMC,085210.00,A,4611.976182,N,01258.206149,E,000.0,184.9,081011,0.2,E,A*33
$GPGGA,085211.00,4611.976185,N,01258.206139,E,1,07,1.4,141.43,M,46.25,M,,*60
$GPGLL,4611.976185,N,01258.206139,E,085211.00,A,A*61
$GPVTG,68.6,T,68.7,M,000.0,N,000.0,K,A*22
$GPGSV,2,1,08,02,38,082,38,09,22,151,35,12,59,073,40,14,30,256,43*7F
$GPGSV,2,2,08,25,74,326,49,29,49,221,46,30,31,289,45,31,22,313,43*7D
$GPGSA,M,3,02,12,14,25,29,30,31,,,,,,2.8,1.4,2.4*3E
Trace #4 at position 0.750000
$GPZDA,085211.04,08,10,2011,00,00*66
$GPRMC,085211.00,A,4611.976185,N,01258.206139,E,000.0,68.6,081011,0.2,E,A*0E
$GPGGA,085212.00,4611.976186,N,01258.206140,E,1,07,1.4,141.47,M,46.25,M,,*6A
$GPGLL,4611.976186,N,01258.206140,E,085212.00,A,A*6F
$GPVTG,128.0,T,128.2,M,000.1,N,000.1,K,A*21
$GPGSV,2,1,08,02,38,082,38,09,22,151,36,12,59,073,40,14,30,256,44*7B
$GPGSV,2,2,08,25,74,326,49,29,49,221,46,30,31,289,46,31,22,313,38*72
$GPGSA,M,3,02,12,14,25,29,30,31,,,,,,2.8,1.4,2.4*3E
Trace #5 at position 1.000000
$GPZDA,085211.04,08,10,2011,00,00*66
$GPRMC,085211.00,A,4611.976185,N,01258.206139,E,000.0,68.6,081011,0.2,E,A*0E
$GPGGA,085212.00,4611.976186,N,01258.206140,E,1,07,1.4,141.47,M,46.25,M,,*6A
$GPGLL,4611.976186,N,01258.206140,E,085212.00,A,A*6F
$GPVTG,128.0,T,128.2,M,000.1,N,000.1,K,A*21
$GPGSV,2,1,08,02,38,082,38,09,22,151,36,12,59,073,40,14,30,256,44*7B
$GPGSV,2,2,08,25,74,326,49,29,49,221,46,30,31,289,46,31,22,313,38*72
$GPGSA,M,3,02,12,14,25,29,30,31,,,,,,2.8,1.4,2.4*3E
Trace #6 at position 1.250000
$GPZDA,085212.04,08,10,2011,00,00*65
$GPRMC,085212.00,A,4611.976186,N,01258.206140,E,000.1,128.0,081011,0.2,E,A*32
$GPGGA,085213.00,4611.976189,N,01258.206138,E,1,07,1.4,141.52,M,46.25,M,,*6F
$GPGLL,4611.976189,N,01258.206138,E,085213.00,A,A*6E
$GPVTG,344.0,T,344.2,M,000.0,N,000.0,K,A*21
$GPGSV,2,1,08,02,38,082,36,09,22,151,35,12,59,073,40,14,30,256,43*71
$GPGSV,2,2,08,25,74,326,49,29,49,221,46,30,31,289,45,31,22,313,39*70
$GPGSA,M,3,02,12,14,25,29,30,31,,,,,,2.8,1.4,2.4*3E
Trace #7 at position 1.500000
$GPZDA,085212.04,08,10,2011,00,00*65
$GPRMC,085212.00,A,4611.976186,N,01258.206140,E,000.1,128.0,081011,0.2,E,A*32
$GPGGA,085213.00,4611.976189,N,01258.206138,E,1,07,1.4,141.52,M,46.25,M,,*6F
$GPGLL,4611.976189,N,01258.206138,E,085213.00,A,A*6E
$GPVTG,344.0,T,344.2,M,000.0,N,000.0,K,A*21
$GPGSV,2,1,08,02,38,082,36,09,22,151,35,12,59,073,40,14,30,256,43*71
$GPGSV,2,2,08,25,74,326,49,29,49,221,46,30,31,289,45,31,22,313,39*70
$GPGSA,M,3,02,12,14,25,29,30,31,,,,,,2.8,1.4,2.4*3E
Trace #8 at position 1.750000
$GPZDA,085212.04,08,10,2011,00,00*65
$GPRMC,085212.00,A,4611.976186,N,01258.206140,E,000.1,128.0,081011,0.2,E,A*32
$GPGGA,085213.00,4611.976189,N,01258.206138,E,1,07,1.4,141.52,M,46.25,M,,*6F
$GPGLL,4611.976189,N,01258.206138,E,085213.00,A,A*6E
$GPVTG,344.0,T,344.2,M,000.0,N,000.0,K,A*21
$GPGSV,2,1,08,02,38,082,36,09,22,151,35,12,59,073,40,14,30,256,43*71
$GPGSV,2,2,08,25,74,326,49,29,49,221,46,30,31,289,45,31,22,313,39*70
$GPGSA,M,3,02,12,14,25,29,30,31,,,,,,2.8,1.4,2.4*3E
Trace #9 at position 2.000000
$GPZDA,085213.04,08,10,2011,00,00*64
$GPRMC,085213.00,A,4611.976189,N,01258.206138,E,000.0,344.0,081011,0.2,E,A*3A
$GPGGA,085214.00,4611.976214,N,01258.206141,E,1,07,1.4,141.59,M,46.25,M,,*6A
$GPGLL,4611.976214,N,01258.206141,E,085214.00,A,A*60
$GPVTG,25.2,T,25.4,M,000.2,N,000.3,K,A*24
$GPGSV,2,1,08,02,38,082,38,09,22,151,30,12,59,073,39,14,30,256,41*76
$GPGSV,2,2,08,25,74,326,48,29,49,221,46,30,31,289,43,31,22,313,39*77
$GPGSA,M,3,02,12,14,25,29,30,31,,,,,,2.8,1.4,2.4*3E
Trace #10 at position 2.250000
$GPZDA,085213.04,08,10,2011,00,00*64
$GPRMC,085213.00,A,4611.976189,N,01258.206138,E,000.0,344.0,081011,0.2,E,A*3A
$GPGGA,085214.00,4611.976214,N,01258.206141,E,1,07,1.4,141.59,M,46.25,M,,*6A
$GPGLL,4611.976214,N,01258.206141,E,085214.00,A,A*60
$GPVTG,25.2,T,25.4,M,000.2,N,000.3,K,A*24
$GPGSV,2,1,08,02,38,082,38,09,22,151,30,12,59,073,39,14,30,256,41*76
$GPGSV,2,2,08,25,74,326,48,29,49,221,46,30,31,289,43,31,22,313,39*77
$GPGSA,M,3,02,12,14,25,29,30,31,,,,,,2.8,1.4,2.4*3E
Trace #11 at position 2.500000
$GPZDA,085214.04,08,10,2011,00,00*63
$GPRMC,085214.00,A,4611.976214,N,01258.206141,E,000.2,25.2,081011,0.2,E,A*00
$GPGGA,085215.00,4611.976161,N,01258.206202,E,1,06,1.8,141.81,M,46.25,M,,*66
$GPGLL,4611.976161,N,01258.206202,E,085215.00,A,A*64
$GPVTG,82.5,T,82.7,M,000.2,N,000.4,K,A*27
$GPGSV,2,1,08,02,38,082,40,09,22,151,31,12,59,073,43,14,30,256,2,08,25,74,326,49,29,49,221,45,30,31,289,42,31,22,313,36*7B
$GPGSA,M,3,02,12,14,25,29,30,,,,,,,3.2,1.8,2.7*38
Trace #12 at position 2.750000
$GPZDA,085214.04,08,10,2011,00,00*63
$GPRMC,085214.00,A,4611.976214,N,01258.206141,E,000.2,25.2,081011,0.2,E,A*00
$GPGGA,085215.00,4611.976161,N,01258.206202,E,1,06,1.8,141.81,M,46.25,M,,*66
$GPGLL,4611.976161,N,01258.206202,E,085215.00,A,A*64
$GPVTG,82.5,T,82.7,M,000.2,N,000.4,K,A*27
$GPGSV,2,1,08,02,38,082,40,09,22,151,31,12,59,073,43,14,30,256,2,08,25,74,326,49,29,49,221,45,30,31,289,42,31,22,313,36*7B
$GPGSA,M,3,02,12,14,25,29,30,,,,,,,3.2,1.8,2.7*38
Trace #13 at position 3.000000
$GPZDA,085214.04,08,10,2011,00,00*63
$GPRMC,085214.00,A,4611.976214,N,01258.206141,E,000.2,25.2,081011,0.2,E,A*00
$GPGGA,085215.00,4611.976161,N,01258.206202,E,1,06,1.8,141.81,M,46.25,M,,*66
$GPGLL,4611.976161,N,01258.206202,E,085215.00,A,A*64
$GPVTG,82.5,T,82.7,M,000.2,N,000.4,K,A*27
$GPGSV,2,1,08,02,38,082,40,09,22,151,31,12,59,073,43,14,30,256,2,08,25,74,326,49,29,49,221,45,30,31,289,42,31,22,313,36*7B
$GPGSA,M,3,02,12,14,25,29,30,,,,,,,3.2,1.8,2.7*38
Trace #14 at position 3.250000
$GPZDA,085214.04,08,10,2011,00,00*63
$GPRMC,085214.00,A,4611.976214,N,01258.206141,E,000.2,25.2,081011,0.2,E,A*00
$GPGGA,085215.00,4611.976161,N,01258.206202,E,1,06,1.8,141.81,M,46.25,M,,*66
$GPGLL,4611.976161,N,01258.206202,E,085215.00,A,A*64
$GPVTG,82.5,T,82.7,M,000.2,N,000.4,K,A*27
$GPGSV,2,1,08,02,38,082,40,09,22,151,31,12,59,073,43,14,30,256,2,08,25,74,326,49,29,49,221,45,30,31,289,42,31,22,313,36*7B
$GPGSA,M,3,02,12,14,25,29,30,,,,,,,3.2,1.8,2.7*38
Trace #15 at position 3.500000
$GPZDA,085215.04,08,10,2011,00,00*62
$GPRMC,085215.00,A,4611.976161,N,01258.206202,E,000.2,82.5,081011,0.2,E,A*0E
$GPGGA,085216.00,4611.976036,N,01258.206311,E,1,06,1.8,141.95,M,46.25,M,,*60
$GPGLL,4611.976036,N,01258.206311,E,085216.00,A,A*67
$GPVTG,142.8,T,143.0,M,000.5,N,001.0,K,A*2E
$GPGSV,2,1,08,02,38,082,39,09,22,151,33,12,59,073,41,14,30,256,40*7A
$GPGSV,2,2,08,25,74,326,48,29,49,221,00,00*66
$GPRMC,085216.00,A,4611.976036,N,01258.206311,E,000.5,142.8,081011,0.2,E,A*3A
$GPGGA,085217.00,4611.975814,N,01258.206355,E,1,06,1.8,142.02,M,46.25,M,,*67
$GPGLL,4611.975814,N,01258.206355,E,085217.00,A,A*6D
$GPVTG,188.8,T,189.0,M,000.8,N,001.4,K,A*27
$GPGSV,2,1,08,02,38,082,43,09,22,151,34,12,59,073,42,14,30,256,41*72
$GPGSV,2,2,08,25,74,326,49,29,49,221,45,30,31,289,42,31,22,313,39*74
$GPGSA,M,3,02,12,14,25,29,30,,,,,,,3.2,1.8,2.7*38
Trace #16 at position 3.750000
$GPZDA,085215.04,08,10,2011,00,00*62
$GPRMC,085215.00,A,4611.976161,N,01258.206202,E,000.2,82.5,081011,0.2,E,A*0E
$GPGGA,085216.00,4611.976036,N,01258.206311,E,1,06,1.8,141.95,M,46.25,M,,*60
$GPGLL,4611.976036,N,01258.206311,E,085216.00,A,A*67
$GPVTG,142.8,T,143.0,M,000.5,N,001.0,K,A*2E
$GPGSV,2,1,08,02,38,082,39,09,22,151,33,12,59,073,41,14,30,256,40*7A
$GPGSV,2,2,08,25,74,326,48,29,49,221,00,00*66
$GPRMC,085216.00,A,4611.976036,N,01258.206311,E,000.5,142.8,081011,0.2,E,A*3A
$GPGGA,085217.00,4611.975814,N,01258.206355,E,1,06,1.8,142.02,M,46.25,M,,*67
$GPGLL,4611.975814,N,01258.206355,E,085217.00,A,A*6D
$GPVTG,188.8,T,189.0,M,000.8,N,001.4,K,A*27
$GPGSV,2,1,08,02,38,082,43,09,22,151,34,12,59,073,42,14,30,256,41*72
$GPGSV,2,2,08,25,74,326,49,29,49,221,45,30,31,289,42,31,22,313,39*74
$GPGSA,M,3,02,12,14,25,29,30,,,,,,,3.2,1.8,2.7*38
Trace #17 at position 4.000000
$GPZDA,085217.03,08,10,2011,00,00*67
$GPRMC,085217.00000.8,188.8,081011,0.2,E,A*3B
$GPGGA,085218.00,4611.975635,N,01258.206410,E,1,07,1.4,141.92,M,46.25,M,,*64
$GPGLL,4611.975635,N,01258.206410,E,085218.00,A,A*69
$GPVTG,148.4,T,148.6,M,000.9,N,001.7,K,A*2E
$GPGSV,2,1,08,02,38,082,43,09,22,151,29,12,59,073,42,14,30,256,40*7F
$GPGSV,2,2,08,25,74,326,47,29,49,221,45,30,31,289,40,31,22,313,39*78
$GPGSA,M,3,02,12,14,25,29,30,31,,,,,,2.8,1.4,2.4*3E
Trace #18 at position 4.250000
$GPZDA,085217.03,08,10,2011,00,00*67
$GPRMC,085217.00000.8,188.8,081011,0.2,E,A*3B
$GPGGA,085218.00,4611.975635,N,01258.206410,E,1,07,1.4,141.92,M,46.25,M,,*64
$GPGLL,4611.975635,N,01258.206410,E,085218.00,A,A*69
$GPVTG,148.4,T,148.6,M,000.9,N,001.7,K,A*2E
$GPGSV,2,1,08,02,38,082,43,09,22,151,29,12,59,073,42,14,30,256,40*7F
$GPGSV,2,2,08,25,74,326,47,29,49,221,45,30,31,289,40,31,22,313,39*78
$GPGSA,M,3,02,12,14,25,29,30,31,,,,,,2.8,1.4,2.4*3E
Trace #19 at position 4.500000
$GPZDA,085217.03,08,10,2011,00,00*67
$GPRMC,085217.00000.8,188.8,081011,0.2,E,A*3B
$GPGGA,085218.00,4611.975635,N,01258.206410,E,1,07,1.4,141.92,M,46.25,M,,*64
$GPGLL,4611.975635,N,01258.206410,E,085218.00,A,A*69
$GPVTG,148.4,T,148.6,M,000.9,N,001.7,K,A*2E
$GPGSV,2,1,08,02,38,082,43,09,22,151,29,12,59,073,42,14,30,256,40*7F
$GPGSV,2,2,08,25,74,326,47,29,49,221,45,30,31,289,40,31,22,313,39*78
$GPGSA,M,3,02,12,14,25,29,30,31,,,,,,2.8,1.4,2.4*3E
Trace #20 at position 4.750000
$GPZDA,085218.04,08,10,2011,00,00*6F
$GPRMC,085218.00,A,4611.975635,N,01258.206410,E,000.9,148.4,081011,0.2,E,$GPGGA,085219.00,4611.975448,N,01258.206511,E,1,07,1.4,141.88,M,46.25,M,,*66
$GPGLL,4611.975448,N,01258.206511,E,085219.00,A,A*60
$GPVTG,171.4,T,171.5,M,000.8,N,001.5,K,A*2E
$GPGSV,2,1,08,02,38,082,44,09,22,151,25,12,59,073,43,14,30,256,41*74
$GPGSV,2,2,08,25,74,326,49,29,49,221,44,30,31,289,41,31,22,313,41*79
$GPGSA,M,3,02,12,14,25,29,30,31,,,,,,2.8,1.4,2.4*3E
Trace #21 at position 5.000000
$GPZDA,085218.04,08,10,2011,00,00*6F
$GPRMC,085218.00,A,4611.975635,N,01258.206410,E,000.9,148.4,081011,0.2,E,$GPGGA,085219.00,4611.975448,N,01258.206511,E,1,07,1.4,141.88,M,46.25,M,,*66
$GPGLL,4611.975448,N,01258.206511,E,085219.00,A,A*60
$GPVTG,171.4,T,171.5,M,000.8,N,001.5,K,A*2E
$GPGSV,2,1,08,02,38,082,44,09,22,151,25,12,59,073,43,14,30,256,41*74
$GPGSV,2,2,08,25,74,326,49,29,49,221,44,30,31,289,41,31,22,313,41*79
$GPGSA,M,3,02,12,14,25,29,30,31,,,,,,2.8,1.4,2.4*3E
Trace #22 at position 5.250000
$GPZDA,085220.04,08,10,2011,00,00*64
$GPRMC,085220.00,A,4611.975228,N,01258.206570,E,000.9,167.0,081011,0.2,E,A*33
$GPGGA,085221.00,4611.974978,N,01258.206704,E,1,07,1.4,141.86,M,46.25,M,,*6A
$GPGLL,4611.974978,N,01258.206704,E,085221.00,A,A*62
$GPVTG,153.8,T,153.9,M,001.1,N,002.0,K,A*20
$GPGSV,2,1,08,02,38,082,41,09,22,151,,12,59,073,44,14,30,256,41*71
$GPGSV,2,2,08,25,74,326,46,29,49,221,45,30,31,289,41,31,22,313,40*76
$GPGSA,M,3,02,12,14,25,29,30,31,,,,,,2.8,1.4,2.4*3E
Trace #23 at position 5.500000
$GPZDA,085220.04,08,10,2011,00,00*64
$GPRMC,085220.00,A,4611.975228,N,01258.206570,E,000.9,167.0,081011,0.2,E,A*33
$GPGGA,085221.00,4611.974978,N,01258.206704,E,1,07,1.4,141.86,M,46.25,M,,*6A
$GPGLL,4611.974978,N,01258.206704,E,085221.00,A,A*62
$GPVTG,153.8,T,153.9,M,001.1,N,002.0,K,A*20
$GPGSV,2,1,08,02,38,082,41,09,22,151,,12,59,073,44,14,30,256,41*71
$GPGSV,2,2,08,25,74,326,46,29,49,221,45,30,31,289,41,31,22,313,40*76
$GPGSA,M,3,02,12,14,25,29,30,31,,,,,,2.8,1.4,2.4*3E
Trace #24 at position 5.750000
$GPZDA,085221.04,08,10,2011,00,00*65
$GPRMC,085221.00,A,4611.974978,N,01258.206704,E,001.1,153.8,081011,0.2,E,A*3A
$GPGGA,085222.00,4611.974707,N,01258.206948,E,1,07,1.4,141.87,M,46.25,M,,*68
$GPGLL,4611.974707,N,01258.206948,E,085222.00,A,A*61
$GPVTG,140.7,T,140.8,M,001.3,N,002.3,K,A*2F
$GPGSV,2,1,08,02,38,082,41,09,22,151,,12,59,073,43,14,30,256,41*76
$GPGSV,2,2,08,25,74,326,45,29,49,221,44,30,31,289,40,31,22,313,42*77
$GPGSA,M,3,02,12,14,25,29,30,31,,,,,,2.8,1.4,2.4*3E
Trace #25 at position 6.000000
$GPZDA,085221.04,08,10,2011,00,00*65
$GPRMC,085221.00,A,4611.974978,N,01258.206704,E,001.1,153.8,081011,0.2,E,A*3A
$GPGGA,085222.00,4611.974707,N,01258.206948,E,1,07,1.4,141.87,M,46.25,M,,*68
$GPGLL,4611.974707,N,01258.206948,E,085222.00,A,A*61
$GPVTG,140.7,T,140.8,M,001.3,N,002.3,K,A*2F
$GPGSV,2,1,08,02,38,082,41,09,22,151,,12,59,073,43,14,30,256,41*76
$GPGSV,2,2,08,25,74,326,45,29,49,221,44,30,31,289,40,31,22,313,42*77
$GPGSA,M,3,02,12,14,25,29,30,31,,,,,,2.8,1.4,2.4*3E
Trace #26 at position 6.250000
$GPZDA,085221.04,08,10,2011,00,00*65
$GPRMC,085221.00,A,4611.974978,N,01258.206704,E,001.1,153.8,081011,0.2,E,A*3A
$GPGGA,085222.00,4611.974707,N,01258.206948,E,1,07,1.4,141.87,M,46.25,M,,*68
$GPGLL,4611.974707,N,01258.206948,E,085222.00,A,A*61
$GPVTG,140.7,T,140.8,M,001.3,N,002.3,K,A*2F
$GPGSV,2,1,08,02,38,082,41,09,22,151,,12,59,073,43,14,30,256,41*76
$GPGSV,2,2,08,25,74,326,45,29,49,221,44,30,31,289,40,31,22,313,42*77
$GPGSA,M,3,02,12,14,25,29,30,31,,,,,,2.8,1.4,2.4*3E
Trace #27 at position 6.500000
$GPZDA,085222.04,08,10,2011,00,00*66
$GPRMC,085222.00,A,4611.974707,N,01258.206948,E,001.3,140.7,081011,0.2,E,A*36
$GPGGA,085223.00,4611.974417,N,01258.207113,E,1,07,1.4,141.87,M,46.25,M,,*6C
$GPGLL,4611.974417,N,01258.207113,E,085223.00,A,A*65
$GPVTG,173.2,T,173.3,M,001.1,N,002.1,K,A*21
$GPGSV,2,1,08,02,38,082,43,09,22,151,,12,59,073,43,14,30,256,41*74
$GPGSV,2,2,08,25,74,326,47,29,49,221,44,30,31,289,41,31,22,313,41*77
$GPGSA,M,3,02,12,14,25,29,30,31,,,,,,2.8,1.4,2.4*3E
Trace #28 at position 6.750000
$GPZDA,085222.04,08,10,2011,00,00*66
$GPRMC,085222.00,A,4611.974707,N,01258.206948,E,001.3,140.7,081011,0.2,E,A*36
$GPGGA,085223.00,4611.974417,N,01258.207113,E,1,07,1.4,141.87,M,46.25,M,,*6C
$GPGLL,4611.974417,N,01258.207113,E,085223.00,A,A*65
$GPVTG,173.2,T,173.3,M,001.1,N,002.1,K,A*21
$GPGSV,2,1,08,02,38,082,43,09,22,151,,12,59,073,43,14,30,256,41*74
$GPGSV,2,2,08,25,74,326,47,29,49,221,44,30,31,289,41,31,22,313,41*77
$GPGSA,M,3,02,12,14,25,29,30,31,,,,,,2.8,1.4,2.4*3E
Trace #29 at position 7.000000
$GPZDA,085223.04,08,10,2011,00,00*67
$GPRMC,085223.00,A,4611.974417,N,01258.207113,E,001.1,173.2,081011,0.2,E,A*35
$GPGGA,085224.00,4611.974084,N,01258.207203,E,1,07,1.4,141.80,M,46.25,M,,*60
$GPGLL,4611.974084,N,01258.207203,E,085224.00,A,A*6E
$2.4,K,A*25
$GPGSV,2,1,08,02,38,082,44,09,22,151,,12,59,073,43,14,30,256,41*73
$GPGSV,2,2,08,25,74,326,48,29,49,221,44,30,31,289,41,31,23,313,40*78
$GPGSA,M,3,02,12,14,25,29,30,31,,,,,,2.8,1.4,2.4*3E
Trace #30 at position 7.250000
$GPZDA,085223.04,08,10,2011,00,00*67
$GPRMC,085223.00,A,4611.974417,N,01258.207113,E,001.1,173.2,081011,0.2,E,A*35
$GPGGA,085224.00,4611.974084,N,01258.207203,E,1,07,1.4,141.80,M,46.25,M,,*60
$GPGLL,4611.974084,N,01258.207203,E,085224.00,A,A*6E
$2.4,K,A*25
$GPGSV,2,1,08,02,38,082,44,09,22,151,,12,59,073,43,14,30,256,41*73
$GPGSV,2,2,08,25,74,326,48,29,49,221,44,30,31,289,41,31,23,313,40*78
$GPGSA,M,3,02,12,14,25,29,30,31,,,,,,2.8,1.4,2.4*3E
Trace #31 at position 7.500000
$GPZDA,085223.04,08,10,2011,00,00*67
$GPRMC,085223.00,A,4611.974417,N,01258.207113,E,001.1,173.2,081011,0.2,E,A*35
$GPGGA,085224.00,4611.974084,N,01258.207203,E,1,07,1.4,141.80,M,46.25,M,,*60
$GPGLL,4611.974084,N,01258.207203,E,085224.00,A,A*6E
$2.4,K,A*25
$GPGSV,2,1,08,02,38,082,44,09,22,151,,12,59,073,43,14,30,256,41*73
$GPGSV,2,2,08,25,74,326,48,29,49,221,44,30,31,289,41,31,23,313,40*78
$GPGSA,M,3,02,12,14,25,29,30,31,,,,,,2.8,1.4,2.4*3E
Trace #32 at position 7.750000
$GPZDA,085223.04,08,10,2011,00,00*67
$GPRMC,085223.00,A,4611.974417,N,01258.207113,E,001.1,173.2,081011,0.2,E,A*35
$GPGGA,085224.00,4611.974084,N,01258.207203,E,1,07,1.4,141.80,M,46.25,M,,*60
$GPGLL,4611.974084,N,01258.207203,E,085224.00,A,A*6E
$2.4,K,A*25
$GPGSV,2,1,08,02,38,082,44,09,22,151,,12,59,073,43,14,30,256,41*73
$GPGSV,2,2,08,25,74,326,48,29,49,221,44,30,31,289,41,31,23,313,40*78
$GPGSA,M,3,02,12,14,25,29,30,31,,,,,,2.8,1.4,2.4*3E
Trace #33 at position 8.000000
$GPZDA,085224.04,08,10,2011,00,00*60
$GPRMC,085224.00,A,4611.974084,N,01258.207203,E,001.3,163.5,081011,0.2,E,A*3A
$GPGGA,085225.00,4611.973760,N,01258.207318,E,1,07,1.4,141.73,M,46.25,M,,*6C
$GPGLL,4611.973760,N,01258.207318,E,085225.00,A,A*6E
$GPVTG,167.8,T,167.9,M,001.1,N,002.0,K,A*20
$GPGSV,2,1,08,0$GPZDA,085225.04,08,10,2011,00,00*61
$GPRMC,085225.00,A,4611.973760,N,01258.207318,E,001.1,167.8,081011,0.2,E,A*31
$GPGGA,085226.00,4611.973583,N,01258.207380,E,1,07,1.4,141.73,M,46.25,M,,*61
$GPGLL,4611.973583,N,01258.207380,E,085226.00,A,A*63
$GPVTG,146.8,T,147.0,M,000.3,N,000.5,K,A*2C
$GPGSV,2,1,08,02,38,082,42,09,22,151,,12,59,073,45,14,30,256,41*73
$GPGSV,2,2,08,25,74,326,48,29,49,221,43,30,31,289,42,31,23,313,42*7E
$GPGSA,M,3,02,12,14,25,29,30,31,,,,,,2.8,1.4,2.4*3E
Trace #34 at position 8.250000
$GPZDA,085224.04,08,10,2011,00,00*60
$GPRMC,085224.00,A,4611.974084,N,01258.207203,E,001.3,163.5,081011,0.2,E,A*3A
$GPGGA,085225.00,4611.973760,N,01258.207318,E,1,07,1.4,141.73,M,46.25,M,,*6C
$GPGLL,4611.973760,N,01258.207318,E,085225.00,A,A*6E
$GPVTG,167.8,T,167.9,M,001.1,N,002.0,K,A*20
$GPGSV,2,1,08,0$GPZDA,085225.04,08,10,2011,00,00*61
$GPRMC,085225.00,A,4611.973760,N,01258.207318,E,001.1,167.8,081011,0.2,E,A*31
$GPGGA,085226.00,4611.973583,N,01258.207380,E,1,07,1.4,141.73,M,46.25,M,,*61
$GPGLL,4611.973583,N,01258.207380,E,085226.00,A,A*63
$GPVTG,146.8,T,147.0,M,000.3,N,000.5,K,A*2C
$GPGSV,2,1,08,02,38,082,42,09,22,151,,12,59,073,45,14,30,256,41*73
$GPGSV,2,2,08,25,74,326,48,29,49,221,43,30,31,289,42,31,23,313,42*7E
$GPGSA,M,3,02,12,14,25,29,30,31,,,,,,2.8,1.4,2.4*3E
Trace #35 at position 8.500000
$GPZDA,085226.04,08,10,20112,E,A*3C
$GPGGA,085227.00,4611.973483,N,01258.207408,E,1,07,1.4,141.73,M,46.25,M,,*66
$GPGLL,4611.973483,N,01258.207408,E,085227.00,A,A*64
$GPVTG,174.4,T,174.6,M,000.5,N,001.0,K,A*25
$GPGSV,2,1,08,02,38,082,42,09,22,151,,12,59,073,45,14,30,256,40*72
$GPGSV,2,2,08,25,74,326,48,29,49,221,43,30,31,289,42,31,23,313,40*7C
$GPGSA,M,3,02,12,14,25,29,30,31,,,,,,2.8,1.4,2.4*3E
Trace #36 at position 8.750000
$GPZDA,085226.04,08,10,20112,E,A*3C
$GPGGA,085227.00,4611.973483,N,01258.207408,E,1,07,1.4,141.73,M,46.25,M,,*66
$GPGLL,4611.973483,N,01258.207408,E,085227.00,A,A*64
$GPVTG,174.4,T,174.6,M,000.5,N,001.0,K,A*25
$GPGSV,2,1,08,02,38,082,42,09,22,151,,12,59,073,45,14,30,256,40*72
$GPGSV,2,2,08,25,74,326,48,29,49,221,43,30,31,289,42,31,23,313,40*7C
$GPGSA,M,3,02,12,14,25,29,30,31,,,,,,2.8,1.4,2.4*3E
Trace #37 at position 9.000000
$GPZDA,085227.04,08,10,2011,00,00*63
$GPRMC,085227.00,A,4611.973483,N,01258.207408,E,000.5,174.4,081011,0.2,E,A*30
$GPGGA,085228.00,4611.973269,N,01258.207414,E,1,07,1.4,141.72,M,46.25,M,,*67
$GPGLL,4611.973269,N,01258.207414,E,085228.00,A,A*64
$GPVTG,182.9,T,183.1,M,001.0,N,001.8,K,A*22
$GPGSV,2,1,08,02,38,082,44,09,22,151,,12,59,073,44,14,30,256,41*74
$GPGSV,2,2,08,25,74,326,48,29,49,221,44,30,31,289,42,31,23,313,42*79
$GPGSA,M,3,02,12,14,25,29,30,31,,,,,,2.8,1.4,2.4*3E
Trace #38 at position 9.250000
$GPZDA,085227.04,08,10,2011,00,00*63
$GPRMC,085227.00,A,4611.973483,N,01258.207408,E,000.5,174.4,081011,0.2,E,A*30
$GPGGA,085228.00,4611.973269,N,01258.207414,E,1,07,1.4,141.72,M,46.25,M,,*67
$GPGLL,4611.973269,N,01258.207414,E,085228.00,A,A*64
$GPVTG,182.9,T,183.1,M,001.0,N,001.8,K,A*22
$GPGSV,2,1,08,02,38,082,44,09,22,151,,12,59,073,44,14,30,256,41*74
$GPGSV,2,2,08,25,74,326,48,29,49,221,44,30,31,289,42,31,23,313,42*79
$GPGSA,M,3,02,12,14,25,29,30,31,,,,,,2.8,1.4,2.4*3E
Trace #39 at position 9.500000
$GPZDA,085228.04,08,10,2011,00,00*6C
$GPRMC,085228.00,A,4611.973269,N,01258.207414,E,001.0,182.9,081011,0.2,E,A*30
$GPGGA,085229.00,4611.972983,N,01258.207496,E,1,07,1.4,141.67,M,46.25,M,,*66
$GPGLL,4611.972983,N,01258.207496,E,085229.00,A,A*61
$GPVTG,159.7,T,159.9,M,001.1,N,002.0,K,A*2F
$GPGSV,2,1,08,02,38,082,44,09,22,151,,12,59,073,45,14,30,256,40*74
$GPGSV,2,2,08,25,74,326,48,29,49,221,45,30,31,289,43,31,23,313,40*7B
$GPGSA,M,3,02,12,14,25,29,30,31,,,,,,2.8,1.4,2.4*3E
Trace #40 at position 9.750000
$GPZDA,085228.04,08,10,2011,00,00*6C
$GPRMC,085228.00,A,4611.973269,N,01258.207414,E,001.0,182.9,081011,0.2,E,A*30
$GPGGA,085229.00,4611.972983,N,01258.207496,E,1,07,1.4,141.67,M,46.25,M,,*66
$GPGLL,4611.972983,N,01258.207496,E,085229.00,A,A*61
$GPVTG,159.7,T,159.9,M,001.1,N,002.0,K,A*2F
$GPGSV,2,1,08,02,38,082,44,09,22,151,,12,59,073,45,14,30,256,40*74
$GPGSV,2,2,08,25,74,326,48,29,49,221,45,30,31,289,43,31,23,313,40*7B
$GPGSA,M,3,02,12,14,25,29,30,31,,,,,,2.8,1.4,2.4*3E
Trace #41 at position 10.000000
$GPZDA,085228.04,08,10,2011,00,00*6C
$GPRMC,085228.00,A,4611.973269,N,01258.207414,E,001.0,182.9,081011,0.2,E,A*30
$GPGGA,085229.00,4611.972983,N,01258.207496,E,1,07,1.4,141.67,M,46.25,M,,*66
$GPGLL,4611.972983,N,01258.207496,E,085229.00,A,A*61
$GPVTG,159.7,T,159.9,M,001.1,N,002.0,K,A*2F
$GPGSV,2,1,08,02,38,082,44,09,22,151,,12,59,073,45,14,30,256,40*74
$GPGSV,2,2,08,25,74,326,48,29,49,221,45,30,31,289,43,31,23,313,40*7B
$GPGSA,M,3,02,12,14,25,29,30,31,,,,,,2.8,1.4,2.4*3E
Trace #42 at position 10.250000
$GPZDA,085229.04,08,10,2011,00,00*6D
$GPRMC,085229.00,A,4611.972983,N,01258.207496,E,001.1,159.7,081011,0.2,E,A*3C
$GPGGA,085230.00,4611.972691,N,01258.207734,E,1,07,1.4,141.64,M,46.25,M,,*6A
$GPGLL,4611.972691,N,01258.207734,E,085230.00,A,A*6E
$GPVTG,141.3,T,141.5,M,001.3,N,002.4,K,A*21
$GPGSV,2,1,08,02,38,082,42,09,22,151,,12,59,073,45,14,30,256,40*72
$GPGSV,2,2,08,25,74,326,49,29,49,221,44,30,31,289,42,31,23,313,41*7B
$GPGSA,M,3,02,12,14,25,29,30,31,,,,,,2.8,1.4,2.4*3E
Trace #43 at position 10.500000
$GPZDA,085229.04,08,10,2011,00,00*6D
$GPRMC,085229.00,A,4611.972983,N,01258.207496,E,001.1,159.7,081011,0.2,E,A*3C
$GPGGA,085230.00,4611.972691,N,01258.207734,E,1,07,1.4,141.64,M,46.25,M,,*6A
$GPGLL,4611.972691,N,01258.207734,E,085230.00,A,A*6E
$GPVTG,141.3,T,141.5,M,001.3,N,002.4,K,A*21
$GPGSV,2,1,08,02,38,082,42,09,22,151,,12,59,073,45,14,30,256,40*72
$GPGSV,2,2,08,25,74,326,49,29,49,221,44,30,31,289,42,31,23,313,41*7B
$GPGSA,M,3,02,12,14,25,29,30,31,,,,,,2.8,1.4,2.4*3E
Trace #44 at position 10.750000
$GPZDA,085229.04,08,10,2011,00,00*6D
$GPRMC,085229.00,A,4611.972983,N,01258.207496,E,001.1,159.7,081011,0.2,E,A*3C
$GPGGA,085230.00,4611.972691,N,01258.207734,E,1,07,1.4,141.64,M,46.25,M,,*6A
$GPGLL,4611.972691,N,01258.207734,E,085230.00,A,A*6E
$GPVTG,141.3,T,141.5,M,001.3,N,002.4,K,A*21
$GPGSV,2,1,08,02,38,082,42,09,22,151,,12,59,073,45,14,30,256,40*72
$GPGSV,2,2,08,25,74,326,49,29,49,221,44,30,31,289,42,31,23,313,41*7B
$GPGSA,M,3,02,12,14,25,29,30,31,,,,,,2.8,1.4,2.4*3E
Trace #45 at position 11.000000
$GPZDA,085229.04,08,10,2011,00,00*6D
$GPRMC,085229.00,A,4611.972983,N,01258.207496,E,001.1,159.7,081011,0.2,E,A*3C
$GPGGA,085230.00,4611.972691,N,01258.207734,E,1,07,1.4,141.64,M,46.25,M,,*6A
$GPGLL,4611.972691,N,01258.207734,E,085230.00,A,A*6E
$GPVTG,141.3,T,141.5,M,001.3,N,002.4,K,A*21
$GPGSV,2,1,08,02,38,082,42,09,22,151,,12,59,073,45,14,30,256,40*72
$GPGSV,2,2,08,25,74,326,49,29,49,221,44,30,31,289,42,31,23,313,41*7B
$GPGSA,M,3,02,12,14,25,29,30,31,,,,,,2.8,1.4,2.4*3E
Trace #46 at position 11.250000
$GPZDA,085230.04,08,10,2011,00,00*65
$GPRMC,085230.00,A,4611.972691,N,01258.207734,E,001.3,141.3,081011,0.2,E,A*3C
$GPGGA,085231.00,4611.972399,N,01258.207902,E,1,07,1.4,141.61,M,46.25,M,,*68
$GPGLL,4611.972399,N,01258.207902,E,085231.00,A,A*69
$GPVTG,179.1,T,179.3,M,001.0,N,001.8,K,A*29
$GPGSV,2,1,08,02,38,082,41,09,22,151,,12,59,073,44,14,30,256,41*71
$GPGSV,2,2,08,25,74,326,47,29,49,221,46,30,31,289,43,31,23,313,40*77
$GPGSA,M,3,02,12,14,25,29,30,31,,,,,,2.8,1.4,2.4*3E
Trace #47 at position 11.500000
$GPZDA,085230.04,08,10,2011,00,00*65
$GPRMC,085230.00,A,4611.972691,N,01258.207734,E,001.3,141.3,081011,0.2,E,A*3C
$GPGGA,085231.00,4611.972399,N,01258.207902,E,1,07,1.4,141.61,M,46.25,M,,*68
$GPGLL,4611.972399,N,01258.207902,E,085231.00,A,A*69
$GPVTG,179.1,T,179.3,M,001.0,N,001.8,K,A*29
$GPGSV,2,1,08,02,38,082,41,09,22,151,,12,59,073,44,14,30,256,41*71
$GPGSV,2,2,08,25,74,326,47,29,49,221,46,30,31,289,43,31,23,313,40*77
$GPGSA,M,3,02,12,14,25,29,30,31,,,,,,2.8,1.4,2.4*3E
Trace #48 at position 11.750000
$GPZDA,085230.04,08,10,2011,00,00*65
$GPRMC,085230.00,A,4611.972691,N,01258.207734,E,001.3,141.3,081011,0.2,E,A*3C
$GPGGA,085231.00,4611.972399,N,01258.207902,E,1,07,1.4,141.61,M,46.25,M,,*68
$GPGLL,4611.972399,N,01258.207902,E,085231.00,A,A*69
$GPVTG,179.1,T,179.3,M,001.0,N,001.8,K,A*29
$GPGSV,2,1,08,02,38,082,41,09,22,151,,12,59,073,44,14,30,256,41*71
$GPGSV,2,2,08,25,74,326,47,29,49,221,46,30,31,289,43,31,23,313,40*77
$GPGSA,M,3,02,12,14,25,29,30,31,,,,,,2.8,1.4,2.4*3E
Trace #49 at position 12.000000
$GPZDA,085231.04,08,10,2011,00,00*64
$GPRMC,085231.00,A,4611.972399,N,01258.207902,E,001.0,179.1,081011,0.2,E,A*31
$GPGGA,085232.00,4611.972159,N,01258.207948,E,1,07,1.4,141.61,M,46.25,M,,*6B
$GPGLL,4611.972159,N,01258.207948,E,085232.00,A,A*6A
$GPVTG,170.9,T,171.0,M,000.6,N,001.2,K,A*2E
$GPGSV,2,1,08,02,38,082,42,09,22,151,,12,59,073,43,14,30,256,41*75
$GPGSV,2,2,08,25,74,326,46,29,49,221,45,30,31,289,43,31,23,313,41*74
$GPGSA,M,3,02,12,14,25,29,30,31,,,,,,2.8,1.4,2.4*3E
Trace #50 at position 12.250000
$GPZDA,085231.04,08,10,2011,00,00*64
$GPRMC,085231.00,A,4611.972399,N,01258.207902,E,001.0,179.1,081011,0.2,E,A*31
$GPGGA,085232.00,4611.972159,N,01258.207948,E,1,07,1.4,141.61,M,46.25,M,,*6B
$GPGLL,4611.972159,N,01258.207948,E,085232.00,A,A*6A
$GPVTG,170.9,T,171.0,M,000.6,N,001.2,K,A*2E
$GPGSV,2,1,08,02,38,082,42,09,22,151,,12,59,073,43,14,30,256,41*75
$GPGSV,2,2,08,25,74,326,46,29,49,221,45,30,31,289,43,31,23,313,41*74
$GPGSA,M,3,02,12,14,25,29,30,31,,,,,,2.8,1.4,2.4*3E
Trace #51 at position 12.500000
$GPZDA,085231.04,08,10,2011,00,00*64
$GPRMC,085231.00,A,4611.972399,N,01258.207902,E,001.0,179.1,081011,0.2,E,A*31
$GPGGA,085232.00,4611.972159,N,01258.207948,E,1,07,1.4,141.61,M,46.25,M,,*6B
$GPGLL,4611.972159,N,01258.207948,E,085232.00,A,A*6A
$GPVTG,170.9,T,171.0,M,000.6,N,001.2,K,A*2E
$GPGSV,2,1,08,02,38,082,42,09,22,151,,12,59,073,43,14,30,256,41*75
$GPGSV,2,2,08,25,74,326,46,29,49,221,45,30,31,289,43,31,23,313,41*74
$GPGSA,M,3,02,12,14,25,29,30,31,,,,,,2.8,1.4,2.4*3E
Trace #52 at position 12.750000
$GPZDA,085231.04,08,10,2011,00,00*64
$GPRMC,085231.00,A,4611.972399,N,01258.207902,E,001.0,179.1,081011,0.2,E,A*31
$GPGGA,085232.00,4611.972159,N,01258.207948,E,1,07,1.4,141.61,M,46.25,M,,*6B
$GPGLL,4611.972159,N,01258.207948,E,085232.00,A,A*6A
$GPVTG,170.9,T,171.0,M,000.6,N,001.2,K,A*2E
$GPGSV,2,1,08,02,38,082,42,09,22,151,,12,59,073,43,14,30,256,41*75
$GPGSV,2,2,08,25,74,326,46,29,49,221,45,30,31,289,43,31,23,313,41*74
$GPGSA,M,3,02,12,14,25,29,30,31,,,,,,2.8,1.4,2.4*3E
Trace #53 at position 13.000000
$GPZDA,085232.04,08,10,2011,00,00*67
$GPRMC,085232.00,A,4611.972159,N,01258.207948,E,000.6,170.9,081011,0.2,E,A*34
$GPGGA,085233.00,4611.971908,N,01258.208057,E,1,07,1.4,141.62,M,46.25,M,,*6E
$GPGLL,4611.971908,N,01258.208057,E,085233.00,A,A*6C
$GPVTG,162.4,T,162.5,M,001.1,N,002.0,K,A*20
$GPGSV,2,1,08,02,38,082,41,09,22,151,,12,59,073,44,14,30,256,41*71
$GPGSV,2,2,08,25,74,326,45,29,49,221,45,30,31,289,42,31,23,313,41*76
$GPGSA,M,3,02,12,14,25,29,30,31,,,,,,2.8,1.4,2.4*3E
Trace #54 at position 13.250000
$GPZDA,085232.04,08,10,2011,00,00*67
$GPRMC,085232.00,A,4611.972159,N,01258.207948,E,000.6,170.9,081011,0.2,E,A*34
$GPGGA,085233.00,4611.971908,N,01258.208057,E,1,07,1.4,141.62,M,46.25,M,,*6E
$GPGLL,4611.971908,N,01258.208057,E,085233.00,A,A*6C
$GPVTG,162.4,T,162.5,M,001.1,N,002.0,K,A*20
$GPGSV,2,1,08,02,38,082,41,09,22,151,,12,59,073,44,14,30,256,41*71
$GPGSV,2,2,08,25,74,326,45,29,49,221,45,30,31,289,42,31,23,313,41*76
$GPGSA,M,3,02,12,14,25,29,30,31,,,,,,2.8,1.4,2.4*3E
Trace #55 at position 13.500000
$GPZDA,085232.04,08,10,2011,00,00*67
$GPRMC,085232.00,A,4611.972159,N,01258.207948,E,000.6,170.9,081011,0.2,E,A*34
$GPGGA,085233.00,4611.971908,N,01258.208057,E,1,07,1.4,141.62,M,46.25,M,,*6E
$GPGLL,4611.971908,N,01258.208057,E,085233.00,A,A*6C
$GPVTG,162.4,T,162.5,M,001.1,N,002.0,K,A*20
$GPGSV,2,1,08,02,38,082,41,09,22,151,,12,59,073,44,14,30,256,41*71
$GPGSV,2,2,08,25,74,326,45,29,49,221,45,30,31,289,42,31,23,313,41*76
$GPGSA,M,3,02,12,14,25,29,30,31,,,,,,2.8,1.4,2.4*3E
Trace #56 at position 13.750000
$GPZDA,085233.04,08,10,2011,00,00*66
$GPRMC,085233.00,A,4611.971908,N,01258.208057,E,001.1,162.4,081011,0.2,E,A*3A
$GPGGA,085234.00,4611.971593,N,01258.208203,E,1,07,1.4,141.60,M,46.25,M,,*66
$GPGLL,4611.971593,N,01258.208203,E,085234.00,A,A*66
$GPVTG,164.7,T,164.8,M,001.1,N,002.0,K,A*2E
$GPGSV,2,1,08,02,38,082,41,09,22,151,,12,59,073,43,14,30,256,40*77
$GPGSV,2,2,08,25,74,326,46,29,49,221,45,30,31,289,41,31,23,313,42*75
$GPGSA,M,3,02,12,14,25,29,30,31,,,,,,2.8,1.4,2.4*3E
Trace #57 at position 14.000000
$GPZDA,085233.04,08,10,2011,00,00*66
$GPRMC,085233.00,A,4611.971908,N,01258.208057,E,001.1,162.4,081011,0.2,E,A*3A
$GPGGA,085234.00,4611.971593,N,01258.208203,E,1,07,1.4,141.60,M,46.25,M,,*66
$GPGLL,4611.971593,N,01258.208203,E,085234.00,A,A*66
$GPVTG,164.7,T,164.8,M,001.1,N,002.0,K,A*2E
$GPGSV,2,1,08,02,38,082,41,09,22,151,,12,59,073,43,14,30,256,40*77
$GPGSV,2,2,08,25,74,326,46,29,49,221,45,30,31,289,41,31,23,313,42*75
$GPGSA,M,3,02,12,14,25,29,30,31,,,,,,2.8,1.4,2.4*3E
Trace #58 at position 14.250000
$GPZDA,085233.04,08,10,2011,00,00*66
$GPRMC,085233.00,A,4611.971908,N,01258.208057,E,001.1,162.4,081011,0.2,E,A*3A
$GPGGA,085234.00,4611.971593,N,01258.208203,E,1,07,1.4,141.60,M,46.25,M,,*66
$GPGLL,4611.971593,N,01258.208203,E,085234.00,A,A*66
$GPVTG,164.7,T,164.8,M,001.1,N,002.0,K,A*2E
$GPGSV,2,1,08,02,38,082,41,09,22,151,,12,59,073,43,14,30,256,40*77
$GPGSV,2,2,08,25,74,326,46,29,49,221,45,30,31,289,41,31,23,313,42*75
$GPGSA,M,3,02,12,14,25,29,30,31,,,,,,2.8,1.4,2.4*3E
Trace #59 at position 14.500000
$GPZDA,085234.04,08,10,2011,00,00*61
$GPRMC,085234.00,A,4611.971593,N,01258.208203,E,001.1,164.7,081011,0.2,E,A*35
$GPGGA,085235.00,4611.971238,N,01258.208355,E,1,07,1.4,141.60,M,46.25,M,,*63
$GPGLL,4611.971238,N,01258.208355,E,085235.00,A,A*63
$GPVTG,165.2,T,165.3,M,001.4,N,002.7,K,A*22
$GPGSV,2,1,08,02,38,082,44,09,22,151,,12,59,073,41,14,30,256,42*72
$GPGSV,2,2,08,25,74,326,47,29,49,221,44,30,31,289,42,31,23,313,41*75
$GPGSA,M,3,02,12,14,25,29,30,31,,,,,,2.8,1.4,2.4*3E
Trace #60 at position 14.750000
$GPZDA,085234.04,08,10,2011,00,00*61
$GPRMC,085234.00,A,4611.971593,N,01258.208203,E,001.1,164.7,081011,0.2,E,A*35
$GPGGA,085235.00,4611.971238,N,01258.208355,E,1,07,1.4,141.60,M,46.25,M,,*63
$GPGLL,4611.971238,N,01258.208355,E,085235.00,A,A*63
$GPVTG,165.2,T,165.3,M,001.4,N,002.7,K,A*22
$GPGSV,2,1,08,02,38,082,44,09,22,151,,12,59,073,41,14,30,256,42*72
$GPGSV,2,2,08,25,74,326,47,29,49,221,44,30,31,289,42,31,23,313,41*75
$GPGSA,M,3,02,12,14,25,29,30,31,,,,,,2.8,1.4,2.4*3E
Trace #61 at position 15.000000
$GPZDA,085234.04,08,10,2011,00,00*61
$GPRMC,085234.00,A,4611.971593,N,01258.208203,E,001.1,164.7,081011,0.2,E,A*35
$GPGGA,085235.00,4611.971238,N,01258.208355,E,1,07,1.4,141.60,M,46.25,M,,*63
$GPGLL,4611.971238,N,01258.208355,E,085235.00,A,A*63
$GPVTG,165.2,T,165.3,M,001.4,N,002.7,K,A*22
$GPGSV,2,1,08,02,38,082,44,09,22,151,,12,59,073,41,14,30,256,42*72
$GPGSV,2,2,08,25,74,326,47,29,49,221,44,30,31,289,42,31,23,313,41*75
$GPGSA,M,3,02,12,14,25,29,30,31,,,,,,2.8,1.4,2.4*3E
Trace #62 at position 15.250000
$GPZDA,085234.04,08,10,2011,00,00*61
$GPRMC,085234.00,A,4611.971593,N,01258.208203,E,001.1,164.7,081011,0.2,E,A*35
$GPGGA,085235.00,4611.971238,N,01258.208355,E,1,07,1.4,141.60,M,46.25,M,,*63
$GPGLL,4611.971238,N,01258.208355,E,085235.00,A,A*63
$GPVTG,165.2,T,165.3,M,001.4,N,002.7,K,A*22
$GPGSV,2,1,08,02,38,082,44,09,22,151,,12,59,073,41,14,30,256,42*72
$GPGSV,2,2,08,25,74,326,47,29,49,221,44,30,31,289,42,31,23,313,41*75
$GPGSA,M,3,02,12,14,25,29,30,31,,,,,,2.8,1.4,2.4*3E
Trace #63 at position 15.500000
$GPZDA,085234.04,08,10,2011,00,00*61
$GPRMC,085234.00,A,4611.971593,N,01258.208203,E,001.1,164.7,081011,0.2,E,A*35
$GPGGA,085235.00,4611.971238,N,01258.208355,E,1,07,1.4,141.60,M,46.25,M,,*63
$GPGLL,4611.971238,N,01258.208355,E,085235.00,A,A*63
$GPVTG,165.2,T,165.3,M,001.4,N,002.7,K,A*22
$GPGSV,2,1,08,02,38,082,44,09,22,151,,12,59,073,41,14,30,256,42*72
$GPGSV,2,2,08,25,74,326,47,29,49,221,44,30,31,289,42,31,23,313,41*75
$GPGSA,M,3,02,12,14,25,29,30,31,,,,,,2.8,1.4,2.4*3E
Trace #64 at position 15.750000
$GPZDA,085235.04,08,10,2011,00,00*60
$GPRMC,085235.00,A,4611.971238,N,01258.208355,E,001.4,165.2,081011,0.2,E,A*31
$GPGGA,085236.00,4611.970816,N,01258.208494,E,1,07,1.4,141.63,M,46.25,M,,*6E
$GPGLL,4611.970816,N,01258.208494,E,085236.00,A,A*6D
$GPVTG,172.6,T,172.7,M,001.6,N,003.0,K,A*26
$GPGSV,2,1,08,02,38,082,41,09,22,151,,12,59,073,42,14,305236.04,08,10,2011,00,00*63
$GPRMC,085236.00,A,4611.970816,N,01258.208494,E,001.6,172.6,081011,0.2,E,A*3F
$GPGGA,085237.00,4611.970419,N,01258.208616,E,1,07,1.4,141.67,M,46.25,M,,*60
$GPGLL,4611.970419,N,01258.208616,E,085237.00,A,A*67
$GPVTG,167.8,T,168.0,M,001.2,N,002.3,K,A*26
$GPGSV,2,1,08,02,38,082,41,09,22,151,,12,59,073,43,14,30,256,41*76
$GPGSV,2,2,08,25,74,326,46,29,49,221,45,30,31,289,41,31,23,313,41*76
$GPGSA,M,3,02,12,14,25,29,30,31,,,,,,2.8,1.4,2.4*3E
Trace #65 at position 16.000000
$GPZDA,085235.04,08,10,2011,00,00*60
$GPRMC,085235.00,A,4611.971238,N,01258.208355,E,001.4,165.2,081011,0.2,E,A*31
$GPGGA,085236.00,4611.970816,N,01258.208494,E,1,07,1.4,141.63,M,46.25,M,,*6E
$GPGLL,4611.970816,N,01258.208494,E,085236.00,A,A*6D
$GPVTG,172.6,T,172.7,M,001.6,N,003.0,K,A*26
$GPGSV,2,1,08,02,38,082,41,09,22,151,,12,59,073,42,14,305236.04,08,10,2011,00,00*63
$GPRMC,085236.00,A,4611.970816,N,01258.208494,E,001.6,172.6,081011,0.2,E,A*3F
$GPGGA,085237.00,4611.970419,N,01258.208616,E,1,07,1.4,141.67,M,46.25,M,,*60
$GPGLL,4611.970419,N,01258.208616,E,085237.00,A,A*67
$GPVTG,167.8,T,168.0,M,001.2,N,002.3,K,A*26
$GPGSV,2,1,08,02,38,082,41,09,22,151,,12,59,073,43,14,30,256,41*76
$GPGSV,2,2,08,25,74,326,46,29,49,221,45,30,31,289,41,31,23,313,41*76
$GPGSA,M,3,02,12,14,25,29,30,31,,,,,,2.8,1.4,2.4*3E
Trace #66 at position 16.250000
$GPZDA,085237.04,08,10,2011,00,00*621011,0.2,E,A*3B
$GPGGA,085238.00,4611.970015,N,01258.208763,E,1,07,1.4,141.67,M,46.25,M,,*64
$GPGLL,4611.970015,N,01258.208763,E,085238.00,A,A*63
$GPVTG,168.6,T,168.7,M,001.6,N,003.0,K,A*26
$GPGSV,2,1,08,02,38,082,42,09,22,151,,12,59,073,42,14,30,256,40*75
$GPGSV,2,2,08,25,74,326,47,29,49,221,44,30,31,289,42,31,23,313,40*74
$GPGSA,M,3,02,12,14,25,29,30,31,,,,,,2.8,1.4,2.4*3E
Trace #67 at position 16.500000
$GPZDA,085237.04,08,10,2011,00,00*621011,0.2,E,A*3B
$GPGGA,085238.00,4611.970015,N,01258.208763,E,1,07,1.4,141.67,M,46.25,M,,*64
$GPGLL,4611.970015,N,01258.208763,E,085238.00,A,A*63
$GPVTG,168.6,T,168.7,M,001.6,N,003.0,K,A*26
$GPGSV,2,1,08,02,38,082,42,09,22,151,,12,59,073,42,14,30,256,40*75
$GPGSV,2,2,08,25,74,326,47,29,49,221,44,30,31,289,42,31,23,313,40*74
$GPGSA,M,3,02,12,14,25,29,30,31,,,,,,2.8,1.4,2.4*3E
Trace #68 at position 16.750000
$GPZDA,085237.04,08,10,2011,00,00*621011,0.2,E,A*3B
$GPGGA,085238.00,4611.970015,N,01258.208763,E,1,07,1.4,141.67,M,46.25,M,,*64
$GPGLL,4611.970015,N,01258.208763,E,085238.00,A,A*63
$GPVTG,168.6,T,168.7,M,001.6,N,003.0,K,A*26
$GPGSV,2,1,08,02,38,082,42,09,22,151,,12,59,073,42,14,30,256,40*75
$GPGSV,2,2,08,25,74,326,47,29,49,221,44,30,31,289,42,31,23,313,40*74
$GPGSA,M,3,02,12,14,25,29,30,31,,,,,,2.8,1.4,2.4*3E
Trace #69 at position 17.000000
$GPZDA,085238.04,08,10,2011,00,00*6D
$GPRMC,085238.00,A,4611.970015,N,01258.208763,E,001.6,168.6,081011,0.2,E,A*3A
$GPGGA,085239.00,4611.969526,N,01258.208949,E,1,07,1.4,141.57,M,46.25,M,,*6D
$GPGLL,4611.969526,N,01258.208949,E,085239.00,A,A*69
$GPVTG,166.3,T,166.5,M,001.9,N,003.5,K,A*2B
$GPGSV,2,1,08,02,38,082,41,09,22,151,,12,59,073,43,14,30,256,38*78
$GPGSV,2,2,08,25,74,326,47,29,49,221,45,30,31,289,42,31,23,313,41*74
$GPGSA,M,3,02,12,14,25,29,30,31,,,,,,2.8,1.4,2.4*3E
Trace #70 at position 17.250000
$GPZDA,085238.04,08,10,2011,00,00*6D
$GPRMC,085238.00,A,4611.970015,N,01258.208763,E,001.6,168.6,081011,0.2,E,A*3A
$GPGGA,085239.00,4611.969526,N,01258.208949,E,1,07,1.4,141.57,M,46.25,M,,*6D
$GPGLL,4611.969526,N,01258.208949,E,085239.00,A,A*69
$GPVTG,166.3,T,166.5,M,001.9,N,003.5,K,A*2B
$GPGSV,2,1,08,02,38,082,41,09,22,151,,12,59,073,43,14,30,256,38*78
$GPGSV,2,2,08,25,74,326,47,29,49,221,45,30,31,289,42,31,23,313,41*74
$GPGSA,M,3,02,12,14,25,29,30,31,,,,,,2.8,1.4,2.4*3E
Trace #71 at position 17.500000
$GPZDA,085238.04,08,10,2011,00,00*6D
$GPRMC,085238.00,A,4611.970015,N,01258.208763,E,001.6,168.6,081011,0.2,E,A*3A
$GPGGA,085239.00,4611.969526,N,01258.208949,E,1,07,1.4,141.57,M,46.25,M,,*6D
$GPGLL,4611.969526,N,01258.208949,E,085239.00,A,A*69
$GPVTG,166.3,T,166.5,M,001.9,N,003.5,K,A*2B
$GPGSV,2,1,08,02,38,082,41,09,22,151,,12,59,073,43,14,30,256,38*78
$GPGSV,2,2,08,25,74,326,47,29,49,221,45,30,31,289,42,31,23,313,41*74
$GPGSA,M,3,02,12,14,25,29,30,31,,,,,,2.8,1.4,2.4*3E
Trace #72 at position 17.750000
$GPZDA,085239.04,08,10,2011,00,00*6C
$GPRMC,085239.00,A,4611.969526,N,01258.208949,E,001.9,166.3,081011,0.2,E,A*34
$GPGGA,085240.00,4611.969028,N,01258.209117,E,1,07,1.4,141.44,M,46.25,M,,*68
$GPGLL,4611.969028,N,01258.209117,E,085240.00,A,A*6E
$GPVTG,172.2,T,172.3,M,001.8,N,003.3,K,A*2B
$GPGSV,2,1,08,02,38,082,43,09,22,151,,12,59,073,41,14,30,256,41*76
$GPGSV,2,2,08,25,74,326,47,29,49,221,44,30,31,289,41,31,23,313,41*76
$GPGSA,M,3,02,12,14,25,29,30,31,,,,,,2.8,1.4,2.4*3E
Trace #73 at position 18.000000
$GPZDA,085243.04,08,10,2011,00,00*61
$GPRMC,085243.00,A,4611.967831,N,01258.209584,E,001.3,159.5,081011,0.2,E,A*30
$GPGGA,085244.00,4611.967493,N,01258.209848,E,1,07,1.4,141.20,M,46.25,M,,*67
$GPGLL,4611.967493,N,01258.209848,E,085244.00,A,A*63
$GPVTG,151.8,T,152.0,M,001.5,N,002.7,K,A*29
$GPGSV,2,1,08,02,38,082,41,09,22,151,,12,59,073,43,14,30,256,41*76
$GPGSV,2,2,08,25,74,327,45,29,49,221,44,30,31,289,40,31,23,313,41*74
$GPGSA,M,3,02,12,14,25,29,30,31,,,,,,2.8,1.4,2.4*3E
Trace #74 at position 18.250000
$GPZDA,085243.04,08,10,2011,00,00*61
$GPRMC,085243.00,A,4611.967831,N,01258.209584,E,001.3,159.5,081011,0.2,E,A*30
$GPGGA,085244.00,4611.967493,N,01258.209848,E,1,07,1.4,141.20,M,46.25,M,,*67
$GPGLL,4611.967493,N,01258.209848,E,085244.00,A,A*63
$GPVTG,151.8,T,152.0,M,001.5,N,002.7,K,A*29
$GPGSV,2,1,08,02,38,082,41,09,22,151,,12,59,073,43,14,30,256,41*76
$GPGSV,2,2,08,25,74,327,45,29,49,221,44,30,31,289,40,31,23,313,41*74
$GPGSA,M,3,02,12,14,25,29,30,31,,,,,,2.8,1.4,2.4*3E
Trace #75 at position 18.500000
$GPZDA,085244.04,08,10,2011,00,00*66
$GPRMC,085244.00,A,4611.967493,N,01258.209848,E,001.5,151.8,081011,0.2,E,A*3D
$GPGGA,085245.00,4611.967138,N,01258.210098,E,1,07,1.4,141.12,M,46.25,M,,*6E
$GPGLL,4611.967138,N,01258.210098,E,085245.00,A,A*6B
$GPVTG,161.2,T,161.3,M,001.4,N,002.6,K,A*23
$GPGSV,2,1,08,02,38,082,39,09,22,151,,12,59,073,43,14,30,256,41*79
$GPGSV,2,2,08,25,74,327,47,29,49,221,41,30,31,289,41,31,23,313,43*70
$GPGSA,M,3,02,12,14,25,29,30,31,,,,,,2.8,1.4,2.4*3E
Trace #76 at position 18.750000
$GPZDA,085244.04,08,10,2011,00,00*66
$GPRMC,085244.00,A,4611.967493,N,01258.209848,E,001.5,151.8,081011,0.2,E,A*3D
$GPGGA,085245.00,4611.967138,N,01258.210098,E,1,07,1.4,141.12,M,46.25,M,,*6E
$GPGLL,4611.967138,N,01258.210098,E,085245.00,A,A*6B
$GPVTG,161.2,T,161.3,M,001.4,N,002.6,K,A*23
$GPGSV,2,1,08,02,38,082,39,09,22,151,,12,59,073,43,14,30,256,41*79
$GPGSV,2,2,08,25,74,327,47,29,49,221,41,30,31,289,41,31,23,313,43*70
$GPGSA,M,3,02,12,14,25,29,30,31,,,,,,2.8,1.4,2.4*3E
Trace #77 at position 19.000000
$GPZDA,085244.04,08,10,2011,00,00*66
$GPRMC,085244.00,A,4611.967493,N,01258.209848,E,001.5,151.8,081011,0.2,E,A*3D
$GPGGA,085245.00,4611.967138,N,01258.210098,E,1,07,1.4,141.12,M,46.25,M,,*6E
$GPGLL,4611.967138,N,01258.210098,E,085245.00,A,A*6B
$GPVTG,161.2,T,161.3,M,001.4,N,002.6,K,A*23
$GPGSV,2,1,08,02,38,082,39,09,22,151,,12,59,073,43,14,30,256,41*79
$GPGSV,2,2,08,25,74,327,47,29,49,221,41,30,31,289,41,31,23,313,43*70
$GPGSA,M,3,02,12,14,25,29,30,31,,,,,,2.8,1.4,2.4*3E
Trace #78 at position 19.250000
$GPZDA,085245.04,08,10,2011,00,00*67
$GPRMC,085245.00,A,4611.967138,N,01258.210098,E,001.4,161.2,081011,0.2,E,A*3D
$GPGGA,085246.00,4611.966893,N,01258.210430,E,1,07,1.4,141.09,M,46.25,M,,*68
$GPGLL,4611.966893,N,01258.210430,E,085246.00,A,A*67
$GPVTG,111.5,T,111.7,M,001.3,N,002.4,K,A*25
$GPGSV,2,1,08,02,38,082,39,09,22,151,,12,59,073,42,14,30,256,41*78
$GPGSV,2,2,08,25,74,327,47,29,49,221,41,30,31,289,39,31,23,313,42*7E
$GPGSA,M,3,02,12,14,25,29,30,31,,,,,,2.8,1.4,2.4*3E
Trace #79 at position 19.500000
$GPZDA,085245.04,08,10,2011,00,00*67
$GPRMC,085245.00,A,4611.967138,N,01258.210098,E,001.4,161.2,081011,0.2,E,A*3D
$GPGGA,085246.00,4611.966893,N,01258.210430,E,1,07,1.4,141.09,M,46.25,M,,*68
$GPGLL,4611.966893,N,01258.210430,E,085246.00,A,A*67
$GPVTG,111.5,T,111.7,M,001.3,N,002.4,K,A*25
$GPGSV,2,1,08,02,38,082,39,09,22,151,,12,59,073,42,14,30,256,41*78
$GPGSV,2,2,08,25,74,327,47,29,49,221,41,30,31,289,39,31,23,313,42*7E
$GPGSA,M,3,02,12,14,25,29,30,31,,,,,,2.8,1.4,2.4*3E
Trace #80 at position 19.750000
$GPZDA,085245.04,08,10,2011,00,00*67
$GPRMC,085245.00,A,4611.967138,N,01258.210098,E,001.4,161.2,081011,0.2,E,A*3D
$GPGGA,085246.00,4611.966893,N,01258.210430,E,1,07,1.4,141.09,M,46.25,M,,*68
$GPGLL,4611.966893,N,01258.210430,E,085246.00,A,A*67
$GPVTG,111.5,T,111.7,M,001.3,N,002.4,K,A*25
$GPGSV,2,1,08,02,38,082,39,09,22,151,,12,59,073,42,14,30,256,41*78
$GPGSV,2,2,08,25,74,327,47,29,49,221,41,30,31,289,39,31,23,313,42*7E
$GPGSA,M,3,02,12,14,25,29,30,31,,,,,,2.8,1.4,2.4*3E
Trace #81 at position 20.000000
$GPZDA,085246.04,08,10,2011,00,00*64
$GPRMC,085246.00,A,4611.966893,N,01258.210430,E,001.3,111.5,081011,0.2,E,A*36
$GPGGA,085247.00,4611.966846,N,01258.210640,E,1,07,1.4,141.12,M,46.25,M,,*6E
$GPGLL,4611.966846,N,01258.210640,E,085247.00,A,A*6B
$GPVTG,350.3,T,350.4,M,000.1,N,000.2,K,A*27
$GPGSV,2,1,08,02,38,082,42,09,22,151,,12,59,073,45,14,30,256,41*73
$GPGSV,2,2,08,25,74,327,48,29,49,221,45,30,31,289,42,31,23,313,42*79
$GPGSA,M,3,02,12,14,25,29,30,31,,,,,,2.8,1.4,2.4*3E
Trace #82 at position 20.250000
$GPZDA,085246.04,08,10,2011,00,00*64
$GPRMC,085246.00,A,4611.966893,N,01258.210430,E,001.3,111.5,081011,0.2,E,A*36
$GPGGA,085247.00,4611.966846,N,01258.210640,E,1,07,1.4,141.12,M,46.25,M,,*6E
$GPGLL,4611.966846,N,01258.210640,E,085247.00,A,A*6B
$GPVTG,350.3,T,350.4,M,000.1,N,000.2,K,A*27
$GPGSV,2,1,08,02,38,082,42,09,22,151,,12,59,073,45,14,30,256,41*73
$GPGSV,2,2,08,25,74,327,48,29,49,221,45,30,31,289,42,31,23,313,42*79
$GPGSA,M,3,02,12,14,25,29,30,31,,,,,,2.8,1.4,2.4*3E
Trace #83 at position 20.500000
$GPZDA,085247.04,08,10,2011,00,00*65
$GPRMC,085247.00,A,4611.966846,N,01258.210640,E,000.1,350.3,081011,0.2,E,A*38
$GPGGA,085248.00,4611.966859,N,01258.210613,E,1,07,1.4,141.15,M,46.25,M,,*6E
$GPGLL,4611.966859,N,01258.210613,E,085248.00,A,A*6C
$GPVTG,144.9,T,145.0,M,000.0,N,000.1,K,A*2A
$GPGSV,2,1,08,02,38,082,40,09,22,151,,12,59,073,42,14,30,256,40*77
$GPGSV,230,31,289,41,31,23,313,43*74
$GPGSA,M,3,02,12,14,25,29,30,31,,,,,,2.8,1.4,2.4*3E
Trace #84 at position 20.750000
$GPZDA,085247.04,08,10,2011,00,00*65
$GPRMC,085247.00,A,4611.966846,N,01258.210640,E,000.1,350.3,081011,0.2,E,A*38
$GPGGA,085248.00,4611.966859,N,01258.210613,E,1,07,1.4,141.15,M,46.25,M,,*6E
$GPGLL,4611.966859,N,01258.210613,E,085248.00,A,A*6C
$GPVTG,144.9,T,145.0,M,000.0,N,000.1,K,A*2A
$GPGSV,2,1,08,02,38,082,40,09,22,151,,12,59,073,42,14,30,256,40*77
$GPGSV,230,31,289,41,31,23,313,43*74
$GPGSA,M,3,02,12,14,25,29,30,31,,,,,,2.8,1.4,2.4*3E
Trace #85 at position 21.000000
$GPZDA,085247.04,08,10,2011,00,00*65
$GPRMC,085247.00,A,4611.966846,N,01258.210640,E,000.1,350.3,081011,0.2,E,A*38
$GPGGA,085248.00,4611.966859,N,01258.210613,E,1,07,1.4,141.15,M,46.25,M,,*6E
$GPGLL,4611.966859,N,01258.210613,E,085248.00,A,A*6C
$GPVTG,144.9,T,145.0,M,000.0,N,000.1,K,A*2A
$GPGSV,2,1,08,02,38,082,40,09,22,151,,12,59,073,42,14,30,256,40*77
$GPGSV,230,31,289,41,31,23,313,43*74
$GPGSA,M,3,02,12,14,25,29,30,31,,,,,,2.8,1.4,2.4*3E
Trace #86 at position 21.250000
$GPZDA,085247.04,08,10,2011,00,00*65
$GPRMC,085247.00,A,4611.966846,N,01258.210640,E,000.1,350.3,081011,0.2,E,A*38
$GPGGA,085248.00,4611.966859,N,01258.210613,E,1,07,1.4,141.15,M,46.25,M,,*6E
$GPGLL,4611.966859,N,01258.210613,E,085248.00,A,A*6C
$GPVTG,144.9,T,145.0,M,000.0,N,000.1,K,A*2A
$GPGSV,2,1,08,02,38,082,40,09,22,151,,12,59,073,42,14,30,256,40*77
$GPGSV,230,31,289,41,31,23,313,43*74
$GPGSA,M,3,02,12,14,25,29,30,31,,,,,,2.8,1.4,2.4*3E
Trace #87 at position 21.500000
$GPZDA,085247.04,08,10,2011,00,00*65
$GPRMC,085247.00,A,4611.966846,N,01258.210640,E,000.1,350.3,081011,0.2,E,A*38
$GPGGA,085248.00,4611.966859,N,01258.210613,E,1,07,1.4,141.15,M,46.25,M,,*6E
$GPGLL,4611.966859,N,01258.210613,E,085248.00,A,A*6C
$GPVTG,144.9,T,145.0,M,000.0,N,000.1,K,A*2A
$GPGSV,2,1,08,02,38,082,40,09,22,151,,12,59,073,42,14,30,256,40*77
$GPGSV,230,31,289,41,31,23,313,43*74
$GPGSA,M,3,02,12,14,25,29,30,31,,,,,,2.8,1.4,2.4*3E
Trace #88 at position 21.750000
$GPZDA,085247.04,08,10,2011,00,00*65
$GPRMC,085247.00,A,4611.966846,N,01258.210640,E,000.1,350.3,081011,0.2,E,A*38
$GPGGA,085248.00,4611.966859,N,01258.210613,E,1,07,1.4,141.15,M,46.25,M,,*6E
$GPGLL,4611.966859,N,01258.210613,E,085248.00,A,A*6C
$GPVTG,144.9,T,145.0,M,000.0,N,000.1,K,A*2A
$GPGSV,2,1,08,02,38,082,40,09,22,151,,12,59,073,42,14,30,256,40*77
$GPGSV,230,31,289,41,31,23,313,43*74
$GPGSA,M,3,02,12,14,25,29,30,31,,,,,,2.8,1.4,2.4*3E
Trace #89 at position 22.000000
$GPZDA,085248.04,08,10,2011,00,00*6A
$GPRMC,085248.00,A,4611.966859,N,01258.210613,E,000.0,144.9,081011,0.2,E,A*33
$GPGGA,085249.00,4611.966860,N,01258.210586,E,1,07,1.4,141.18,M,46.25,M,,*67
$GPGLL,4611.966860,N,01258.210586,E,085249.00,A,A*68
$GPVTG,311.6,T,311.7,M,000.0,N,000.1,K,A*23
$GPGSV,2,1,08,02,38,082,39,09,22,151,,12,59,073,40,14,30,256,40*7B
$GPGSV,2,2,08,25,75,327,47,29,49,221,45,30,31,289,40,31,23,313,42*7011,00,00*6B
$GPRMC,085249.00,A,4611.966860,N,01258.210586,E,000.0,311.6,081011,0.2,E,A*3A
$GPGGA,085250.00,4611.966809,N,01258.210580,E,1,07,1.4,141.15,M,46.25,M,,*6B
$GPGLL,4611.966809,N,01258.210580,E,085250.00,A,A*69
$GPVTG,164.8,T,164.9,M,000.4,N,000.8,K,A*2E
$GPGSV,2,1,08,02,38,082,42,09,22,151,,12,59,073,43,14,30,256,41*75
$GPGSV,2,2,08,25,75,327,47,29,49,221,43,30,32,289,41,31,23,313,42*71
$GPGSA,M,3,02,12,14,25,29,30,31,,,,,,2.8,1.4,2.4*3E
Trace #90 at position 22.250000
$GPZDA,085248.04,08,10,2011,00,00*6A
$GPRMC,085248.00,A,4611.966859,N,01258.210613,E,000.0,144.9,081011,0.2,E,A*33
$GPGGA,085249.00,4611.966860,N,01258.210586,E,1,07,1.4,141.18,M,46.25,M,,*67
$GPGLL,4611.966860,N,01258.210586,E,085249.00,A,A*68
$GPVTG,311.6,T,311.7,M,000.0,N,000.1,K,A*23
$GPGSV,2,1,08,02,38,082,39,09,22,151,,12,59,073,40,14,30,256,40*7B
$GPGSV,2,2,08,25,75,327,47,29,49,221,45,30,31,289,40,31,23,313,42*7011,00,00*6B
$GPRMC,085249.00,A,4611.966860,N,01258.210586,E,000.0,311.6,081011,0.2,E,A*3A
$GPGGA,085250.00,4611.966809,N,01258.210580,E,1,07,1.4,141.15,M,46.25,M,,*6B
$GPGLL,4611.966809,N,01258.210580,E,085250.00,A,A*69
$GPVTG,164.8,T,164.9,M,000.4,N,000.8,K,A*2E
$GPGSV,2,1,08,02,38,082,42,09,22,151,,12,59,073,43,14,30,256,41*75
$GPGSV,2,2,08,25,75,327,47,29,49,221,43,30,32,289,41,31,23,313,42*71
$GPGSA,M,3,02,12,14,25,29,30,31,,,,,,2.8,1.4,2.4*3E
Trace #91 at position 22.500000
$GPZDA,085250.04,08,10,2011,00,00*63
$GPRMC,085250,E,000.4,164.8,081011,0.2,E,A*31
$GPGGA,085251.00,4611.966560,N,01258.210716,E,1,07,1.4,141.08,M,46.25,M,,*69
$GPGLL,4611.966560,N,01258.210716,E,085251.00,A,A*67
$GPVTG,153.8,T,154.0,M,001.5,N,002.8,K,A*22
$GPGSV,2,1,08,02,38,082,43,09,22,151,,12,59,073,43,14,30,256,41*74
$GPGSV,2,2,08,25,75,327,47,29,49,221,45,30,32,289,42,31,23,313,42*74
$GPGSA,M,3,02,12,14,25,29,30,31,,,,,,2.8,1.4,2.4*3E
Trace #92 at position 22.750000
$GPZDA,085250.04,08,10,2011,00,00*63
$GPRMC,085250,E,000.4,164.8,081011,0.2,E,A*31
$GPGGA,085251.00,4611.966560,N,01258.210716,E,1,07,1.4,141.08,M,46.25,M,,*69
$GPGLL,4611.966560,N,01258.210716,E,085251.00,A,A*67
$GPVTG,153.8,T,154.0,M,001.5,N,002.8,K,A*22
$GPGSV,2,1,08,02,38,082,43,09,22,151,,12,59,073,43,14,30,256,41*74
$GPGSV,2,2,08,25,75,327,47,29,49,221,45,30,32,289,42,31,23,313,42*74
$GPGSA,M,3,02,12,14,25,29,30,31,,,,,,2.8,1.4,2.4*3E
Trace #93 at position 23.000000
$GPZDA,085250.04,08,10,2011,00,00*63
$GPRMC,085250,E,000.4,164.8,081011,0.2,E,A*31
$GPGGA,085251.00,4611.966560,N,01258.210716,E,1,07,1.4,141.08,M,46.25,M,,*69
$GPGLL,4611.966560,N,01258.210716,E,085251.00,A,A*67
$GPVTG,153.8,T,154.0,M,001.5,N,002.8,K,A*22
$GPGSV,2,1,08,02,38,082,43,09,22,151,,12,59,073,43,14,30,256,41*74
$GPGSV,2,2,08,25,75,327,47,29,49,221,45,30,32,289,42,31,23,313,42*74
$GPGSA,M,3,02,12,14,25,29,30,31,,,,,,2.8,1.4,2.4*3E
Trace #94 at position 23.250000
$GPZDA,085251.04,08,10,2011,00,00*62
$GPRMC,085251.00,A,4611.966560,N,01258.210716,E,001.5,153.8,081011,0.2,E$GPGGA,085252.00,4611.966217,N,01258.210952,E,1,07,1.4,141.04,M,46.25,M,,*6F
$GPGLL,4611.966217,N,01258.210952,E,085252.00,A,A*6D
$GPVTG,147.9,T,148.1,M,001.3,N,002.3,K,A*27
$GPGSV,2,1,08,02,38,082,43,09,22,151,,12,59,073,42,14,30,256,41*75
$GPGSV,2,2,08,25,75,327,47,29,49,221,44,30,32,289,40,31,23,313,42*77
$GPGSA,M,3,02,12,14,25,29,30,31,,,,,,2.8,1.4,2.4*3E
Trace #95 at position 23.500000
$GPZDA,085251.04,08,10,2011,00,00*62
$GPRMC,085251.00,A,4611.966560,N,01258.210716,E,001.5,153.8,081011,0.2,E$GPGGA,085252.00,4611.966217,N,01258.210952,E,1,07,1.4,141.04,M,46.25,M,,*6F
$GPGLL,4611.966217,N,01258.210952,E,085252.00,A,A*6D
$GPVTG,147.9,T,148.1,M,001.3,N,002.3,K,A*27
$GPGSV,2,1,08,02,38,082,43,09,22,151,,12,59,073,42,14,30,256,41*75
$GPGSV,2,2,08,25,75,327,47,29,49,221,44,30,32,289,40,31,23,313,42*77
$GPGSA,M,3,02,12,14,25,29,30,31,,,,,,2.8,1.4,2.4*3E
Trace #96 at position 23.750000
$GPZDA,085251.04,08,10,2011,00,00*62
$GPRMC,085251.00,A,4611.966560,N,01258.210716,E,001.5,153.8,081011,0.2,E$GPGGA,085252.00,4611.966217,N,01258.210952,E,1,07,1.4,141.04,M,46.25,M,,*6F
$GPGLL,4611.966217,N,01258.210952,E,085252.00,A,A*6D
$GPVTG,147.9,T,148.1,M,001.3,N,002.3,K,A*27
$GPGSV,2,1,08,02,38,082,43,09,22,151,,12,59,073,42,14,30,256,41*75
$GPGSV,2,2,08,25,75,327,47,29,49,221,44,30,32,289,40,31,23,313,42*77
$GPGSA,M,3,02,12,14,25,29,30,31,,,,,,2.8,1.4,2.4*3E
Trace #97 at position 24.000000
$GPZDA,085252.04,08,10,2011,00,00*61
$GPRMC,085252.00,A,4611.966217,N,01258.210952,E,001.3,147.9,081011,0.2,E,A*33
$GPGGA,085253.00,4611.965859,N,01258.211297,E,1,07,1.4,140.98,M,46.25,M,,*6A
$GPGLL,4611.965859,N,01258.211297,E,085253.00,A,A*6C
$GPVTG,137.5,T,137.7,M,002.0,N,003.6,K,A*26
$GPGSV,2,1,08,02,38,082,39,09,22,151,,12,59,073,42,14,30,256,40*79
$GPGSV,2,2,08,25,75,327,46,29,49,221,45,30,32,289,40,31,23,313,41*74
$GPGSA,M,3,02,12,14,25,29,30,31,,,,,,2.8,1.4,2.4*3E
Trace #98 at position 24.250000
$GPZDA,085252.04,08,10,2011,00,00*61
$GPRMC,085252.00,A,4611.966217,N,01258.210952,E,001.3,147.9,081011,0.2,E,A*33
$GPGGA,085253.00,4611.965859,N,01258.211297,E,1,07,1.4,140.98,M,46.25,M,,*6A
$GPGLL,4611.965859,N,01258.211297,E,085253.00,A,A*6C
$GPVTG,137.5,T,137.7,M,002.0,N,003.6,K,A*26
$GPGSV,2,1,08,02,38,082,39,09,22,151,,12,59,073,42,14,30,256,40*79
$GPGSV,2,2,08,25,75,327,46,29,49,221,45,30,32,289,40,31,23,313,41*74
$GPGSA,M,3,02,12,14,25,29,30,31,,,,,,2.8,1.4,2.4*3E
Trace #99 at position 24.500000
$GPZDA,085253.04,08,10,2011,00,00*60
$GPRMC,085253.00,A,4611.965859,N,01258.211297,E,002.0,137.5,081011,0.2,E,A*39
$GPGGA,085254.00,4611.965457,N,01258.211614,E,1,07,1.4,140.90,M,46.25,M,,*68
$GPGLL,4611.965457,N,01258.211614,E,085254.00,A,A*66
$GPVTG,156.3,T,156.4,M,001.6,N,002.9,K,A*28
$GPGSV,2,1,08,02,38,082,41,09,22,151,,12,59,073,42,14,30,256,41*77
$GPGSV,2,2,08,25,75,327,46,29,49,221,45,30,32,289,40,31,23,313,41*74
$GPGSA,M,3,02,12,14,25,29,30,31,,,,,,2.8,1.4,2.4*3E
Trace #100 at position 24.750000
$GPZDA,085258.04,08,10,2011,00,00*6B
$GPRMC,085258.00,A,4611.963947,N,01258.211965,E,001.5,186.7,081011,0.2,E,A*32
$GPGGA,085259.00,4611.963582,N,01258.212058,E,1,07,1.4,140.84,M,46.25,M,,*62
$GPGLL,4611.963582,N,01258.212058,E,085259.00,A,A*69
$GPVTG,148.0,T,148.2,M,001.5,N,002.7,K,A*20
$GPGSV,2,1,08,02,38,082,40,09,21,151,,12,59,073,45,14,30,256,41*72
$GPGSV,2,2,08,25,75,327,47,29,49,221,43,30,32,289,41,31,23,313,41*72
$GPGSA,M,3,02,12,14,25,29,30,31,,,,,,2.8,1.4,2.4*3E
Trace #101 at position 25.000000
$GPZDA,085302.04,081011,0.2,E,A*0B
$GPGGA,085303.00,4611.963234,N,01258.212158,E,1,07,1.4,140.98,M,46.25,M,,*6A
$GPGLL,4611.963234,N,01258.212158,E,085303.00,A,A*6C
$GPVTG,191.4,T,191.5,M,000.1,N,000.1,K,A*22
$GPGSV,2,1,08,02,38,082,38,09,21,151,,12,59,073,40,14,30,256,41*78
$GPGSV,2,2,08,25,75,327,47,29,49,221,44,30,32,289,41,31,23,313,41*75
$GPGSA,M,3,02,12,14,25,29,30,31,,,,,,2.8,1.4,2.4*3E
Trace #102 at position 25.250000
$GPZDA,085302.04,081011,0.2,E,A*0B
$GPGGA,085303.00,4611.963234,N,01258.212158,E,1,07,1.4,140.98,M,46.25,M,,*6A
$GPGLL,4611.963234,N,01258.212158,E,085303.00,A,A*6C
$GPVTG,191.4,T,191.5,M,000.1,N,000.1,K,A*22
$GPGSV,2,1,08,02,38,082,38,09,21,151,,12,59,073,40,14,30,256,41*78
$GPGSV,2,2,08,25,75,327,47,29,49,221,44,30,32,289,41,31,23,313,41*75
$GPGSA,M,3,02,12,14,25,29,30,31,,,,,,2.8,1.4,2.4*3E
Trace #103 at position 25.500000
$GPZDA,085303.04,08,10,2011,00,00*64
$GPRMC,085303.00,A,4611.963234,N,01258.212158,E,000.1,191.4,081011,0.2,E,A*37
$GPGGA,085304.00,4611.963231,N,01258.212145,E,1,07,1.4,140.96,M,46.25,M,,*6A
$GPGLL,4611.963231,N,01258.212145,E,085304.00,A,A*62
$GPVTG,101.2,T,101.3,M,000.0,N,000.0,K,A*22
$GPGSV,2,1,08,02,38,082,36,09,21,151,,12,59,073,40,14,30,256,39*79
$GPGSV,2,2,08,25,75,327,47,29,49,221,44,30,32,289,40,31,23,313,41*74
$GPGSA,M,3,02,12,14,25,29,30,31,,,,,,2.8,1.4,2.4*3E
Trace #104 at position 25.750000
$GPZDA,085303.04,08,10,2011,00,00*64
$GPRMC,085303.00,A,4611.963234,N,01258.212158,E,000.1,191.4,081011,0.2,E,A*37
$GPGGA,085304.00,4611.963231,N,01258.212145,E,1,07,1.4,140.96,M,46.25,M,,*6A
$GPGLL,4611.963231,N,01258.212145,E,085304.00,A,A*62
$GPVTG,101.2,T,101.3,M,000.0,N,000.0,K,A*22
$GPGSV,2,1,08,02,38,082,36,09,21,151,,12,59,073,40,14,30,256,39*79
$GPGSV,2,2,08,25,75,327,47,29,49,221,44,30,32,289,40,31,23,313,41*74
$GPGSA,M,3,02,12,14,25,29,30,31,,,,,,2.8,1.4,2.4*3E
Trace #105 at position 26.000000
$GPZDA,085304.04,08,10,2011,00,00*63
$GPRMC,085304.00,A,4611.963231,N,01258.212145,E,000.0,101.2,081011,0.2,E,A*37
$GPGGA,085305.00,4611.963235,N,01258.212133,E,1,07,1.4,140.92,M,46.25,M,,*6A
$GPGLL,4611.963235,N,01258.212133,E,085305.00,A,A*66
$GPVTG,222.4,T,222.6,M,000.0,N,000.0,K,A*21
$GPGSV,2,1,08,02,38,082,41,09,21,151,,12,59,073,40,14,30,256,40*77
$GPGSV,2,2,08,25,75,327,47,29,49,221,44,30,32,289,41,31,23,313,42*76
$GPGSA,M,3,02,12,14,25,29,30,31,,,,,,2.8,1.4,2.4*3E
Trace #106 at position 26.250000
$GPZDA,085304.04,08,10,2011,00,00*63
$GPRMC,085304.00,A,4611.963231,N,01258.212145,E,000.0,101.2,081011,0.2,E,A*37
$GPGGA,085305.00,4611.963235,N,01258.212133,E,1,07,1.4,140.92,M,46.25,M,,*6A
$GPGLL,4611.963235,N,01258.212133,E,085305.00,A,A*66
$GPVTG,222.4,T,222.6,M,000.0,N,000.0,K,A*21
$GPGSV,2,1,08,02,38,082,41,09,21,151,,12,59,073,40,14,30,256,40*77
$GPGSV,2,2,08,25,75,327,47,29,49,221,44,30,32,289,41,31,23,313,42*76
$GPGSA,M,3,02,12,14,25,29,30,31,,,,,,2.8,1.4,2.4*3E
Trace #107 at position 26.500000
$GPZDA,085305.04,08,10,2011,00,00*62
$GPRMC,085305.00,A,4611.963235,N,01258.212133,E,000.0,222.4,081011,0.2,E,A*37
$GPGGA,085306.00,4611.963165,N,01258.212131,E,1,07,1.4,140.88,M,46.25,M,,*66
$GPGLL,4611.963165,N,01258.212131,E,085306.00,A,A*61
$GPVTG,174.2,T,174.3,M,000.6,N,001.0,K,A*25
$GPGSV,2,1,08,02,38,082,42,09,21,151,,12,59,073,44,14,30,256,41*71
$GPGSV,2,2,08,25,75,327,47,29,49,221,44,30,32,289,41,31,23,313,42*76
$GPGSA,M,3,02,12,14,25,29,30,31,,,,,,2.8,1.4,2.4*3E
Trace #108 at position 26.750000
$GPZDA,085305.04,08,10,2011,00,00*62
$GPRMC,085305.00,A,4611.963235,N,01258.212133,E,000.0,222.4,081011,0.2,E,A*37
$GPGGA,085306.00,4611.963165,N,01258.212131,E,1,07,1.4,140.88,M,46.25,M,,*66
$GPGLL,4611.963165,N,01258.212131,E,085306.00,A,A*61
$GPVTG,174.2,T,174.3,M,000.6,N,001.0,K,A*25
$GPGSV,2,1,08,02,38,082,42,09,21,151,,12,59,073,44,14,30,256,41*71
$GPGSV,2,2,08,25,75,327,47,29,49,221,44,30,32,289,41,31,23,313,42*76
$GPGSA,M,3,02,12,14,25,29,30,31,,,,,,2.8,1.4,2.4*3E
Trace #109 at position 27.000000
$GPZDA,085305.04,08,10,2011,00,00*62
$GPRMC,085305.00,A,4611.963235,N,01258.212133,E,000.0,222.4,081011,0.2,E,A*37
$GPGGA,085306.00,4611.963165,N,01258.212131,E,1,07,1.4,140.88,M,46.25,M,,*66
$GPGLL,4611.963165,N,01258.212131,E,085306.00,A,A*61
$GPVTG,174.2,T,174.3,M,000.6,N,001.0,K,A*25
$GPGSV,2,1,08,02,38,082,42,09,21,151,,12,59,073,44,14,30,256,41*71
$GPGSV,2,2,08,25,75,327,47,29,49,221,44,30,32,289,41,31,23,313,42*76
$GPGSA,M,3,02,12,14,25,29,30,31,,,,,,2.8,1.4,2.4*3E
Trace #110 at position 27.250000
$GPZDA,085306.04,08,10,2011,00,00*61
$GPRMC,085306.00,A,4611.963165,N,01258.212131,E,000.6,174.2,081011,0.2,E,A*30
$GPGGA,085307.00,4611.963112,N,01258.212135,E,1,07,1.4,140.84,M,46.25,M,,*6F
$GPGLL,4611.963112,N,01258.212135,E,085307.00,A,A*64
$GPVTG,349.6,T,349.8,M,000.2,N,000.3,K,A*2C
$GPGSV,2,1,08,02,38,082,40,09,21,151,,12,59,073,45,14,30,256,40*73
$GPGSV,2,2,08,25,75,327,47,29,49,221,44,30,32,289,41,31,23,313,42*76
$GPGSA,M,3,02,12,14,25,29,30,31,,,,,,2.8,1.4,2.4*3E
Trace #111 at position 27.500000
$GPZDA,085306.04,08,10,2011,00,00*61
$GPRMC,085306.00,A,4611.963165,N,01258.212131,E,000.6,174.2,081011,0.2,E,A*30
$GPGGA,085307.00,4611.963112,N,01258.212135,E,1,07,1.4,140.84,M,46.25,M,,*6F
$GPGLL,4611.963112,N,01258.212135,E,085307.00,A,A*64
$GPVTG,349.6,T,349.8,M,000.2,N,000.3,K,A*2C
$GPGSV,2,1,08,02,38,082,40,09,21,151,,12,59,073,45,14,30,256,40*73
