Trace #1 at position 0.000000
$GPRMC,132709.00,A,4624.896709,N,00943.950851,E,000.1,119.5,110314,0.7,W,A*26
$GPGGA,132710.00,4624.896695,N,00943.950855,E,1,08,1.1,1798.38,M,48.00,M,,*51
$GPGSV,3,1,10,05,62,249,35,26,52,298,38,07,35,056,47,08,69,049,45*73
$GPGSV,3,2,10,09,75,043,44,10,27,166,37,15,16,292,41,28,46,137,47*75
$GPGSV,3,3,10,03,05,035,,21,05,326,,,,,,,,,*79
$GPGSA,M,3,05,26,07,08,09,10,15,28,,,,,2.0,1.1,1.6*33
Trace #2 at position 0.250000
$GPRMC,132711.00,A,4624.896690,N,00943.950849,E,000.0,61.9,110314,0.7,W,A*14
$GPGGA,132712.00,4624.896700,N,00943.950870,E,1,08,1.1,1798.38,M,48.00,M,,*59
$GPGSV,3,1,10,05,62,249,37,26,52,298,35,07,35,056,44,08,69,049,42*78
$GPGSV,3,2,10,09,75,043,42,10,27,166,41,15,16,292,40,28,46,137,45*71
$GPGSV,3,3,10,03,05,035,,21,05,326,,,,,,,,,*79
$GPGSA,M,3,05,26,07,08,09,10,15,28,,,,,2.0,1.1,1.6*33
Trace #3 at position 0.500000
$GPRMC,132712.00,A,4624.896700,N,00943.950870,E,000.1,72.2,110314,0.7,W,A*1D
$GPGGA,132713.00,4624.896739,N,00943.950974,E,1,08,1.1,1798.38,M,48.00,M,,*57
$GPGSV,3,1,10,05,62,249,38,26,52,298,35,07,35,056,43,08,69,049,41*73
$GPGSV,3,2,10,09,75,043,42,10,27,166,41,15,16,292,38,28,46,137,44*7F
$GPGSV,3,3,10,03,05,035,,21,05,326,,,,,,,,,*79
$GPGSA,M,3,05,26,07,08,09,10,15,28,,,,,2.0,1.1,1.6*33
Trace #4 at position 0.750000
$GPRMC,132713.00,A,4624.896739,N,00943.950974,E,000.5,63.1,110314,0.7,W,A*14
$GPGGA,132714.00,4624.896794,N,00943.951144,E,1,08,1.1,1798.45,M,48.00,M,,*57
$GPGSV,3,1,10,05,62,249,33,26,52,298,35,07,35,056,47,08,69,049,46*7B
$GPGSV,3,2,10,09,75,043,44,10,27,166,39,15,16,292,32,28,46,137,40*78
$GPGSV,3,3,10,03,05,035,,21,05,326,,,,,,,,,*79
$GPGSA,M,3,05,26,07,08,09,10,15,28,,,,,2.0,1.1,1.6*33
Trace #5 at position 1.000000
$GPRMC,132713.00,A,4624.896739,N,00943.950974,E,000.5,63.1,110314,0.7,W,A*14
$GPGGA,132714.00,4624.896794,N,00943.951144,E,1,08,1.1,1798.45,M,48.00,M,,*57
$GPGSV,3,1,10,05,62,249,33,26,52,298,35,07,35,056,47,08,69,049,46*7B
$GPGSV,3,2,10,09,75,043,44,10,27,166,39,15,16,292,32,28,46,137,40*78
$GPGSV,3,3,10,03,05,035,,21,05,326,,,,,,,,,*79
$GPGSA,M,3,05,26,07,08,09,10,15,28,,,,,2.0,1.1,1.6*33
Trace #6 at position 1.250000
$GPRMC,132713.00,A,4624.896739,N,00943.950974,E,000.5,63.1,110314,0.7,W,A*14
$GPGGA,132714.00,4624.896794,N,00943.951144,E,1,08,1.1,1798.45,M,48.00,M,,*57
$GPGSV,3,1,10,05,62,249,33,26,52,298,35,07,35,056,47,08,69,049,46*7B
$GPGSV,3,2,10,09,75,043,44,10,27,166,39,15,16,292,32,28,46,137,40*78
$GPGSV,3,3,10,03,05,035,,21,05,326,,,,,,,,,*79
$GPGSA,M,3,05,26,07,08,09,10,15,28,,,,,2.0,1.1,1.6*33
Trace #7 at position 1.500000
$GPRMC,132714.00,A,4624.896794,N,00943.951144,E,000.4,71.3,110314,0.7,W,A*1E
$GPGGA,132715.00,4624.896893,N,00943.951365,E,1,08,1.1,1798.26,M,48.00,M,,*5A
$GPGSV,3,1,10,05,62,249,39,26,52,298,37,07,35,056,48,08,69,049,47*7D
$GPGSV,3,2,10,09,75,043,46,10,27,166,38,15,16,292,,28,46,137,46*7C
$GPGSV,3,3,10,03,05,035,,21,05,326,,,,,,,,,*79
$GPGSA,M,3,05,26,07,08,09,10,15,28,,,,,2.0,1.1,1.6*33
Trace #8 at position 1.750000
$GPRMC,132714.00,A,4624.896794,N,00943.951144,E,000.4,71.3,110314,0.7,W,A*1E
$GPGGA,132715.00,4624.896893,N,00943.951365,E,1,08,1.1,1798.26,M,48.00,M,,*5A
$GPGSV,3,1,10,05,62,249,39,26,52,298,37,07,35,056,48,08,69,049,47*7D
$GPGSV,3,2,10,09,75,043,46,10,27,166,38,15,16,292,,28,46,137,46*7C
$GPGSV,3,3,10,03,05,035,,21,05,326,,,,,,,,,*79
$GPGSA,M,3,05,26,07,08,09,10,15,28,,,,,2.0,1.1,1.6*33
Trace #9 at position 2.000000
$GPRMC,132715.00,A,4624.896893,N,00943.951365,E,000.9,54.0,110314,0.7,W,A*1F
$GPGGA,132716.00,4624.897015,N,00943.951692,E,1,08,1.1,1797.97,M,48.00,M,,*56
$GPGSV,3,1,10,05,62,249,36,26,52,298,38,07,35,056,47,08,69,049,46*73
$GPGSV,3,2,10,09,75,043,45,10,27,166,39,15,16,292,,28,46,137,42*7A
$GPGSV,3,3,10,03,05,035,,21,05,326,,,,,,,,,*79
$GPGSA,M,3,05,26,07,08,09,10,15,28,,,,,2.0,1.1,1.6*33
Trace #10 at position 2.250000
$GPRMC,132715.00,A,4624.896893,N,00943.951365,E,000.9,54.0,110314,0.7,W,A*1F
$GPGGA,132716.00,4624.897015,N,00943.951692,E,1,08,1.1,1797.97,M,48.00,M,,*56
$GPGSV,3,1,10,05,62,249,36,26,52,298,38,07,35,056,47,08,69,049,46*73
$GPGSV,3,2,10,09,75,043,45,10,27,166,39,15,16,292,,28,46,137,42*7A
$GPGSV,3,3,10,03,05,035,,21,05,326,,,,,,,,,*79
$GPGSA,M,3,05,26,07,08,09,10,15,28,,,,,2.0,1.1,1.6*33
Trace #11 at position 2.500000
$GPRMC,132715.00,A,4624.896893,N,00943.951365,E,000.9,54.0,110314,0.7,W,A*1F
$GPGGA,132716.00,4624.897015,N,00943.951692,E,1,08,1.1,1797.97,M,48.00,M,,*56
$GPGSV,3,1,10,05,62,249,36,26,52,298,38,07,35,056,47,08,69,049,46*73
$GPGSV,3,2,10,09,75,043,45,10,27,166,39,15,16,292,,28,46,137,42*7A
$GPGSV,3,3,10,03,05,035,,21,05,326,,,,,,,,,*79
$GPGSA,M,3,05,26,07,08,09,10,15,28,,,,,2.0,1.1,1.6*33
Trace #12 at position 2.750000
$GPRMC,132716.00,A,4624.897015,N,00943.951692,E,000.9,76.4,110314,0.7,W,A*12
$GPGGA,132717.00,4624.897160,N,00943.952045,E,1,07,1.4,1797.71,M,48.00,M,,*59
$GPGSV,3,1,10,05,62,249,40,26,52,298,37,07,35,056,48,08,69,049,46*72
$GPGSV,3,2,10,09,75,043,46,10,27,166,42,15,16,292,37,28,46,137,44*77
$GPGSV,3,3,10,03,05,035,,21,05,326,,,,,,,,,*79
$GPGSA,M,3,05,26,07,08,09,10,28,,,,,,3.1,1.4,2.7*30
Trace #13 at position 3.000000
$GPRMC,132716.00,A,4624.897015,N,00943.951692,E,000.9,76.4,110314,0.7,W,A*12
$GPGGA,132717.00,4624.897160,N,00943.952045,E,1,07,1.4,1797.71,M,48.00,M,,*59
$GPGSV,3,1,10,05,62,249,40,26,52,298,37,07,35,056,48,08,69,049,46*72
$GPGSV,3,2,10,09,75,043,46,10,27,166,42,15,16,292,37,28,46,137,44*77
$GPGSV,3,3,10,03,05,035,,21,05,326,,,,,,,,,*79
$GPGSA,M,3,05,26,07,08,09,10,28,,,,,,3.1,1.4,2.7*30
Trace #14 at position 3.250000
$GPRMC,132716.00,A,4624.897015,N,00943.951692,E,000.9,76.4,110314,0.7,W,A*12
$GPGGA,132717.00,4624.897160,N,00943.952045,E,1,07,1.4,1797.71,M,48.00,M,,*59
$GPGSV,3,1,10,05,62,249,40,26,52,298,37,07,35,056,48,08,69,049,46*72
$GPGSV,3,2,10,09,75,043,46,10,27,166,42,15,16,292,37,28,46,137,44*77
$GPGSV,3,3,10,03,05,035,,21,05,326,,,,,,,,,*79
$GPGSA,M,3,05,26,07,08,09,10,28,,,,,,3.1,1.4,2.7*30
Trace #15 at position 3.500000
$GPRMC,132717.00,A,4624.897160,N,00943.952045,E,001.2,66.6,110314,0.7,W,A*16
$GPGGA,132718.00,4624.897330,N,00943.952515,E,1,08,1.1,1797.71,M,48.00,M,,*5B
$GPGSV,3,1,10,05,62,249,34,26,52,298,31,07,35,056,44,08,69,049,42*7F
$GPGSV,3,2,10,09,75,043,41,10,27,166,38,15,16,292,34,28,46,137,39*74
$GPGSV,3,3,10,03,05,035,,21,05,326,,,,,,,,,*79
$GPGSA,M,3,05,26,07,08,09,10,15,28,,,,,2.0,1.1,1.6*33
Trace #16 at position 3.750000
$GPRMC,132717.00,A,4624.897160,N,00943.952045,E,001.2,66.6,110314,0.7,W,A*16
$GPGGA,132718.00,4624.897330,N,00943.952515,E,1,08,1.1,1797.71,M,48.00,M,,*5B
$GPGSV,3,1,10,05,62,249,34,26,52,298,31,07,35,056,44,08,69,049,42*7F
$GPGSV,3,2,10,09,75,043,41,10,27,166,38,15,16,292,34,28,46,137,39*74
$GPGSV,3,3,10,03,05,035,,21,05,326,,,,,,,,,*79
$GPGSA,M,3,05,26,07,08,09,10,15,28,,,,,2.0,1.1,1.6*33
Trace #17 at position 4.000000
$GPRMC,132717.00,A,4624.897160,N,00943.952045,E,001.2,66.6,110314,0.7,W,A*16
$GPGGA,132718.00,4624.897330,N,00943.952515,E,1,08,1.1,1797.71,M,48.00,M,,*5B
$GPGSV,3,1,10,05,62,249,34,26,52,298,31,07,35,056,44,08,69,049,42*7F
$GPGSV,3,2,10,09,75,043,41,10,27,166,38,15,16,292,34,28,46,137,39*74
$GPGSV,3,3,10,03,05,035,,21,05,326,,,,,,,,,*79
$GPGSA,M,3,05,26,07,08,09,10,15,28,,,,,2.0,1.1,1.6*33
Trace #18 at position 4.250000
$GPRMC,132718.00,A,4624.897330,N,00943.952515,E,001.4,62.3,110314,0.7,W,A*19
$GPGGA,132719.00,4624.897519,N,00943.953068,E,1,08,1.1,1797.70,M,48.00,M,,*58
$GPGSV,3,1,10,05,62,249,36,26,52,298,32,07,35,056,45,08,69,049,44*79
$GPGSV,3,2,10,09,75,043,42,10,27,166,38,15,16,292,35,28,46,137,40*78
$GPGSV,3,3,10,03,05,035,,21,05,326,,,,,,,,,*79
$GPGSA,M,3,05,26,07,08,09,10,15,28,,,,,2.0,1.1,1.6*33
Trace #19 at position 4.500000
$GPRMC,132718.00,A,4624.897330,N,00943.952515,E,001.4,62.3,110314,0.7,W,A*19
$GPGGA,132719.00,4624.897519,N,00943.953068,E,1,08,1.1,1797.70,M,48.00,M,,*58
$GPGSV,3,1,10,05,62,249,36,26,52,298,32,07,35,056,45,08,69,049,44*79
$GPGSV,3,2,10,09,75,043,42,10,27,166,38,15,16,292,35,28,46,137,40*78
$GPGSV,3,3,10,03,05,035,,21,05,326,,,,,,,,,*79
$GPGSA,M,3,05,26,07,08,09,10,15,28,,,,,2.0,1.1,1.6*33
Trace #20 at position 4.750000
$GPRMC,132718.00,A,4624.897330,N,00943.952515,E,001.4,62.3,110314,0.7,W,A*19
$GPGGA,132719.00,4624.897519,N,00943.953068,E,1,08,1.1,1797.70,M,48.00,M,,*58
$GPGSV,3,1,10,05,62,249,36,26,52,298,32,07,35,056,45,08,69,049,44*79
$GPGSV,3,2,10,09,75,043,42,10,27,166,38,15,16,292,35,28,46,137,40*78
$GPGSV,3,3,10,03,05,035,,21,05,326,,,,,,,,,*79
$GPGSA,M,3,05,26,07,08,09,10,15,28,,,,,2.0,1.1,1.6*33
Trace #21 at position 5.000000
$GPRMC,132719.00,A,4624.897519,N,00943.953068,E,001.6,67.0,110314,0.7,W,A*1F
$GPGGA,132720.00,4624.897700,N,00943.953628,E,1,08,1.1,1797.68,M,48.00,M,,*53
$GPGSV,3,1,10,05,62,249,35,26,52,298,32,07,35,056,45,08,69,049,43*7D
$GPGSV,3,2,10,09,75,043,42,10,27,166,39,15,16,292,35,28,46,137,40*79
$GPGSV,3,3,10,03,05,035,,21,05,326,,,,,,,,,*79
$GPGSA,M,3,05,26,07,08,09,10,15,28,,,,,2.0,1.1,1.6*33
Trace #22 at position 5.250000
$GPRMC,132719.00,A,4624.897519,N,00943.953068,E,001.6,67.0,110314,0.7,W,A*1F
$GPGGA,132720.00,4624.897700,N,00943.953628,E,1,08,1.1,1797.68,M,48.00,M,,*53
$GPGSV,3,1,10,05,62,249,35,26,52,298,32,07,35,056,45,08,69,049,43*7D
$GPGSV,3,2,10,09,75,043,42,10,27,166,39,15,16,292,35,28,46,137,40*79
$GPGSV,3,3,10,03,05,035,,21,05,326,,,,,,,,,*79
$GPGSA,M,3,05,26,07,08,09,10,15,28,,,,,2.0,1.1,1.6*33
Trace #23 at position 5.500000
$GPRMC,132719.00,A,4624.897519,N,00943.953068,E,001.6,67.0,110314,0.7,W,A*1F
$GPGGA,132720.00,4624.897700,N,00943.953628,E,1,08,1.1,1797.68,M,48.00,M,,*53
$GPGSV,3,1,10,05,62,249,35,26,52,298,32,07,35,056,45,08,69,049,43*7D
$GPGSV,3,2,10,09,75,043,42,10,27,166,39,15,16,292,35,28,46,137,40*79
$GPGSV,3,3,10,03,05,035,,21,05,326,,,,,,,,,*79
$GPGSA,M,3,05,26,07,08,09,10,15,28,,,,,2.0,1.1,1.6*33
Trace #24 at position 5.750000
$GPRMC,132720.00,A,4624.897700,N,00943.953628,E,001.4,64.2,110314,0.7,W,A*1E
$GPGGA,132721.00,4624.897847,N,00943.954121,E,1,08,1.1,1797.65,M,48.00,M,,*5A
$GPGSV,3,1,10,05,62,249,31,26,52,298,34,07,35,056,46,08,69,049,44*7B
$GPGSV,3,2,10,09,75,043,43,10,27,166,39,15,16,292,35,28,46,137,40*78
$GPGSV,3,3,10,03,05,035,,21,05,326,,,,,,,,,*79
$GPGSA,M,3,05,26,07,08,09,10,15,28,,,,,2.0,1.1,1.6*33
Trace #25 at position 6.000000
$GPRMC,132720.00,A,4624.897700,N,00943.953628,E,001.4,64.2,110314,0.7,W,A*1E
$GPGGA,132721.00,4624.897847,N,00943.954121,E,1,08,1.1,1797.65,M,48.00,M,,*5A
$GPGSV,3,1,10,05,62,249,31,26,52,298,34,07,35,056,46,08,69,049,44*7B
$GPGSV,3,2,10,09,75,043,43,10,27,166,39,15,16,292,35,28,46,137,40*78
$GPGSV,3,3,10,03,05,035,,21,05,326,,,,,,,,,*79
$GPGSA,M,3,05,26,07,08,09,10,15,28,,,,,2.0,1.1,1.6*33
Trace #26 at position 6.250000
$GPRMC,132721.00,A,4624.897847,N,00943.954121,E,001.2,69.7,110314,0.7,W,A*14
$GPGGA,132722.00,4624.897932,N,00943.954560,E,1,08,1.1,1797.70,M,48.00,M,,*5F
$GPGSV,3,1,10,05,62,249,38,26,52,298,36,07,35,056,46,08,69,049,43*77
$GPGSV,3,2,10,09,75,043,43,10,27,166,40,15,16,292,34,28,46,137,42*75
$GPGSV,3,3,10,03,05,035,,21,05,326,,,,,,,,,*79
$GPGSA,M,3,05,26,07,08,09,10,15,28,,,,,2.0,1.1,1.6*33
Trace #27 at position 6.500000
$GPRMC,132721.00,A,4624.897847,N,00943.954121,E,001.2,69.7,110314,0.7,W,A*14
$GPGGA,132722.00,4624.897932,N,00943.954560,E,1,08,1.1,1797.70,M,48.00,M,,*5F
$GPGSV,3,1,10,05,62,249,38,26,52,298,36,07,35,056,46,08,69,049,43*77
$GPGSV,3,2,10,09,75,043,43,10,27,166,40,15,16,292,34,28,46,137,42*75
$GPGSV,3,3,10,03,05,035,,21,05,326,,,,,,,,,*79
$GPGSA,M,3,05,26,07,08,09,10,15,28,,,,,2.0,1.1,1.6*33
Trace #28 at position 6.750000
$GPRMC,132722.00,A,4624.897932,N,00943.954560,E,001.0,81.6,110314,0.7,W,A*10
$GPGGA,132723.00,4624.898030,N,00943.954914,E,1,08,1.1,1797.78,M,48.00,M,,*5D
$GPGSV,3,1,10,05,62,249,35,26,52,298,34,07,35,056,46,08,69,049,43*78
$GPGSV,3,2,10,09,75,043,43,10,27,166,39,15,16,292,35,28,46,137,40*78
$GPGSV,3,3,10,03,05,035,,21,05,326,,,,,,,,,*79
$GPGSA,M,3,05,26,07,08,09,10,15,28,,,,,2.0,1.1,1.6*33
Trace #29 at position 7.000000
$GPRMC,132722.00,A,4624.897932,N,00943.954560,E,001.0,81.6,110314,0.7,W,A*10
$GPGGA,132723.00,4624.898030,N,00943.954914,E,1,08,1.1,1797.78,M,48.00,M,,*5D
$GPGSV,3,1,10,05,62,249,35,26,52,298,34,07,35,056,46,08,69,049,43*78
$GPGSV,3,2,10,09,75,043,43,10,27,166,39,15,16,292,35,28,46,137,40*78
$GPGSV,3,3,10,03,05,035,,21,05,326,,,,,,,,,*79
$GPGSA,M,3,05,26,07,08,09,10,15,28,,,,,2.0,1.1,1.6*33
Trace #30 at position 7.250000
$GPRMC,132722.00,A,4624.897932,N,00943.954560,E,001.0,81.6,110314,0.7,W,A*10
$GPGGA,132723.00,4624.898030,N,00943.954914,E,1,08,1.1,1797.78,M,48.00,M,,*5D
$GPGSV,3,1,10,05,62,249,35,26,52,298,34,07,35,056,46,08,69,049,43*78
$GPGSV,3,2,10,09,75,043,43,10,27,166,39,15,16,292,35,28,46,137,40*78
$GPGSV,3,3,10,03,05,035,,21,05,326,,,,,,,,,*79
$GPGSA,M,3,05,26,07,08,09,10,15,28,,,,,2.0,1.1,1.6*33
Trace #31 at position 7.500000
$GPRMC,132723.00,A,4624.898030,N,00943.954914,E,000.8,53.6,110314,0.7,W,A*1C
$GPGGA,132724.00,4624.898163,N,00943.955371,E,1,08,1.1,1797.84,M,48.00,M,,*56
$GPGSV,3,1,10,05,62,249,33,26,52,298,33,07,35,056,44,08,69,049,42*7A
$GPGSV,3,2,10,09,75,043,43,10,27,166,38,15,16,292,35,28,46,137,40*79
$GPGSV,3,3,10,03,05,035,,21,05,326,,,,,,,,,*79
$GPGSA,M,3,05,26,07,08,09,10,15,28,,,,,2.0,1.1,1.6*33
Trace #32 at position 7.750000
$GPRMC,132723.00,A,4624.898030,N,00943.954914,E,000.8,53.6,110314,0.7,W,A*1C
$GPGGA,132724.00,4624.898163,N,00943.955371,E,1,08,1.1,1797.84,M,48.00,M,,*56
$GPGSV,3,1,10,05,62,249,33,26,52,298,33,07,35,056,44,08,69,049,42*7A
$GPGSV,3,2,10,09,75,043,43,10,27,166,38,15,16,292,35,28,46,137,40*79
$GPGSV,3,3,10,03,05,035,,21,05,326,,,,,,,,,*79
$GPGSA,M,3,05,26,07,08,09,10,15,28,,,,,2.0,1.1,1.6*33
Trace #33 at position 8.000000
$GPRMC,132723.00,A,4624.898030,N,00943.954914,E,000.8,53.6,110314,0.7,W,A*1C
$GPGGA,132724.00,4624.898163,N,00943.955371,E,1,08,1.1,1797.84,M,48.00,M,,*56
$GPGSV,3,1,10,05,62,249,33,26,52,298,33,07,35,056,44,08,69,049,42*7A
$GPGSV,3,2,10,09,75,043,43,10,27,166,38,15,16,292,35,28,46,137,40*79
$GPGSV,3,3,10,03,05,035,,21,05,326,,,,,,,,,*79
$GPGSA,M,3,05,26,07,08,09,10,15,28,,,,,2.0,1.1,1.6*33
Trace #34 at position 8.250000
$GPRMC,132724.00,A,4624.898163,N,00943.955371,E,001.5,74.6,110314,0.7,W,A*1D
$GPGGA,132725.00,4624.898281,N,00943.955942,E,1,08,1.1,1797.87,M,48.00,M,,*51
$GPGSV,3,1,10,05,62,249,36,26,52,298,34,07,35,056,46,08,69,049,44*7C
$GPGSV,3,2,10,09,75,043,44,10,27,166,39,15,16,292,35,28,46,137,42*7D
$GPGSV,3,3,10,03,05,035,,21,05,326,,,,,,,,,*79
$GPGSA,M,3,05,26,07,08,09,10,15,28,,,,,2.0,1.1,1.6*33
Trace #35 at position 8.500000
$GPRMC,132724.00,A,4624.898163,N,00943.955371,E,001.5,74.6,110314,0.7,W,A*1D
$GPGGA,132725.00,4624.898281,N,00943.955942,E,1,08,1.1,1797.87,M,48.00,M,,*51
$GPGSV,3,1,10,05,62,249,36,26,52,298,34,07,35,056,46,08,69,049,44*7C
$GPGSV,3,2,10,09,75,043,44,10,27,166,39,15,16,292,35,28,46,137,42*7D
$GPGSV,3,3,10,03,05,035,,21,05,326,,,,,,,,,*79
$GPGSA,M,3,05,26,07,08,09,10,15,28,,,,,2.0,1.1,1.6*33
Trace #36 at position 8.750000
$GPRMC,132724.00,A,4624.898163,N,00943.955371,E,001.5,74.6,110314,0.7,W,A*1D
$GPGGA,132725.00,4624.898281,N,00943.955942,E,1,08,1.1,1797.87,M,48.00,M,,*51
$GPGSV,3,1,10,05,62,249,36,26,52,298,34,07,35,056,46,08,69,049,44*7C
$GPGSV,3,2,10,09,75,043,44,10,27,166,39,15,16,292,35,28,46,137,42*7D
$GPGSV,3,3,10,03,05,035,,21,05,326,,,,,,,,,*79
$GPGSA,M,3,05,26,07,08,09,10,15,28,,,,,2.0,1.1,1.6*33
Trace #37 at position 9.000000
$GPRMC,132725.00,A,4624.898281,N,00943.955942,E,001.3,74.4,110314,0.7,W,A*1D
$GPGGA,132726.00,4624.898471,N,00943.956560,E,1,07,1.2,1797.64,M,48.00,M,,*55
$GPGSV,3,1,10,05,62,249,29,26,52,298,34,07,35,056,45,08,69,049,43*76
$GPGSV,3,2,10,09,75,043,43,10,27,166,40,15,16,292,36,28,46,137,43*76
$GPGSV,3,3,10,03,05,035,,21,05,326,,,,,,,,,*79
$GPGSA,M,3,26,07,08,09,10,15,28,,,,,,2.2,1.2,1.9*38
Trace #38 at position 9.250000
$GPRMC,132725.00,A,4624.898281,N,00943.955942,E,001.3,74.4,110314,0.7,W,A*1D
$GPGGA,132726.00,4624.898471,N,00943.956560,E,1,07,1.2,1797.64,M,48.00,M,,*55
$GPGSV,3,1,10,05,62,249,29,26,52,298,34,07,35,056,45,08,69,049,43*76
$GPGSV,3,2,10,09,75,043,43,10,27,166,40,15,16,292,36,28,46,137,43*76
$GPGSV,3,3,10,03,05,035,,21,05,326,,,,,,,,,*79
$GPGSA,M,3,26,07,08,09,10,15,28,,,,,,2.2,1.2,1.9*38
Trace #39 at position 9.500000
$GPRMC,132725.00,A,4624.898281,N,00943.955942,E,001.3,74.4,110314,0.7,W,A*1D
$GPGGA,132726.00,4624.898471,N,00943.956560,E,1,07,1.2,1797.64,M,48.00,M,,*55
$GPGSV,3,1,10,05,62,249,29,26,52,298,34,07,35,056,45,08,69,049,43*76
$GPGSV,3,2,10,09,75,043,43,10,27,166,40,15,16,292,36,28,46,137,43*76
$GPGSV,3,3,10,03,05,035,,21,05,326,,,,,,,,,*79
$GPGSA,M,3,26,07,08,09,10,15,28,,,,,,2.2,1.2,1.9*38
Trace #40 at position 9.750000
$GPRMC,132726.00,A,4624.898471,N,00943.956560,E,001.2,70.2,110314,0.7,W,A*1B
$GPGGA,132727.00,4624.898597,N,00943.957108,E,1,08,1.1,1797.63,M,48.00,M,,*5D
$GPGSV,3,1,10,05,62,249,40,26,52,298,36,07,35,056,45,08,69,049,44*7C
$GPGSV,3,2,10,09,75,043,43,10,27,166,40,15,16,292,37,28,46,137,40*74
$GPGSV,3,3,10,03,05,035,,21,05,326,,,,,,,,,*79
$GPGSA,M,3,05,26,07,08,09,10,15,28,,,,,2.0,1.1,1.6*33
Trace #41 at position 10.000000
$GPRMC,132726.00,A,4624.898471,N,00943.956560,E,001.2,70.2,110314,0.7,W,A*1B
$GPGGA,132727.00,4624.898597,N,00943.957108,E,1,08,1.1,1797.63,M,48.00,M,,*5D
$GPGSV,3,1,10,05,62,249,40,26,52,298,36,07,35,056,45,08,69,049,44*7C
$GPGSV,3,2,10,09,75,043,43,10,27,166,40,15,16,292,37,28,46,137,40*74
$GPGSV,3,3,10,03,05,035,,21,05,326,,,,,,,,,*79
$GPGSA,M,3,05,26,07,08,09,10,15,28,,,,,2.0,1.1,1.6*33
Trace #42 at position 10.250000
$GPRMC,132727.00,A,4624.898597,N,00943.957108,E,001.6,75.7,110314,0.7,W,A*1C
$GPGGA,132728.00,4624.898684,N,00943.957545,E,1,08,1.1,1797.67,M,48.00,M,,*5A
$GPGSV,3,1,10,05,62,249,41,26,52,298,35,07,35,056,45,08,69,049,44*7E
$GPGSV,3,2,10,09,75,043,43,10,27,166,41,15,16,292,37,28,46,137,42*77
$GPGSV,3,3,10,03,05,035,,21,05,326,,,,,,,,,*79
$GPGSA,M,3,05,26,07,08,09,10,15,28,,,,,2.0,1.1,1.6*33
Trace #43 at position 10.500000
$GPRMC,132727.00,A,4624.898597,N,00943.957108,E,001.6,75.7,110314,0.7,W,A*1C
$GPGGA,132728.00,4624.898684,N,00943.957545,E,1,08,1.1,1797.67,M,48.00,M,,*5A
$GPGSV,3,1,10,05,62,249,41,26,52,298,35,07,35,056,45,08,69,049,44*7E
$GPGSV,3,2,10,09,75,043,43,10,27,166,41,15,16,292,37,28,46,137,42*77
$GPGSV,3,3,10,03,05,035,,21,05,326,,,,,,,,,*79
$GPGSA,M,3,05,26,07,08,09,10,15,28,,,,,2.0,1.1,1.6*33
Trace #44 at position 10.750000
$GPRMC,132728.00,A,4624.898684,N,00943.957545,E,000.6,78.6,110314,0.7,W,A*12
$GPGGA,132729.00,4624.898798,N,00943.957890,E,1,08,1.1,1797.73,M,48.00,M,,*57
$GPGSV,3,1,10,05,62,249,38,26,52,298,37,07,35,056,46,08,69,049,45*70
$GPGSV,3,2,10,09,75,043,44,10,27,166,42,15,16,292,38,28,46,137,40*7E
$GPGSV,3,3,10,03,05,035,,21,05,326,,,,,,,,,*79
$GPGSA,M,3,05,26,07,08,09,10,15,28,,,,,2.0,1.1,1.6*33
Trace #45 at position 11.000000
$GPRMC,132728.00,A,4624.898684,N,00943.957545,E,000.6,78.6,110314,0.7,W,A*12
$GPGGA,132729.00,4624.898798,N,00943.957890,E,1,08,1.1,1797.73,M,48.00,M,,*57
$GPGSV,3,1,10,05,62,249,38,26,52,298,37,07,35,056,46,08,69,049,45*70
$GPGSV,3,2,10,09,75,043,44,10,27,166,42,15,16,292,38,28,46,137,40*7E
$GPGSV,3,3,10,03,05,035,,21,05,326,,,,,,,,,*79
$GPGSA,M,3,05,26,07,08,09,10,15,28,,,,,2.0,1.1,1.6*33
Trace #46 at position 11.250000
$GPRMC,132728.00,A,4624.898684,N,00943.957545,E,000.6,78.6,110314,0.7,W,A*12
$GPGGA,132729.00,4624.898798,N,00943.957890,E,1,08,1.1,1797.73,M,48.00,M,,*57
$GPGSV,3,1,10,05,62,249,38,26,52,298,37,07,35,056,46,08,69,049,45*70
$GPGSV,3,2,10,09,75,043,44,10,27,166,42,15,16,292,38,28,46,137,40*7E
$GPGSV,3,3,10,03,05,035,,21,05,326,,,,,,,,,*79
$GPGSA,M,3,05,26,07,08,09,10,15,28,,,,,2.0,1.1,1.6*33
Trace #47 at position 11.500000
$GPRMC,132729.00,A,4624.898798,N,00943.957890,E,001.2,59.9,110314,0.7,W,A*13
$GPGGA,132730.00,4624.898969,N,00943.958404,E,1,08,1.1,1797.78,M,48.00,M,,*5A
$GPGSV,3,1,10,05,62,248,36,26,52,299,35,07,35,056,45,08,69,049,43*79
$GPGSV,3,2,10,09,75,043,43,10,27,166,40,15,16,292,36,28,46,137,42*77
$GPGSV,3,3,10,03,05,035,,21,05,326,,,,,,,,,*79
$GPGSA,M,3,05,26,07,08,09,10,15,28,,,,,2.0,1.1,1.6*33
Trace #48 at position 11.750000
$GPRMC,132729.00,A,4624.898798,N,00943.957890,E,001.2,59.9,110314,0.7,W,A*13
$GPGGA,132730.00,4624.898969,N,00943.958404,E,1,08,1.1,1797.78,M,48.00,M,,*5A
$GPGSV,3,1,10,05,62,248,36,26,52,299,35,07,35,056,45,08,69,049,43*79
$GPGSV,3,2,10,09,75,043,43,10,27,166,40,15,16,292,36,28,46,137,42*77
$GPGSV,3,3,10,03,05,035,,21,05,326,,,,,,,,,*79
$GPGSA,M,3,05,26,07,08,09,10,15,28,,,,,2.0,1.1,1.6*33
Trace #49 at position 12.000000
$GPRMC,132729.00,A,4624.898798,N,00943.957890,E,001.2,59.9,110314,0.7,W,A*13
$GPGGA,132730.00,4624.898969,N,00943.958404,E,1,08,1.1,1797.78,M,48.00,M,,*5A
$GPGSV,3,1,10,05,62,248,36,26,52,299,35,07,35,056,45,08,69,049,43*79
$GPGSV,3,2,10,09,75,043,43,10,27,166,40,15,16,292,36,28,46,137,42*77
$GPGSV,3,3,10,03,05,035,,21,05,326,,,,,,,,,*79
$GPGSA,M,3,05,26,07,08,09,10,15,28,,,,,2.0,1.1,1.6*33
Trace #50 at position 12.250000
$GPRMC,132730.00,A,4624.898969,N,00943.958404,E,001.6,68.3,110314,0.7,W,A*19
$GPGGA,132731.00,4624.899099,N,00943.958915,E,1,08,1.1,1797.80,M,48.00,M,,*56
$GPGSV,3,1,10,05,62,248,36,26,52,299,34,07,35,056,46,08,69,049,44*7C
$GPGSV,3,2,10,09,75,043,43,10,27,166,38,15,16,292,36,28,46,137,40*7A
$GPGSV,3,3,10,03,05,035,,21,05,326,,,,,,,,,*79
$GPGSA,M,3,05,26,07,08,09,10,15,28,,,,,2.0,1.1,1.6*33
Trace #51 at position 12.500000
$GPRMC,132730.00,A,4624.898969,N,00943.958404,E,001.6,68.3,110314,0.7,W,A*19
$GPGGA,132731.00,4624.899099,N,00943.958915,E,1,08,1.1,1797.80,M,48.00,M,,*56
$GPGSV,3,1,10,05,62,248,36,26,52,299,34,07,35,056,46,08,69,049,44*7C
$GPGSV,3,2,10,09,75,043,43,10,27,166,38,15,16,292,36,28,46,137,40*7A
$GPGSV,3,3,10,03,05,035,,21,05,326,,,,,,,,,*79
$GPGSA,M,3,05,26,07,08,09,10,15,28,,,,,2.0,1.1,1.6*33
Trace #52 at position 12.750000
$GPRMC,132730.00,A,4624.898969,N,00943.958404,E,001.6,68.3,110314,0.7,W,A*19
$GPGGA,132731.00,4624.899099,N,00943.958915,E,1,08,1.1,1797.80,M,48.00,M,,*56
$GPGSV,3,1,10,05,62,248,36,26,52,299,34,07,35,056,46,08,69,049,44*7C
$GPGSV,3,2,10,09,75,043,43,10,27,166,38,15,16,292,36,28,46,137,40*7A
$GPGSV,3,3,10,03,05,035,,21,05,326,,,,,,,,,*79
$GPGSA,M,3,05,26,07,08,09,10,15,28,,,,,2.0,1.1,1.6*33
Trace #53 at position 13.000000
$GPRMC,132730.00,A,4624.898969,N,00943.958404,E,001.6,68.3,110314,0.7,W,A*19
$GPGGA,132731.00,4624.899099,N,00943.958915,E,1,08,1.1,1797.80,M,48.00,M,,*56
$GPGSV,3,1,10,05,62,248,36,26,52,299,34,07,35,056,46,08,69,049,44*7C
$GPGSV,3,2,10,09,75,043,43,10,27,166,38,15,16,292,36,28,46,137,40*7A
$GPGSV,3,3,10,03,05,035,,21,05,326,,,,,,,,,*79
$GPGSA,M,3,05,26,07,08,09,10,15,28,,,,,2.0,1.1,1.6*33
Trace #54 at position 13.250000
$GPRMC,132731.00,A,4624.899099,N,00943.958915,E,001.1,72.2,110314,0.7,W,A*1F
$GPGGA,132732.00,4624.899208,N,00943.959348,E,1,08,1.1,1797.87,M,48.00,M,,*5B
$GPGSV,3,1,10,05,62,248,33,26,52,299,34,07,35,056,45,08,69,049,43*7D
$GPGSV,3,2,10,09,75,043,42,10,27,166,38,15,16,292,36,28,46,137,41*7A
$GPGSV,3,3,10,03,05,035,,21,05,326,,,,,,,,,*79
$GPGSA,M,3,05,26,07,08,09,10,15,28,,,,,2.0,1.1,1.6*33
Trace #55 at position 13.500000
$GPRMC,132731.00,A,4624.899099,N,00943.958915,E,001.1,72.2,110314,0.7,W,A*1F
$GPGGA,132732.00,4624.899208,N,00943.959348,E,1,08,1.1,1797.87,M,48.00,M,,*5B
$GPGSV,3,1,10,05,62,248,33,26,52,299,34,07,35,056,45,08,69,049,43*7D
$GPGSV,3,2,10,09,75,043,42,10,27,166,38,15,16,292,36,28,46,137,41*7A
$GPGSV,3,3,10,03,05,035,,21,05,326,,,,,,,,,*79
$GPGSA,M,3,05,26,07,08,09,10,15,28,,,,,2.0,1.1,1.6*33
Trace #56 at position 13.750000
$GPRMC,132731.00,A,4624.899099,N,00943.958915,E,001.1,72.2,110314,0.7,W,A*1F
$GPGGA,132732.00,4624.899208,N,00943.959348,E,1,08,1.1,1797.87,M,48.00,M,,*5B
$GPGSV,3,1,10,05,62,248,33,26,52,299,34,07,35,056,45,08,69,049,43*7D
$GPGSV,3,2,10,09,75,043,42,10,27,166,38,15,16,292,36,28,46,137,41*7A
$GPGSV,3,3,10,03,05,035,,21,05,326,,,,,,,,,*79
$GPGSA,M,3,05,26,07,08,09,10,15,28,,,,,2.0,1.1,1.6*33
Trace #57 at position 14.000000
$GPRMC,132732.00,A,4624.899208,N,00943.959348,E,001.1,68.2,110314,0.7,W,A*1E
$GPGGA,132733.00,4624.899411,N,00943.959914,E,1,08,1.1,1797.75,M,48.00,M,,*5A
$GPGSV,3,1,10,05,62,248,32,26,52,299,35,07,35,056,46,08,69,049,44*79
$GPGSV,3,2,10,09,75,043,43,10,27,166,40,15,16,292,35,28,46,137,43*75
$GPGSV,3,3,10,03,05,035,,21,05,326,,,,,,,,,*79
$GPGSA,M,3,05,26,07,08,09,10,15,28,,,,,2.0,1.1,1.6*33
Trace #58 at position 14.250000
$GPRMC,132732.00,A,4624.899208,N,00943.959348,E,001.1,68.2,110314,0.7,W,A*1E
$GPGGA,132733.00,4624.899411,N,00943.959914,E,1,08,1.1,1797.75,M,48.00,M,,*5A
$GPGSV,3,1,10,05,62,248,32,26,52,299,35,07,35,056,46,08,69,049,44*79
$GPGSV,3,2,10,09,75,043,43,10,27,166,40,15,16,292,35,28,46,137,43*75
$GPGSV,3,3,10,03,05,035,,21,05,326,,,,,,,,,*79
$GPGSA,M,3,05,26,07,08,09,10,15,28,,,,,2.0,1.1,1.6*33
Trace #59 at position 14.500000
$GPRMC,132732.00,A,4624.899208,N,00943.959348,E,001.1,68.2,110314,0.7,W,A*1E
$GPGGA,132733.00,4624.899411,N,00943.959914,E,1,08,1.1,1797.75,M,48.00,M,,*5A
$GPGSV,3,1,10,05,62,248,32,26,52,299,35,07,35,056,46,08,69,049,44*79
$GPGSV,3,2,10,09,75,043,43,10,27,166,40,15,16,292,35,28,46,137,43*75
$GPGSV,3,3,10,03,05,035,,21,05,326,,,,,,,,,*79
$GPGSA,M,3,05,26,07,08,09,10,15,28,,,,,2.0,1.1,1.6*33
Trace #60 at position 14.750000
$GPRMC,132732.00,A,4624.899208,N,00943.959348,E,001.1,68.2,110314,0.7,W,A*1E
$GPGGA,132733.00,4624.899411,N,00943.959914,E,1,08,1.1,1797.75,M,48.00,M,,*5A
$GPGSV,3,1,10,05,62,248,32,26,52,299,35,07,35,056,46,08,69,049,44*79
$GPGSV,3,2,10,09,75,043,43,10,27,166,40,15,16,292,35,28,46,137,43*75
$GPGSV,3,3,10,03,05,035,,21,05,326,,,,,,,,,*79
$GPGSA,M,3,05,26,07,08,09,10,15,28,,,,,2.0,1.1,1.6*33
Trace #61 at position 15.000000
$GPRMC,132733.00,A,4624.899411,N,00943.959914,E,002.0,59.4,110314,0.7,W,A*14
$GPGGA,132734.00,4624.899652,N,00943.960603,E,1,08,1.1,1797.56,M,48.00,M,,*5A
$GPGSV,3,1,10,05,62,248,32,26,52,299,34,07,35,056,45,08,69,049,44*7B
$GPGSV,3,2,10,09,75,043,42,10,27,166,39,15,16,292,36,28,46,137,43*79
$GPGSV,3,3,10,03,05,035,,21,05,326,,,,,,,,,*79
$GPGSA,M,3,05,26,07,08,09,10,15,28,,,,,2.0,1.1,1.6*33
Trace #62 at position 15.250000
$GPRMC,132733.00,A,4624.899411,N,00943.959914,E,002.0,59.4,110314,0.7,W,A*14
$GPGGA,132734.00,4624.899652,N,00943.960603,E,1,08,1.1,1797.56,M,48.00,M,,*5A
$GPGSV,3,1,10,05,62,248,32,26,52,299,34,07,35,056,45,08,69,049,44*7B
$GPGSV,3,2,10,09,75,043,42,10,27,166,39,15,16,292,36,28,46,137,43*79
$GPGSV,3,3,10,03,05,035,,21,05,326,,,,,,,,,*79
$GPGSA,M,3,05,26,07,08,09,10,15,28,,,,,2.0,1.1,1.6*33
Trace #63 at position 15.500000
$GPRMC,132733.00,A,4624.899411,N,00943.959914,E,002.0,59.4,110314,0.7,W,A*14
$GPGGA,132734.00,4624.899652,N,00943.960603,E,1,08,1.1,1797.56,M,48.00,M,,*5A
$GPGSV,3,1,10,05,62,248,32,26,52,299,34,07,35,056,45,08,69,049,44*7B
$GPGSV,3,2,10,09,75,043,42,10,27,166,39,15,16,292,36,28,46,137,43*79
$GPGSV,3,3,10,03,05,035,,21,05,326,,,,,,,,,*79
$GPGSA,M,3,05,26,07,08,09,10,15,28,,,,,2.0,1.1,1.6*33
Trace #64 at position 15.750000
$GPRMC,132734.00,A,4624.899652,N,00943.960603,E,001.9,66.1,110314,0.7,W,A*16
$GPGGA,132735.00,4624.899824,N,00943.961219,E,1,08,1.1,1797.52,M,48.00,M,,*5E
$GPGSV,3,1,10,05,62,248,33,26,52,299,35,07,35,056,45,08,69,049,44*7B
$GPGSV,3,2,10,09,75,043,43,10,27,166,40,15,16,292,36,28,46,137,43*76
$GPGSV,3,3,10,03,05,035,,21,05,326,,,,,,,,,*79
$GPGSA,M,3,05,26,07,08,09,10,15,28,,,,,2.0,1.1,1.6*33
Trace #65 at position 16.000000
$GPRMC,132734.00,A,4624.899652,N,00943.960603,E,001.9,66.1,110314,0.7,W,A*16
$GPGGA,132735.00,4624.899824,N,00943.961219,E,1,08,1.1,1797.52,M,48.00,M,,*5E
$GPGSV,3,1,10,05,62,248,33,26,52,299,35,07,35,056,45,08,69,049,44*7B
$GPGSV,3,2,10,09,75,043,43,10,27,166,40,15,16,292,36,28,46,137,43*76
$GPGSV,3,3,10,03,05,035,,21,05,326,,,,,,,,,*79
$GPGSA,M,3,05,26,07,08,09,10,15,28,,,,,2.0,1.1,1.6*33
Trace #66 at position 16.250000
$GPRMC,132734.00,A,4624.899652,N,00943.960603,E,001.9,66.1,110314,0.7,W,A*16
$GPGGA,132735.00,4624.899824,N,00943.961219,E,1,08,1.1,1797.52,M,48.00,M,,*5E
$GPGSV,3,1,10,05,62,248,33,26,52,299,35,07,35,056,45,08,69,049,44*7B
$GPGSV,3,2,10,09,75,043,43,10,27,166,40,15,16,292,36,28,46,137,43*76
$GPGSV,3,3,10,03,05,035,,21,05,326,,,,,,,,,*79
$GPGSA,M,3,05,26,07,08,09,10,15,28,,,,,2.0,1.1,1.6*33
Trace #67 at position 16.500000
$GPRMC,132735.00,A,4624.899824,N,00943.961219,E,001.5,69.5,110314,0.7,W,A*11
$GPGGA,132736.00,4624.899947,N,00943.961784,E,1,08,1.1,1797.52,M,48.00,M,,*58
$GPGSV,3,1,10,05,62,248,30,26,52,299,35,07,35,056,44,08,69,049,44*79
$GPGSV,3,2,10,09,75,043,42,10,27,166,40,15,16,292,35,28,46,137,43*74
$GPGSV,3,3,10,03,05,035,,21,06,326,,,,,,,,,*7A
$GPGSA,M,3,05,26,07,08,09,10,15,28,,,,,2.0,1.1,1.6*33
Trace #68 at position 16.750000
$GPRMC,132735.00,A,4624.899824,N,00943.961219,E,001.5,69.5,110314,0.7,W,A*11
$GPGGA,132736.00,4624.899947,N,00943.961784,E,1,08,1.1,1797.52,M,48.00,M,,*58
$GPGSV,3,1,10,05,62,248,30,26,52,299,35,07,35,056,44,08,69,049,44*79
$GPGSV,3,2,10,09,75,043,42,10,27,166,40,15,16,292,35,28,46,137,43*74
$GPGSV,3,3,10,03,05,035,,21,06,326,,,,,,,,,*7A
$GPGSA,M,3,05,26,07,08,09,10,15,28,,,,,2.0,1.1,1.6*33
Trace #69 at position 17.000000
$GPRMC,132735.00,A,4624.899824,N,00943.961219,E,001.5,69.5,110314,0.7,W,A*11
$GPGGA,132736.00,4624.899947,N,00943.961784,E,1,08,1.1,1797.52,M,48.00,M,,*58
$GPGSV,3,1,10,05,62,248,30,26,52,299,35,07,35,056,44,08,69,049,44*79
$GPGSV,3,2,10,09,75,043,42,10,27,166,40,15,16,292,35,28,46,137,43*74
$GPGSV,3,3,10,03,05,035,,21,06,326,,,,,,,,,*7A
$GPGSA,M,3,05,26,07,08,09,10,15,28,,,,,2.0,1.1,1.6*33
Trace #70 at position 17.250000
$GPRMC,132735.00,A,4624.899824,N,00943.961219,E,001.5,69.5,110314,0.7,W,A*11
$GPGGA,132736.00,4624.899947,N,00943.961784,E,1,08,1.1,1797.52,M,48.00,M,,*58
$GPGSV,3,1,10,05,62,248,30,26,52,299,35,07,35,056,44,08,69,049,44*79
$GPGSV,3,2,10,09,75,043,42,10,27,166,40,15,16,292,35,28,46,137,43*74
$GPGSV,3,3,10,03,05,035,,21,06,326,,,,,,,,,*7A
$GPGSA,M,3,05,26,07,08,09,10,15,28,,,,,2.0,1.1,1.6*33
Trace #71 at position 17.500000
$GPRMC,132736.00,A,4624.899947,N,00943.961784,E,001.5,74.5,110314,0.7,W,A*1B
$GPGGA,132737.00,4624.900067,N,00943.962434,E,1,08,1.1,1797.55,M,48.00,M,,*5F
$GPGSV,3,1,10,05,62,248,37,26,52,299,35,07,35,056,47,08,69,049,45*7C
$GPGSV,3,2,10,09,75,043,43,10,27,166,40,15,16,292,36,28,46,137,42*77
$GPGSV,3,3,10,03,05,035,,21,06,326,,,,,,,,,*7A
$GPGSA,M,3,05,26,07,08,09,10,15,28,,,,,2.0,1.1,1.6*33
Trace #72 at position 17.750000
$GPRMC,132736.00,A,4624.899947,N,00943.961784,E,001.5,74.5,110314,0.7,W,A*1B
$GPGGA,132737.00,4624.900067,N,00943.962434,E,1,08,1.1,1797.55,M,48.00,M,,*5F
$GPGSV,3,1,10,05,62,248,37,26,52,299,35,07,35,056,47,08,69,049,45*7C
$GPGSV,3,2,10,09,75,043,43,10,27,166,40,15,16,292,36,28,46,137,42*77
$GPGSV,3,3,10,03,05,035,,21,06,326,,,,,,,,,*7A
$GPGSA,M,3,05,26,07,08,09,10,15,28,,,,,2.0,1.1,1.6*33
Trace #73 at position 18.000000
$GPRMC,132736.00,A,4624.899947,N,00943.961784,E,001.5,74.5,110314,0.7,W,A*1B
$GPGGA,132737.00,4624.900067,N,00943.962434,E,1,08,1.1,1797.55,M,48.00,M,,*5F
$GPGSV,3,1,10,05,62,248,37,26,52,299,35,07,35,056,47,08,69,049,45*7C
$GPGSV,3,2,10,09,75,043,43,10,27,166,40,15,16,292,36,28,46,137,42*77
$GPGSV,3,3,10,03,05,035,,21,06,326,,,,,,,,,*7A
$GPGSA,M,3,05,26,07,08,09,10,15,28,,,,,2.0,1.1,1.6*33
Trace #74 at position 18.250000
$GPRMC,132737.00,A,4624.900067,N,00943.962434,E,001.9,76.2,110314,0.7,W,A*12
$GPGGA,132738.00,4624.900241,N,00943.963055,E,1,08,1.1,1797.56,M,48.00,M,,*57
$GPGSV,3,1,10,05,62,248,36,26,52,299,35,07,35,056,46,08,68,049,44*7C
$GPGSV,3,2,10,09,75,043,43,10,27,166,39,15,16,292,35,28,46,137,41*79
$GPGSV,3,3,10,03,05,035,,21,06,326,,,,,,,,,*7A
$GPGSA,M,3,05,26,07,08,09,10,15,28,,,,,2.0,1.1,1.6*33
Trace #75 at position 18.500000
$GPRMC,132737.00,A,4624.900067,N,00943.962434,E,001.9,76.2,110314,0.7,W,A*12
$GPGGA,132738.00,4624.900241,N,00943.963055,E,1,08,1.1,1797.56,M,48.00,M,,*57
$GPGSV,3,1,10,05,62,248,36,26,52,299,35,07,35,056,46,08,68,049,44*7C
$GPGSV,3,2,10,09,75,043,43,10,27,166,39,15,16,292,35,28,46,137,41*79
$GPGSV,3,3,10,03,05,035,,21,06,326,,,,,,,,,*7A
$GPGSA,M,3,05,26,07,08,09,10,15,28,,,,,2.0,1.1,1.6*33
Trace #76 at position 18.750000
$GPRMC,132737.00,A,4624.900067,N,00943.962434,E,001.9,76.2,110314,0.7,W,A*12
$GPGGA,132738.00,4624.900241,N,00943.963055,E,1,08,1.1,1797.56,M,48.00,M,,*57
$GPGSV,3,1,10,05,62,248,36,26,52,299,35,07,35,056,46,08,68,049,44*7C
$GPGSV,3,2,10,09,75,043,43,10,27,166,39,15,16,292,35,28,46,137,41*79
$GPGSV,3,3,10,03,05,035,,21,06,326,,,,,,,,,*7A
$GPGSA,M,3,05,26,07,08,09,10,15,28,,,,,2.0,1.1,1.6*33
Trace #77 at position 19.000000
$GPRMC,132738.00,A,4624.900241,N,00943.963055,E,001.5,58.7,110314,0.7,W,A*1C
$GPGGA,132739.00,4624.900418,N,00943.963625,E,1,08,1.1,1797.53,M,48.00,M,,*58
$GPGSV,3,1,10,05,62,248,36,26,52,299,35,07,35,056,46,08,68,049,43*7B
$GPGSV,3,2,10,09,75,043,43,10,27,166,39,15,16,292,36,28,46,137,41*7A
$GPGSV,3,3,10,03,05,035,,21,06,326,,,,,,,,,*7A
$GPGSA,M,3,05,26,07,08,09,10,15,28,,,,,2.0,1.1,1.6*33
Trace #78 at position 19.250000
$GPRMC,132738.00,A,4624.900241,N,00943.963055,E,001.5,58.7,110314,0.7,W,A*1C
$GPGGA,132739.00,4624.900418,N,00943.963625,E,1,08,1.1,1797.53,M,48.00,M,,*58
$GPGSV,3,1,10,05,62,248,36,26,52,299,35,07,35,056,46,08,68,049,43*7B
$GPGSV,3,2,10,09,75,043,43,10,27,166,39,15,16,292,36,28,46,137,41*7A
$GPGSV,3,3,10,03,05,035,,21,06,326,,,,,,,,,*7A
$GPGSA,M,3,05,26,07,08,09,10,15,28,,,,,2.0,1.1,1.6*33
Trace #79 at position 19.500000
$GPRMC,132738.00,A,4624.900241,N,00943.963055,E,001.5,58.7,110314,0.7,W,A*1C
$GPGGA,132739.00,4624.900418,N,00943.963625,E,1,08,1.1,1797.53,M,48.00,M,,*58
$GPGSV,3,1,10,05,62,248,36,26,52,299,35,07,35,056,46,08,68,049,43*7B
$GPGSV,3,2,10,09,75,043,43,10,27,166,39,15,16,292,36,28,46,137,41*7A
$GPGSV,3,3,10,03,05,035,,21,06,326,,,,,,,,,*7A
$GPGSA,M,3,05,26,07,08,09,10,15,28,,,,,2.0,1.1,1.6*33
Trace #80 at position 19.750000
$GPRMC,132738.00,A,4624.900241,N,00943.963055,E,001.5,58.7,110314,0.7,W,A*1C
$GPGGA,132739.00,4624.900418,N,00943.963625,E,1,08,1.1,1797.53,M,48.00,M,,*58
$GPGSV,3,1,10,05,62,248,36,26,52,299,35,07,35,056,46,08,68,049,43*7B
$GPGSV,3,2,10,09,75,043,43,10,27,166,39,15,16,292,36,28,46,137,41*7A
$GPGSV,3,3,10,03,05,035,,21,06,326,,,,,,,,,*7A
$GPGSA,M,3,05,26,07,08,09,10,15,28,,,,,2.0,1.1,1.6*33
Trace #81 at position 20.000000
$GPRMC,132739.00,A,4624.900418,N,00943.963625,E,001.6,71.6,110314,0.7,W,A*1F
$GPGGA,132740.00,4624.900574,N,00943.964231,E,1,08,1.1,1797.55,M,48.00,M,,*5D
$GPGSV,3,1,10,05,62,248,39,26,52,299,36,07,35,056,45,08,68,049,44*73
$GPGSV,3,2,10,09,75,043,43,10,27,166,40,15,16,292,34,28,46,137,42*75
$GPGSV,3,3,10,03,05,035,,21,06,326,,,,,,,,,*7A
$GPGSA,M,3,05,26,07,08,09,10,15,28,,,,,2.0,1.1,1.6*33
Trace #82 at position 20.250000
$GPRMC,132739.00,A,4624.900418,N,00943.963625,E,001.6,71.6,110314,0.7,W,A*1F
$GPGGA,132740.00,4624.900574,N,00943.964231,E,1,08,1.1,1797.55,M,48.00,M,,*5D
$GPGSV,3,1,10,05,62,248,39,26,52,299,36,07,35,056,45,08,68,049,44*73
$GPGSV,3,2,10,09,75,043,43,10,27,166,40,15,16,292,34,28,46,137,42*75
$GPGSV,3,3,10,03,05,035,,21,06,326,,,,,,,,,*7A
$GPGSA,M,3,05,26,07,08,09,10,15,28,,,,,2.0,1.1,1.6*33
Trace #83 at position 20.500000
$GPRMC,132739.00,A,4624.900418,N,00943.963625,E,001.6,71.6,110314,0.7,W,A*1F
$GPGGA,132740.00,4624.900574,N,00943.964231,E,1,08,1.1,1797.55,M,48.00,M,,*5D
$GPGSV,3,1,10,05,62,248,39,26,52,299,36,07,35,056,45,08,68,049,44*73
$GPGSV,3,2,10,09,75,043,43,10,27,166,40,15,16,292,34,28,46,137,42*75
$GPGSV,3,3,10,03,05,035,,21,06,326,,,,,,,,,*7A
$GPGSA,M,3,05,26,07,08,09,10,15,28,,,,,2.0,1.1,1.6*33
Trace #84 at position 20.750000
$GPRMC,132740.00,A,4624.900574,N,00943.964231,E,001.7,66.7,110314,0.7,W,A*1A
$GPGGA,132741.00,4624.900719,N,00943.964832,E,1,08,1.1,1797.65,M,48.00,M,,*5F
$GPGSV,3,1,10,05,62,248,35,26,52,299,35,07,35,056,47,08,68,049,45*7F
$GPGSV,3,2,10,09,75,043,43,10,27,166,38,15,16,292,35,28,46,137,40*79
$GPGSV,3,3,10,03,05,035,,21,06,326,,,,,,,,,*7A
$GPGSA,M,3,05,26,07,08,09,10,15,28,,,,,2.0,1.1,1.6*33
Trace #85 at position 21.000000
$GPRMC,132740.00,A,4624.900574,N,00943.964231,E,001.7,66.7,110314,0.7,W,A*1A
$GPGGA,132741.00,4624.900719,N,00943.964832,E,1,08,1.1,1797.65,M,48.00,M,,*5F
$GPGSV,3,1,10,05,62,248,35,26,52,299,35,07,35,056,47,08,68,049,45*7F
$GPGSV,3,2,10,09,75,043,43,10,27,166,38,15,16,292,35,28,46,137,40*79
$GPGSV,3,3,10,03,05,035,,21,06,326,,,,,,,,,*7A
$GPGSA,M,3,05,26,07,08,09,10,15,28,,,,,2.0,1.1,1.6*33
Trace #86 at position 21.250000
$GPRMC,132740.00,A,4624.900574,N,00943.964231,E,001.7,66.7,110314,0.7,W,A*1A
$GPGGA,132741.00,4624.900719,N,00943.964832,E,1,08,1.1,1797.65,M,48.00,M,,*5F
$GPGSV,3,1,10,05,62,248,35,26,52,299,35,07,35,056,47,08,68,049,45*7F
$GPGSV,3,2,10,09,75,043,43,10,27,166,38,15,16,292,35,28,46,137,40*79
$GPGSV,3,3,10,03,05,035,,21,06,326,,,,,,,,,*7A
$GPGSA,M,3,05,26,07,08,09,10,15,28,,,,,2.0,1.1,1.6*33
Trace #87 at position 21.500000
$GPRMC,132741.00,A,4624.900719,N,00943.964832,E,001.5,73.6,110314,0.7,W,A*1C
$GPGGA,132742.00,4624.900852,N,00943.965396,E,1,08,1.1,1797.73,M,48.00,M,,*5F
$GPGSV,3,1,10,05,62,248,36,26,52,299,34,07,35,056,45,08,68,049,44*7E
$GPGSV,3,2,10,09,75,043,42,10,27,166,37,15,16,292,35,28,46,137,41*76
$GPGSV,3,3,10,03,05,035,,21,06,326,,,,,,,,,*7A
$GPGSA,M,3,05,26,07,08,09,10,15,28,,,,,2.0,1.1,1.6*33
Trace #88 at position 21.750000
$GPRMC,132741.00,A,4624.900719,N,00943.964832,E,001.5,73.6,110314,0.7,W,A*1C
$GPGGA,132742.00,4624.900852,N,00943.965396,E,1,08,1.1,1797.73,M,48.00,M,,*5F
$GPGSV,3,1,10,05,62,248,36,26,52,299,34,07,35,056,45,08,68,049,44*7E
$GPGSV,3,2,10,09,75,043,42,10,27,166,37,15,16,292,35,28,46,137,41*76
$GPGSV,3,3,10,03,05,035,,21,06,326,,,,,,,,,*7A
$GPGSA,M,3,05,26,07,08,09,10,15,28,,,,,2.0,1.1,1.6*33
Trace #89 at position 22.000000
$GPRMC,132741.00,A,4624.900719,N,00943.964832,E,001.5,73.6,110314,0.7,W,A*1C
$GPGGA,132742.00,4624.900852,N,00943.965396,E,1,08,1.1,1797.73,M,48.00,M,,*5F
$GPGSV,3,1,10,05,62,248,36,26,52,299,34,07,35,056,45,08,68,049,44*7E
$GPGSV,3,2,10,09,75,043,42,10,27,166,37,15,16,292,35,28,46,137,41*76
$GPGSV,3,3,10,03,05,035,,21,06,326,,,,,,,,,*7A
$GPGSA,M,3,05,26,07,08,09,10,15,28,,,,,2.0,1.1,1.6*33
Trace #90 at position 22.250000
$GPRMC,132741.00,A,4624.900719,N,00943.964832,E,001.5,73.6,110314,0.7,W,A*1C
$GPGGA,132742.00,4624.900852,N,00943.965396,E,1,08,1.1,1797.73,M,48.00,M,,*5F
$GPGSV,3,1,10,05,62,248,36,26,52,299,34,07,35,056,45,08,68,049,44*7E
$GPGSV,3,2,10,09,75,043,42,10,27,166,37,15,16,292,35,28,46,137,41*76
$GPGSV,3,3,10,03,05,035,,21,06,326,,,,,,,,,*7A
$GPGSA,M,3,05,26,07,08,09,10,15,28,,,,,2.0,1.1,1.6*33
Trace #91 at position 22.500000
$GPRMC,132742.00,A,4624.900852,N,00943.965396,E,001.5,68.0,110314,0.7,W,A*17
$GPGGA,132743.00,4624.901020,N,00943.965964,E,1,08,1.1,1797.75,M,48.00,M,,*53
$GPGSV,3,1,10,05,62,248,35,26,52,299,34,07,35,056,45,08,68,049,44*7D
$GPGSV,3,2,10,09,75,043,42,10,27,166,37,15,16,292,34,28,46,137,41*77
$GPGSV,3,3,10,03,05,035,,21,06,326,,,,,,,,,*7A
$GPGSA,M,3,05,26,07,08,09,10,15,28,,,,,2.0,1.1,1.6*33
Trace #92 at position 22.750000
$GPRMC,132742.00,A,4624.900852,N,00943.965396,E,001.5,68.0,110314,0.7,W,A*17
$GPGGA,132743.00,4624.901020,N,00943.965964,E,1,08,1.1,1797.75,M,48.00,M,,*53
$GPGSV,3,1,10,05,62,248,35,26,52,299,34,07,35,056,45,08,68,049,44*7D
$GPGSV,3,2,10,09,75,043,42,10,27,166,37,15,16,292,34,28,46,137,41*77
$GPGSV,3,3,10,03,05,035,,21,06,326,,,,,,,,,*7A
$GPGSA,M,3,05,26,07,08,09,10,15,28,,,,,2.0,1.1,1.6*33
Trace #93 at position 23.000000
$GPRMC,132742.00,A,4624.900852,N,00943.965396,E,001.5,68.0,110314,0.7,W,A*17
$GPGGA,132743.00,4624.901020,N,00943.965964,E,1,08,1.1,1797.75,M,48.00,M,,*53
$GPGSV,3,1,10,05,62,248,35,26,52,299,34,07,35,056,45,08,68,049,44*7D
$GPGSV,3,2,10,09,75,043,42,10,27,166,37,15,16,292,34,28,46,137,41*77
$GPGSV,3,3,10,03,05,035,,21,06,326,,,,,,,,,*7A
$GPGSA,M,3,05,26,07,08,09,10,15,28,,,,,2.0,1.1,1.6*33
Trace #94 at position 23.250000
$GPRMC,132743.00,A,4624.901020,N,00943.965964,E,001.7,64.9,110314,0.7,W,A*1A
$GPGGA,132744.00,4624.901176,N,00943.966535,E,1,08,1.1,1797.72,M,48.00,M,,*5A
$GPGSV,3,1,10,05,62,248,31,26,52,299,34,07,35,056,45,08,68,049,43*7E
$GPGSV,3,2,10,09,75,043,42,10,27,166,39,15,16,292,34,28,46,137,41*79
$GPGSV,3,3,10,03,05,035,,21,06,326,,,,,,,,,*7A
$GPGSA,M,3,05,26,07,08,09,10,15,28,,,,,2.0,1.1,1.6*33
Trace #95 at position 23.500000
$GPRMC,132743.00,A,4624.901020,N,00943.965964,E,001.7,64.9,110314,0.7,W,A*1A
$GPGGA,132744.00,4624.901176,N,00943.966535,E,1,08,1.1,1797.72,M,48.00,M,,*5A
$GPGSV,3,1,10,05,62,248,31,26,52,299,34,07,35,056,45,08,68,049,43*7E
$GPGSV,3,2,10,09,75,043,42,10,27,166,39,15,16,292,34,28,46,137,41*79
$GPGSV,3,3,10,03,05,035,,21,06,326,,,,,,,,,*7A
$GPGSA,M,3,05,26,07,08,09,10,15,28,,,,,2.0,1.1,1.6*33
Trace #96 at position 23.750000
$GPRMC,132743.00,A,4624.901020,N,00943.965964,E,001.7,64.9,110314,0.7,W,A*1A
$GPGGA,132744.00,4624.901176,N,00943.966535,E,1,08,1.1,1797.72,M,48.00,M,,*5A
$GPGSV,3,1,10,05,62,248,31,26,52,299,34,07,35,056,45,08,68,049,43*7E
$GPGSV,3,2,10,09,75,043,42,10,27,166,39,15,16,292,34,28,46,137,41*79
$GPGSV,3,3,10,03,05,035,,21,06,326,,,,,,,,,*7A
$GPGSA,M,3,05,26,07,08,09,10,15,28,,,,,2.0,1.1,1.6*33
Trace #97 at position 24.000000
$GPRMC,132744.00,A,4624.901176,N,00943.966535,E,001.4,70.3,110314,0.7,W,A*18
$GPGGA,132745.00,4624.901334,N,00943.967107,E,1,08,1.1,1797.75,M,48.00,M,,*5C
$GPGSV,3,1,10,05,62,248,36,26,52,299,36,07,35,056,45,08,68,049,44*7C
$GPGSV,3,2,10,09,75,043,42,10,27,166,40,15,16,292,36,28,46,137,42*76
$GPGSV,3,3,10,03,05,035,,21,06,326,,,,,,,,,*7A
$GPGSA,M,3,05,26,07,08,09,10,15,28,,,,,2.0,1.1,1.6*33
Trace #98 at position 24.250000
$GPRMC,132744.00,A,4624.901176,N,00943.966535,E,001.4,70.3,110314,0.7,W,A*18
$GPGGA,132745.00,4624.901334,N,00943.967107,E,1,08,1.1,1797.75,M,48.00,M,,*5C
$GPGSV,3,1,10,05,62,248,36,26,52,299,36,07,35,056,45,08,68,049,44*7C
$GPGSV,3,2,10,09,75,043,42,10,27,166,40,15,16,292,36,28,46,137,42*76
$GPGSV,3,3,10,03,05,035,,21,06,326,,,,,,,,,*7A
$GPGSA,M,3,05,26,07,08,09,10,15,28,,,,,2.0,1.1,1.6*33
Trace #99 at position 24.500000
$GPRMC,132744.00,A,4624.901176,N,00943.966535,E,001.4,70.3,110314,0.7,W,A*18
$GPGGA,132745.00,4624.901334,N,00943.967107,E,1,08,1.1,1797.75,M,48.00,M,,*5C
$GPGSV,3,1,10,05,62,248,36,26,52,299,36,07,35,056,45,08,68,049,44*7C
$GPGSV,3,2,10,09,75,043,42,10,27,166,40,15,16,292,36,28,46,137,42*76
$GPGSV,3,3,10,03,05,035,,21,06,326,,,,,,,,,*7A
$GPGSA,M,3,05,26,07,08,09,10,15,28,,,,,2.0,1.1,1.6*33
Trace #100 at position 24.750000
$GPRMC,132745.00,A,4624.901334,N,00943.967107,E,001.7,63.9,110314,0.7,W,A*12
$GPGGA,132746.00,4624.901470,N,00943.967681,E,1,08,1.1,1797.82,M,48.00,M,,*59
$GPGSV,3,1,10,05,62,248,36,26,52,299,36,07,35,056,45,08,68,049,44*7C
$GPGSV,3,2,10,09,75,043,43,10,27,166,39,15,16,292,35,28,46,137,40*78
$GPGSV,3,3,10,03,05,035,,21,06,326,,,,,,,,,*7A
$GPGSA,M,3,05,26,07,08,09,10,15,28,,,,,2.0,1.1,1.6*33
Trace #101 at position 25.000000
$GPRMC,132745.00,A,4624.901334,N,00943.967107,E,001.7,63.9,110314,0.7,W,A*12
$GPGGA,132746.00,4624.901470,N,00943.967681,E,1,08,1.1,1797.82,M,48.00,M,,*59
$GPGSV,3,1,10,05,62,248,36,26,52,299,36,07,35,056,45,08,68,049,44*7C
$GPGSV,3,2,10,09,75,043,43,10,27,166,39,15,16,292,35,28,46,137,40*78
$GPGSV,3,3,10,03,05,035,,21,06,326,,,,,,,,,*7A
$GPGSA,M,3,05,26,07,08,09,10,15,28,,,,,2.0,1.1,1.6*33
Trace #102 at position 25.250000
$GPRMC,132745.00,A,4624.901334,N,00943.967107,E,001.7,63.9,110314,0.7,W,A*12
$GPGGA,132746.00,4624.901470,N,00943.967681,E,1,08,1.1,1797.82,M,48.00,M,,*59
$GPGSV,3,1,10,05,62,248,36,26,52,299,36,07,35,056,45,08,68,049,44*7C
$GPGSV,3,2,10,09,75,043,43,10,27,166,39,15,16,292,35,28,46,137,40*78
$GPGSV,3,3,10,03,05,035,,21,06,326,,,,,,,,,*7A
$GPGSA,M,3,05,26,07,08,09,10,15,28,,,,,2.0,1.1,1.6*33
Trace #103 at position 25.500000
$GPRMC,132746.00,A,4624.901470,N,00943.967681,E,001.4,76.4,110314,0.7,W,A*15
$GPGGA,132747.00,4624.901587,N,00943.968225,E,1,08,1.1,1797.94,M,48.00,M,,*53
$GPGSV,3,1,10,05,62,248,31,26,52,299,34,07,35,056,46,08,68,049,44*7A
$GPGSV,3,2,10,09,75,043,43,10,27,166,39,15,16,292,35,28,46,137,41*79
$GPGSV,3,3,10,03,05,035,,21,06,326,,,,,,,,,*7A
$GPGSA,M,3,05,26,07,08,09,10,15,28,,,,,2.0,1.1,1.6*33
Trace #104 at position 25.750000
$GPRMC,132746.00,A,4624.901470,N,00943.967681,E,001.4,76.4,110314,0.7,W,A*15
$GPGGA,132747.00,4624.901587,N,00943.968225,E,1,08,1.1,1797.94,M,48.00,M,,*53
$GPGSV,3,1,10,05,62,248,31,26,52,299,34,07,35,056,46,08,68,049,44*7A
$GPGSV,3,2,10,09,75,043,43,10,27,166,39,15,16,292,35,28,46,137,41*79
$GPGSV,3,3,10,03,05,035,,21,06,326,,,,,,,,,*7A
$GPGSA,M,3,05,26,07,08,09,10,15,28,,,,,2.0,1.1,1.6*33
Trace #105 at position 26.000000
$GPRMC,132746.00,A,4624.901470,N,00943.967681,E,001.4,76.4,110314,0.7,W,A*15
$GPGGA,132747.00,4624.901587,N,00943.968225,E,1,08,1.1,1797.94,M,48.00,M,,*53
$GPGSV,3,1,10,05,62,248,31,26,52,299,34,07,35,056,46,08,68,049,44*7A
$GPGSV,3,2,10,09,75,043,43,10,27,166,39,15,16,292,35,28,46,137,41*79
$GPGSV,3,3,10,03,05,035,,21,06,326,,,,,,,,,*7A
$GPGSA,M,3,05,26,07,08,09,10,15,28,,,,,2.0,1.1,1.6*33
Trace #106 at position 26.250000
$GPRMC,132747.00,A,4624.901587,N,00943.968225,E,001.4,67.4,110314,0.7,W,A*18
$GPGGA,132748.00,4624.901754,N,00943.968757,E,1,08,1.1,1797.96,M,48.00,M,,*52
$GPGSV,3,1,10,05,62,248,32,26,52,299,32,07,35,056,45,08,68,049,43*7B
$GPGSV,3,2,10,09,75,043,42,10,27,166,38,15,16,292,35,28,46,137,41*79
$GPGSV,3,3,10,03,05,035,,21,06,326,,,,,,,,,*7A
$GPGSA,M,3,05,26,07,08,09,10,15,28,,,,,2.0,1.1,1.6*33
Trace #107 at position 26.500000
$GPRMC,132747.00,A,4624.901587,N,00943.968225,E,001.4,67.4,110314,0.7,W,A*18
$GPGGA,132748.00,4624.901754,N,00943.968757,E,1,08,1.1,1797.96,M,48.00,M,,*52
$GPGSV,3,1,10,05,62,248,32,26,52,299,32,07,35,056,45,08,68,049,43*7B
$GPGSV,3,2,10,09,75,043,42,10,27,166,38,15,16,292,35,28,46,137,41*79
$GPGSV,3,3,10,03,05,035,,21,06,326,,,,,,,,,*7A
$GPGSA,M,3,05,26,07,08,09,10,15,28,,,,,2.0,1.1,1.6*33
Trace #108 at position 26.750000
$GPRMC,132747.00,A,4624.901587,N,00943.968225,E,001.4,67.4,110314,0.7,W,A*18
$GPGGA,132748.00,4624.901754,N,00943.968757,E,1,08,1.1,1797.96,M,48.00,M,,*52
$GPGSV,3,1,10,05,62,248,32,26,52,299,32,07,35,056,45,08,68,049,43*7B
$GPGSV,3,2,10,09,75,043,42,10,27,166,38,15,16,292,35,28,46,137,41*79
$GPGSV,3,3,10,03,05,035,,21,06,326,,,,,,,,,*7A
$GPGSA,M,3,05,26,07,08,09,10,15,28,,,,,2.0,1.1,1.6*33
Trace #109 at position 27.000000
$GPRMC,132747.00,A,4624.901587,N,00943.968225,E,001.4,67.4,110314,0.7,W,A*18
$GPGGA,132748.00,4624.901754,N,00943.968757,E,1,08,1.1,1797.96,M,48.00,M,,*52
$GPGSV,3,1,10,05,62,248,32,26,52,299,32,07,35,056,45,08,68,049,43*7B
$GPGSV,3,2,10,09,75,043,42,10,27,166,38,15,16,292,35,28,46,137,41*79
$GPGSV,3,3,10,03,05,035,,21,06,326,,,,,,,,,*7A
$GPGSA,M,3,05,26,07,08,09,10,15,28,,,,,2.0,1.1,1.6*33
Trace #110 at position 27.250000
$GPRMC,132748.00,A,4624.901754,N,00943.968757,E,001.5,60.8,110314,0.7,W,A*11
$GPGGA,132749.00,4624.901984,N,00943.969303,E,1,08,1.1,1797.94,M,48.00,M,,*56
$GPGSV,3,1,10,05,62,248,34,26,52,299,34,07,35,056,46,08,68,049,45*7E
$GPGSV,3,2,10,09,75,043,43,10,27,166,40,15,16,292,34,28,46,137,43*74
$GPGSV,3,3,10,03,05,035,,21,06,326,,,,,,,,,*7A
$GPGSA,M,3,05,26,07,08,09,10,15,28,,,,,2.0,1.1,1.6*33
Trace #111 at position 27.500000
$GPRMC,132748.00,A,4624.901754,N,00943.968757,E,001.5,60.8,110314,0.7,W,A*11
$GPGGA,132749.00,4624.901984,N,00943.969303,E,1,08,1.1,1797.94,M,48.00,M,,*56
$GPGSV,3,1,10,05,62,248,34,26,52,299,34,07,35,056,46,08,68,049,45*7E
$GPGSV,3,2,10,09,75,043,43,10,27,166,40,15,16,292,34,28,46,137,43*74
$GPGSV,3,3,10,03,05,035,,21,06,326,,,,,,,,,*7A
$GPGSA,M,3,05,26,07,08,09,10,15,28,,,,,2.0,1.1,1.6*33
Trace #112 at position 27.750000
$GPRMC,132748.00,A,4624.901754,N,00943.968757,E,001.5,60.8,110314,0.7,W,A*11
$GPGGA,132749.00,4624.901984,N,00943.969303,E,1,08,1.1,1797.94,M,48.00,M,,*56
$GPGSV,3,1,10,05,62,248,34,26,52,299,34,07,35,056,46,08,68,049,45*7E
$GPGSV,3,2,10,09,75,043,43,10,27,166,40,15,16,292,34,28,46,137,43*74
$GPGSV,3,3,10,03,05,035,,21,06,326,,,,,,,,,*7A
$GPGSA,M,3,05,26,07,08,09,10,15,28,,,,,2.0,1.1,1.6*33
Trace #113 at position 28.000000
$GPRMC,132749.00,A,4624.901984,N,00943.969303,E,001.7,51.7,110314,0.7,W,A*18
$GPGGA,132750.00,4624.902190,N,00943.969910,E,1,08,1.1,1797.93,M,48.00,M,,*5F
$GPGSV,3,1,10,05,62,248,33,26,52,299,34,07,35,056,46,08,68,049,44*78
$GPGSV,3,2,10,09,75,043,42,10,27,166,39,15,16,292,36,28,46,137,42*78
$GPGSV,3,3,10,03,05,035,,21,06,326,,,,,,,,,*7A
$GPGSA,M,3,05,26,07,08,09,10,15,28,,,,,2.0,1.1,1.6*33
Trace #114 at position 28.250000
$GPRMC,132749.00,A,4624.901984,N,00943.969303,E,001.7,51.7,110314,0.7,W,A*18
$GPGGA,132750.00,4624.902190,N,00943.969910,E,1,08,1.1,1797.93,M,48.00,M,,*5F
$GPGSV,3,1,10,05,62,248,33,26,52,299,34,07,35,056,46,08,68,049,44*78
$GPGSV,3,2,10,09,75,043,42,10,27,166,39,15,16,292,36,28,46,137,42*78
$GPGSV,3,3,10,03,05,035,,21,06,326,,,,,,,,,*7A
$GPGSA,M,3,05,26,07,08,09,10,15,28,,,,,2.0,1.1,1.6*33
Trace #115 at position 28.500000
$GPRMC,132749.00,A,4624.901984,N,00943.969303,E,001.7,51.7,110314,0.7,W,A*18
$GPGGA,132750.00,4624.902190,N,00943.969910,E,1,08,1.1,1797.93,M,48.00,M,,*5F
$GPGSV,3,1,10,05,62,248,33,26,52,299,34,07,35,056,46,08,68,049,44*78
$GPGSV,3,2,10,09,75,043,42,10,27,166,39,15,16,292,36,28,46,137,42*78
$GPGSV,3,3,10,03,05,035,,21,06,326,,,,,,,,,*7A
$GPGSA,M,3,05,26,07,08,09,10,15,28,,,,,2.0,1.1,1.6*33
Trace #116 at position 28.750000
$GPRMC,132749.00,A,4624.901984,N,00943.969303,E,001.7,51.7,110314,0.7,W,A*18
$GPGGA,132750.00,4624.902190,N,00943.969910,E,1,08,1.1,1797.93,M,48.00,M,,*5F
$GPGSV,3,1,10,05,62,248,33,26,52,299,34,07,35,056,46,08,68,049,44*78
$GPGSV,3,2,10,09,75,043,42,10,27,166,39,15,16,292,36,28,46,137,42*78
$GPGSV,3,3,10,03,05,035,,21,06,326,,,,,,,,,*7A
$GPGSA,M,3,05,26,07,08,09,10,15,28,,,,,2.0,1.1,1.6*33
Trace #117 at position 29.000000
$GPRMC,132750.00,A,4624.902190,N,00943.969910,E,001.7,69.7,110314,0.7,W,A*1D
$GPGGA,132751.00,4624.902317,N,00943.970551,E,1,08,1.1,1797.82,M,48.00,M,,*52
$GPGSV,3,1,10,05,62,248,36,26,52,299,34,07,35,056,45,08,68,049,45*7F
$GPGSV,3,2,10,09,75,043,44,10,27,166,41,15,16,292,36,28,46,137,44*77
$GPGSV,3,3,10,03,05,035,,21,06,326,,,,,,,,,*7A
$GPGSA,M,3,05,26,07,08,09,10,15,28,,,,,2.0,1.1,1.6*33
Trace #118 at position 29.250000
$GPRMC,132750.00,A,4624.902190,N,00943.969910,E,001.7,69.7,110314,0.7,W,A*1D
$GPGGA,132751.00,4624.902317,N,00943.970551,E,1,08,1.1,1797.82,M,48.00,M,,*52
$GPGSV,3,1,10,05,62,248,36,26,52,299,34,07,35,056,45,08,68,049,45*7F
$GPGSV,3,2,10,09,75,043,44,10,27,166,41,15,16,292,36,28,46,137,44*77
$GPGSV,3,3,10,03,05,035,,21,06,326,,,,,,,,,*7A
$GPGSA,M,3,05,26,07,08,09,10,15,28,,,,,2.0,1.1,1.6*33
Trace #119 at position 29.500000
$GPRMC,132750.00,A,4624.902190,N,00943.969910,E,001.7,69.7,110314,0.7,W,A*1D
$GPGGA,132751.00,4624.902317,N,00943.970551,E,1,08,1.1,1797.82,M,48.00,M,,*52
$GPGSV,3,1,10,05,62,248,36,26,52,299,34,07,35,056,45,08,68,049,45*7F
$GPGSV,3,2,10,09,75,043,44,10,27,166,41,15,16,292,36,28,46,137,44*77
$GPGSV,3,3,10,03,05,035,,21,06,326,,,,,,,,,*7A
$GPGSA,M,3,05,26,07,08,09,10,15,28,,,,,2.0,1.1,1.6*33
Trace #120 at position 29.750000
$GPRMC,132751.00,A,4624.902317,N,00943.970551,E,001.6,74.0,110314,0.7,W,A*1A
$GPGGA,132752.00,4624.902456,N,00943.971158,E,1,08,1.1,1797.82,M,48.00,M,,*5F
$GPGSV,3,1,10,05,62,248,38,26,52,299,37,07,35,056,47,08,68,049,47*72
$GPGSV,3,2,10,09,75,043,44,10,27,166,41,15,16,292,37,28,46,137,44*76
$GPGSV,3,3,10,03,05,035,,21,06,326,,,,,,,,,*7A
$GPGSA,M,3,05,26,07,08,09,10,15,28,,,,,2.0,1.1,1.6*33
Trace #121 at position 30.000000
$GPRMC,132751.00,A,4624.902317,N,00943.970551,E,001.6,74.0,110314,0.7,W,A*1A
$GPGGA,132752.00,4624.902456,N,00943.971158,E,1,08,1.1,1797.82,M,48.00,M,,*5F
$GPGSV,3,1,10,05,62,248,38,26,52,299,37,07,35,056,47,08,68,049,47*72
$GPGSV,3,2,10,09,75,043,44,10,27,166,41,15,16,292,37,28,46,137,44*76
$GPGSV,3,3,10,03,05,035,,21,06,326,,,,,,,,,*7A
$GPGSA,M,3,05,26,07,08,09,10,15,28,,,,,2.0,1.1,1.6*33
Trace #122 at position 30.250000
$GPRMC,132751.00,A,4624.902317,N,00943.970551,E,001.6,74.0,110314,0.7,W,A*1A
$GPGGA,132752.00,4624.902456,N,00943.971158,E,1,08,1.1,1797.82,M,48.00,M,,*5F
$GPGSV,3,1,10,05,62,248,38,26,52,299,37,07,35,056,47,08,68,049,47*72
$GPGSV,3,2,10,09,75,043,44,10,27,166,41,15,16,292,37,28,46,137,44*76
$GPGSV,3,3,10,03,05,035,,21,06,326,,,,,,,,,*7A
$GPGSA,M,3,05,26,07,08,09,10,15,28,,,,,2.0,1.1,1.6*33
Trace #123 at position 30.500000
$GPRMC,132751.00,A,4624.902317,N,00943.970551,E,001.6,74.0,110314,0.7,W,A*1A
$GPGGA,132752.00,4624.902456,N,00943.971158,E,1,08,1.1,1797.82,M,48.00,M,,*5F
$GPGSV,3,1,10,05,62,248,38,26,52,299,37,07,35,056,47,08,68,049,47*72
$GPGSV,3,2,10,09,75,043,44,10,27,166,41,15,16,292,37,28,46,137,44*76
$GPGSV,3,3,10,03,05,035,,21,06,326,,,,,,,,,*7A
$GPGSA,M,3,05,26,07,08,09,10,15,28,,,,,2.0,1.1,1.6*33
Trace #124 at position 30.750000
$GPRMC,132752.00,A,4624.902456,N,00943.971158,E,001.6,65.8,110314,0.7,W,A*1F
$GPGGA,132753.00,4624.902614,N,00943.971729,E,1,08,1.1,1797.93,M,48.00,M,,*5A
$GPGSV,3,1,10,05,62,248,34,26,52,299,33,07,35,056,45,08,68,049,44*7B
$GPGSV,3,2,10,09,75,043,41,10,27,166,37,15,16,292,33,28,46,137,40*72
$GPGSV,3,3,10,03,05,035,,21,06,326,,,,,,,,,*7A
$GPGSA,M,3,05,26,07,08,09,10,15,28,,,,,2.0,1.1,1.6*33
Trace #125 at position 31.000000
$GPRMC,132752.00,A,4624.902456,N,00943.971158,E,001.6,65.8,110314,0.7,W,A*1F
$GPGGA,132753.00,4624.902614,N,00943.971729,E,1,08,1.1,1797.93,M,48.00,M,,*5A
$GPGSV,3,1,10,05,62,248,34,26,52,299,33,07,35,056,45,08,68,049,44*7B
$GPGSV,3,2,10,09,75,043,41,10,27,166,37,15,16,292,33,28,46,137,40*72
$GPGSV,3,3,10,03,05,035,,21,06,326,,,,,,,,,*7A
$GPGSA,M,3,05,26,07,08,09,10,15,28,,,,,2.0,1.1,1.6*33
Trace #126 at position 31.250000
$GPRMC,132752.00,A,4624.902456,N,00943.971158,E,001.6,65.8,110314,0.7,W,A*1F
$GPGGA,132753.00,4624.902614,N,00943.971729,E,1,08,1.1,1797.93,M,48.00,M,,*5A
$GPGSV,3,1,10,05,62,248,34,26,52,299,33,07,35,056,45,08,68,049,44*7B
$GPGSV,3,2,10,09,75,043,41,10,27,166,37,15,16,292,33,28,46,137,40*72
$GPGSV,3,3,10,03,05,035,,21,06,326,,,,,,,,,*7A
$GPGSA,M,3,05,26,07,08,09,10,15,28,,,,,2.0,1.1,1.6*33
Trace #127 at position 31.500000
$GPRMC,132753.00,A,4624.902614,N,00943.971729,E,001.5,67.8,110314,0.7,W,A*1B
$GPGGA,132754.00,4624.902806,N,00943.972334,E,1,08,1.1,1797.91,M,48.00,M,,*59
$GPGSV,3,1,10,05,62,248,35,26,52,299,33,07,35,056,45,08,68,049,44*7A
$GPGSV,3,2,10,09,75,043,42,10,27,166,37,15,16,292,35,28,46,137,39*79
$GPGSV,3,3,10,03,05,035,,21,06,326,,,,,,,,,*7A
$GPGSA,M,3,05,26,07,08,09,10,15,28,,,,,2.0,1.1,1.6*33
Trace #128 at position 31.750000
$GPRMC,132753.00,A,4624.902614,N,00943.971729,E,001.5,67.8,110314,0.7,W,A*1B
$GPGGA,132754.00,4624.902806,N,00943.972334,E,1,08,1.1,1797.91,M,48.00,M,,*59
$GPGSV,3,1,10,05,62,248,35,26,52,299,33,07,35,056,45,08,68,049,44*7A
$GPGSV,3,2,10,09,75,043,42,10,27,166,37,15,16,292,35,28,46,137,39*79
$GPGSV,3,3,10,03,05,035,,21,06,326,,,,,,,,,*7A
$GPGSA,M,3,05,26,07,08,09,10,15,28,,,,,2.0,1.1,1.6*33
Trace #129 at position 32.000000
$GPRMC,132753.00,A,4624.902614,N,00943.971729,E,001.5,67.8,110314,0.7,W,A*1B
$GPGGA,132754.00,4624.902806,N,00943.972334,E,1,08,1.1,1797.91,M,48.00,M,,*59
$GPGSV,3,1,10,05,62,248,35,26,52,299,33,07,35,056,45,08,68,049,44*7A
$GPGSV,3,2,10,09,75,043,42,10,27,166,37,15,16,292,35,28,46,137,39*79
$GPGSV,3,3,10,03,05,035,,21,06,326,,,,,,,,,*7A
$GPGSA,M,3,05,26,07,08,09,10,15,28,,,,,2.0,1.1,1.6*33
Trace #130 at position 32.250000
$GPRMC,132753.00,A,4624.902614,N,00943.971729,E,001.5,67.8,110314,0.7,W,A*1B
$GPGGA,132754.00,4624.902806,N,00943.972334,E,1,08,1.1,1797.91,M,48.00,M,,*59
$GPGSV,3,1,10,05,62,248,35,26,52,299,33,07,35,056,45,08,68,049,44*7A
$GPGSV,3,2,10,09,75,043,42,10,27,166,37,15,16,292,35,28,46,137,39*79
$GPGSV,3,3,10,03,05,035,,21,06,326,,,,,,,,,*7A
$GPGSA,M,3,05,26,07,08,09,10,15,28,,,,,2.0,1.1,1.6*33
Trace #131 at position 32.500000
$GPRMC,132754.00,A,4624.902806,N,00943.972334,E,001.8,59.7,110314,0.7,W,A*15
$GPGGA,132755.00,4624.902996,N,00943.972990,E,1,08,1.1,1797.80,M,48.00,M,,*54
$GPGSV,3,1,10,05,62,248,34,26,52,299,33,07,35,056,44,08,68,049,43*7D
$GPGSV,3,2,10,09,75,043,41,10,27,166,38,15,16,292,34,28,46,137,41*7B
$GPGSV,3,3,10,03,05,035,,21,06,326,,,,,,,,,*7A
$GPGSA,M,3,05,26,07,08,09,10,15,28,,,,,2.0,1.1,1.6*33
Trace #132 at position 32.750000
$GPRMC,132754.00,A,4624.902806,N,00943.972334,E,001.8,59.7,110314,0.7,W,A*15
$GPGGA,132755.00,4624.902996,N,00943.972990,E,1,08,1.1,1797.80,M,48.00,M,,*54
$GPGSV,3,1,10,05,62,248,34,26,52,299,33,07,35,056,44,08,68,049,43*7D
$GPGSV,3,2,10,09,75,043,41,10,27,166,38,15,16,292,34,28,46,137,41*7B
$GPGSV,3,3,10,03,05,035,,21,06,326,,,,,,,,,*7A
$GPGSA,M,3,05,26,07,08,09,10,15,28,,,,,2.0,1.1,1.6*33
Trace #133 at position 33.000000
$GPRMC,132754.00,A,4624.902806,N,00943.972334,E,001.8,59.7,110314,0.7,W,A*15
$GPGGA,132755.00,4624.902996,N,00943.972990,E,1,08,1.1,1797.80,M,48.00,M,,*54
$GPGSV,3,1,10,05,62,248,34,26,52,299,33,07,35,056,44,08,68,049,43*7D
$GPGSV,3,2,10,09,75,043,41,10,27,166,38,15,16,292,34,28,46,137,41*7B
$GPGSV,3,3,10,03,05,035,,21,06,326,,,,,,,,,*7A
$GPGSA,M,3,05,26,07,08,09,10,15,28,,,,,2.0,1.1,1.6*33
Trace #134 at position 33.250000
$GPRMC,132755.00,A,4624.902996,N,00943.972990,E,001.7,71.1,110314,0.7,W,A*1B
$GPGGA,132756.00,4624.903177,N,00943.973623,E,1,08,1.1,1797.81,M,48.00,M,,*56
$GPGSV,3,1,10,05,62,248,36,26,52,299,37,07,35,056,46,08,68,049,47*7D
$GPGSV,3,2,10,09,75,043,44,10,27,166,40,15,16,292,37,28,46,137,43*70
$GPGSV,3,3,10,03,05,035,,21,06,326,,,,,,,,,*7A
$GPGSA,M,3,05,26,07,08,09,10,15,28,,,,,2.0,1.1,1.6*33
Trace #135 at position 33.500000
$GPRMC,132755.00,A,4624.902996,N,00943.972990,E,001.7,71.1,110314,0.7,W,A*1B
$GPGGA,132756.00,4624.903177,N,00943.973623,E,1,08,1.1,1797.81,M,48.00,M,,*56
$GPGSV,3,1,10,05,62,248,36,26,52,299,37,07,35,056,46,08,68,049,47*7D
$GPGSV,3,2,10,09,75,043,44,10,27,166,40,15,16,292,37,28,46,137,43*70
$GPGSV,3,3,10,03,05,035,,21,06,326,,,,,,,,,*7A
$GPGSA,M,3,05,26,07,08,09,10,15,28,,,,,2.0,1.1,1.6*33
Trace #136 at position 33.750000
$GPRMC,132755.00,A,4624.902996,N,00943.972990,E,001.7,71.1,110314,0.7,W,A*1B
$GPGGA,132756.00,4624.903177,N,00943.973623,E,1,08,1.1,1797.81,M,48.00,M,,*56
$GPGSV,3,1,10,05,62,248,36,26,52,299,37,07,35,056,46,08,68,049,47*7D
$GPGSV,3,2,10,09,75,043,44,10,27,166,40,15,16,292,37,28,46,137,43*70
$GPGSV,3,3,10,03,05,035,,21,06,326,,,,,,,,,*7A
$GPGSA,M,3,05,26,07,08,09,10,15,28,,,,,2.0,1.1,1.6*33
Trace #137 at position 34.000000
$GPRMC,132756.00,A,4624.903177,N,00943.973623,E,001.7,59.8,110314,0.7,W,A*1B
$GPGGA,132757.00,4624.903370,N,00943.974213,E,1,08,1.1,1797.82,M,48.00,M,,*51
$GPGSV,3,1,10,05,62,248,39,26,52,299,38,07,35,056,45,08,68,049,46*7F
$GPGSV,3,2,10,09,75,043,45,10,27,166,40,15,16,292,37,28,46,137,42*70
$GPGSV,3,3,10,03,05,035,,21,06,326,,,,,,,,,*7A
$GPGSA,M,3,05,26,07,08,09,10,15,28,,,,,2.0,1.1,1.6*33
Trace #138 at position 34.250000
$GPRMC,132756.00,A,4624.903177,N,00943.973623,E,001.7,59.8,110314,0.7,W,A*1B
$GPGGA,132757.00,4624.903370,N,00943.974213,E,1,08,1.1,1797.82,M,48.00,M,,*51
$GPGSV,3,1,10,05,62,248,39,26,52,299,38,07,35,056,45,08,68,049,46*7F
$GPGSV,3,2,10,09,75,043,45,10,27,166,40,15,16,292,37,28,46,137,42*70
$GPGSV,3,3,10,03,05,035,,21,06,326,,,,,,,,,*7A
$GPGSA,M,3,05,26,07,08,09,10,15,28,,,,,2.0,1.1,1.6*33
Trace #139 at position 34.500000
$GPRMC,132756.00,A,4624.903177,N,00943.973623,E,001.7,59.8,110314,0.7,W,A*1B
$GPGGA,132757.00,4624.903370,N,00943.974213,E,1,08,1.1,1797.82,M,48.00,M,,*51
$GPGSV,3,1,10,05,62,248,39,26,52,299,38,07,35,056,45,08,68,049,46*7F
