Trace #1 at position 0.000000
$GPRMC,125303.00,A,4624.985533,N,00944.142788,E,000.1,38.8,110314,0.7,W,A*1E
$GPGGA,125304.00,4624.985542,N,00944.142836,E,1,07,1.4,1800.14,M,48.00,M,,*5F
$GPGSV,3,1,09,05,60,283,45,02,14,230,39,26,37,287,41,07,50,054,*7E
$GPGSV,3,2,09,08,84,082,41,09,86,227,44,10,43,165,35,28,31,148,*7D
$GPGSV,3,3,09,13,15,091,37,,,,,,,,,,,,*4A
$GPGSA,M,3,05,02,26,08,09,10,13,,,,,,2.0,1.4,1.4*3D
Trace #2 at position 0.250000
$GPRMC,125538.00,A,4624.985891,N,00944.143445,E,000.1,198.8,110314,0.7,W,A*2D
$GPGGA,125539.00,4624.985868,N,00944.143429,E,1,09,1.1,1798.62,M,48.00,M,,*55
$GPGSV,3,1,10,05,60,281,43,02,13,229,38,26,39,288,39,07,48,054,33*7B
$GPGSV,3,2,10,08,83,073,42,09,88,235,44,10,42,165,39,15,05,285,*74
$GPGSV,3,3,10,28,33,147,42,13,14,092,37,,,,,,,,*7E
$GPGSA,M,3,05,02,26,07,08,09,10,28,13,,,,1.8,1.1,1.4*3E
Trace #3 at position 0.500000
$GPRMC,125538.00,A,4624.985891,N,00944.143445,E,000.1,198.8,110314,0.7,W,A*2D
$GPGGA,125539.00,4624.985868,N,00944.143429,E,1,09,1.1,1798.62,M,48.00,M,,*55
$GPGSV,3,1,10,05,60,281,43,02,13,229,38,26,39,288,39,07,48,054,33*7B
$GPGSV,3,2,10,08,83,073,42,09,88,235,44,10,42,165,39,15,05,285,*74
$GPGSV,3,3,10,28,33,147,42,13,14,092,37,,,,,,,,*7E
$GPGSA,M,3,05,02,26,07,08,09,10,28,13,,,,1.8,1.1,1.4*3E
Trace #4 at position 0.750000
$GPRMC,125539.00,A,4624.985868,N,00944.143429,E,000.1,222.3,110314,0.7,W,A*29
$GPGGA,125540.00,4624.985813,N,00944.143318,E,1,09,1.1,1798.63,M,48.00,M,,*53
$GPGSV,3,1,10,05,60,281,43,02,13,229,38,26,39,288,38,07,48,054,35*7C
$GPGSV,3,2,10,08,83,073,42,09,88,235,45,10,42,165,39,15,05,285,*75
$GPGSV,3,3,10,28,33,147,39,13,14,092,38,,,,,,,,*7D
$GPGSA,M,3,05,02,26,07,08,09,10,28,13,,,,1.8,1.1,1.4*3E
Trace #5 at position 1.000000
$GPRMC,125540.00,A,4624.985813,N,00944.143318,E,000.6,239.4,110314,0.7,W,A*24
$GPGGA,125541.00,4624.985775,N,00944.143073,E,1,07,1.8,1798.72,M,48.00,M,,*54
$GPGSV,3,1,10,05,60,281,41,02,13,229,37,26,39,288,37,07,48,054,38*73
$GPGSV,3,2,10,08,83,073,44,09,88,236,44,10,42,165,30,15,05,285,*78
$GPGSV,3,3,10,28,33,147,30,13,14,092,35,,,,,,,,*79
$GPGSA,M,3,05,02,26,07,08,09,13,,,,,,2.4,1.8,1.6*31
Trace #6 at position 1.250000
$GPRMC,125541.00,A,4624.985775,N,00944.143073,E,000.8,228.2,110314,0.7,W,A*2C
$GPGGA,125542.00,4624.985638,N,00944.142881,E,1,07,1.5,1798.87,M,48.00,M,,*5C
$GPGSV,3,1,10,05,60,281,41,02,13,229,41,26,39,288,36,07,48,054,38*73
$GPGSV,3,2,10,08,83,073,42,09,88,236,42,10,42,165,40,15,05,285,*7F
$GPGSV,3,3,10,28,33,147,30,13,14,092,28,,,,,,,,*75
$GPGSA,M,3,05,02,26,07,08,09,10,,,,,,2.6,1.5,2.1*39
Trace #7 at position 1.500000
$GPRMC,125541.00,A,4624.985775,N,00944.143073,E,000.8,228.2,110314,0.7,W,A*2C
$GPGGA,125542.00,4624.985638,N,00944.142881,E,1,07,1.5,1798.87,M,48.00,M,,*5C
$GPGSV,3,1,10,05,60,281,41,02,13,229,41,26,39,288,36,07,48,054,38*73
$GPGSV,3,2,10,08,83,073,42,09,88,236,42,10,42,165,40,15,05,285,*7F
$GPGSV,3,3,10,28,33,147,30,13,14,092,28,,,,,,,,*75
$GPGSA,M,3,05,02,26,07,08,09,10,,,,,,2.6,1.5,2.1*39
Trace #8 at position 1.750000
$GPRMC,125542.00,A,4624.985638,N,00944.142881,E,000.6,221.3,110314,0.7,W,A*25
$GPGGA,125543.00,4624.985464,N,00944.142715,E,1,08,1.4,1798.84,M,48.00,M,,*59
$GPGSV,3,1,10,05,60,281,43,02,13,229,40,26,39,288,37,07,48,054,41*7F
$GPGSV,3,2,10,08,83,073,44,09,88,236,47,10,42,165,42,15,05,285,*7E
$GPGSV,3,3,10,28,33,147,35,13,14,092,30,,,,,,,,*79
$GPGSA,M,3,05,02,26,07,08,09,10,28,,,,,2.5,1.4,2.0*30
Trace #9 at position 2.000000
$GPRMC,125542.00,A,4624.985638,N,00944.142881,E,000.6,221.3,110314,0.7,W,A*25
$GPGGA,125543.00,4624.985464,N,00944.142715,E,1,08,1.4,1798.84,M,48.00,M,,*59
$GPGSV,3,1,10,05,60,281,43,02,13,229,40,26,39,288,37,07,48,054,41*7F
$GPGSV,3,2,10,08,83,073,44,09,88,236,47,10,42,165,42,15,05,285,*7E
$GPGSV,3,3,10,28,33,147,35,13,14,092,30,,,,,,,,*79
$GPGSA,M,3,05,02,26,07,08,09,10,28,,,,,2.5,1.4,2.0*30
Trace #10 at position 2.250000
$GPRMC,125543.00,A,4624.985464,N,00944.142715,E,000.9,215.8,110314,0.7,W,A*2E
$GPGGA,125544.00,4624.984965,N,00944.142004,E,1,06,5.2,1799.82,M,48.00,M,,*5F
$GPGSV,3,1,10,05,60,281,41,02,13,229,41,26,39,288,39,07,48,054,30*74
$GPGSV,3,2,10,08,83,073,42,09,88,236,44,10,42,165,42,15,05,285,*7B
$GPGSV,3,3,10,28,33,147,35,13,14,092,31,,,,,,,,*78
$GPGSA,M,3,05,02,26,08,09,10,,,,,,,8.3,5.2,6.5*32
Trace #11 at position 2.500000
$GPRMC,125543.00,A,4624.985464,N,00944.142715,E,000.9,215.8,110314,0.7,W,A*2E
$GPGGA,125544.00,4624.984965,N,00944.142004,E,1,06,5.2,1799.82,M,48.00,M,,*5F
$GPGSV,3,1,10,05,60,281,41,02,13,229,41,26,39,288,39,07,48,054,30*74
$GPGSV,3,2,10,08,83,073,42,09,88,236,44,10,42,165,42,15,05,285,*7B
$GPGSV,3,3,10,28,33,147,35,13,14,092,31,,,,,,,,*78
$GPGSA,M,3,05,02,26,08,09,10,,,,,,,8.3,5.2,6.5*32
Trace #12 at position 2.750000
$GPRMC,125543.00,A,4624.985464,N,00944.142715,E,000.9,215.8,110314,0.7,W,A*2E
$GPGGA,125544.00,4624.984965,N,00944.142004,E,1,06,5.2,1799.82,M,48.00,M,,*5F
$GPGSV,3,1,10,05,60,281,41,02,13,229,41,26,39,288,39,07,48,054,30*74
$GPGSV,3,2,10,08,83,073,42,09,88,236,44,10,42,165,42,15,05,285,*7B
$GPGSV,3,3,10,28,33,147,35,13,14,092,31,,,,,,,,*78
$GPGSA,M,3,05,02,26,08,09,10,,,,,,,8.3,5.2,6.5*32
Trace #13 at position 3.000000
$GPRMC,125544.00,A,4624.984965,N,00944.142004,E,000.7,236.9,110314,0.7,W,A*2D
$GPGGA,125545.00,4624.984822,N,00944.141751,E,1,08,1.3,1799.71,M,48.00,M,,*5F
$GPGSV,3,1,10,05,60,280,42,02,13,229,41,26,39,288,38,07,48,054,38*7F
$GPGSV,3,2,10,08,83,073,44,09,88,236,46,10,42,165,42,15,05,285,*7F
$GPGSV,3,3,10,28,33,147,36,13,14,092,34,,,,,,,,*7E
$GPGSA,M,3,05,02,26,07,08,09,10,13,,,,,1.9,1.3,1.4*37
Trace #14 at position 3.250000
$GPRMC,125544.00,A,4624.984965,N,00944.142004,E,000.7,236.9,110314,0.7,W,A*2D
$GPGGA,125545.00,4624.984822,N,00944.141751,E,1,08,1.3,1799.71,M,48.00,M,,*5F
$GPGSV,3,1,10,05,60,280,42,02,13,229,41,26,39,288,38,07,48,054,38*7F
$GPGSV,3,2,10,08,83,073,44,09,88,236,46,10,42,165,42,15,05,285,*7F
$GPGSV,3,3,10,28,33,147,36,13,14,092,34,,,,,,,,*7E
$GPGSA,M,3,05,02,26,07,08,09,10,13,,,,,1.9,1.3,1.4*37
Trace #15 at position 3.500000
$GPRMC,125544.00,A,4624.984965,N,00944.142004,E,000.7,236.9,110314,0.7,W,A*2D
$GPGGA,125545.00,4624.984822,N,00944.141751,E,1,08,1.3,1799.71,M,48.00,M,,*5F
$GPGSV,3,1,10,05,60,280,42,02,13,229,41,26,39,288,38,07,48,054,38*7F
$GPGSV,3,2,10,08,83,073,44,09,88,236,46,10,42,165,42,15,05,285,*7F
$GPGSV,3,3,10,28,33,147,36,13,14,092,34,,,,,,,,*7E
$GPGSA,M,3,05,02,26,07,08,09,10,13,,,,,1.9,1.3,1.4*37
Trace #16 at position 3.750000
$GPRMC,125545.00,A,4624.984822,N,00944.141751,E,001.3,226.1,110314,0.7,W,A*26
$GPGGA,125546.00,4624.984595,N,00944.141398,E,1,09,1.1,1799.63,M,48.00,M,,*5C
$GPGSV,3,1,10,05,60,280,41,02,13,229,42,26,39,288,39,07,48,054,35*73
$GPGSV,3,2,10,08,83,073,42,09,88,236,44,10,42,165,41,15,05,285,*78
$GPGSV,3,3,10,28,33,147,35,13,14,092,32,,,,,,,,*7B
$GPGSA,M,3,05,02,26,07,08,09,10,28,13,,,,1.8,1.1,1.4*3E
Trace #17 at position 4.000000
$GPRMC,125545.00,A,4624.984822,N,00944.141751,E,001.3,226.1,110314,0.7,W,A*26
$GPGGA,125546.00,4624.984595,N,00944.141398,E,1,09,1.1,1799.63,M,48.00,M,,*5C
$GPGSV,3,1,10,05,60,280,41,02,13,229,42,26,39,288,39,07,48,054,35*73
$GPGSV,3,2,10,08,83,073,42,09,88,236,44,10,42,165,41,15,05,285,*78
$GPGSV,3,3,10,28,33,147,35,13,14,092,32,,,,,,,,*7B
$GPGSA,M,3,05,02,26,07,08,09,10,28,13,,,,1.8,1.1,1.4*3E
Trace #18 at position 4.250000
$GPRMC,125545.00,A,4624.984822,N,00944.141751,E,001.3,226.1,110314,0.7,W,A*26
$GPGGA,125546.00,4624.984595,N,00944.141398,E,1,09,1.1,1799.63,M,48.00,M,,*5C
$GPGSV,3,1,10,05,60,280,41,02,13,229,42,26,39,288,39,07,48,054,35*73
$GPGSV,3,2,10,08,83,073,42,09,88,236,44,10,42,165,41,15,05,285,*78
$GPGSV,3,3,10,28,33,147,35,13,14,092,32,,,,,,,,*7B
$GPGSA,M,3,05,02,26,07,08,09,10,28,13,,,,1.8,1.1,1.4*3E
Trace #19 at position 4.500000
$GPRMC,125546.00,A,4624.984595,N,00944.141398,E,001.5,227.3,110314,0.7,W,A*20
$GPGGA,125547.00,4624.984362,N,00944.141040,E,1,09,1.1,1799.54,M,48.00,M,,*51
$GPGSV,3,1,10,05,60,280,42,02,13,229,44,26,39,288,38,07,48,054,35*77
$GPGSV,3,2,10,08,83,073,43,09,88,236,45,10,42,165,41,15,05,285,*78
$GPGSV,3,3,10,28,33,147,37,13,14,092,33,,,,,,,,*78
$GPGSA,M,3,05,02,26,07,08,09,10,28,13,,,,1.8,1.1,1.4*3E
Trace #20 at position 4.750000
$GPRMC,125546.00,A,4624.984595,N,00944.141398,E,001.5,227.3,110314,0.7,W,A*20
$GPGGA,125547.00,4624.984362,N,00944.141040,E,1,09,1.1,1799.54,M,48.00,M,,*51
$GPGSV,3,1,10,05,60,280,42,02,13,229,44,26,39,288,38,07,48,054,35*77
$GPGSV,3,2,10,08,83,073,43,09,88,236,45,10,42,165,41,15,05,285,*78
$GPGSV,3,3,10,28,33,147,37,13,14,092,33,,,,,,,,*78
$GPGSA,M,3,05,02,26,07,08,09,10,28,13,,,,1.8,1.1,1.4*3E
Trace #21 at position 5.000000
$GPRMC,125546.00,A,4624.984595,N,00944.141398,E,001.5,227.3,110314,0.7,W,A*20
$GPGGA,125547.00,4624.984362,N,00944.141040,E,1,09,1.1,1799.54,M,48.00,M,,*51
$GPGSV,3,1,10,05,60,280,42,02,13,229,44,26,39,288,38,07,48,054,35*77
$GPGSV,3,2,10,08,83,073,43,09,88,236,45,10,42,165,41,15,05,285,*78
$GPGSV,3,3,10,28,33,147,37,13,14,092,33,,,,,,,,*78
$GPGSA,M,3,05,02,26,07,08,09,10,28,13,,,,1.8,1.1,1.4*3E
Trace #22 at position 5.250000
$GPRMC,125547.00,A,4624.984362,N,00944.141040,E,001.3,227.1,110314,0.7,W,A*2D
$GPGGA,125548.00,4624.984127,N,00944.140691,E,1,09,1.1,1799.39,M,48.00,M,,*5D
$GPGSV,3,1,10,05,60,280,41,02,13,229,43,26,39,288,37,07,48,054,37*7E
$GPGSV,3,2,10,08,83,073,43,09,88,236,45,10,42,165,41,15,05,285,*78
$GPGSV,3,3,10,28,33,147,36,13,14,092,33,,,,,,,,*79
$GPGSA,M,3,05,02,26,07,08,09,10,28,13,,,,1.8,1.1,1.4*3E
Trace #23 at position 5.500000
$GPRMC,125547.00,A,4624.984362,N,00944.141040,E,001.3,227.1,110314,0.7,W,A*2D
$GPGGA,125548.00,4624.984127,N,00944.140691,E,1,09,1.1,1799.39,M,48.00,M,,*5D
$GPGSV,3,1,10,05,60,280,41,02,13,229,43,26,39,288,37,07,48,054,37*7E
$GPGSV,3,2,10,08,83,073,43,09,88,236,45,10,42,165,41,15,05,285,*78
$GPGSV,3,3,10,28,33,147,36,13,14,092,33,,,,,,,,*79
$GPGSA,M,3,05,02,26,07,08,09,10,28,13,,,,1.8,1.1,1.4*3E
Trace #24 at position 5.750000
$GPRMC,125547.00,A,4624.984362,N,00944.141040,E,001.3,227.1,110314,0.7,W,A*2D
$GPGGA,125548.00,4624.984127,N,00944.140691,E,1,09,1.1,1799.39,M,48.00,M,,*5D
$GPGSV,3,1,10,05,60,280,41,02,13,229,43,26,39,288,37,07,48,054,37*7E
$GPGSV,3,2,10,08,83,073,43,09,88,236,45,10,42,165,41,15,05,285,*78
$GPGSV,3,3,10,28,33,147,36,13,14,092,33,,,,,,,,*79
$GPGSA,M,3,05,02,26,07,08,09,10,28,13,,,,1.8,1.1,1.4*3E
Trace #25 at position 6.000000
$GPRMC,125547.00,A,4624.984362,N,00944.141040,E,001.3,227.1,110314,0.7,W,A*2D
$GPGGA,125548.00,4624.984127,N,00944.140691,E,1,09,1.1,1799.39,M,48.00,M,,*5D
$GPGSV,3,1,10,05,60,280,41,02,13,229,43,26,39,288,37,07,48,054,37*7E
$GPGSV,3,2,10,08,83,073,43,09,88,236,45,10,42,165,41,15,05,285,*78
$GPGSV,3,3,10,28,33,147,36,13,14,092,33,,,,,,,,*79
$GPGSA,M,3,05,02,26,07,08,09,10,28,13,,,,1.8,1.1,1.4*3E
Trace #26 at position 6.250000
$GPRMC,125548.00,A,4624.984127,N,00944.140691,E,001.4,226.6,110314,0.7,W,A*2B
$GPGGA,125549.00,4624.983864,N,00944.140314,E,1,09,1.1,1799.21,M,48.00,M,,*54
$GPGSV,3,1,10,05,60,280,40,02,13,229,42,26,39,288,37,07,48,054,35*7C
$GPGSV,3,2,10,08,83,073,42,09,88,236,44,10,42,165,39,15,05,285,*77
$GPGSV,3,3,10,28,33,147,34,13,14,092,32,,,,,,,,*7A
$GPGSA,M,3,05,02,26,07,08,09,10,28,13,,,,1.8,1.1,1.4*3E
Trace #27 at position 6.500000
$GPRMC,125548.00,A,4624.984127,N,00944.140691,E,001.4,226.6,110314,0.7,W,A*2B
$GPGGA,125549.00,4624.983864,N,00944.140314,E,1,09,1.1,1799.21,M,48.00,M,,*54
$GPGSV,3,1,10,05,60,280,40,02,13,229,42,26,39,288,37,07,48,054,35*7C
$GPGSV,3,2,10,08,83,073,42,09,88,236,44,10,42,165,39,15,05,285,*77
$GPGSV,3,3,10,28,33,147,34,13,14,092,32,,,,,,,,*7A
$GPGSA,M,3,05,02,26,07,08,09,10,28,13,,,,1.8,1.1,1.4*3E
Trace #28 at position 6.750000
$GPRMC,125548.00,A,4624.984127,N,00944.140691,E,001.4,226.6,110314,0.7,W,A*2B
$GPGGA,125549.00,4624.983864,N,00944.140314,E,1,09,1.1,1799.21,M,48.00,M,,*54
$GPGSV,3,1,10,05,60,280,40,02,13,229,42,26,39,288,37,07,48,054,35*7C
$GPGSV,3,2,10,08,83,073,42,09,88,236,44,10,42,165,39,15,05,285,*77
$GPGSV,3,3,10,28,33,147,34,13,14,092,32,,,,,,,,*7A
$GPGSA,M,3,05,02,26,07,08,09,10,28,13,,,,1.8,1.1,1.4*3E
Trace #29 at position 7.000000
$GPRMC,125549.00,A,4624.983864,N,00944.140314,E,001.5,225.7,110314,0.7,W,A*28
$GPGGA,125550.00,4624.983550,N,00944.139949,E,1,09,1.1,1799.09,M,48.00,M,,*50
$GPGSV,3,1,10,05,60,280,42,02,13,229,43,26,39,288,38,07,48,054,38*7D
$GPGSV,3,2,10,08,83,073,43,09,88,236,46,10,42,165,41,15,05,285,*7B
$GPGSV,3,3,10,28,33,147,31,13,14,092,35,,,,,,,,*78
$GPGSA,M,3,05,02,26,07,08,09,10,28,13,,,,1.8,1.1,1.4*3E
Trace #30 at position 7.250000
$GPRMC,125549.00,A,4624.983864,N,00944.140314,E,001.5,225.7,110314,0.7,W,A*28
$GPGGA,125550.00,4624.983550,N,00944.139949,E,1,09,1.1,1799.09,M,48.00,M,,*50
$GPGSV,3,1,10,05,60,280,42,02,13,229,43,26,39,288,38,07,48,054,38*7D
$GPGSV,3,2,10,08,83,073,43,09,88,236,46,10,42,165,41,15,05,285,*7B
$GPGSV,3,3,10,28,33,147,31,13,14,092,35,,,,,,,,*78
$GPGSA,M,3,05,02,26,07,08,09,10,28,13,,,,1.8,1.1,1.4*3E
Trace #31 at position 7.500000
$GPRMC,125549.00,A,4624.983864,N,00944.140314,E,001.5,225.7,110314,0.7,W,A*28
$GPGGA,125550.00,4624.983550,N,00944.139949,E,1,09,1.1,1799.09,M,48.00,M,,*50
$GPGSV,3,1,10,05,60,280,42,02,13,229,43,26,39,288,38,07,48,054,38*7D
$GPGSV,3,2,10,08,83,073,43,09,88,236,46,10,42,165,41,15,05,285,*7B
$GPGSV,3,3,10,28,33,147,31,13,14,092,35,,,,,,,,*78
$GPGSA,M,3,05,02,26,07,08,09,10,28,13,,,,1.8,1.1,1.4*3E
Trace #32 at position 7.750000
$GPRMC,125549.00,A,4624.983864,N,00944.140314,E,001.5,225.7,110314,0.7,W,A*28
$GPGGA,125550.00,4624.983550,N,00944.139949,E,1,09,1.1,1799.09,M,48.00,M,,*50
$GPGSV,3,1,10,05,60,280,42,02,13,229,43,26,39,288,38,07,48,054,38*7D
$GPGSV,3,2,10,08,83,073,43,09,88,236,46,10,42,165,41,15,05,285,*7B
$GPGSV,3,3,10,28,33,147,31,13,14,092,35,,,,,,,,*78
$GPGSA,M,3,05,02,26,07,08,09,10,28,13,,,,1.8,1.1,1.4*3E
Trace #33 at position 8.000000
$GPRMC,125550.00,A,4624.983550,N,00944.139949,E,001.6,214.8,110314,0.7,W,A*28
$GPGGA,125551.00,4624.983204,N,00944.139599,E,1,08,1.3,1799.01,M,48.00,M,,*5D
$GPGSV,3,1,10,05,60,280,42,02,13,229,42,26,39,288,37,07,48,054,37*7C
$GPGSV,3,2,10,08,83,073,42,09,88,236,45,10,42,165,41,15,05,285,*79
$GPGSV,3,3,10,28,33,147,33,13,14,092,35,,,,,,,,*7A
$GPGSA,M,3,05,02,26,07,08,09,10,13,,,,,1.9,1.3,1.4*37
Trace #34 at position 8.250000
$GPRMC,125550.00,A,4624.983550,N,00944.139949,E,001.6,214.8,110314,0.7,W,A*28
$GPGGA,125551.00,4624.983204,N,00944.139599,E,1,08,1.3,1799.01,M,48.00,M,,*5D
$GPGSV,3,1,10,05,60,280,42,02,13,229,42,26,39,288,37,07,48,054,37*7C
$GPGSV,3,2,10,08,83,073,42,09,88,236,45,10,42,165,41,15,05,285,*79
$GPGSV,3,3,10,28,33,147,33,13,14,092,35,,,,,,,,*7A
$GPGSA,M,3,05,02,26,07,08,09,10,13,,,,,1.9,1.3,1.4*37
Trace #35 at position 8.500000
$GPRMC,125551.00,A,4624.983204,N,00944.139599,E,001.6,216.8,110314,0.7,W,A*2C
$GPGGA,125552.00,4624.982908,N,00944.139258,E,1,09,1.1,1798.96,M,48.00,M,,*5E
$GPGSV,3,1,10,05,60,280,43,02,13,229,41,26,39,288,36,07,48,054,34*7C
$GPGSV,3,2,10,08,83,073,42,09,88,236,45,10,42,165,40,15,05,285,*78
$GPGSV,3,3,10,28,33,147,34,13,14,092,37,,,,,,,,*7F
$GPGSA,M,3,05,02,26,07,08,09,10,28,13,,,,1.8,1.1,1.4*3E
Trace #36 at position 8.750000
$GPRMC,125551.00,A,4624.983204,N,00944.139599,E,001.6,216.8,110314,0.7,W,A*2C
$GPGGA,125552.00,4624.982908,N,00944.139258,E,1,09,1.1,1798.96,M,48.00,M,,*5E
$GPGSV,3,1,10,05,60,280,43,02,13,229,41,26,39,288,36,07,48,054,34*7C
$GPGSV,3,2,10,08,83,073,42,09,88,236,45,10,42,165,40,15,05,285,*78
$GPGSV,3,3,10,28,33,147,34,13,14,092,37,,,,,,,,*7F
$GPGSA,M,3,05,02,26,07,08,09,10,28,13,,,,1.8,1.1,1.4*3E
Trace #37 at position 9.000000
$GPRMC,125551.00,A,4624.983204,N,00944.139599,E,001.6,216.8,110314,0.7,W,A*2C
$GPGGA,125552.00,4624.982908,N,00944.139258,E,1,09,1.1,1798.96,M,48.00,M,,*5E
$GPGSV,3,1,10,05,60,280,43,02,13,229,41,26,39,288,36,07,48,054,34*7C
$GPGSV,3,2,10,08,83,073,42,09,88,236,45,10,42,165,40,15,05,285,*78
$GPGSV,3,3,10,28,33,147,34,13,14,092,37,,,,,,,,*7F
$GPGSA,M,3,05,02,26,07,08,09,10,28,13,,,,1.8,1.1,1.4*3E
Trace #38 at position 9.250000
$GPRMC,125551.00,A,4624.983204,N,00944.139599,E,001.6,216.8,110314,0.7,W,A*2C
$GPGGA,125552.00,4624.982908,N,00944.139258,E,1,09,1.1,1798.96,M,48.00,M,,*5E
$GPGSV,3,1,10,05,60,280,43,02,13,229,41,26,39,288,36,07,48,054,34*7C
$GPGSV,3,2,10,08,83,073,42,09,88,236,45,10,42,165,40,15,05,285,*78
$GPGSV,3,3,10,28,33,147,34,13,14,092,37,,,,,,,,*7F
$GPGSA,M,3,05,02,26,07,08,09,10,28,13,,,,1.8,1.1,1.4*3E
Trace #39 at position 9.500000
$GPRMC,125552.00,A,4624.982908,N,00944.139258,E,001.3,220.1,110314,0.7,W,A*2A
$GPGGA,125553.00,4624.982602,N,00944.138924,E,1,09,1.1,1798.90,M,48.00,M,,*5D
$GPGSV,3,1,10,05,60,280,43,02,13,229,39,26,39,288,37,07,48,054,37*71
$GPGSV,3,2,10,08,83,072,43,09,88,237,46,10,42,165,41,15,05,285,*7B
$GPGSV,3,3,10,28,33,147,34,13,14,092,35,,,,,,,,*7D
$GPGSA,M,3,05,02,26,07,08,09,10,28,13,,,,1.8,1.1,1.4*3E
Trace #40 at position 9.750000
$GPRMC,125552.00,A,4624.982908,N,00944.139258,E,001.3,220.1,110314,0.7,W,A*2A
$GPGGA,125553.00,4624.982602,N,00944.138924,E,1,09,1.1,1798.90,M,48.00,M,,*5D
$GPGSV,3,1,10,05,60,280,43,02,13,229,39,26,39,288,37,07,48,054,37*71
$GPGSV,3,2,10,08,83,072,43,09,88,237,46,10,42,165,41,15,05,285,*7B
$GPGSV,3,3,10,28,33,147,34,13,14,092,35,,,,,,,,*7D
$GPGSA,M,3,05,02,26,07,08,09,10,28,13,,,,1.8,1.1,1.4*3E
Trace #41 at position 10.000000
$GPRMC,125552.00,A,4624.982908,N,00944.139258,E,001.3,220.1,110314,0.7,W,A*2A
$GPGGA,125553.00,4624.982602,N,00944.138924,E,1,09,1.1,1798.90,M,48.00,M,,*5D
$GPGSV,3,1,10,05,60,280,43,02,13,229,39,26,39,288,37,07,48,054,37*71
$GPGSV,3,2,10,08,83,072,43,09,88,237,46,10,42,165,41,15,05,285,*7B
$GPGSV,3,3,10,28,33,147,34,13,14,092,35,,,,,,,,*7D
$GPGSA,M,3,05,02,26,07,08,09,10,28,13,,,,1.8,1.1,1.4*3E
Trace #42 at position 10.250000
$GPRMC,125553.00,A,4624.982602,N,00944.138924,E,001.7,213.4,110314,0.7,W,A*2E
$GPGGA,125554.00,4624.982233,N,00944.138542,E,1,09,1.1,1798.82,M,48.00,M,,*53
$GPGSV,3,1,10,05,60,280,43,02,13,229,40,26,39,288,36,07,48,054,38*71
$GPGSV,3,2,10,08,83,072,42,09,88,237,45,10,42,165,41,15,05,285,*79
$GPGSV,3,3,10,28,33,147,36,13,14,092,34,,,,,,,,*7E
$GPGSA,M,3,05,02,26,07,08,09,10,28,13,,,,1.8,1.1,1.4*3E
Trace #43 at position 10.500000
$GPRMC,125553.00,A,4624.982602,N,00944.138924,E,001.7,213.4,110314,0.7,W,A*2E
$GPGGA,125554.00,4624.982233,N,00944.138542,E,1,09,1.1,1798.82,M,48.00,M,,*53
$GPGSV,3,1,10,05,60,280,43,02,13,229,40,26,39,288,36,07,48,054,38*71
$GPGSV,3,2,10,08,83,072,42,09,88,237,45,10,42,165,41,15,05,285,*79
$GPGSV,3,3,10,28,33,147,36,13,14,092,34,,,,,,,,*7E
$GPGSA,M,3,05,02,26,07,08,09,10,28,13,,,,1.8,1.1,1.4*3E
Trace #44 at position 10.750000
$GPRMC,125553.00,A,4624.982602,N,00944.138924,E,001.7,213.4,110314,0.7,W,A*2E
$GPGGA,125554.00,4624.982233,N,00944.138542,E,1,09,1.1,1798.82,M,48.00,M,,*53
$GPGSV,3,1,10,05,60,280,43,02,13,229,40,26,39,288,36,07,48,054,38*71
$GPGSV,3,2,10,08,83,072,42,09,88,237,45,10,42,165,41,15,05,285,*79
$GPGSV,3,3,10,28,33,147,36,13,14,092,34,,,,,,,,*7E
$GPGSA,M,3,05,02,26,07,08,09,10,28,13,,,,1.8,1.1,1.4*3E
Trace #45 at position 11.000000
$GPRMC,125553.00,A,4624.982602,N,00944.138924,E,001.7,213.4,110314,0.7,W,A*2E
$GPGGA,125554.00,4624.982233,N,00944.138542,E,1,09,1.1,1798.82,M,48.00,M,,*53
$GPGSV,3,1,10,05,60,280,43,02,13,229,40,26,39,288,36,07,48,054,38*71
$GPGSV,3,2,10,08,83,072,42,09,88,237,45,10,42,165,41,15,05,285,*79
$GPGSV,3,3,10,28,33,147,36,13,14,092,34,,,,,,,,*7E
$GPGSA,M,3,05,02,26,07,08,09,10,28,13,,,,1.8,1.1,1.4*3E
Trace #46 at position 11.250000
$GPRMC,125554.00,A,4624.982233,N,00944.138542,E,001.8,215.6,110314,0.7,W,A*28
$GPGGA,125555.00,4624.981892,N,00944.138101,E,1,09,1.1,1798.76,M,48.00,M,,*58
$GPGSV,3,1,10,05,60,280,42,02,13,229,42,26,39,288,35,07,48,054,38*71
$GPGSV,3,2,10,08,83,072,44,09,88,237,46,10,42,165,41,15,05,285,*7C
$GPGSV,3,3,10,28,33,147,39,13,14,092,34,,,,,,,,*71
$GPGSA,M,3,05,02,26,07,08,09,10,28,13,,,,1.8,1.1,1.4*3E
Trace #47 at position 11.500000
$GPRMC,125554.00,A,4624.982233,N,00944.138542,E,001.8,215.6,110314,0.7,W,A*28
$GPGGA,125555.00,4624.981892,N,00944.138101,E,1,09,1.1,1798.76,M,48.00,M,,*58
$GPGSV,3,1,10,05,60,280,42,02,13,229,42,26,39,288,35,07,48,054,38*71
$GPGSV,3,2,10,08,83,072,44,09,88,237,46,10,42,165,41,15,05,285,*7C
$GPGSV,3,3,10,28,33,147,39,13,14,092,34,,,,,,,,*71
$GPGSA,M,3,05,02,26,07,08,09,10,28,13,,,,1.8,1.1,1.4*3E
Trace #48 at position 11.750000
$GPRMC,125555.00,A,4624.981892,N,00944.138101,E,001.7,225.2,110314,0.7,W,A*20
$GPGGA,125556.00,4624.981601,N,00944.137680,E,1,09,1.1,1798.73,M,48.00,M,,*5B
$GPGSV,3,1,10,05,60,280,42,02,13,229,40,26,39,288,37,07,48,054,37*7E
$GPGSV,3,2,10,08,83,072,44,09,88,237,46,10,42,165,42,15,05,285,*7F
$GPGSV,3,3,10,28,33,147,40,13,14,092,37,,,,,,,,*7C
$GPGSA,M,3,05,02,26,07,08,09,10,28,13,,,,1.8,1.1,1.4*3E
Trace #49 at position 12.000000
$GPRMC,125555.00,A,4624.981892,N,00944.138101,E,001.7,225.2,110314,0.7,W,A*20
$GPGGA,125556.00,4624.981601,N,00944.137680,E,1,09,1.1,1798.73,M,48.00,M,,*5B
$GPGSV,3,1,10,05,60,280,42,02,13,229,40,26,39,288,37,07,48,054,37*7E
$GPGSV,3,2,10,08,83,072,44,09,88,237,46,10,42,165,42,15,05,285,*7F
$GPGSV,3,3,10,28,33,147,40,13,14,092,37,,,,,,,,*7C
$GPGSA,M,3,05,02,26,07,08,09,10,28,13,,,,1.8,1.1,1.4*3E
Trace #50 at position 12.250000
$GPRMC,125555.00,A,4624.981892,N,00944.138101,E,001.7,225.2,110314,0.7,W,A*20
$GPGGA,125556.00,4624.981601,N,00944.137680,E,1,09,1.1,1798.73,M,48.00,M,,*5B
$GPGSV,3,1,10,05,60,280,42,02,13,229,40,26,39,288,37,07,48,054,37*7E
$GPGSV,3,2,10,08,83,072,44,09,88,237,46,10,42,165,42,15,05,285,*7F
$GPGSV,3,3,10,28,33,147,40,13,14,092,37,,,,,,,,*7C
$GPGSA,M,3,05,02,26,07,08,09,10,28,13,,,,1.8,1.1,1.4*3E
Trace #51 at position 12.500000
$GPRMC,125555.00,A,4624.981892,N,00944.138101,E,001.7,225.2,110314,0.7,W,A*20
$GPGGA,125556.00,4624.981601,N,00944.137680,E,1,09,1.1,1798.73,M,48.00,M,,*5B
$GPGSV,3,1,10,05,60,280,42,02,13,229,40,26,39,288,37,07,48,054,37*7E
$GPGSV,3,2,10,08,83,072,44,09,88,237,46,10,42,165,42,15,05,285,*7F
$GPGSV,3,3,10,28,33,147,40,13,14,092,37,,,,,,,,*7C
$GPGSA,M,3,05,02,26,07,08,09,10,28,13,,,,1.8,1.1,1.4*3E
Trace #52 at position 12.750000
$GPRMC,125556.00,A,4624.981601,N,00944.137680,E,001.4,221.1,110314,0.7,W,A*22
$GPGGA,125557.00,4624.981302,N,00944.137270,E,1,09,1.1,1798.71,M,48.00,M,,*55
$GPGSV,3,1,10,05,60,280,43,02,13,229,41,26,39,288,38,07,48,054,38*7E
$GPGSV,3,2,10,08,83,072,44,09,88,237,45,10,42,165,41,15,05,285,*7F
$GPGSV,3,3,10,28,33,147,40,13,14,092,36,,,,,,,,*7D
$GPGSA,M,3,05,02,26,07,08,09,10,28,13,,,,1.8,1.1,1.4*3E
Trace #53 at position 13.000000
$GPRMC,125556.00,A,4624.981601,N,00944.137680,E,001.4,221.1,110314,0.7,W,A*22
$GPGGA,125557.00,4624.981302,N,00944.137270,E,1,09,1.1,1798.71,M,48.00,M,,*55
$GPGSV,3,1,10,05,60,280,43,02,13,229,41,26,39,288,38,07,48,054,38*7E
$GPGSV,3,2,10,08,83,072,44,09,88,237,45,10,42,165,41,15,05,285,*7F
$GPGSV,3,3,10,28,33,147,40,13,14,092,36,,,,,,,,*7D
$GPGSA,M,3,05,02,26,07,08,09,10,28,13,,,,1.8,1.1,1.4*3E
Trace #54 at position 13.250000
$GPRMC,125556.00,A,4624.981601,N,00944.137680,E,001.4,221.1,110314,0.7,W,A*22
$GPGGA,125557.00,4624.981302,N,00944.137270,E,1,09,1.1,1798.71,M,48.00,M,,*55
$GPGSV,3,1,10,05,60,280,43,02,13,229,41,26,39,288,38,07,48,054,38*7E
$GPGSV,3,2,10,08,83,072,44,09,88,237,45,10,42,165,41,15,05,285,*7F
$GPGSV,3,3,10,28,33,147,40,13,14,092,36,,,,,,,,*7D
$GPGSA,M,3,05,02,26,07,08,09,10,28,13,,,,1.8,1.1,1.4*3E
Trace #55 at position 13.500000
$GPRMC,125557.00,A,4624.981302,N,00944.137270,E,001.7,222.8,110314,0.7,W,A*27
$GPGGA,125558.00,4624.980984,N,00944.136811,E,1,09,1.1,1798.73,M,48.00,M,,*51
$GPGSV,3,1,10,05,60,280,43,02,13,229,43,26,39,288,35,07,48,054,38*71
$GPGSV,3,2,10,08,83,072,43,09,88,237,45,10,42,165,41,15,05,285,*78
$GPGSV,3,3,10,28,33,147,38,13,14,092,35,,,,,,,,*71
$GPGSA,M,3,05,02,26,07,08,09,10,28,13,,,,1.8,1.1,1.4*3E
Trace #56 at position 13.750000
$GPRMC,125557.00,A,4624.981302,N,00944.137270,E,001.7,222.8,110314,0.7,W,A*27
$GPGGA,125558.00,4624.980984,N,00944.136811,E,1,09,1.1,1798.73,M,48.00,M,,*51
$GPGSV,3,1,10,05,60,280,43,02,13,229,43,26,39,288,35,07,48,054,38*71
$GPGSV,3,2,10,08,83,072,43,09,88,237,45,10,42,165,41,15,05,285,*78
$GPGSV,3,3,10,28,33,147,38,13,14,092,35,,,,,,,,*71
$GPGSA,M,3,05,02,26,07,08,09,10,28,13,,,,1.8,1.1,1.4*3E
Trace #57 at position 14.000000
$GPRMC,125557.00,A,4624.981302,N,00944.137270,E,001.7,222.8,110314,0.7,W,A*27
$GPGGA,125558.00,4624.980984,N,00944.136811,E,1,09,1.1,1798.73,M,48.00,M,,*51
$GPGSV,3,1,10,05,60,280,43,02,13,229,43,26,39,288,35,07,48,054,38*71
$GPGSV,3,2,10,08,83,072,43,09,88,237,45,10,42,165,41,15,05,285,*78
$GPGSV,3,3,10,28,33,147,38,13,14,092,35,,,,,,,,*71
$GPGSA,M,3,05,02,26,07,08,09,10,28,13,,,,1.8,1.1,1.4*3E
Trace #58 at position 14.250000
$GPRMC,125557.00,A,4624.981302,N,00944.137270,E,001.7,222.8,110314,0.7,W,A*27
$GPGGA,125558.00,4624.980984,N,00944.136811,E,1,09,1.1,1798.73,M,48.00,M,,*51
$GPGSV,3,1,10,05,60,280,43,02,13,229,43,26,39,288,35,07,48,054,38*71
$GPGSV,3,2,10,08,83,072,43,09,88,237,45,10,42,165,41,15,05,285,*78
$GPGSV,3,3,10,28,33,147,38,13,14,092,35,,,,,,,,*71
$GPGSA,M,3,05,02,26,07,08,09,10,28,13,,,,1.8,1.1,1.4*3E
Trace #59 at position 14.500000
$GPRMC,125558.00,A,4624.980984,N,00944.136811,E,001.7,225.0,110314,0.7,W,A*2E
$GPGGA,125559.00,4624.980648,N,00944.136418,E,1,09,1.1,1798.77,M,48.00,M,,*5E
$GPGSV,3,1,10,05,60,280,42,02,13,229,43,26,39,288,35,07,48,054,37*7F
$GPGSV,3,2,10,08,83,072,42,09,88,237,44,10,42,165,40,15,05,285,*79
$GPGSV,3,3,10,28,33,147,38,13,14,092,34,,,,,,,,*70
$GPGSA,M,3,05,02,26,07,08,09,10,28,13,,,,1.8,1.1,1.4*3E
Trace #60 at position 14.750000
$GPRMC,125558.00,A,4624.980984,N,00944.136811,E,001.7,225.0,110314,0.7,W,A*2E
$GPGGA,125559.00,4624.980648,N,00944.136418,E,1,09,1.1,1798.77,M,48.00,M,,*5E
$GPGSV,3,1,10,05,60,280,42,02,13,229,43,26,39,288,35,07,48,054,37*7F
$GPGSV,3,2,10,08,83,072,42,09,88,237,44,10,42,165,40,15,05,285,*79
$GPGSV,3,3,10,28,33,147,38,13,14,092,34,,,,,,,,*70
$GPGSA,M,3,05,02,26,07,08,09,10,28,13,,,,1.8,1.1,1.4*3E
Trace #61 at position 15.000000
$GPRMC,125558.00,A,4624.980984,N,00944.136811,E,001.7,225.0,110314,0.7,W,A*2E
$GPGGA,125559.00,4624.980648,N,00944.136418,E,1,09,1.1,1798.77,M,48.00,M,,*5E
$GPGSV,3,1,10,05,60,280,42,02,13,229,43,26,39,288,35,07,48,054,37*7F
$GPGSV,3,2,10,08,83,072,42,09,88,237,44,10,42,165,40,15,05,285,*79
$GPGSV,3,3,10,28,33,147,38,13,14,092,34,,,,,,,,*70
$GPGSA,M,3,05,02,26,07,08,09,10,28,13,,,,1.8,1.1,1.4*3E
Trace #62 at position 15.250000
$GPRMC,125559.00,A,4624.980648,N,00944.136418,E,001.6,211.5,110314,0.7,W,A*26
$GPGGA,125600.00,4624.980315,N,00944.136073,E,1,09,1.1,1798.81,M,48.00,M,,*5C
$GPGSV,3,1,10,05,60,280,43,02,13,229,38,26,39,288,38,07,48,054,38*70
$GPGSV,3,2,10,08,83,072,44,09,88,237,46,10,42,165,43,15,05,285,*7E
$GPGSV,3,3,10,28,33,147,41,13,14,092,35,,,,,,,,*7F
$GPGSA,M,3,05,02,26,07,08,09,10,28,13,,,,1.8,1.1,1.4*3E
Trace #63 at position 15.500000
$GPRMC,125559.00,A,4624.980648,N,00944.136418,E,001.6,211.5,110314,0.7,W,A*26
$GPGGA,125600.00,4624.980315,N,00944.136073,E,1,09,1.1,1798.81,M,48.00,M,,*5C
$GPGSV,3,1,10,05,60,280,43,02,13,229,38,26,39,288,38,07,48,054,38*70
$GPGSV,3,2,10,08,83,072,44,09,88,237,46,10,42,165,43,15,05,285,*7E
$GPGSV,3,3,10,28,33,147,41,13,14,092,35,,,,,,,,*7F
$GPGSA,M,3,05,02,26,07,08,09,10,28,13,,,,1.8,1.1,1.4*3E
Trace #64 at position 15.750000
$GPRMC,125559.00,A,4624.980648,N,00944.136418,E,001.6,211.5,110314,0.7,W,A*26
$GPGGA,125600.00,4624.980315,N,00944.136073,E,1,09,1.1,1798.81,M,48.00,M,,*5C
$GPGSV,3,1,10,05,60,280,43,02,13,229,38,26,39,288,38,07,48,054,38*70
$GPGSV,3,2,10,08,83,072,44,09,88,237,46,10,42,165,43,15,05,285,*7E
$GPGSV,3,3,10,28,33,147,41,13,14,092,35,,,,,,,,*7F
$GPGSA,M,3,05,02,26,07,08,09,10,28,13,,,,1.8,1.1,1.4*3E
Trace #65 at position 16.000000
$GPRMC,125600.00,A,4624.980315,N,00944.136073,E,001.5,217.7,110314,0.7,W,A*2A
$GPGGA,125601.00,4624.979994,N,00944.135659,E,1,09,1.1,1798.86,M,48.00,M,,*52
$GPGSV,3,1,10,05,60,280,44,02,13,229,41,26,39,288,37,07,48,054,37*79
$GPGSV,3,2,10,08,83,072,43,09,88,238,45,10,42,165,41,15,05,285,*77
$GPGSV,3,3,10,28,33,147,41,13,14,092,35,,,,,,,,*7F
$GPGSA,M,3,05,02,26,07,08,09,10,28,13,,,,1.8,1.1,1.4*3E
Trace #66 at position 16.250000
$GPRMC,125600.00,A,4624.980315,N,00944.136073,E,001.5,217.7,110314,0.7,W,A*2A
$GPGGA,125601.00,4624.979994,N,00944.135659,E,1,09,1.1,1798.86,M,48.00,M,,*52
$GPGSV,3,1,10,05,60,280,44,02,13,229,41,26,39,288,37,07,48,054,37*79
$GPGSV,3,2,10,08,83,072,43,09,88,238,45,10,42,165,41,15,05,285,*77
$GPGSV,3,3,10,28,33,147,41,13,14,092,35,,,,,,,,*7F
$GPGSA,M,3,05,02,26,07,08,09,10,28,13,,,,1.8,1.1,1.4*3E
Trace #67 at position 16.500000
$GPRMC,125600.00,A,4624.980315,N,00944.136073,E,001.5,217.7,110314,0.7,W,A*2A
$GPGGA,125601.00,4624.979994,N,00944.135659,E,1,09,1.1,1798.86,M,48.00,M,,*52
$GPGSV,3,1,10,05,60,280,44,02,13,229,41,26,39,288,37,07,48,054,37*79
$GPGSV,3,2,10,08,83,072,43,09,88,238,45,10,42,165,41,15,05,285,*77
$GPGSV,3,3,10,28,33,147,41,13,14,092,35,,,,,,,,*7F
$GPGSA,M,3,05,02,26,07,08,09,10,28,13,,,,1.8,1.1,1.4*3E
Trace #68 at position 16.750000
$GPRMC,125600.00,A,4624.980315,N,00944.136073,E,001.5,217.7,110314,0.7,W,A*2A
$GPGGA,125601.00,4624.979994,N,00944.135659,E,1,09,1.1,1798.86,M,48.00,M,,*52
$GPGSV,3,1,10,05,60,280,44,02,13,229,41,26,39,288,37,07,48,054,37*79
$GPGSV,3,2,10,08,83,072,43,09,88,238,45,10,42,165,41,15,05,285,*77
$GPGSV,3,3,10,28,33,147,41,13,14,092,35,,,,,,,,*7F
$GPGSA,M,3,05,02,26,07,08,09,10,28,13,,,,1.8,1.1,1.4*3E
Trace #69 at position 17.000000
$GPRMC,125601.00,A,4624.979994,N,00944.135659,E,001.7,221.8,110314,0.7,W,A*2B
$GPGGA,125602.00,4624.979680,N,00944.135210,E,1,09,1.1,1798.85,M,48.00,M,,*51
$GPGSV,3,1,10,05,60,280,43,02,13,229,42,26,39,288,35,07,48,054,36*7E
$GPGSV,3,2,10,08,83,072,43,09,88,238,45,10,42,165,42,15,05,285,*74
$GPGSV,3,3,10,28,33,147,38,13,14,092,34,,,,,,,,*70
$GPGSA,M,3,05,02,26,07,08,09,10,28,13,,,,1.8,1.1,1.4*3E
Trace #70 at position 17.250000
$GPRMC,125601.00,A,4624.979994,N,00944.135659,E,001.7,221.8,110314,0.7,W,A*2B
$GPGGA,125602.00,4624.979680,N,00944.135210,E,1,09,1.1,1798.85,M,48.00,M,,*51
$GPGSV,3,1,10,05,60,280,43,02,13,229,42,26,39,288,35,07,48,054,36*7E
$GPGSV,3,2,10,08,83,072,43,09,88,238,45,10,42,165,42,15,05,285,*74
$GPGSV,3,3,10,28,33,147,38,13,14,092,34,,,,,,,,*70
$GPGSA,M,3,05,02,26,07,08,09,10,28,13,,,,1.8,1.1,1.4*3E
Trace #71 at position 17.500000
$GPRMC,125601.00,A,4624.979994,N,00944.135659,E,001.7,221.8,110314,0.7,W,A*2B
$GPGGA,125602.00,4624.979680,N,00944.135210,E,1,09,1.1,1798.85,M,48.00,M,,*51
$GPGSV,3,1,10,05,60,280,43,02,13,229,42,26,39,288,35,07,48,054,36*7E
$GPGSV,3,2,10,08,83,072,43,09,88,238,45,10,42,165,42,15,05,285,*74
$GPGSV,3,3,10,28,33,147,38,13,14,092,34,,,,,,,,*70
$GPGSA,M,3,05,02,26,07,08,09,10,28,13,,,,1.8,1.1,1.4*3E
Trace #72 at position 17.750000
$GPRMC,125602.00,A,4624.979680,N,00944.135210,E,001.5,225.3,110314,0.7,W,A*26
$GPGGA,125603.00,4624.979419,N,00944.134837,E,1,09,1.1,1798.77,M,48.00,M,,*51
$GPGSV,3,1,10,05,60,280,42,02,13,229,43,26,39,288,34,07,48,054,35*7C
$GPGSV,3,2,10,08,83,072,42,09,88,238,44,10,42,165,42,15,05,285,*74
$GPGSV,3,3,10,28,33,147,39,13,14,092,35,,,,,,,,*70
$GPGSA,M,3,05,02,26,07,08,09,10,28,13,,,,1.8,1.1,1.4*3E
Trace #73 at position 18.000000
$GPRMC,125602.00,A,4624.979680,N,00944.135210,E,001.5,225.3,110314,0.7,W,A*26
$GPGGA,125603.00,4624.979419,N,00944.134837,E,1,09,1.1,1798.77,M,48.00,M,,*51
$GPGSV,3,1,10,05,60,280,42,02,13,229,43,26,39,288,34,07,48,054,35*7C
$GPGSV,3,2,10,08,83,072,42,09,88,238,44,10,42,165,42,15,05,285,*74
$GPGSV,3,3,10,28,33,147,39,13,14,092,35,,,,,,,,*70
$GPGSA,M,3,05,02,26,07,08,09,10,28,13,,,,1.8,1.1,1.4*3E
Trace #74 at position 18.250000
$GPRMC,125602.00,A,4624.979680,N,00944.135210,E,001.5,225.3,110314,0.7,W,A*26
$GPGGA,125603.00,4624.979419,N,00944.134837,E,1,09,1.1,1798.77,M,48.00,M,,*51
$GPGSV,3,1,10,05,60,280,42,02,13,229,43,26,39,288,34,07,48,054,35*7C
$GPGSV,3,2,10,08,83,072,42,09,88,238,44,10,42,165,42,15,05,285,*74
$GPGSV,3,3,10,28,33,147,39,13,14,092,35,,,,,,,,*70
$GPGSA,M,3,05,02,26,07,08,09,10,28,13,,,,1.8,1.1,1.4*3E
Trace #75 at position 18.500000
$GPRMC,125603.00,A,4624.979419,N,00944.134837,E,001.2,221.2,110314,0.7,W,A*29
$GPGGA,125604.00,4624.979157,N,00944.134452,E,1,09,1.1,1798.71,M,48.00,M,,*50
$GPGSV,3,1,10,05,60,280,42,02,13,229,42,26,39,288,35,07,48,054,34*7D
$GPGSV,3,2,10,08,83,072,42,09,88,238,44,10,42,165,42,15,05,285,*74
$GPGSV,3,3,10,28,33,147,39,13,14,092,36,,,,,,,,*73
$GPGSA,M,3,05,02,26,07,08,09,10,28,13,,,,1.8,1.1,1.4*3E
Trace #76 at position 18.750000
$GPRMC,125603.00,A,4624.979419,N,00944.134837,E,001.2,221.2,110314,0.7,W,A*29
$GPGGA,125604.00,4624.979157,N,00944.134452,E,1,09,1.1,1798.71,M,48.00,M,,*50
$GPGSV,3,1,10,05,60,280,42,02,13,229,42,26,39,288,35,07,48,054,34*7D
$GPGSV,3,2,10,08,83,072,42,09,88,238,44,10,42,165,42,15,05,285,*74
$GPGSV,3,3,10,28,33,147,39,13,14,092,36,,,,,,,,*73
$GPGSA,M,3,05,02,26,07,08,09,10,28,13,,,,1.8,1.1,1.4*3E
Trace #77 at position 19.000000
$GPRMC,125603.00,A,4624.979419,N,00944.134837,E,001.2,221.2,110314,0.7,W,A*29
$GPGGA,125604.00,4624.979157,N,00944.134452,E,1,09,1.1,1798.71,M,48.00,M,,*50
$GPGSV,3,1,10,05,60,280,42,02,13,229,42,26,39,288,35,07,48,054,34*7D
$GPGSV,3,2,10,08,83,072,42,09,88,238,44,10,42,165,42,15,05,285,*74
$GPGSV,3,3,10,28,33,147,39,13,14,092,36,,,,,,,,*73
$GPGSA,M,3,05,02,26,07,08,09,10,28,13,,,,1.8,1.1,1.4*3E
Trace #78 at position 19.250000
$GPRMC,125604.00,A,4624.979157,N,00944.134452,E,001.6,228.2,110314,0.7,W,A*23
$GPGGA,125605.00,4624.978862,N,00944.134071,E,1,09,1.1,1798.72,M,48.00,M,,*59
$GPGSV,3,1,10,05,60,280,43,02,13,229,43,26,39,288,36,07,48,054,38*72
$GPGSV,3,2,10,08,83,072,42,09,88,238,45,10,42,165,42,15,05,285,*75
$GPGSV,3,3,10,28,33,147,37,13,14,092,38,,,,,,,,*73
$GPGSA,M,3,05,02,26,07,08,09,10,28,13,,,,1.8,1.1,1.4*3E
Trace #79 at position 19.500000
$GPRMC,125604.00,A,4624.979157,N,00944.134452,E,001.6,228.2,110314,0.7,W,A*23
$GPGGA,125605.00,4624.978862,N,00944.134071,E,1,09,1.1,1798.72,M,48.00,M,,*59
$GPGSV,3,1,10,05,60,280,43,02,13,229,43,26,39,288,36,07,48,054,38*72
$GPGSV,3,2,10,08,83,072,42,09,88,238,45,10,42,165,42,15,05,285,*75
$GPGSV,3,3,10,28,33,147,37,13,14,092,38,,,,,,,,*73
$GPGSA,M,3,05,02,26,07,08,09,10,28,13,,,,1.8,1.1,1.4*3E
Trace #80 at position 19.750000
$GPRMC,125604.00,A,4624.979157,N,00944.134452,E,001.6,228.2,110314,0.7,W,A*23
$GPGGA,125605.00,4624.978862,N,00944.134071,E,1,09,1.1,1798.72,M,48.00,M,,*59
$GPGSV,3,1,10,05,60,280,43,02,13,229,43,26,39,288,36,07,48,054,38*72
$GPGSV,3,2,10,08,83,072,42,09,88,238,45,10,42,165,42,15,05,285,*75
$GPGSV,3,3,10,28,33,147,37,13,14,092,38,,,,,,,,*73
$GPGSA,M,3,05,02,26,07,08,09,10,28,13,,,,1.8,1.1,1.4*3E
Trace #81 at position 20.000000
$GPRMC,125605.00,A,4624.978862,N,00944.134071,E,001.4,214.3,110314,0.7,W,A*25
$GPGGA,125606.00,4624.978546,N,00944.133713,E,1,09,1.1,1798.78,M,48.00,M,,*5F
$GPGSV,3,1,10,05,60,280,42,02,13,229,43,26,39,288,37,07,48,054,37*7D
$GPGSV,3,2,10,08,83,072,42,09,88,238,45,10,42,165,43,15,05,285,*74
$GPGSV,3,3,10,28,33,147,37,13,14,092,38,,,,,,,,*73
$GPGSA,M,3,05,02,26,07,08,09,10,28,13,,,,1.8,1.1,1.4*3E
Trace #82 at position 20.250000
$GPRMC,125605.00,A,4624.978862,N,00944.134071,E,001.4,214.3,110314,0.7,W,A*25
$GPGGA,125606.00,4624.978546,N,00944.133713,E,1,09,1.1,1798.78,M,48.00,M,,*5F
$GPGSV,3,1,10,05,60,280,42,02,13,229,43,26,39,288,37,07,48,054,37*7D
$GPGSV,3,2,10,08,83,072,42,09,88,238,45,10,42,165,43,15,05,285,*74
$GPGSV,3,3,10,28,33,147,37,13,14,092,38,,,,,,,,*73
$GPGSA,M,3,05,02,26,07,08,09,10,28,13,,,,1.8,1.1,1.4*3E
Trace #83 at position 20.500000
$GPRMC,125605.00,A,4624.978862,N,00944.134071,E,001.4,214.3,110314,0.7,W,A*25
$GPGGA,125606.00,4624.978546,N,00944.133713,E,1,09,1.1,1798.78,M,48.00,M,,*5F
$GPGSV,3,1,10,05,60,280,42,02,13,229,43,26,39,288,37,07,48,054,37*7D
$GPGSV,3,2,10,08,83,072,42,09,88,238,45,10,42,165,43,15,05,285,*74
$GPGSV,3,3,10,28,33,147,37,13,14,092,38,,,,,,,,*73
$GPGSA,M,3,05,02,26,07,08,09,10,28,13,,,,1.8,1.1,1.4*3E
Trace #84 at position 20.750000
$GPRMC,125605.00,A,4624.978862,N,00944.134071,E,001.4,214.3,110314,0.7,W,A*25
$GPGGA,125606.00,4624.978546,N,00944.133713,E,1,09,1.1,1798.78,M,48.00,M,,*5F
$GPGSV,3,1,10,05,60,280,42,02,13,229,43,26,39,288,37,07,48,054,37*7D
$GPGSV,3,2,10,08,83,072,42,09,88,238,45,10,42,165,43,15,05,285,*74
$GPGSV,3,3,10,28,33,147,37,13,14,092,38,,,,,,,,*73
$GPGSA,M,3,05,02,26,07,08,09,10,28,13,,,,1.8,1.1,1.4*3E
Trace #85 at position 21.000000
$GPRMC,125606.00,A,4624.978546,N,00944.133713,E,001.6,220.4,110314,0.7,W,A*2B
$GPGGA,125607.00,4624.978230,N,00944.133299,E,1,09,1.1,1798.81,M,48.00,M,,*59
$GPGSV,3,1,10,05,60,280,43,02,13,229,42,26,39,288,36,07,48,054,37*7C
$GPGSV,3,2,10,08,83,072,43,09,88,238,46,10,42,165,44,15,05,285,*71
$GPGSV,3,3,10,28,33,147,37,13,14,092,35,,,,,,,,*7E
$GPGSA,M,3,05,02,26,07,08,09,10,28,13,,,,1.8,1.1,1.4*3E
Trace #86 at position 21.250000
$GPRMC,125606.00,A,4624.978546,N,00944.133713,E,001.6,220.4,110314,0.7,W,A*2B
$GPGGA,125607.00,4624.978230,N,00944.133299,E,1,09,1.1,1798.81,M,48.00,M,,*59
$GPGSV,3,1,10,05,60,280,43,02,13,229,42,26,39,288,36,07,48,054,37*7C
$GPGSV,3,2,10,08,83,072,43,09,88,238,46,10,42,165,44,15,05,285,*71
$GPGSV,3,3,10,28,33,147,37,13,14,092,35,,,,,,,,*7E
$GPGSA,M,3,05,02,26,07,08,09,10,28,13,,,,1.8,1.1,1.4*3E
Trace #87 at position 21.500000
$GPRMC,125607.00,A,4624.978230,N,00944.133299,E,001.6,224.3,110314,0.7,W,A*28
$GPGGA,125608.00,4624.977954,N,00944.132944,E,1,09,1.1,1798.80,M,48.00,M,,*5B
$GPGSV,3,1,10,05,60,280,42,02,13,229,41,26,39,288,39,07,48,054,37*71
$GPGSV,3,2,10,08,83,072,41,09,88,238,45,10,42,165,43,15,05,285,*77
$GPGSV,3,3,10,28,33,147,38,13,14,092,37,,,,,,,,*73
$GPGSA,M,3,05,02,26,07,08,09,10,28,13,,,,1.8,1.1,1.4*3E
Trace #88 at position 21.750000
$GPRMC,125607.00,A,4624.978230,N,00944.133299,E,001.6,224.3,110314,0.7,W,A*28
$GPGGA,125608.00,4624.977954,N,00944.132944,E,1,09,1.1,1798.80,M,48.00,M,,*5B
$GPGSV,3,1,10,05,60,280,42,02,13,229,41,26,39,288,39,07,48,054,37*71
$GPGSV,3,2,10,08,83,072,41,09,88,238,45,10,42,165,43,15,05,285,*77
$GPGSV,3,3,10,28,33,147,38,13,14,092,37,,,,,,,,*73
$GPGSA,M,3,05,02,26,07,08,09,10,28,13,,,,1.8,1.1,1.4*3E
Trace #89 at position 22.000000
$GPRMC,125607.00,A,4624.978230,N,00944.133299,E,001.6,224.3,110314,0.7,W,A*28
$GPGGA,125608.00,4624.977954,N,00944.132944,E,1,09,1.1,1798.80,M,48.00,M,,*5B
$GPGSV,3,1,10,05,60,280,42,02,13,229,41,26,39,288,39,07,48,054,37*71
$GPGSV,3,2,10,08,83,072,41,09,88,238,45,10,42,165,43,15,05,285,*77
$GPGSV,3,3,10,28,33,147,38,13,14,092,37,,,,,,,,*73
$GPGSA,M,3,05,02,26,07,08,09,10,28,13,,,,1.8,1.1,1.4*3E
Trace #90 at position 22.250000
$GPRMC,125607.00,A,4624.978230,N,00944.133299,E,001.6,224.3,110314,0.7,W,A*28
$GPGGA,125608.00,4624.977954,N,00944.132944,E,1,09,1.1,1798.80,M,48.00,M,,*5B
$GPGSV,3,1,10,05,60,280,42,02,13,229,41,26,39,288,39,07,48,054,37*71
$GPGSV,3,2,10,08,83,072,41,09,88,238,45,10,42,165,43,15,05,285,*77
$GPGSV,3,3,10,28,33,147,38,13,14,092,37,,,,,,,,*73
$GPGSA,M,3,05,02,26,07,08,09,10,28,13,,,,1.8,1.1,1.4*3E
Trace #91 at position 22.500000
$GPRMC,125608.00,A,4624.977954,N,00944.132944,E,001.2,217.7,110314,0.7,W,A*2B
$GPGGA,125609.00,4624.977667,N,00944.132652,E,1,09,1.1,1798.79,M,48.00,M,,*5B
$GPGSV,3,1,10,05,60,280,42,02,13,229,39,26,39,288,37,07,48,054,36*71
$GPGSV,3,2,10,08,83,072,41,09,88,238,45,10,42,165,42,15,05,285,*76
$GPGSV,3,3,10,28,33,147,33,13,14,092,37,,,,,,,,*78
$GPGSA,M,3,05,02,26,07,08,09,10,28,13,,,,1.8,1.1,1.4*3E
Trace #92 at position 22.750000
$GPRMC,125608.00,A,4624.977954,N,00944.132944,E,001.2,217.7,110314,0.7,W,A*2B
$GPGGA,125609.00,4624.977667,N,00944.132652,E,1,09,1.1,1798.79,M,48.00,M,,*5B
$GPGSV,3,1,10,05,60,280,42,02,13,229,39,26,39,288,37,07,48,054,36*71
$GPGSV,3,2,10,08,83,072,41,09,88,238,45,10,42,165,42,15,05,285,*76
$GPGSV,3,3,10,28,33,147,33,13,14,092,37,,,,,,,,*78
$GPGSA,M,3,05,02,26,07,08,09,10,28,13,,,,1.8,1.1,1.4*3E
Trace #93 at position 23.000000
$GPRMC,125608.00,A,4624.977954,N,00944.132944,E,001.2,217.7,110314,0.7,W,A*2B
$GPGGA,125609.00,4624.977667,N,00944.132652,E,1,09,1.1,1798.79,M,48.00,M,,*5B
$GPGSV,3,1,10,05,60,280,42,02,13,229,39,26,39,288,37,07,48,054,36*71
$GPGSV,3,2,10,08,83,072,41,09,88,238,45,10,42,165,42,15,05,285,*76
$GPGSV,3,3,10,28,33,147,33,13,14,092,37,,,,,,,,*78
$GPGSA,M,3,05,02,26,07,08,09,10,28,13,,,,1.8,1.1,1.4*3E
Trace #94 at position 23.250000
$GPRMC,125609.00,A,4624.977667,N,00944.132652,E,001.4,211.1,110314,0.7,W,A*2B
$GPGGA,125610.00,4624.977373,N,00944.132269,E,1,09,1.1,1798.79,M,48.00,M,,*5F
$GPGSV,3,1,10,05,60,280,43,02,13,229,38,26,39,288,38,07,48,054,39*71
$GPGSV,3,2,10,08,83,072,42,09,88,238,45,10,42,165,42,15,05,285,*75
$GPGSV,3,3,10,28,33,147,35,13,14,092,35,,,,,,,,*7C
$GPGSA,M,3,05,02,26,07,08,09,10,28,13,,,,1.8,1.1,1.4*3E
Trace #95 at position 23.500000
$GPRMC,125609.00,A,4624.977667,N,00944.132652,E,001.4,211.1,110314,0.7,W,A*2B
$GPGGA,125610.00,4624.977373,N,00944.132269,E,1,09,1.1,1798.79,M,48.00,M,,*5F
$GPGSV,3,1,10,05,60,280,43,02,13,229,38,26,39,288,38,07,48,054,39*71
$GPGSV,3,2,10,08,83,072,42,09,88,238,45,10,42,165,42,15,05,285,*75
$GPGSV,3,3,10,28,33,147,35,13,14,092,35,,,,,,,,*7C
$GPGSA,M,3,05,02,26,07,08,09,10,28,13,,,,1.8,1.1,1.4*3E
Trace #96 at position 23.750000
$GPRMC,125609.00,A,4624.977667,N,00944.132652,E,001.4,211.1,110314,0.7,W,A*2B
$GPGGA,125610.00,4624.977373,N,00944.132269,E,1,09,1.1,1798.79,M,48.00,M,,*5F
$GPGSV,3,1,10,05,60,280,43,02,13,229,38,26,39,288,38,07,48,054,39*71
$GPGSV,3,2,10,08,83,072,42,09,88,238,45,10,42,165,42,15,05,285,*75
$GPGSV,3,3,10,28,33,147,35,13,14,092,35,,,,,,,,*7C
$GPGSA,M,3,05,02,26,07,08,09,10,28,13,,,,1.8,1.1,1.4*3E
Trace #97 at position 24.000000
$GPRMC,125610.00,A,4624.977373,N,00944.132269,E,001.5,229.7,110314,0.7,W,A*23
$GPGGA,125611.00,4624.977092,N,00944.131834,E,1,09,1.1,1798.89,M,48.00,M,,*5C
$GPGSV,3,1,10,05,60,280,42,02,13,229,40,26,39,288,38,07,48,054,38*7E
$GPGSV,3,2,10,08,83,072,41,09,88,238,46,10,42,165,40,15,05,285,*77
$GPGSV,3,3,10,28,33,147,38,13,14,092,36,,,,,,,,*72
$GPGSA,M,3,05,02,26,07,08,09,10,28,13,,,,1.8,1.1,1.4*3E
Trace #98 at position 24.250000
$GPRMC,125610.00,A,4624.977373,N,00944.132269,E,001.5,229.7,110314,0.7,W,A*23
$GPGGA,125611.00,4624.977092,N,00944.131834,E,1,09,1.1,1798.89,M,48.00,M,,*5C
$GPGSV,3,1,10,05,60,280,42,02,13,229,40,26,39,288,38,07,48,054,38*7E
$GPGSV,3,2,10,08,83,072,41,09,88,238,46,10,42,165,40,15,05,285,*77
$GPGSV,3,3,10,28,33,147,38,13,14,092,36,,,,,,,,*72
$GPGSA,M,3,05,02,26,07,08,09,10,28,13,,,,1.8,1.1,1.4*3E
Trace #99 at position 24.500000
$GPRMC,125610.00,A,4624.977373,N,00944.132269,E,001.5,229.7,110314,0.7,W,A*23
$GPGGA,125611.00,4624.977092,N,00944.131834,E,1,09,1.1,1798.89,M,48.00,M,,*5C
$GPGSV,3,1,10,05,60,280,42,02,13,229,40,26,39,288,38,07,48,054,38*7E
$GPGSV,3,2,10,08,83,072,41,09,88,238,46,10,42,165,40,15,05,285,*77
$GPGSV,3,3,10,28,33,147,38,13,14,092,36,,,,,,,,*72
$GPGSA,M,3,05,02,26,07,08,09,10,28,13,,,,1.8,1.1,1.4*3E
Trace #100 at position 24.750000
$GPRMC,125611.00,A,4624.977092,N,00944.131834,E,001.4,222.3,110314,0.7,W,A*21
$GPGGA,125612.00,4624.976778,N,00944.131436,E,1,09,1.1,1798.96,M,48.00,M,,*5D
$GPGSV,3,1,10,05,60,280,42,02,13,229,40,26,39,288,40,07,48,054,39*70
$GPGSV,3,2,10,08,83,072,42,09,88,238,45,10,42,165,41,15,05,285,*76
$GPGSV,3,3,10,28,33,147,37,13,14,092,37,,,,,,,,*7C
$GPGSA,M,3,05,02,26,07,08,09,10,28,13,,,,1.8,1.1,1.4*3E
Trace #101 at position 25.000000
$GPRMC,125611.00,A,4624.977092,N,00944.131834,E,001.4,222.3,110314,0.7,W,A*21
$GPGGA,125612.00,4624.976778,N,00944.131436,E,1,09,1.1,1798.96,M,48.00,M,,*5D
$GPGSV,3,1,10,05,60,280,42,02,13,229,40,26,39,288,40,07,48,054,39*70
$GPGSV,3,2,10,08,83,072,42,09,88,238,45,10,42,165,41,15,05,285,*76
$GPGSV,3,3,10,28,33,147,37,13,14,092,37,,,,,,,,*7C
$GPGSA,M,3,05,02,26,07,08,09,10,28,13,,,,1.8,1.1,1.4*3E
Trace #102 at position 25.250000
$GPRMC,125611.00,A,4624.977092,N,00944.131834,E,001.4,222.3,110314,0.7,W,A*21
$GPGGA,125612.00,4624.976778,N,00944.131436,E,1,09,1.1,1798.96,M,48.00,M,,*5D
$GPGSV,3,1,10,05,60,280,42,02,13,229,40,26,39,288,40,07,48,054,39*70
$GPGSV,3,2,10,08,83,072,42,09,88,238,45,10,42,165,41,15,05,285,*76
$GPGSV,3,3,10,28,33,147,37,13,14,092,37,,,,,,,,*7C
$GPGSA,M,3,05,02,26,07,08,09,10,28,13,,,,1.8,1.1,1.4*3E
Trace #103 at position 25.500000
$GPRMC,125611.00,A,4624.977092,N,00944.131834,E,001.4,222.3,110314,0.7,W,A*21
$GPGGA,125612.00,4624.976778,N,00944.131436,E,1,09,1.1,1798.96,M,48.00,M,,*5D
$GPGSV,3,1,10,05,60,280,42,02,13,229,40,26,39,288,40,07,48,054,39*70
$GPGSV,3,2,10,08,83,072,42,09,88,238,45,10,42,165,41,15,05,285,*76
$GPGSV,3,3,10,28,33,147,37,13,14,092,37,,,,,,,,*7C
$GPGSA,M,3,05,02,26,07,08,09,10,28,13,,,,1.8,1.1,1.4*3E
Trace #104 at position 25.750000
$GPRMC,125612.00,A,4624.976778,N,00944.131436,E,001.6,217.8,110314,0.7,W,A*21
$GPGGA,125613.00,4624.976454,N,00944.131077,E,1,09,1.1,1798.94,M,48.00,M,,*52
$GPGSV,3,1,10,05,60,280,42,02,13,229,43,26,39,288,36,07,48,054,38*73
$GPGSV,3,2,10,08,83,072,41,09,88,239,43,10,42,165,42,15,05,285,*71
$GPGSV,3,3,10,28,33,147,36,13,14,092,37,,,,,,,,*7D
$GPGSA,M,3,05,02,26,07,08,09,10,28,13,,,,1.8,1.1,1.4*3E
Trace #105 at position 26.000000
$GPRMC,125612.00,A,4624.976778,N,00944.131436,E,001.6,217.8,110314,0.7,W,A*21
$GPGGA,125613.00,4624.976454,N,00944.131077,E,1,09,1.1,1798.94,M,48.00,M,,*52
$GPGSV,3,1,10,05,60,280,42,02,13,229,43,26,39,288,36,07,48,054,38*73
$GPGSV,3,2,10,08,83,072,41,09,88,239,43,10,42,165,42,15,05,285,*71
$GPGSV,3,3,10,28,33,147,36,13,14,092,37,,,,,,,,*7D
$GPGSA,M,3,05,02,26,07,08,09,10,28,13,,,,1.8,1.1,1.4*3E
Trace #106 at position 26.250000
$GPRMC,125612.00,A,4624.976778,N,00944.131436,E,001.6,217.8,110314,0.7,W,A*21
$GPGGA,125613.00,4624.976454,N,00944.131077,E,1,09,1.1,1798.94,M,48.00,M,,*52
$GPGSV,3,1,10,05,60,280,42,02,13,229,43,26,39,288,36,07,48,054,38*73
$GPGSV,3,2,10,08,83,072,41,09,88,239,43,10,42,165,42,15,05,285,*71
$GPGSV,3,3,10,28,33,147,36,13,14,092,37,,,,,,,,*7D
$GPGSA,M,3,05,02,26,07,08,09,10,28,13,,,,1.8,1.1,1.4*3E
Trace #107 at position 26.500000
$GPRMC,125613.00,A,4624.976454,N,00944.131077,E,001.4,213.9,110314,0.7,W,A*2B
$GPGGA,125614.00,4624.976152,N,00944.130734,E,1,09,1.1,1798.87,M,48.00,M,,*55
$GPGSV,3,1,10,05,60,280,42,02,13,229,44,26,39,288,35,07,48,054,37*78
$GPGSV,3,2,10,08,83,072,41,09,88,239,43,10,42,165,42,15,05,285,*71
$GPGSV,3,3,10,28,33,147,36,13,14,092,38,,,,,,,,*72
$GPGSA,M,3,05,02,26,07,08,09,10,28,13,,,,1.8,1.1,1.4*3E
Trace #108 at position 26.750000
$GPRMC,125613.00,A,4624.976454,N,00944.131077,E,001.4,213.9,110314,0.7,W,A*2B
$GPGGA,125614.00,4624.976152,N,00944.130734,E,1,09,1.1,1798.87,M,48.00,M,,*55
$GPGSV,3,1,10,05,60,280,42,02,13,229,44,26,39,288,35,07,48,054,37*78
$GPGSV,3,2,10,08,83,072,41,09,88,239,43,10,42,165,42,15,05,285,*71
$GPGSV,3,3,10,28,33,147,36,13,14,092,38,,,,,,,,*72
$GPGSA,M,3,05,02,26,07,08,09,10,28,13,,,,1.8,1.1,1.4*3E
Trace #109 at position 27.000000
$GPRMC,125613.00,A,4624.976454,N,00944.131077,E,001.4,213.9,110314,0.7,W,A*2B
$GPGGA,125614.00,4624.976152,N,00944.130734,E,1,09,1.1,1798.87,M,48.00,M,,*55
$GPGSV,3,1,10,05,60,280,42,02,13,229,44,26,39,288,35,07,48,054,37*78
$GPGSV,3,2,10,08,83,072,41,09,88,239,43,10,42,165,42,15,05,285,*71
$GPGSV,3,3,10,28,33,147,36,13,14,092,38,,,,,,,,*72
$GPGSA,M,3,05,02,26,07,08,09,10,28,13,,,,1.8,1.1,1.4*3E
Trace #110 at position 27.250000
$GPRMC,125614.00,A,4624.976152,N,00944.130734,E,001.4,219.6,110314,0.7,W,A*2B
$GPGGA,125615.00,4624.975826,N,00944.130325,E,1,09,1.1,1798.82,M,48.00,M,,*5C
$GPGSV,3,1,10,05,60,280,43,02,13,229,39,26,39,288,39,07,48,054,38*70
$GPGSV,3,2,10,08,83,072,44,09,88,239,46,10,42,165,41,15,05,285,*72
$GPGSV,3,3,10,28,33,147,36,13,14,092,37,,,,,,,,*7D
$GPGSA,M,3,05,02,26,07,08,09,10,28,13,,,,1.8,1.1,1.4*3E
Trace #111 at position 27.500000
$GPRMC,125614.00,A,4624.976152,N,00944.130734,E,001.4,219.6,110314,0.7,W,A*2B
$GPGGA,125615.00,4624.975826,N,00944.130325,E,1,09,1.1,1798.82,M,48.00,M,,*5C
$GPGSV,3,1,10,05,60,280,43,02,13,229,39,26,39,288,39,07,48,054,38*70
$GPGSV,3,2,10,08,83,072,44,09,88,239,46,10,42,165,41,15,05,285,*72
$GPGSV,3,3,10,28,33,147,36,13,14,092,37,,,,,,,,*7D
$GPGSA,M,3,05,02,26,07,08,09,10,28,13,,,,1.8,1.1,1.4*3E
Trace #112 at position 27.750000
$GPRMC,125614.00,A,4624.976152,N,00944.130734,E,001.4,219.6,110314,0.7,W,A*2B
$GPGGA,125615.00,4624.975826,N,00944.130325,E,1,09,1.1,1798.82,M,48.00,M,,*5C
$GPGSV,3,1,10,05,60,280,43,02,13,229,39,26,39,288,39,07,48,054,38*70
$GPGSV,3,2,10,08,83,072,44,09,88,239,46,10,42,165,41,15,05,285,*72
$GPGSV,3,3,10,28,33,147,36,13,14,092,37,,,,,,,,*7D
$GPGSA,M,3,05,02,26,07,08,09,10,28,13,,,,1.8,1.1,1.4*3E
Trace #113 at position 28.000000
$GPRMC,125614.00,A,4624.976152,N,00944.130734,E,001.4,219.6,110314,0.7,W,A*2B
$GPGGA,125615.00,4624.975826,N,00944.130325,E,1,09,1.1,1798.82,M,48.00,M,,*5C
$GPGSV,3,1,10,05,60,280,43,02,13,229,39,26,39,288,39,07,48,054,38*70
$GPGSV,3,2,10,08,83,072,44,09,88,239,46,10,42,165,41,15,05,285,*72
$GPGSV,3,3,10,28,33,147,36,13,14,092,37,,,,,,,,*7D
$GPGSA,M,3,05,02,26,07,08,09,10,28,13,,,,1.8,1.1,1.4*3E
Trace #114 at position 28.250000
$GPRMC,125615.00,A,4624.975826,N,00944.130325,E,001.7,220.7,110314,0.7,W,A*2F
$GPGGA,125616.00,4624.975508,N,00944.129887,E,1,09,1.1,1798.84,M,48.00,M,,*53
$GPGSV,3,1,10,05,60,280,42,02,13,229,39,26,39,288,39,07,48,054,37*7E
$GPGSV,3,2,10,08,83,072,43,09,88,239,45,10,42,165,41,15,05,285,*76
$GPGSV,3,3,10,28,33,147,40,13,14,092,39,,,,,,,,*72
$GPGSA,M,3,05,02,26,07,08,09,10,28,13,,,,1.8,1.1,1.4*3E
Trace #115 at position 28.500000
$GPRMC,125615.00,A,4624.975826,N,00944.130325,E,001.7,220.7,110314,0.7,W,A*2F
$GPGGA,125616.00,4624.975508,N,00944.129887,E,1,09,1.1,1798.84,M,48.00,M,,*53
$GPGSV,3,1,10,05,60,280,42,02,13,229,39,26,39,288,39,07,48,054,37*7E
$GPGSV,3,2,10,08,83,072,43,09,88,239,45,10,42,165,41,15,05,285,*76
$GPGSV,3,3,10,28,33,147,40,13,14,092,39,,,,,,,,*72
$GPGSA,M,3,05,02,26,07,08,09,10,28,13,,,,1.8,1.1,1.4*3E
Trace #116 at position 28.750000
$GPRMC,125615.00,A,4624.975826,N,00944.130325,E,001.7,220.7,110314,0.7,W,A*2F
$GPGGA,125616.00,4624.975508,N,00944.129887,E,1,09,1.1,1798.84,M,48.00,M,,*53
$GPGSV,3,1,10,05,60,280,42,02,13,229,39,26,39,288,39,07,48,054,37*7E
$GPGSV,3,2,10,08,83,072,43,09,88,239,45,10,42,165,41,15,05,285,*76
$GPGSV,3,3,10,28,33,147,40,13,14,092,39,,,,,,,,*72
$GPGSA,M,3,05,02,26,07,08,09,10,28,13,,,,1.8,1.1,1.4*3E
Trace #117 at position 29.000000
$GPRMC,125616.00,A,4624.975508,N,00944.129887,E,001.4,226.3,110314,0.7,W,A*27
$GPGGA,125617.00,4624.975209,N,00944.129423,E,1,09,1.1,1798.83,M,48.00,M,,*51
$GPGSV,3,1,10,05,60,280,42,02,13,229,34,26,39,288,40,07,48,054,36*7C
$GPGSV,3,2,10,08,83,071,42,09,88,239,43,10,42,165,42,15,05,285,*71
$GPGSV,3,3,10,28,33,147,37,13,14,092,38,,,,,,,,*73
$GPGSA,M,3,05,02,26,07,08,09,10,28,13,,,,1.8,1.1,1.4*3E
Trace #118 at position 29.250000
$GPRMC,125616.00,A,4624.975508,N,00944.129887,E,001.4,226.3,110314,0.7,W,A*27
$GPGGA,125617.00,4624.975209,N,00944.129423,E,1,09,1.1,1798.83,M,48.00,M,,*51
$GPGSV,3,1,10,05,60,280,42,02,13,229,34,26,39,288,40,07,48,054,36*7C
$GPGSV,3,2,10,08,83,071,42,09,88,239,43,10,42,165,42,15,05,285,*71
$GPGSV,3,3,10,28,33,147,37,13,14,092,38,,,,,,,,*73
$GPGSA,M,3,05,02,26,07,08,09,10,28,13,,,,1.8,1.1,1.4*3E
Trace #119 at position 29.500000
$GPRMC,125616.00,A,4624.975508,N,00944.129887,E,001.4,226.3,110314,0.7,W,A*27
$GPGGA,125617.00,4624.975209,N,00944.129423,E,1,09,1.1,1798.83,M,48.00,M,,*51
$GPGSV,3,1,10,05,60,280,42,02,13,229,34,26,39,288,40,07,48,054,36*7C
$GPGSV,3,2,10,08,83,071,42,09,88,239,43,10,42,165,42,15,05,285,*71
$GPGSV,3,3,10,28,33,147,37,13,14,092,38,,,,,,,,*73
$GPGSA,M,3,05,02,26,07,08,09,10,28,13,,,,1.8,1.1,1.4*3E
Trace #120 at position 29.750000
$GPRMC,125616.00,A,4624.975508,N,00944.129887,E,001.4,226.3,110314,0.7,W,A*27
$GPGGA,125617.00,4624.975209,N,00944.129423,E,1,09,1.1,1798.83,M,48.00,M,,*51
$GPGSV,3,1,10,05,60,280,42,02,13,229,34,26,39,288,40,07,48,054,36*7C
$GPGSV,3,2,10,08,83,071,42,09,88,239,43,10,42,165,42,15,05,285,*71
$GPGSV,3,3,10,28,33,147,37,13,14,092,38,,,,,,,,*73
$GPGSA,M,3,05,02,26,07,08,09,10,28,13,,,,1.8,1.1,1.4*3E
Trace #121 at position 30.000000
$GPRMC,125617.00,A,4624.975209,N,00944.129423,E,001.7,227.2,110314,0.7,W,A*21
$GPGGA,125618.00,4624.974900,N,00944.129017,E,1,09,1.1,1798.72,M,48.00,M,,*50
$GPGSV,3,1,10,05,60,280,40,02,13,229,35,26,39,288,39,07,48,054,35*72
$GPGSV,3,2,10,08,83,071,42,09,88,239,43,10,42,165,41,15,05,285,*72
$GPGSV,3,3,10,28,33,147,35,13,14,092,35,,,,,,,,*7C
$GPGSA,M,3,05,02,26,07,08,09,10,28,13,,,,1.8,1.1,1.4*3E
Trace #122 at position 30.250000
$GPRMC,125617.00,A,4624.975209,N,00944.129423,E,001.7,227.2,110314,0.7,W,A*21
$GPGGA,125618.00,4624.974900,N,00944.129017,E,1,09,1.1,1798.72,M,48.00,M,,*50
$GPGSV,3,1,10,05,60,280,40,02,13,229,35,26,39,288,39,07,48,054,35*72
$GPGSV,3,2,10,08,83,071,42,09,88,239,43,10,42,165,41,15,05,285,*72
$GPGSV,3,3,10,28,33,147,35,13,14,092,35,,,,,,,,*7C
$GPGSA,M,3,05,02,26,07,08,09,10,28,13,,,,1.8,1.1,1.4*3E
Trace #123 at position 30.500000
$GPRMC,125617.00,A,4624.975209,N,00944.129423,E,001.7,227.2,110314,0.7,W,A*21
$GPGGA,125618.00,4624.974900,N,00944.129017,E,1,09,1.1,1798.72,M,48.00,M,,*50
$GPGSV,3,1,10,05,60,280,40,02,13,229,35,26,39,288,39,07,48,054,35*72
$GPGSV,3,2,10,08,83,071,42,09,88,239,43,10,42,165,41,15,05,285,*72
$GPGSV,3,3,10,28,33,147,35,13,14,092,35,,,,,,,,*7C
$GPGSA,M,3,05,02,26,07,08,09,10,28,13,,,,1.8,1.1,1.4*3E
Trace #124 at position 30.750000
$GPRMC,125618.00,A,4624.974900,N,00944.129017,E,001.3,217.0,110314,0.7,W,A*2B
$GPGGA,125619.00,4624.974574,N,00944.128633,E,1,09,1.1,1798.68,M,48.00,M,,*54
$GPGSV,3,1,10,05,60,280,42,02,13,229,41,26,39,288,36,07,48,054,32*7B
$GPGSV,3,2,10,08,83,071,43,09,88,239,44,10,42,165,42,15,05,285,*77
$GPGSV,3,3,10,28,33,147,36,13,14,092,38,,,,,,,,*72
$GPGSA,M,3,05,02,26,07,08,09,10,28,13,,,,1.8,1.1,1.4*3E
Trace #125 at position 31.000000
$GPRMC,125618.00,A,4624.974900,N,00944.129017,E,001.3,217.0,110314,0.7,W,A*2B
$GPGGA,125619.00,4624.974574,N,00944.128633,E,1,09,1.1,1798.68,M,48.00,M,,*54
$GPGSV,3,1,10,05,60,280,42,02,13,229,41,26,39,288,36,07,48,054,32*7B
$GPGSV,3,2,10,08,83,071,43,09,88,239,44,10,42,165,42,15,05,285,*77
$GPGSV,3,3,10,28,33,147,36,13,14,092,38,,,,,,,,*72
$GPGSA,M,3,05,02,26,07,08,09,10,28,13,,,,1.8,1.1,1.4*3E
Trace #126 at position 31.250000
$GPRMC,125618.00,A,4624.974900,N,00944.129017,E,001.3,217.0,110314,0.7,W,A*2B
$GPGGA,125619.00,4624.974574,N,00944.128633,E,1,09,1.1,1798.68,M,48.00,M,,*54
$GPGSV,3,1,10,05,60,280,42,02,13,229,41,26,39,288,36,07,48,054,32*7B
$GPGSV,3,2,10,08,83,071,43,09,88,239,44,10,42,165,42,15,05,285,*77
$GPGSV,3,3,10,28,33,147,36,13,14,092,38,,,,,,,,*72
$GPGSA,M,3,05,02,26,07,08,09,10,28,13,,,,1.8,1.1,1.4*3E
Trace #127 at position 31.500000
$GPRMC,125619.00,A,4624.974574,N,00944.128633,E,001.7,220.7,110314,0.7,W,A*23
$GPGGA,125620.00,4624.974236,N,00944.128206,E,1,09,1.1,1798.71,M,48.00,M,,*55
$GPGSV,3,1,10,05,60,280,43,02,13,229,40,26,39,288,35,07,48,054,33*79
$GPGSV,3,2,10,08,83,071,43,09,88,239,44,10,42,165,42,15,05,285,*77
$GPGSV,3,3,10,28,33,147,36,13,14,092,38,,,,,,,,*72
$GPGSA,M,3,05,02,26,07,08,09,10,28,13,,,,1.8,1.1,1.4*3E
Trace #128 at position 31.750000
$GPRMC,125619.00,A,4624.974574,N,00944.128633,E,001.7,220.7,110314,0.7,W,A*23
$GPGGA,125620.00,4624.974236,N,00944.128206,E,1,09,1.1,1798.71,M,48.00,M,,*55
$GPGSV,3,1,10,05,60,280,43,02,13,229,40,26,39,288,35,07,48,054,33*79
$GPGSV,3,2,10,08,83,071,43,09,88,239,44,10,42,165,42,15,05,285,*77
$GPGSV,3,3,10,28,33,147,36,13,14,092,38,,,,,,,,*72
$GPGSA,M,3,05,02,26,07,08,09,10,28,13,,,,1.8,1.1,1.4*3E
Trace #129 at position 32.000000
$GPRMC,125619.00,A,4624.974574,N,00944.128633,E,001.7,220.7,110314,0.7,W,A*23
$GPGGA,125620.00,4624.974236,N,00944.128206,E,1,09,1.1,1798.71,M,48.00,M,,*55
$GPGSV,3,1,10,05,60,280,43,02,13,229,40,26,39,288,35,07,48,054,33*79
$GPGSV,3,2,10,08,83,071,43,09,88,239,44,10,42,165,42,15,05,285,*77
$GPGSV,3,3,10,28,33,147,36,13,14,092,38,,,,,,,,*72
$GPGSA,M,3,05,02,26,07,08,09,10,28,13,,,,1.8,1.1,1.4*3E
Trace #130 at position 32.250000
$GPRMC,125619.00,A,4624.974574,N,00944.128633,E,001.7,220.7,110314,0.7,W,A*23
$GPGGA,125620.00,4624.974236,N,00944.128206,E,1,09,1.1,1798.71,M,48.00,M,,*55
$GPGSV,3,1,10,05,60,280,43,02,13,229,40,26,39,288,35,07,48,054,33*79
$GPGSV,3,2,10,08,83,071,43,09,88,239,44,10,42,165,42,15,05,285,*77
$GPGSV,3,3,10,28,33,147,36,13,14,092,38,,,,,,,,*72
$GPGSA,M,3,05,02,26,07,08,09,10,28,13,,,,1.8,1.1,1.4*3E
Trace #131 at position 32.500000
$GPRMC,125620.00,A,4624.974236,N,00944.128206,E,001.5,221.6,110314,0.7,W,A*28
$GPGGA,125621.00,4624.973916,N,00944.127836,E,1,09,1.1,1798.72,M,48.00,M,,*5F
$GPGSV,3,1,10,05,60,280,43,02,13,229,40,26,39,288,34,07,48,054,37*7C
$GPGSV,3,2,10,08,83,071,42,09,88,240,45,10,42,165,41,15,05,285,*7A
$GPGSV,3,3,10,28,33,147,33,13,14,092,37,,,,,,,,*78
$GPGSA,M,3,05,02,26,07,08,09,10,28,13,,,,1.8,1.1,1.4*3E
Trace #132 at position 32.750000
$GPRMC,125620.00,A,4624.974236,N,00944.128206,E,001.5,221.6,110314,0.7,W,A*28
$GPGGA,125621.00,4624.973916,N,00944.127836,E,1,09,1.1,1798.72,M,48.00,M,,*5F
$GPGSV,3,1,10,05,60,280,43,02,13,229,40,26,39,288,34,07,48,054,37*7C
$GPGSV,3,2,10,08,83,071,42,09,88,240,45,10,42,165,41,15,05,285,*7A
$GPGSV,3,3,10,28,33,147,33,13,14,092,37,,,,,,,,*78
$GPGSA,M,3,05,02,26,07,08,09,10,28,13,,,,1.8,1.1,1.4*3E
Trace #133 at position 33.000000
$GPRMC,125620.00,A,4624.974236,N,00944.128206,E,001.5,221.6,110314,0.7,W,A*28
$GPGGA,125621.00,4624.973916,N,00944.127836,E,1,09,1.1,1798.72,M,48.00,M,,*5F
$GPGSV,3,1,10,05,60,280,43,02,13,229,40,26,39,288,34,07,48,054,37*7C
$GPGSV,3,2,10,08,83,071,42,09,88,240,45,10,42,165,41,15,05,285,*7A
$GPGSV,3,3,10,28,33,147,33,13,14,092,37,,,,,,,,*78
$GPGSA,M,3,05,02,26,07,08,09,10,28,13,,,,1.8,1.1,1.4*3E
Trace #134 at position 33.250000
$GPRMC,125621.00,A,4624.973916,N,00944.127836,E,001.4,215.1,110314,0.7,W,A*20
$GPGGA,125622.00,4624.973626,N,00944.127475,E,1,09,1.1,1798.67,M,48.00,M,,*5F
$GPGSV,3,1,10,05,60,280,43,02,13,229,43,26,39,288,35,07,48,054,34*7D
$GPGSV,3,2,10,08,83,071,42,09,88,240,45,10,42,165,42,15,05,285,*79
$GPGSV,3,3,10,28,33,147,34,13,14,092,36,,,,,,,,*7E
$GPGSA,M,3,05,02,26,07,08,09,10,28,13,,,,1.8,1.1,1.4*3E
Trace #135 at position 33.500000
$GPRMC,125621.00,A,4624.973916,N,00944.127836,E,001.4,215.1,110314,0.7,W,A*20
$GPGGA,125622.00,4624.973626,N,00944.127475,E,1,09,1.1,1798.67,M,48.00,M,,*5F
$GPGSV,3,1,10,05,60,280,43,02,13,229,43,26,39,288,35,07,48,054,34*7D
$GPGSV,3,2,10,08,83,071,42,09,88,240,45,10,42,165,42,15,05,285,*79
$GPGSV,3,3,10,28,33,147,34,13,14,092,36,,,,,,,,*7E
$GPGSA,M,3,05,02,26,07,08,09,10,28,13,,,,1.8,1.1,1.4*3E
Trace #136 at position 33.750000
$GPRMC,125621.00,A,4624.973916,N,00944.127836,E,001.4,215.1,110314,0.7,W,A*20
$GPGGA,125622.00,4624.973626,N,00944.127475,E,1,09,1.1,1798.67,M,48.00,M,,*5F
$GPGSV,3,1,10,05,60,280,43,02,13,229,43,26,39,288,35,07,48,054,34*7D
$GPGSV,3,2,10,08,83,071,42,09,88,240,45,10,42,165,42,15,05,285,*79
$GPGSV,3,3,10,28,33,147,34,13,14,092,36,,,,,,,,*7E
$GPGSA,M,3,05,02,26,07,08,09,10,28,13,,,,1.8,1.1,1.4*3E
Trace #137 at position 34.000000
$GPRMC,125622.00,A,4624.973626,N,00944.127475,E,001.3,225.5,110314,0.7,W,A*24
$GPGGA,125623.00,4624.973330,N,00944.127078,E,1,09,1.1,1798.60,M,48.00,M,,*52
$GPGSV,3,1,10,05,60,280,42,02,12,229,43,26,39,288,36,07,48,054,34*7E
$GPGSV,3,2,10,08,83,071,42,09,88,240,44,10,42,165,43,15,05,285,*79
$GPGSV,3,3,10,28,33,147,34,13,14,092,36,,,,,,,,*7E
$GPGSA,M,3,05,02,26,07,08,09,10,28,13,,,,1.8,1.1,1.4*3E
Trace #138 at position 34.250000
