Trace #1 at position 0.000000
$GPRMC,135007.00,A,4625.007799,N,00944.110100,E,000.1,346.5,110314,0.7,W,A*2E
$GPGGA,135008.00,4625.007833,N,00944.110069,E,1,04,3.4,1769.29,M,48.00,M,,*52
$GPGSV,3,1,10,05,57,228,39,19,05,043,,26,62,307,43,07,26,059,35*7F
$GPGSV,3,2,10,08,58,050,37,09,64,049,38,10,17,167,,15,25,296,*79
$GPGSV,3,3,10,28,54,125,,21,07,318,,,,,,,,,*7B
$GPGSA,M,3,05,26,08,09,,,,,,,,,27.8,3.4,27.6*37
Trace #2 at position 0.250000
$GPRMC,135046.00,A,4625.007027,N,00944.110522,E,000.0,345.4,110314,0.7,W,A*2E
$GPGGA,135047.00,4625.006978,N,00944.110585,E,1,06,2.0,1791.99,M,48.00,M,,*5A
$GPGSV,3,1,10,05,57,228,41,19,05,043,,26,62,307,40,07,25,059,34*71
$GPGSV,3,2,10,08,58,050,35,09,64,049,38,10,17,167,,15,25,296,33*7B
$GPGSV,3,3,10,28,54,124,25,21,07,318,,,,,,,,,*7D
$GPGSA,M,3,05,26,07,08,09,15,,,,,,,3.0,2.0,2.3*3D
Trace #3 at position 0.500000
$GPRMC,135047.00,A,4625.006978,N,00944.110585,E,000.1,321.5,110314,0.7,W,A*22
$GPGGA,135048.00,4625.006941,N,00944.110472,E,1,05,2.6,1792.70,M,48.00,M,,*57
$GPGSV,3,1,10,05,57,228,43,19,05,043,,26,62,307,40,07,25,059,29*7F
$GPGSV,3,2,10,08,58,050,33,09,64,049,34,10,17,167,,15,25,296,38*7A
$GPGSV,3,3,10,28,54,124,,21,07,318,,,,,,,,,*7A
$GPGSA,M,3,05,26,08,09,15,,,,,,,,5.2,2.6,4.4*39
Trace #4 at position 0.750000
$GPRMC,135047.00,A,4625.006978,N,00944.110585,E,000.1,321.5,110314,0.7,W,A*22
$GPGGA,135048.00,4625.006941,N,00944.110472,E,1,05,2.6,1792.70,M,48.00,M,,*57
$GPGSV,3,1,10,05,57,228,43,19,05,043,,26,62,307,40,07,25,059,29*7F
$GPGSV,3,2,10,08,58,050,33,09,64,049,34,10,17,167,,15,25,296,38*7A
$GPGSV,3,3,10,28,54,124,,21,07,318,,,,,,,,,*7A
$GPGSA,M,3,05,26,08,09,15,,,,,,,,5.2,2.6,4.4*39
Trace #5 at position 1.000000
$GPRMC,135048.00,A,4625.006941,N,00944.110472,E,000.4,241.5,110314,0.7,W,A*2C
$GPGGA,135049.00,4625.006821,N,00944.110259,E,1,05,2.6,1792.95,M,48.00,M,,*55
$GPGSV,3,1,10,05,57,228,46,19,05,043,,26,62,307,40,07,25,059,30*72
$GPGSV,3,2,10,08,58,050,31,09,64,049,39,10,17,167,,15,25,296,32*7F
$GPGSV,3,3,10,28,54,124,,21,07,318,,,,,,,,,*7A
$GPGSA,M,3,05,26,08,09,15,,,,,,,,5.2,2.6,4.4*39
Trace #6 at position 1.250000
$GPRMC,135048.00,A,4625.006941,N,00944.110472,E,000.4,241.5,110314,0.7,W,A*2C
$GPGGA,135049.00,4625.006821,N,00944.110259,E,1,05,2.6,1792.95,M,48.00,M,,*55
$GPGSV,3,1,10,05,57,228,46,19,05,043,,26,62,307,40,07,25,059,30*72
$GPGSV,3,2,10,08,58,050,31,09,64,049,39,10,17,167,,15,25,296,32*7F
$GPGSV,3,3,10,28,54,124,,21,07,318,,,,,,,,,*7A
$GPGSA,M,3,05,26,08,09,15,,,,,,,,5.2,2.6,4.4*39
Trace #7 at position 1.500000
$GPRMC,135049.00,A,4625.006821,N,00944.110259,E,000.8,224.2,110314,0.7,W,A*2D
$GPGGA,135050.00,4625.006643,N,00944.109960,E,1,05,2.6,1793.31,M,48.00,M,,*51
$GPGSV,3,1,10,05,57,228,45,19,05,043,,26,62,307,40,07,25,059,31*70
$GPGSV,3,2,10,08,58,050,35,09,64,049,40,10,17,167,,15,25,296,34*73
$GPGSV,3,3,10,28,54,124,,21,07,318,,,,,,,,,*7A
$GPGSA,M,3,05,26,08,09,15,,,,,,,,5.2,2.6,4.4*39
Trace #8 at position 1.750000
$GPRMC,135049.00,A,4625.006821,N,00944.110259,E,000.8,224.2,110314,0.7,W,A*2D
$GPGGA,135050.00,4625.006643,N,00944.109960,E,1,05,2.6,1793.31,M,48.00,M,,*51
$GPGSV,3,1,10,05,57,228,45,19,05,043,,26,62,307,40,07,25,059,31*70
$GPGSV,3,2,10,08,58,050,35,09,64,049,40,10,17,167,,15,25,296,34*73
$GPGSV,3,3,10,28,54,124,,21,07,318,,,,,,,,,*7A
$GPGSA,M,3,05,26,08,09,15,,,,,,,,5.2,2.6,4.4*39
Trace #9 at position 2.000000
$GPRMC,135049.00,A,4625.006821,N,00944.110259,E,000.8,224.2,110314,0.7,W,A*2D
$GPGGA,135050.00,4625.006643,N,00944.109960,E,1,05,2.6,1793.31,M,48.00,M,,*51
$GPGSV,3,1,10,05,57,228,45,19,05,043,,26,62,307,40,07,25,059,31*70
$GPGSV,3,2,10,08,58,050,35,09,64,049,40,10,17,167,,15,25,296,34*73
$GPGSV,3,3,10,28,54,124,,21,07,318,,,,,,,,,*7A
$GPGSA,M,3,05,26,08,09,15,,,,,,,,5.2,2.6,4.4*39
Trace #10 at position 2.250000
$GPRMC,135050.00,A,4625.006643,N,00944.109960,E,001.0,233.4,110314,0.7,W,A*2F
$GPGGA,135051.00,4625.006404,N,00944.109632,E,1,06,1.7,1793.88,M,48.00,M,,*5A
$GPGSV,3,1,10,05,57,228,45,19,05,043,,26,62,307,40,07,25,059,25*75
$GPGSV,3,2,10,08,58,050,35,09,64,049,38,10,17,167,,15,25,296,33*7B
$GPGSV,3,3,10,28,54,124,38,21,07,318,,,,,,,,,*71
$GPGSA,M,3,05,26,08,09,15,28,,,,,,,3.8,1.7,3.4*3A
Trace #11 at position 2.500000
$GPRMC,135050.00,A,4625.006643,N,00944.109960,E,001.0,233.4,110314,0.7,W,A*2F
$GPGGA,135051.00,4625.006404,N,00944.109632,E,1,06,1.7,1793.88,M,48.00,M,,*5A
$GPGSV,3,1,10,05,57,228,45,19,05,043,,26,62,307,40,07,25,059,25*75
$GPGSV,3,2,10,08,58,050,35,09,64,049,38,10,17,167,,15,25,296,33*7B
$GPGSV,3,3,10,28,54,124,38,21,07,318,,,,,,,,,*71
$GPGSA,M,3,05,26,08,09,15,28,,,,,,,3.8,1.7,3.4*3A
Trace #12 at position 2.750000
$GPRMC,135050.00,A,4625.006643,N,00944.109960,E,001.0,233.4,110314,0.7,W,A*2F
$GPGGA,135051.00,4625.006404,N,00944.109632,E,1,06,1.7,1793.88,M,48.00,M,,*5A
$GPGSV,3,1,10,05,57,228,45,19,05,043,,26,62,307,40,07,25,059,25*75
$GPGSV,3,2,10,08,58,050,35,09,64,049,38,10,17,167,,15,25,296,33*7B
$GPGSV,3,3,10,28,54,124,38,21,07,318,,,,,,,,,*71
$GPGSA,M,3,05,26,08,09,15,28,,,,,,,3.8,1.7,3.4*3A
Trace #13 at position 3.000000
$GPRMC,135051.00,A,4625.006404,N,00944.109632,E,001.2,229.9,110314,0.7,W,A*23
$GPGGA,135052.00,4625.006283,N,00944.109147,E,1,04,5.5,1791.02,M,48.00,M,,*51
$GPGSV,3,1,10,05,57,228,44,19,05,043,,26,62,307,39,07,25,059,28*77
$GPGSV,3,2,10,08,58,050,29,09,64,049,35,10,17,167,,15,25,296,34*7C
$GPGSV,3,3,10,28,54,124,38,21,07,318,,,,,,,,,*71
$GPGSA,M,3,05,26,09,28,,,,,,,,,50.4,5.5,50.1*39
Trace #14 at position 3.250000
$GPRMC,135051.00,A,4625.006404,N,00944.109632,E,001.2,229.9,110314,0.7,W,A*23
$GPGGA,135052.00,4625.006283,N,00944.109147,E,1,04,5.5,1791.02,M,48.00,M,,*51
$GPGSV,3,1,10,05,57,228,44,19,05,043,,26,62,307,39,07,25,059,28*77
$GPGSV,3,2,10,08,58,050,29,09,64,049,35,10,17,167,,15,25,296,34*7C
$GPGSV,3,3,10,28,54,124,38,21,07,318,,,,,,,,,*71
$GPGSA,M,3,05,26,09,28,,,,,,,,,50.4,5.5,50.1*39
Trace #15 at position 3.500000
$GPRMC,135051.00,A,4625.006404,N,00944.109632,E,001.2,229.9,110314,0.7,W,A*23
$GPGGA,135052.00,4625.006283,N,00944.109147,E,1,04,5.5,1791.02,M,48.00,M,,*51
$GPGSV,3,1,10,05,57,228,44,19,05,043,,26,62,307,39,07,25,059,28*77
$GPGSV,3,2,10,08,58,050,29,09,64,049,35,10,17,167,,15,25,296,34*7C
$GPGSV,3,3,10,28,54,124,38,21,07,318,,,,,,,,,*71
$GPGSA,M,3,05,26,09,28,,,,,,,,,50.4,5.5,50.1*39
Trace #16 at position 3.750000
$GPRMC,135052.00,A,4625.006283,N,00944.109147,E,001.6,227.1,110314,0.7,W,A*2E
$GPGGA,135053.00,4625.005920,N,00944.108754,E,1,05,1.9,1792.01,M,48.00,M,,*5D
$GPGSV,3,1,10,05,57,228,44,19,05,043,,26,62,307,38,07,25,059,*7C
$GPGSV,3,2,10,08,58,050,32,09,64,049,35,10,17,167,33,15,25,296,32*70
$GPGSV,3,3,10,28,54,124,40,21,07,318,,,,,,,,,*7E
$GPGSA,M,3,05,26,09,15,28,,,,,,,,3.9,1.9,3.4*3D
Trace #17 at position 4.000000
$GPRMC,135052.00,A,4625.006283,N,00944.109147,E,001.6,227.1,110314,0.7,W,A*2E
$GPGGA,135053.00,4625.005920,N,00944.108754,E,1,05,1.9,1792.01,M,48.00,M,,*5D
$GPGSV,3,1,10,05,57,228,44,19,05,043,,26,62,307,38,07,25,059,*7C
$GPGSV,3,2,10,08,58,050,32,09,64,049,35,10,17,167,33,15,25,296,32*70
$GPGSV,3,3,10,28,54,124,40,21,07,318,,,,,,,,,*7E
$GPGSA,M,3,05,26,09,15,28,,,,,,,,3.9,1.9,3.4*3D
Trace #18 at position 4.250000
$GPRMC,135052.00,A,4625.006283,N,00944.109147,E,001.6,227.1,110314,0.7,W,A*2E
$GPGGA,135053.00,4625.005920,N,00944.108754,E,1,05,1.9,1792.01,M,48.00,M,,*5D
$GPGSV,3,1,10,05,57,228,44,19,05,043,,26,62,307,38,07,25,059,*7C
$GPGSV,3,2,10,08,58,050,32,09,64,049,35,10,17,167,33,15,25,296,32*70
$GPGSV,3,3,10,28,54,124,40,21,07,318,,,,,,,,,*7E
$GPGSA,M,3,05,26,09,15,28,,,,,,,,3.9,1.9,3.4*3D
Trace #19 at position 4.500000
$GPRMC,135053.00,A,4625.005920,N,00944.108754,E,001.2,213.9,110314,0.7,W,A*20
$GPGGA,135054.00,4625.005577,N,00944.108466,E,1,06,1.7,1792.51,M,48.00,M,,*5E
$GPGSV,3,1,10,05,57,228,45,19,05,043,,26,62,307,39,07,25,059,*7C
$GPGSV,3,2,10,08,58,050,34,09,64,049,35,10,17,167,33,15,25,296,30*74
$GPGSV,3,3,10,28,54,124,41,21,07,318,,,,,,,,,*7F
$GPGSA,M,3,05,26,08,09,15,28,,,,,,,3.8,1.7,3.4*3A
Trace #20 at position 4.750000
$GPRMC,135053.00,A,4625.005920,N,00944.108754,E,001.2,213.9,110314,0.7,W,A*20
$GPGGA,135054.00,4625.005577,N,00944.108466,E,1,06,1.7,1792.51,M,48.00,M,,*5E
$GPGSV,3,1,10,05,57,228,45,19,05,043,,26,62,307,39,07,25,059,*7C
$GPGSV,3,2,10,08,58,050,34,09,64,049,35,10,17,167,33,15,25,296,30*74
$GPGSV,3,3,10,28,54,124,41,21,07,318,,,,,,,,,*7F
$GPGSA,M,3,05,26,08,09,15,28,,,,,,,3.8,1.7,3.4*3A
Trace #21 at position 5.000000
$GPRMC,135053.00,A,4625.005920,N,00944.108754,E,001.2,213.9,110314,0.7,W,A*20
$GPGGA,135054.00,4625.005577,N,00944.108466,E,1,06,1.7,1792.51,M,48.00,M,,*5E
$GPGSV,3,1,10,05,57,228,45,19,05,043,,26,62,307,39,07,25,059,*7C
$GPGSV,3,2,10,08,58,050,34,09,64,049,35,10,17,167,33,15,25,296,30*74
$GPGSV,3,3,10,28,54,124,41,21,07,318,,,,,,,,,*7F
$GPGSA,M,3,05,26,08,09,15,28,,,,,,,3.8,1.7,3.4*3A
Trace #22 at position 5.250000
$GPRMC,135054.00,A,4625.005577,N,00944.108466,E,001.5,210.5,110314,0.7,W,A*23
$GPGGA,135055.00,4625.005350,N,00944.108023,E,1,05,3.0,1790.63,M,48.00,M,,*5C
$GPGSV,3,1,10,05,57,228,46,19,05,043,,26,62,307,41,07,25,059,30*73
$GPGSV,3,2,10,08,58,050,36,09,64,049,38,10,17,167,30,15,25,296,29*70
$GPGSV,3,3,10,28,54,124,39,21,07,318,,,,,,,,,*70
$GPGSA,M,3,05,26,08,09,28,,,,,,,,27.3,3.0,27.2*36
Trace #23 at position 5.500000
$GPRMC,135054.00,A,4625.005577,N,00944.108466,E,001.5,210.5,110314,0.7,W,A*23
$GPGGA,135055.00,4625.005350,N,00944.108023,E,1,05,3.0,1790.63,M,48.00,M,,*5C
$GPGSV,3,1,10,05,57,228,46,19,05,043,,26,62,307,41,07,25,059,30*73
$GPGSV,3,2,10,08,58,050,36,09,64,049,38,10,17,167,30,15,25,296,29*70
$GPGSV,3,3,10,28,54,124,39,21,07,318,,,,,,,,,*70
$GPGSA,M,3,05,26,08,09,28,,,,,,,,27.3,3.0,27.2*36
Trace #24 at position 5.750000
$GPRMC,135055.00,A,4625.005350,N,00944.108023,E,001.5,226.9,110314,0.7,W,A*2D
$GPGGA,135056.00,4625.005267,N,00944.107576,E,1,05,3.0,1787.94,M,48.00,M,,*5E
$GPGSV,3,1,10,05,57,228,45,19,05,043,,26,62,307,42,07,25,059,*70
$GPGSV,3,2,10,08,58,050,33,09,64,049,40,10,17,167,23,15,25,296,*73
$GPGSV,3,3,10,28,54,124,39,21,07,318,,,,,,,,,*70
$GPGSA,M,3,05,26,08,09,28,,,,,,,,27.4,3.0,27.2*31
Trace #25 at position 6.000000
$GPRMC,135055.00,A,4625.005350,N,00944.108023,E,001.5,226.9,110314,0.7,W,A*2D
$GPGGA,135056.00,4625.005267,N,00944.107576,E,1,05,3.0,1787.94,M,48.00,M,,*5E
$GPGSV,3,1,10,05,57,228,45,19,05,043,,26,62,307,42,07,25,059,*70
$GPGSV,3,2,10,08,58,050,33,09,64,049,40,10,17,167,23,15,25,296,*73
$GPGSV,3,3,10,28,54,124,39,21,07,318,,,,,,,,,*70
$GPGSA,M,3,05,26,08,09,28,,,,,,,,27.4,3.0,27.2*31
Trace #26 at position 6.250000
$GPRMC,135055.00,A,4625.005350,N,00944.108023,E,001.5,226.9,110314,0.7,W,A*2D
$GPGGA,135056.00,4625.005267,N,00944.107576,E,1,05,3.0,1787.94,M,48.00,M,,*5E
$GPGSV,3,1,10,05,57,228,45,19,05,043,,26,62,307,42,07,25,059,*70
$GPGSV,3,2,10,08,58,050,33,09,64,049,40,10,17,167,23,15,25,296,*73
$GPGSV,3,3,10,28,54,124,39,21,07,318,,,,,,,,,*70
$GPGSA,M,3,05,26,08,09,28,,,,,,,,27.4,3.0,27.2*31
Trace #27 at position 6.500000
$GPRMC,135056.00,A,4625.005267,N,00944.107576,E,000.9,263.8,110314,0.7,W,A*2C
$GPGGA,135057.00,4625.005201,N,00944.107167,E,1,05,3.0,1785.54,M,48.00,M,,*55
$GPGSV,3,1,10,05,57,228,44,19,05,043,,26,62,307,42,07,25,059,33*71
$GPGSV,3,2,10,08,58,050,33,09,64,049,40,10,17,167,,15,25,296,*72
$GPGSV,3,3,10,28,54,124,38,21,07,318,,,,,,,,,*71
$GPGSA,M,3,05,26,08,09,28,,,,,,,,27.4,3.0,27.2*31
Trace #28 at position 6.750000
$GPRMC,135056.00,A,4625.005267,N,00944.107576,E,000.9,263.8,110314,0.7,W,A*2C
$GPGGA,135057.00,4625.005201,N,00944.107167,E,1,05,3.0,1785.54,M,48.00,M,,*55
$GPGSV,3,1,10,05,57,228,44,19,05,043,,26,62,307,42,07,25,059,33*71
$GPGSV,3,2,10,08,58,050,33,09,64,049,40,10,17,167,,15,25,296,*72
$GPGSV,3,3,10,28,54,124,38,21,07,318,,,,,,,,,*71
$GPGSA,M,3,05,26,08,09,28,,,,,,,,27.4,3.0,27.2*31
Trace #29 at position 7.000000
$GPRMC,135056.00,A,4625.005267,N,00944.107576,E,000.9,263.8,110314,0.7,W,A*2C
$GPGGA,135057.00,4625.005201,N,00944.107167,E,1,05,3.0,1785.54,M,48.00,M,,*55
$GPGSV,3,1,10,05,57,228,44,19,05,043,,26,62,307,42,07,25,059,33*71
$GPGSV,3,2,10,08,58,050,33,09,64,049,40,10,17,167,,15,25,296,*72
$GPGSV,3,3,10,28,54,124,38,21,07,318,,,,,,,,,*71
$GPGSA,M,3,05,26,08,09,28,,,,,,,,27.4,3.0,27.2*31
Trace #30 at position 7.250000
$GPRMC,135057.00,A,4625.005201,N,00944.107167,E,001.3,226.0,110314,0.7,W,A*2B
$GPGGA,135058.00,4625.004895,N,00944.106801,E,1,06,1.8,1786.16,M,48.00,M,,*58
$GPGSV,3,1,10,05,57,228,45,19,05,043,,26,62,307,37,07,25,059,35*74
$GPGSV,3,2,10,08,58,050,38,09,64,049,41,10,17,167,,15,25,296,*78
$GPGSV,3,3,10,28,54,124,42,21,07,318,,,,,,,,,*7C
$GPGSA,M,3,05,26,07,08,09,28,,,,,,,3.7,1.8,3.3*3E
Trace #31 at position 7.500000
$GPRMC,135057.00,A,4625.005201,N,00944.107167,E,001.3,226.0,110314,0.7,W,A*2B
$GPGGA,135058.00,4625.004895,N,00944.106801,E,1,06,1.8,1786.16,M,48.00,M,,*58
$GPGSV,3,1,10,05,57,228,45,19,05,043,,26,62,307,37,07,25,059,35*74
$GPGSV,3,2,10,08,58,050,38,09,64,049,41,10,17,167,,15,25,296,*78
$GPGSV,3,3,10,28,54,124,42,21,07,318,,,,,,,,,*7C
$GPGSA,M,3,05,26,07,08,09,28,,,,,,,3.7,1.8,3.3*3E
Trace #32 at position 7.750000
$GPRMC,135058.00,A,4625.004895,N,00944.106801,E,001.5,213.6,110314,0.7,W,A*2C
$GPGGA,135059.00,4625.004619,N,00944.106477,E,1,06,1.8,1786.63,M,48.00,M,,*5C
$GPGSV,3,1,10,05,57,228,46,19,05,043,,26,62,307,38,07,25,059,34*79
$GPGSV,3,2,10,08,58,050,42,09,64,049,42,10,17,167,,15,25,296,*76
$GPGSV,3,3,10,28,54,124,41,21,07,318,,,,,,,,,*7F
$GPGSA,M,3,05,26,07,08,09,28,,,,,,,3.7,1.8,3.3*3E
Trace #33 at position 8.000000
$GPRMC,135058.00,A,4625.004895,N,00944.106801,E,001.5,213.6,110314,0.7,W,A*2C
$GPGGA,135059.00,4625.004619,N,00944.106477,E,1,06,1.8,1786.63,M,48.00,M,,*5C
$GPGSV,3,1,10,05,57,228,46,19,05,043,,26,62,307,38,07,25,059,34*79
$GPGSV,3,2,10,08,58,050,42,09,64,049,42,10,17,167,,15,25,296,*76
$GPGSV,3,3,10,28,54,124,41,21,07,318,,,,,,,,,*7F
$GPGSA,M,3,05,26,07,08,09,28,,,,,,,3.7,1.8,3.3*3E
Trace #34 at position 8.250000
$GPRMC,135100.00,A,4625.004449,N,00944.106208,E,000.8,227.4,110314,0.7,W,A*27
$GPGGA,135101.00,4625.004381,N,00944.106116,E,1,06,1.8,1787.61,M,48.00,M,,*55
$GPGSV,3,1,10,05,57,227,46,19,05,043,,26,62,307,38,07,25,059,37*75
$GPGSV,3,2,10,08,58,050,40,09,64,049,42,10,17,167,39,15,25,296,32*7F
$GPGSV,3,3,10,28,54,124,41,21,07,318,,,,,,,,,*7F
$GPGSA,M,3,05,26,07,08,09,28,,,,,,,3.7,1.8,3.3*3E
Trace #35 at position 8.500000
$GPRMC,135100.00,A,4625.004449,N,00944.106208,E,000.8,227.4,110314,0.7,W,A*27
$GPGGA,135101.00,4625.004381,N,00944.106116,E,1,06,1.8,1787.61,M,48.00,M,,*55
$GPGSV,3,1,10,05,57,227,46,19,05,043,,26,62,307,38,07,25,059,37*75
$GPGSV,3,2,10,08,58,050,40,09,64,049,42,10,17,167,39,15,25,296,32*7F
$GPGSV,3,3,10,28,54,124,41,21,07,318,,,,,,,,,*7F
$GPGSA,M,3,05,26,07,08,09,28,,,,,,,3.7,1.8,3.3*3E
Trace #36 at position 8.750000
$GPRMC,135101.00,A,4625.004381,N,00944.106116,E,000.2,83.3,110314,0.7,W,A*18
$GPGGA,135102.00,4625.004255,N,00944.106097,E,1,07,1.5,1788.56,M,48.00,M,,*51
$GPGSV,3,1,10,05,57,227,44,19,05,043,,26,62,307,37,07,25,059,35*7A
$GPGSV,3,2,10,08,58,050,35,09,64,049,39,10,17,167,37,15,25,296,35*78
$GPGSV,3,3,10,28,54,124,39,21,07,318,,,,,,,,,*70
$GPGSA,M,3,05,26,07,08,09,15,28,,,,,,2.7,1.5,2.2*36
Trace #37 at position 9.000000
$GPRMC,135101.00,A,4625.004381,N,00944.106116,E,000.2,83.3,110314,0.7,W,A*18
$GPGGA,135102.00,4625.004255,N,00944.106097,E,1,07,1.5,1788.56,M,48.00,M,,*51
$GPGSV,3,1,10,05,57,227,44,19,05,043,,26,62,307,37,07,25,059,35*7A
$GPGSV,3,2,10,08,58,050,35,09,64,049,39,10,17,167,37,15,25,296,35*78
$GPGSV,3,3,10,28,54,124,39,21,07,318,,,,,,,,,*70
$GPGSA,M,3,05,26,07,08,09,15,28,,,,,,2.7,1.5,2.2*36
Trace #38 at position 9.250000
$GPRMC,135101.00,A,4625.004381,N,00944.106116,E,000.2,83.3,110314,0.7,W,A*18
$GPGGA,135102.00,4625.004255,N,00944.106097,E,1,07,1.5,1788.56,M,48.00,M,,*51
$GPGSV,3,1,10,05,57,227,44,19,05,043,,26,62,307,37,07,25,059,35*7A
$GPGSV,3,2,10,08,58,050,35,09,64,049,39,10,17,167,37,15,25,296,35*78
$GPGSV,3,3,10,28,54,124,39,21,07,318,,,,,,,,,*70
$GPGSA,M,3,05,26,07,08,09,15,28,,,,,,2.7,1.5,2.2*36
Trace #39 at position 9.500000
$GPRMC,135102.00,A,4625.004255,N,00944.106097,E,001.0,215.3,110314,0.7,W,A*25
$GPGGA,135103.00,4625.004023,N,00944.105861,E,1,07,1.5,1789.32,M,48.00,M,,*52
$GPGSV,3,1,10,05,57,227,43,19,05,043,,26,62,307,41,07,25,059,30*79
$GPGSV,3,2,10,08,58,050,34,09,64,049,37,10,17,167,35,15,25,296,32*72
$GPGSV,3,3,10,28,54,124,40,21,07,318,,,,,,,,,*7E
$GPGSA,M,3,05,26,07,08,09,15,28,,,,,,2.7,1.5,2.2*36
Trace #40 at position 9.750000
$GPRMC,135102.00,A,4625.004255,N,00944.106097,E,001.0,215.3,110314,0.7,W,A*25
$GPGGA,135103.00,4625.004023,N,00944.105861,E,1,07,1.5,1789.32,M,48.00,M,,*52
$GPGSV,3,1,10,05,57,227,43,19,05,043,,26,62,307,41,07,25,059,30*79
$GPGSV,3,2,10,08,58,050,34,09,64,049,37,10,17,167,35,15,25,296,32*72
$GPGSV,3,3,10,28,54,124,40,21,07,318,,,,,,,,,*7E
$GPGSA,M,3,05,26,07,08,09,15,28,,,,,,2.7,1.5,2.2*36
Trace #41 at position 10.000000
$GPRMC,135103.00,A,4625.004023,N,00944.105861,E,001.1,230.5,110314,0.7,W,A*25
$GPGGA,135104.00,4625.003782,N,00944.105601,E,1,07,1.5,1790.03,M,48.00,M,,*5C
$GPGSV,3,1,10,05,57,227,45,19,05,043,,26,62,307,40,07,25,059,33*7D
$GPGSV,3,2,10,08,58,050,35,09,64,049,38,10,17,167,37,15,25,296,36*7A
$GPGSV,3,3,10,28,54,124,38,21,07,318,,,,,,,,,*71
$GPGSA,M,3,05,26,07,08,09,15,28,,,,,,2.7,1.5,2.2*36
Trace #42 at position 10.250000
$GPRMC,135103.00,A,4625.004023,N,00944.105861,E,001.1,230.5,110314,0.7,W,A*25
$GPGGA,135104.00,4625.003782,N,00944.105601,E,1,07,1.5,1790.03,M,48.00,M,,*5C
$GPGSV,3,1,10,05,57,227,45,19,05,043,,26,62,307,40,07,25,059,33*7D
$GPGSV,3,2,10,08,58,050,35,09,64,049,38,10,17,167,37,15,25,296,36*7A
$GPGSV,3,3,10,28,54,124,38,21,07,318,,,,,,,,,*71
$GPGSA,M,3,05,26,07,08,09,15,28,,,,,,2.7,1.5,2.2*36
Trace #43 at position 10.500000
$GPRMC,135103.00,A,4625.004023,N,00944.105861,E,001.1,230.5,110314,0.7,W,A*25
$GPGGA,135104.00,4625.003782,N,00944.105601,E,1,07,1.5,1790.03,M,48.00,M,,*5C
$GPGSV,3,1,10,05,57,227,45,19,05,043,,26,62,307,40,07,25,059,33*7D
$GPGSV,3,2,10,08,58,050,35,09,64,049,38,10,17,167,37,15,25,296,36*7A
$GPGSV,3,3,10,28,54,124,38,21,07,318,,,,,,,,,*71
$GPGSA,M,3,05,26,07,08,09,15,28,,,,,,2.7,1.5,2.2*36
Trace #44 at position 10.750000
$GPRMC,135103.00,A,4625.004023,N,00944.105861,E,001.1,230.5,110314,0.7,W,A*25
$GPGGA,135104.00,4625.003782,N,00944.105601,E,1,07,1.5,1790.03,M,48.00,M,,*5C
$GPGSV,3,1,10,05,57,227,45,19,05,043,,26,62,307,40,07,25,059,33*7D
$GPGSV,3,2,10,08,58,050,35,09,64,049,38,10,17,167,37,15,25,296,36*7A
$GPGSV,3,3,10,28,54,124,38,21,07,318,,,,,,,,,*71
$GPGSA,M,3,05,26,07,08,09,15,28,,,,,,2.7,1.5,2.2*36
Trace #45 at position 11.000000
$GPRMC,135104.00,A,4625.003782,N,00944.105601,E,001.2,219.3,110314,0.7,W,A*2F
$GPGGA,135105.00,4625.003489,N,00944.105134,E,1,06,1.6,1791.41,M,48.00,M,,*51
$GPGSV,3,1,10,05,57,227,45,19,05,043,,26,62,307,40,07,25,059,20*7F
$GPGSV,3,2,10,08,58,050,30,09,64,049,38,10,17,167,37,15,25,296,36*7F
$GPGSV,3,3,10,28,54,124,40,21,07,318,,,,,,,,,*7E
$GPGSA,M,3,05,26,09,10,15,28,,,,,,,2.7,1.6,2.1*38
Trace #46 at position 11.250000
$GPRMC,135104.00,A,4625.003782,N,00944.105601,E,001.2,219.3,110314,0.7,W,A*2F
$GPGGA,135105.00,4625.003489,N,00944.105134,E,1,06,1.6,1791.41,M,48.00,M,,*51
$GPGSV,3,1,10,05,57,227,45,19,05,043,,26,62,307,40,07,25,059,20*7F
$GPGSV,3,2,10,08,58,050,30,09,64,049,38,10,17,167,37,15,25,296,36*7F
$GPGSV,3,3,10,28,54,124,40,21,07,318,,,,,,,,,*7E
$GPGSA,M,3,05,26,09,10,15,28,,,,,,,2.7,1.6,2.1*38
Trace #47 at position 11.500000
$GPRMC,135104.00,A,4625.003782,N,00944.105601,E,001.2,219.3,110314,0.7,W,A*2F
$GPGGA,135105.00,4625.003489,N,00944.105134,E,1,06,1.6,1791.41,M,48.00,M,,*51
$GPGSV,3,1,10,05,57,227,45,19,05,043,,26,62,307,40,07,25,059,20*7F
$GPGSV,3,2,10,08,58,050,30,09,64,049,38,10,17,167,37,15,25,296,36*7F
$GPGSV,3,3,10,28,54,124,40,21,07,318,,,,,,,,,*7E
$GPGSA,M,3,05,26,09,10,15,28,,,,,,,2.7,1.6,2.1*38
Trace #48 at position 11.750000
$GPRMC,135104.00,A,4625.003782,N,00944.105601,E,001.2,219.3,110314,0.7,W,A*2F
$GPGGA,135105.00,4625.003489,N,00944.105134,E,1,06,1.6,1791.41,M,48.00,M,,*51
$GPGSV,3,1,10,05,57,227,45,19,05,043,,26,62,307,40,07,25,059,20*7F
$GPGSV,3,2,10,08,58,050,30,09,64,049,38,10,17,167,37,15,25,296,36*7F
$GPGSV,3,3,10,28,54,124,40,21,07,318,,,,,,,,,*7E
$GPGSA,M,3,05,26,09,10,15,28,,,,,,,2.7,1.6,2.1*38
Trace #49 at position 12.000000
$GPRMC,135105.00,A,4625.003489,N,00944.105134,E,001.5,233.9,110314,0.7,W,A*22
$GPGGA,135106.00,4625.003139,N,00944.104564,E,1,05,2.3,1792.89,M,48.00,M,,*5E
$GPGSV,3,1,10,05,57,227,43,19,05,043,,26,62,307,37,07,25,059,*7B
$GPGSV,3,2,10,08,58,050,27,09,64,049,31,10,17,167,35,15,25,296,30*74
$GPGSV,3,3,10,28,54,124,41,21,07,318,,,,,,,,,*7F
$GPGSA,M,3,05,26,09,10,28,,,,,,,,4.5,2.3,3.9*37
Trace #50 at position 12.250000
$GPRMC,135105.00,A,4625.003489,N,00944.105134,E,001.5,233.9,110314,0.7,W,A*22
$GPGGA,135106.00,4625.003139,N,00944.104564,E,1,05,2.3,1792.89,M,48.00,M,,*5E
$GPGSV,3,1,10,05,57,227,43,19,05,043,,26,62,307,37,07,25,059,*7B
$GPGSV,3,2,10,08,58,050,27,09,64,049,31,10,17,167,35,15,25,296,30*74
$GPGSV,3,3,10,28,54,124,41,21,07,318,,,,,,,,,*7F
$GPGSA,M,3,05,26,09,10,28,,,,,,,,4.5,2.3,3.9*37
Trace #51 at position 12.500000
$GPRMC,135105.00,A,4625.003489,N,00944.105134,E,001.5,233.9,110314,0.7,W,A*22
$GPGGA,135106.00,4625.003139,N,00944.104564,E,1,05,2.3,1792.89,M,48.00,M,,*5E
$GPGSV,3,1,10,05,57,227,43,19,05,043,,26,62,307,37,07,25,059,*7B
$GPGSV,3,2,10,08,58,050,27,09,64,049,31,10,17,167,35,15,25,296,30*74
$GPGSV,3,3,10,28,54,124,41,21,07,318,,,,,,,,,*7F
$GPGSA,M,3,05,26,09,10,28,,,,,,,,4.5,2.3,3.9*37
Trace #52 at position 12.750000
$GPRMC,135106.00,A,4625.003139,N,00944.104564,E,001.8,230.4,110314,0.7,W,A*2C
$GPGGA,135107.00,4625.002744,N,00944.103985,E,1,06,1.6,1793.97,M,48.00,M,,*5D
$GPGSV,3,1,10,05,57,227,43,19,05,043,,26,62,307,40,07,25,059,*7B
$GPGSV,3,2,10,08,58,050,32,09,64,049,38,10,17,167,36,15,25,296,35*7F
$GPGSV,3,3,10,28,54,124,38,21,07,318,,,,,,,,,*71
$GPGSA,M,3,05,26,09,10,15,28,,,,,,,2.7,1.6,2.1*38
Trace #53 at position 13.000000
$GPRMC,135106.00,A,4625.003139,N,00944.104564,E,001.8,230.4,110314,0.7,W,A*2C
$GPGGA,135107.00,4625.002744,N,00944.103985,E,1,06,1.6,1793.97,M,48.00,M,,*5D
$GPGSV,3,1,10,05,57,227,43,19,05,043,,26,62,307,40,07,25,059,*7B
$GPGSV,3,2,10,08,58,050,32,09,64,049,38,10,17,167,36,15,25,296,35*7F
$GPGSV,3,3,10,28,54,124,38,21,07,318,,,,,,,,,*71
$GPGSA,M,3,05,26,09,10,15,28,,,,,,,2.7,1.6,2.1*38
Trace #54 at position 13.250000
$GPRMC,135106.00,A,4625.003139,N,00944.104564,E,001.8,230.4,110314,0.7,W,A*2C
$GPGGA,135107.00,4625.002744,N,00944.103985,E,1,06,1.6,1793.97,M,48.00,M,,*5D
$GPGSV,3,1,10,05,57,227,43,19,05,043,,26,62,307,40,07,25,059,*7B
$GPGSV,3,2,10,08,58,050,32,09,64,049,38,10,17,167,36,15,25,296,35*7F
$GPGSV,3,3,10,28,54,124,38,21,07,318,,,,,,,,,*71
$GPGSA,M,3,05,26,09,10,15,28,,,,,,,2.7,1.6,2.1*38
Trace #55 at position 13.500000
$GPRMC,135106.00,A,4625.003139,N,00944.104564,E,001.8,230.4,110314,0.7,W,A*2C
$GPGGA,135107.00,4625.002744,N,00944.103985,E,1,06,1.6,1793.97,M,48.00,M,,*5D
$GPGSV,3,1,10,05,57,227,43,19,05,043,,26,62,307,40,07,25,059,*7B
$GPGSV,3,2,10,08,58,050,32,09,64,049,38,10,17,167,36,15,25,296,35*7F
$GPGSV,3,3,10,28,54,124,38,21,07,318,,,,,,,,,*71
$GPGSA,M,3,05,26,09,10,15,28,,,,,,,2.7,1.6,2.1*38
Trace #56 at position 13.750000
$GPRMC,135107.00,A,4625.002744,N,00944.103985,E,001.9,219.2,110314,0.7,W,A*28
$GPGGA,135108.00,4625.002437,N,00944.103460,E,1,07,1.4,1794.72,M,48.00,M,,*5C
$GPGSV,3,1,10,05,57,227,45,19,05,043,,26,62,307,40,07,25,059,*7D
$GPGSV,3,2,10,08,58,050,35,09,64,049,41,10,17,167,38,15,25,296,37*7A
$GPGSV,3,3,10,28,54,124,43,21,07,318,,,,,,,,,*7D
$GPGSA,M,3,05,26,08,09,10,15,28,,,,,,2.5,1.4,2.1*30
Trace #57 at position 14.000000
$GPRMC,135107.00,A,4625.002744,N,00944.103985,E,001.9,219.2,110314,0.7,W,A*28
$GPGGA,135108.00,4625.002437,N,00944.103460,E,1,07,1.4,1794.72,M,48.00,M,,*5C
$GPGSV,3,1,10,05,57,227,45,19,05,043,,26,62,307,40,07,25,059,*7D
$GPGSV,3,2,10,08,58,050,35,09,64,049,41,10,17,167,38,15,25,296,37*7A
$GPGSV,3,3,10,28,54,124,43,21,07,318,,,,,,,,,*7D
$GPGSA,M,3,05,26,08,09,10,15,28,,,,,,2.5,1.4,2.1*30
Trace #58 at position 14.250000
$GPRMC,135107.00,A,4625.002744,N,00944.103985,E,001.9,219.2,110314,0.7,W,A*28
$GPGGA,135108.00,4625.002437,N,00944.103460,E,1,07,1.4,1794.72,M,48.00,M,,*5C
$GPGSV,3,1,10,05,57,227,45,19,05,043,,26,62,307,40,07,25,059,*7D
$GPGSV,3,2,10,08,58,050,35,09,64,049,41,10,17,167,38,15,25,296,37*7A
$GPGSV,3,3,10,28,54,124,43,21,07,318,,,,,,,,,*7D
$GPGSA,M,3,05,26,08,09,10,15,28,,,,,,2.5,1.4,2.1*30
Trace #59 at position 14.500000
$GPRMC,135107.00,A,4625.002744,N,00944.103985,E,001.9,219.2,110314,0.7,W,A*28
$GPGGA,135108.00,4625.002437,N,00944.103460,E,1,07,1.4,1794.72,M,48.00,M,,*5C
$GPGSV,3,1,10,05,57,227,45,19,05,043,,26,62,307,40,07,25,059,*7D
$GPGSV,3,2,10,08,58,050,35,09,64,049,41,10,17,167,38,15,25,296,37*7A
$GPGSV,3,3,10,28,54,124,43,21,07,318,,,,,,,,,*7D
$GPGSA,M,3,05,26,08,09,10,15,28,,,,,,2.5,1.4,2.1*30
Trace #60 at position 14.750000
$GPRMC,135108.00,A,4625.002437,N,00944.103460,E,001.7,237.7,110314,0.7,W,A*21
$GPGGA,135109.00,4625.002116,N,00944.102905,E,1,07,1.4,1795.33,M,48.00,M,,*50
$GPGSV,3,1,10,05,57,227,45,19,05,043,,26,62,307,40,07,25,059,*7D
$GPGSV,3,2,10,08,58,050,34,09,64,049,41,10,17,167,36,15,25,296,37*75
$GPGSV,3,3,10,28,54,124,39,21,07,318,,,,,,,,,*70
$GPGSA,M,3,05,26,08,09,10,15,28,,,,,,2.5,1.4,2.1*30
Trace #61 at position 15.000000
$GPRMC,135108.00,A,4625.002437,N,00944.103460,E,001.7,237.7,110314,0.7,W,A*21
$GPGGA,135109.00,4625.002116,N,00944.102905,E,1,07,1.4,1795.33,M,48.00,M,,*50
$GPGSV,3,1,10,05,57,227,45,19,05,043,,26,62,307,40,07,25,059,*7D
$GPGSV,3,2,10,08,58,050,34,09,64,049,41,10,17,167,36,15,25,296,37*75
$GPGSV,3,3,10,28,54,124,39,21,07,318,,,,,,,,,*70
$GPGSA,M,3,05,26,08,09,10,15,28,,,,,,2.5,1.4,2.1*30
Trace #62 at position 15.250000
$GPRMC,135108.00,A,4625.002437,N,00944.103460,E,001.7,237.7,110314,0.7,W,A*21
$GPGGA,135109.00,4625.002116,N,00944.102905,E,1,07,1.4,1795.33,M,48.00,M,,*50
$GPGSV,3,1,10,05,57,227,45,19,05,043,,26,62,307,40,07,25,059,*7D
$GPGSV,3,2,10,08,58,050,34,09,64,049,41,10,17,167,36,15,25,296,37*75
$GPGSV,3,3,10,28,54,124,39,21,07,318,,,,,,,,,*70
$GPGSA,M,3,05,26,08,09,10,15,28,,,,,,2.5,1.4,2.1*30
Trace #63 at position 15.500000
$GPRMC,135108.00,A,4625.002437,N,00944.103460,E,001.7,237.7,110314,0.7,W,A*21
$GPGGA,135109.00,4625.002116,N,00944.102905,E,1,07,1.4,1795.33,M,48.00,M,,*50
$GPGSV,3,1,10,05,57,227,45,19,05,043,,26,62,307,40,07,25,059,*7D
$GPGSV,3,2,10,08,58,050,34,09,64,049,41,10,17,167,36,15,25,296,37*75
$GPGSV,3,3,10,28,54,124,39,21,07,318,,,,,,,,,*70
$GPGSA,M,3,05,26,08,09,10,15,28,,,,,,2.5,1.4,2.1*30
Trace #64 at position 15.750000
$GPRMC,135109.00,A,4625.002116,N,00944.102905,E,002.0,220.8,110314,0.7,W,A*24
$GPGGA,135110.00,4625.001748,N,00944.102447,E,1,07,1.4,1795.95,M,48.00,M,,*51
$GPGSV,3,1,10,05,57,227,44,19,05,043,,26,62,307,41,07,25,059,*7D
$GPGSV,3,2,10,08,58,050,31,09,64,049,39,10,17,167,37,15,25,296,39*70
$GPGSV,3,3,10,28,54,124,41,21,07,318,,,,,,,,,*7F
$GPGSA,M,3,05,26,08,09,10,15,28,,,,,,2.5,1.4,2.1*30
Trace #65 at position 16.000000
$GPRMC,135109.00,A,4625.002116,N,00944.102905,E,002.0,220.8,110314,0.7,W,A*24
$GPGGA,135110.00,4625.001748,N,00944.102447,E,1,07,1.4,1795.95,M,48.00,M,,*51
$GPGSV,3,1,10,05,57,227,44,19,05,043,,26,62,307,41,07,25,059,*7D
$GPGSV,3,2,10,08,58,050,31,09,64,049,39,10,17,167,37,15,25,296,39*70
$GPGSV,3,3,10,28,54,124,41,21,07,318,,,,,,,,,*7F
$GPGSA,M,3,05,26,08,09,10,15,28,,,,,,2.5,1.4,2.1*30
Trace #66 at position 16.250000
$GPRMC,135109.00,A,4625.002116,N,00944.102905,E,002.0,220.8,110314,0.7,W,A*24
$GPGGA,135110.00,4625.001748,N,00944.102447,E,1,07,1.4,1795.95,M,48.00,M,,*51
$GPGSV,3,1,10,05,57,227,44,19,05,043,,26,62,307,41,07,25,059,*7D
$GPGSV,3,2,10,08,58,050,31,09,64,049,39,10,17,167,37,15,25,296,39*70
$GPGSV,3,3,10,28,54,124,41,21,07,318,,,,,,,,,*7F
$GPGSA,M,3,05,26,08,09,10,15,28,,,,,,2.5,1.4,2.1*30
Trace #67 at position 16.500000
$GPRMC,135110.00,A,4625.001748,N,00944.102447,E,001.6,214.8,110314,0.7,W,A*2B
$GPGGA,135111.00,4625.001389,N,00944.101967,E,1,07,1.4,1796.51,M,48.00,M,,*5E
$GPGSV,3,1,10,05,57,227,44,19,05,043,,26,62,307,40,07,25,059,*7C
$GPGSV,3,2,10,08,58,050,33,09,64,049,40,10,17,167,38,15,25,296,38*72
$GPGSV,3,3,10,28,54,124,40,21,07,318,,,,,,,,,*7E
$GPGSA,M,3,05,26,08,09,10,15,28,,,,,,2.5,1.4,2.1*30
Trace #68 at position 16.750000
$GPRMC,135110.00,A,4625.001748,N,00944.102447,E,001.6,214.8,110314,0.7,W,A*2B
$GPGGA,135111.00,4625.001389,N,00944.101967,E,1,07,1.4,1796.51,M,48.00,M,,*5E
$GPGSV,3,1,10,05,57,227,44,19,05,043,,26,62,307,40,07,25,059,*7C
$GPGSV,3,2,10,08,58,050,33,09,64,049,40,10,17,167,38,15,25,296,38*72
$GPGSV,3,3,10,28,54,124,40,21,07,318,,,,,,,,,*7E
$GPGSA,M,3,05,26,08,09,10,15,28,,,,,,2.5,1.4,2.1*30
Trace #69 at position 17.000000
$GPRMC,135110.00,A,4625.001748,N,00944.102447,E,001.6,214.8,110314,0.7,W,A*2B
$GPGGA,135111.00,4625.001389,N,00944.101967,E,1,07,1.4,1796.51,M,48.00,M,,*5E
$GPGSV,3,1,10,05,57,227,44,19,05,043,,26,62,307,40,07,25,059,*7C
$GPGSV,3,2,10,08,58,050,33,09,64,049,40,10,17,167,38,15,25,296,38*72
$GPGSV,3,3,10,28,54,124,40,21,07,318,,,,,,,,,*7E
$GPGSA,M,3,05,26,08,09,10,15,28,,,,,,2.5,1.4,2.1*30
Trace #70 at position 17.250000
$GPRMC,135110.00,A,4625.001748,N,00944.102447,E,001.6,214.8,110314,0.7,W,A*2B
$GPGGA,135111.00,4625.001389,N,00944.101967,E,1,07,1.4,1796.51,M,48.00,M,,*5E
$GPGSV,3,1,10,05,57,227,44,19,05,043,,26,62,307,40,07,25,059,*7C
$GPGSV,3,2,10,08,58,050,33,09,64,049,40,10,17,167,38,15,25,296,38*72
$GPGSV,3,3,10,28,54,124,40,21,07,318,,,,,,,,,*7E
$GPGSA,M,3,05,26,08,09,10,15,28,,,,,,2.5,1.4,2.1*30
Trace #71 at position 17.500000
$GPRMC,135111.00,A,4625.001389,N,00944.101967,E,002.0,222.2,110314,0.7,W,A*25
$GPGGA,135112.00,4625.000996,N,00944.101436,E,1,07,1.4,1796.97,M,48.00,M,,*5B
$GPGSV,3,1,10,05,57,227,43,19,05,043,,26,62,307,39,07,25,059,*75
$GPGSV,3,2,10,08,58,050,34,09,64,049,40,10,17,167,36,15,25,296,37*74
$GPGSV,3,3,10,28,54,124,41,21,07,318,,,,,,,,,*7F
$GPGSA,M,3,05,26,08,09,10,15,28,,,,,,2.5,1.4,2.1*30
Trace #72 at position 17.750000
$GPRMC,135111.00,A,4625.001389,N,00944.101967,E,002.0,222.2,110314,0.7,W,A*25
$GPGGA,135112.00,4625.000996,N,00944.101436,E,1,07,1.4,1796.97,M,48.00,M,,*5B
$GPGSV,3,1,10,05,57,227,43,19,05,043,,26,62,307,39,07,25,059,*75
$GPGSV,3,2,10,08,58,050,34,09,64,049,40,10,17,167,36,15,25,296,37*74
$GPGSV,3,3,10,28,54,124,41,21,07,318,,,,,,,,,*7F
$GPGSA,M,3,05,26,08,09,10,15,28,,,,,,2.5,1.4,2.1*30
Trace #73 at position 18.000000
$GPRMC,135111.00,A,4625.001389,N,00944.101967,E,002.0,222.2,110314,0.7,W,A*25
$GPGGA,135112.00,4625.000996,N,00944.101436,E,1,07,1.4,1796.97,M,48.00,M,,*5B
$GPGSV,3,1,10,05,57,227,43,19,05,043,,26,62,307,39,07,25,059,*75
$GPGSV,3,2,10,08,58,050,34,09,64,049,40,10,17,167,36,15,25,296,37*74
$GPGSV,3,3,10,28,54,124,41,21,07,318,,,,,,,,,*7F
$GPGSA,M,3,05,26,08,09,10,15,28,,,,,,2.5,1.4,2.1*30
Trace #74 at position 18.250000
$GPRMC,135112.00,A,4625.000996,N,00944.101436,E,002.0,216.3,110314,0.7,W,A*2C
$GPGGA,135113.00,4625.000625,N,00944.100971,E,1,07,1.4,1797.39,M,48.00,M,,*57
$GPGSV,3,1,10,05,57,227,45,19,05,043,,26,62,307,41,07,25,059,*7C
$GPGSV,3,2,10,08,58,050,32,09,64,049,37,10,17,167,39,15,25,296,38*72
$GPGSV,3,3,10,28,54,124,42,21,07,318,,,,,,,,,*7C
$GPGSA,M,3,05,26,08,09,10,15,28,,,,,,2.5,1.4,2.1*30
Trace #75 at position 18.500000
$GPRMC,135112.00,A,4625.000996,N,00944.101436,E,002.0,216.3,110314,0.7,W,A*2C
$GPGGA,135113.00,4625.000625,N,00944.100971,E,1,07,1.4,1797.39,M,48.00,M,,*57
$GPGSV,3,1,10,05,57,227,45,19,05,043,,26,62,307,41,07,25,059,*7C
$GPGSV,3,2,10,08,58,050,32,09,64,049,37,10,17,167,39,15,25,296,38*72
$GPGSV,3,3,10,28,54,124,42,21,07,318,,,,,,,,,*7C
$GPGSA,M,3,05,26,08,09,10,15,28,,,,,,2.5,1.4,2.1*30
Trace #76 at position 18.750000
$GPRMC,135112.00,A,4625.000996,N,00944.101436,E,002.0,216.3,110314,0.7,W,A*2C
$GPGGA,135113.00,4625.000625,N,00944.100971,E,1,07,1.4,1797.39,M,48.00,M,,*57
$GPGSV,3,1,10,05,57,227,45,19,05,043,,26,62,307,41,07,25,059,*7C
$GPGSV,3,2,10,08,58,050,32,09,64,049,37,10,17,167,39,15,25,296,38*72
$GPGSV,3,3,10,28,54,124,42,21,07,318,,,,,,,,,*7C
$GPGSA,M,3,05,26,08,09,10,15,28,,,,,,2.5,1.4,2.1*30
Trace #77 at position 19.000000
$GPRMC,135112.00,A,4625.000996,N,00944.101436,E,002.0,216.3,110314,0.7,W,A*2C
$GPGGA,135113.00,4625.000625,N,00944.100971,E,1,07,1.4,1797.39,M,48.00,M,,*57
$GPGSV,3,1,10,05,57,227,45,19,05,043,,26,62,307,41,07,25,059,*7C
$GPGSV,3,2,10,08,58,050,32,09,64,049,37,10,17,167,39,15,25,296,38*72
$GPGSV,3,3,10,28,54,124,42,21,07,318,,,,,,,,,*7C
$GPGSA,M,3,05,26,08,09,10,15,28,,,,,,2.5,1.4,2.1*30
Trace #78 at position 19.250000
$GPRMC,135113.00,A,4625.000625,N,00944.100971,E,001.6,216.2,110314,0.7,W,A*21
$GPGGA,135114.00,4625.000341,N,00944.100421,E,1,06,1.6,1797.87,M,48.00,M,,*59
$GPGSV,3,1,10,05,57,227,45,19,05,043,,26,63,307,39,07,25,059,*72
$GPGSV,3,2,10,08,58,050,28,09,64,049,40,10,17,167,38,15,25,296,42*75
$GPGSV,3,3,10,28,54,124,41,21,07,318,,,,,,,,,*7F
$GPGSA,M,3,05,26,09,10,15,28,,,,,,,2.7,1.6,2.1*38
Trace #79 at position 19.500000
$GPRMC,135113.00,A,4625.000625,N,00944.100971,E,001.6,216.2,110314,0.7,W,A*21
$GPGGA,135114.00,4625.000341,N,00944.100421,E,1,06,1.6,1797.87,M,48.00,M,,*59
$GPGSV,3,1,10,05,57,227,45,19,05,043,,26,63,307,39,07,25,059,*72
$GPGSV,3,2,10,08,58,050,28,09,64,049,40,10,17,167,38,15,25,296,42*75
$GPGSV,3,3,10,28,54,124,41,21,07,318,,,,,,,,,*7F
$GPGSA,M,3,05,26,09,10,15,28,,,,,,,2.7,1.6,2.1*38
Trace #80 at position 19.750000
$GPRMC,135113.00,A,4625.000625,N,00944.100971,E,001.6,216.2,110314,0.7,W,A*21
$GPGGA,135114.00,4625.000341,N,00944.100421,E,1,06,1.6,1797.87,M,48.00,M,,*59
$GPGSV,3,1,10,05,57,227,45,19,05,043,,26,63,307,39,07,25,059,*72
$GPGSV,3,2,10,08,58,050,28,09,64,049,40,10,17,167,38,15,25,296,42*75
$GPGSV,3,3,10,28,54,124,41,21,07,318,,,,,,,,,*7F
$GPGSA,M,3,05,26,09,10,15,28,,,,,,,2.7,1.6,2.1*38
Trace #81 at position 20.000000
$GPRMC,135114.00,A,4625.000341,N,00944.100421,E,001.6,242.3,110314,0.7,W,A*29
$GPGGA,135115.00,4625.000113,N,00944.099922,E,1,07,1.4,1798.19,M,48.00,M,,*59
$GPGSV,3,1,10,05,57,227,44,19,05,043,,26,63,307,39,07,25,059,*73
$GPGSV,3,2,10,08,58,050,35,09,64,049,41,10,17,167,36,15,25,296,33*70
$GPGSV,3,3,10,28,54,124,40,21,07,318,,,,,,,,,*7E
$GPGSA,M,3,05,26,08,09,10,15,28,,,,,,2.5,1.4,2.1*30
Trace #82 at position 20.250000
$GPRMC,135114.00,A,4625.000341,N,00944.100421,E,001.6,242.3,110314,0.7,W,A*29
$GPGGA,135115.00,4625.000113,N,00944.099922,E,1,07,1.4,1798.19,M,48.00,M,,*59
$GPGSV,3,1,10,05,57,227,44,19,05,043,,26,63,307,39,07,25,059,*73
$GPGSV,3,2,10,08,58,050,35,09,64,049,41,10,17,167,36,15,25,296,33*70
$GPGSV,3,3,10,28,54,124,40,21,07,318,,,,,,,,,*7E
$GPGSA,M,3,05,26,08,09,10,15,28,,,,,,2.5,1.4,2.1*30
Trace #83 at position 20.500000
$GPRMC,135114.00,A,4625.000341,N,00944.100421,E,001.6,242.3,110314,0.7,W,A*29
$GPGGA,135115.00,4625.000113,N,00944.099922,E,1,07,1.4,1798.19,M,48.00,M,,*59
$GPGSV,3,1,10,05,57,227,44,19,05,043,,26,63,307,39,07,25,059,*73
$GPGSV,3,2,10,08,58,050,35,09,64,049,41,10,17,167,36,15,25,296,33*70
$GPGSV,3,3,10,28,54,124,40,21,07,318,,,,,,,,,*7E
$GPGSA,M,3,05,26,08,09,10,15,28,,,,,,2.5,1.4,2.1*30
Trace #84 at position 20.750000
$GPRMC,135115.00,A,4625.000113,N,00944.099922,E,001.5,219.3,110314,0.7,W,A*2F
$GPGGA,135116.00,4624.999867,N,00944.099468,E,1,06,1.7,1798.01,M,48.00,M,,*50
$GPGSV,3,1,10,05,57,227,44,19,05,043,,26,63,307,39,07,25,060,*79
$GPGSV,3,2,10,08,58,050,34,09,64,049,41,10,17,167,29,15,25,296,32*7E
$GPGSV,3,3,10,28,54,124,39,21,07,318,,,,,,,,,*70
$GPGSA,M,3,05,26,08,09,15,28,,,,,,,3.8,1.7,3.4*3A
Trace #85 at position 21.000000
$GPRMC,135115.00,A,4625.000113,N,00944.099922,E,001.5,219.3,110314,0.7,W,A*2F
$GPGGA,135116.00,4624.999867,N,00944.099468,E,1,06,1.7,1798.01,M,48.00,M,,*50
$GPGSV,3,1,10,05,57,227,44,19,05,043,,26,63,307,39,07,25,060,*79
$GPGSV,3,2,10,08,58,050,34,09,64,049,41,10,17,167,29,15,25,296,32*7E
$GPGSV,3,3,10,28,54,124,39,21,07,318,,,,,,,,,*70
$GPGSA,M,3,05,26,08,09,15,28,,,,,,,3.8,1.7,3.4*3A
Trace #86 at position 21.250000
$GPRMC,135115.00,A,4625.000113,N,00944.099922,E,001.5,219.3,110314,0.7,W,A*2F
$GPGGA,135116.00,4624.999867,N,00944.099468,E,1,06,1.7,1798.01,M,48.00,M,,*50
$GPGSV,3,1,10,05,57,227,44,19,05,043,,26,63,307,39,07,25,060,*79
$GPGSV,3,2,10,08,58,050,34,09,64,049,41,10,17,167,29,15,25,296,32*7E
$GPGSV,3,3,10,28,54,124,39,21,07,318,,,,,,,,,*70
$GPGSA,M,3,05,26,08,09,15,28,,,,,,,3.8,1.7,3.4*3A
Trace #87 at position 21.500000
$GPRMC,135116.00,A,4624.999867,N,00944.099468,E,001.4,242.0,110314,0.7,W,A*21
$GPGGA,135117.00,4624.999574,N,00944.098957,E,1,06,1.7,1798.69,M,48.00,M,,*50
$GPGSV,3,1,10,05,57,227,45,19,05,043,,26,63,307,39,07,25,060,*78
$GPGSV,3,2,10,08,58,050,32,09,64,049,38,10,17,167,33,15,25,296,*7C
$GPGSV,3,3,10,28,54,124,39,21,07,318,,,,,,,,,*70
$GPGSA,M,3,05,26,08,09,15,28,,,,,,,3.8,1.7,3.4*3A
Trace #88 at position 21.750000
$GPRMC,135116.00,A,4624.999867,N,00944.099468,E,001.4,242.0,110314,0.7,W,A*21
$GPGGA,135117.00,4624.999574,N,00944.098957,E,1,06,1.7,1798.69,M,48.00,M,,*50
$GPGSV,3,1,10,05,57,227,45,19,05,043,,26,63,307,39,07,25,060,*78
$GPGSV,3,2,10,08,58,050,32,09,64,049,38,10,17,167,33,15,25,296,*7C
$GPGSV,3,3,10,28,54,124,39,21,07,318,,,,,,,,,*70
$GPGSA,M,3,05,26,08,09,15,28,,,,,,,3.8,1.7,3.4*3A
Trace #89 at position 22.000000
$GPRMC,135116.00,A,4624.999867,N,00944.099468,E,001.4,242.0,110314,0.7,W,A*21
$GPGGA,135117.00,4624.999574,N,00944.098957,E,1,06,1.7,1798.69,M,48.00,M,,*50
$GPGSV,3,1,10,05,57,227,45,19,05,043,,26,63,307,39,07,25,060,*78
$GPGSV,3,2,10,08,58,050,32,09,64,049,38,10,17,167,33,15,25,296,*7C
$GPGSV,3,3,10,28,54,124,39,21,07,318,,,,,,,,,*70
$GPGSA,M,3,05,26,08,09,15,28,,,,,,,3.8,1.7,3.4*3A
Trace #90 at position 22.250000
$GPRMC,135116.00,A,4624.999867,N,00944.099468,E,001.4,242.0,110314,0.7,W,A*21
$GPGGA,135117.00,4624.999574,N,00944.098957,E,1,06,1.7,1798.69,M,48.00,M,,*50
$GPGSV,3,1,10,05,57,227,45,19,05,043,,26,63,307,39,07,25,060,*78
$GPGSV,3,2,10,08,58,050,32,09,64,049,38,10,17,167,33,15,25,296,*7C
$GPGSV,3,3,10,28,54,124,39,21,07,318,,,,,,,,,*70
$GPGSA,M,3,05,26,08,09,15,28,,,,,,,3.8,1.7,3.4*3A
Trace #91 at position 22.500000
$GPRMC,135117.00,A,4624.999574,N,00944.098957,E,001.9,221.8,110314,0.7,W,A*2F
$GPGGA,135118.00,4624.999239,N,00944.098449,E,1,06,2.1,1799.71,M,48.00,M,,*5E
$GPGSV,3,1,10,05,57,227,44,19,05,043,,26,63,307,39,07,25,060,*79
$GPGSV,3,2,10,08,58,050,34,09,64,049,40,10,17,167,33,15,25,296,29*7E
$GPGSV,3,3,10,28,54,124,39,21,07,318,,,,,,,,,*70
$GPGSA,M,3,05,26,08,09,10,28,,,,,,,4.2,2.1,3.7*34
Trace #92 at position 22.750000
$GPRMC,135117.00,A,4624.999574,N,00944.098957,E,001.9,221.8,110314,0.7,W,A*2F
$GPGGA,135118.00,4624.999239,N,00944.098449,E,1,06,2.1,1799.71,M,48.00,M,,*5E
$GPGSV,3,1,10,05,57,227,44,19,05,043,,26,63,307,39,07,25,060,*79
$GPGSV,3,2,10,08,58,050,34,09,64,049,40,10,17,167,33,15,25,296,29*7E
$GPGSV,3,3,10,28,54,124,39,21,07,318,,,,,,,,,*70
$GPGSA,M,3,05,26,08,09,10,28,,,,,,,4.2,2.1,3.7*34
Trace #93 at position 23.000000
$GPRMC,135117.00,A,4624.999574,N,00944.098957,E,001.9,221.8,110314,0.7,W,A*2F
$GPGGA,135118.00,4624.999239,N,00944.098449,E,1,06,2.1,1799.71,M,48.00,M,,*5E
$GPGSV,3,1,10,05,57,227,44,19,05,043,,26,63,307,39,07,25,060,*79
$GPGSV,3,2,10,08,58,050,34,09,64,049,40,10,17,167,33,15,25,296,29*7E
$GPGSV,3,3,10,28,54,124,39,21,07,318,,,,,,,,,*70
$GPGSA,M,3,05,26,08,09,10,28,,,,,,,4.2,2.1,3.7*34
Trace #94 at position 23.250000
$GPRMC,135117.00,A,4624.999574,N,00944.098957,E,001.9,221.8,110314,0.7,W,A*2F
$GPGGA,135118.00,4624.999239,N,00944.098449,E,1,06,2.1,1799.71,M,48.00,M,,*5E
$GPGSV,3,1,10,05,57,227,44,19,05,043,,26,63,307,39,07,25,060,*79
$GPGSV,3,2,10,08,58,050,34,09,64,049,40,10,17,167,33,15,25,296,29*7E
$GPGSV,3,3,10,28,54,124,39,21,07,318,,,,,,,,,*70
$GPGSA,M,3,05,26,08,09,10,28,,,,,,,4.2,2.1,3.7*34
Trace #95 at position 23.500000
$GPRMC,135118.00,A,4624.999239,N,00944.098449,E,001.6,227.1,110314,0.7,W,A*2C
$GPGGA,135119.00,4624.998935,N,00944.097983,E,1,06,2.1,1799.86,M,48.00,M,,*55
$GPGSV,3,1,10,05,57,227,45,19,05,043,,26,63,307,39,07,25,060,*78
$GPGSV,3,2,10,08,58,050,33,09,64,049,39,10,17,167,32,15,25,296,31*7F
$GPGSV,3,3,10,28,54,124,39,21,07,318,,,,,,,,,*70
$GPGSA,M,3,05,26,08,09,10,28,,,,,,,4.2,2.1,3.7*34
Trace #96 at position 23.750000
$GPRMC,135118.00,A,4624.999239,N,00944.098449,E,001.6,227.1,110314,0.7,W,A*2C
$GPGGA,135119.00,4624.998935,N,00944.097983,E,1,06,2.1,1799.86,M,48.00,M,,*55
$GPGSV,3,1,10,05,57,227,45,19,05,043,,26,63,307,39,07,25,060,*78
$GPGSV,3,2,10,08,58,050,33,09,64,049,39,10,17,167,32,15,25,296,31*7F
$GPGSV,3,3,10,28,54,124,39,21,07,318,,,,,,,,,*70
$GPGSA,M,3,05,26,08,09,10,28,,,,,,,4.2,2.1,3.7*34
Trace #97 at position 24.000000
$GPRMC,135118.00,A,4624.999239,N,00944.098449,E,001.6,227.1,110314,0.7,W,A*2C
$GPGGA,135119.00,4624.998935,N,00944.097983,E,1,06,2.1,1799.86,M,48.00,M,,*55
$GPGSV,3,1,10,05,57,227,45,19,05,043,,26,63,307,39,07,25,060,*78
$GPGSV,3,2,10,08,58,050,33,09,64,049,39,10,17,167,32,15,25,296,31*7F
$GPGSV,3,3,10,28,54,124,39,21,07,318,,,,,,,,,*70
$GPGSA,M,3,05,26,08,09,10,28,,,,,,,4.2,2.1,3.7*34
Trace #98 at position 24.250000
$GPRMC,135119.00,A,4624.998935,N,00944.097983,E,001.6,220.3,110314,0.7,W,A*2A
$GPGGA,135120.00,4624.998625,N,00944.097471,E,1,06,2.1,1800.32,M,48.00,M,,*51
$GPGSV,3,1,10,05,57,227,44,19,05,043,,26,63,307,39,07,25,060,*79
$GPGSV,3,2,10,08,58,050,33,09,64,049,38,10,17,167,31,15,25,296,32*7E
$GPGSV,3,3,10,28,54,124,39,21,07,318,,,,,,,,,*70
$GPGSA,M,3,05,26,08,09,10,28,,,,,,,4.2,2.1,3.7*34
Trace #99 at position 24.500000
$GPRMC,135119.00,A,4624.998935,N,00944.097983,E,001.6,220.3,110314,0.7,W,A*2A
$GPGGA,135120.00,4624.998625,N,00944.097471,E,1,06,2.1,1800.32,M,48.00,M,,*51
$GPGSV,3,1,10,05,57,227,44,19,05,043,,26,63,307,39,07,25,060,*79
$GPGSV,3,2,10,08,58,050,33,09,64,049,38,10,17,167,31,15,25,296,32*7E
$GPGSV,3,3,10,28,54,124,39,21,07,318,,,,,,,,,*70
$GPGSA,M,3,05,26,08,09,10,28,,,,,,,4.2,2.1,3.7*34
Trace #100 at position 24.750000
$GPRMC,135119.00,A,4624.998935,N,00944.097983,E,001.6,220.3,110314,0.7,W,A*2A
$GPGGA,135120.00,4624.998625,N,00944.097471,E,1,06,2.1,1800.32,M,48.00,M,,*51
$GPGSV,3,1,10,05,57,227,44,19,05,043,,26,63,307,39,07,25,060,*79
$GPGSV,3,2,10,08,58,050,33,09,64,049,38,10,17,167,31,15,25,296,32*7E
$GPGSV,3,3,10,28,54,124,39,21,07,318,,,,,,,,,*70
$GPGSA,M,3,05,26,08,09,10,28,,,,,,,4.2,2.1,3.7*34
Trace #101 at position 25.000000
$GPRMC,135119.00,A,4624.998935,N,00944.097983,E,001.6,220.3,110314,0.7,W,A*2A
$GPGGA,135120.00,4624.998625,N,00944.097471,E,1,06,2.1,1800.32,M,48.00,M,,*51
$GPGSV,3,1,10,05,57,227,44,19,05,043,,26,63,307,39,07,25,060,*79
$GPGSV,3,2,10,08,58,050,33,09,64,049,38,10,17,167,31,15,25,296,32*7E
$GPGSV,3,3,10,28,54,124,39,21,07,318,,,,,,,,,*70
$GPGSA,M,3,05,26,08,09,10,28,,,,,,,4.2,2.1,3.7*34
Trace #102 at position 25.250000
$GPRMC,135119.00,A,4624.998935,N,00944.097983,E,001.6,220.3,110314,0.7,W,A*2A
$GPGGA,135120.00,4624.998625,N,00944.097471,E,1,06,2.1,1800.32,M,48.00,M,,*51
$GPGSV,3,1,10,05,57,227,44,19,05,043,,26,63,307,39,07,25,060,*79
$GPGSV,3,2,10,08,58,050,33,09,64,049,38,10,17,167,31,15,25,296,32*7E
$GPGSV,3,3,10,28,54,124,39,21,07,318,,,,,,,,,*70
$GPGSA,M,3,05,26,08,09,10,28,,,,,,,4.2,2.1,3.7*34
Trace #103 at position 25.500000
$GPRMC,135120.00,A,4624.998625,N,00944.097471,E,001.8,231.6,110314,0.7,W,A*25
$GPGGA,135121.00,4624.998314,N,00944.096918,E,1,06,2.1,1800.93,M,48.00,M,,*5F
$GPGSV,3,1,10,05,57,227,45,19,05,043,,26,63,307,41,07,25,060,*77
$GPGSV,3,2,10,08,58,050,33,09,64,049,38,10,17,167,34,15,25,296,29*71
$GPGSV,3,3,10,28,54,124,39,21,07,318,,,,,,,,,*70
$GPGSA,M,3,05,26,08,09,10,28,,,,,,,4.2,2.1,3.7*34
Trace #104 at position 25.750000
$GPRMC,135120.00,A,4624.998625,N,00944.097471,E,001.8,231.6,110314,0.7,W,A*25
$GPGGA,135121.00,4624.998314,N,00944.096918,E,1,06,2.1,1800.93,M,48.00,M,,*5F
$GPGSV,3,1,10,05,57,227,45,19,05,043,,26,63,307,41,07,25,060,*77
$GPGSV,3,2,10,08,58,050,33,09,64,049,38,10,17,167,34,15,25,296,29*71
$GPGSV,3,3,10,28,54,124,39,21,07,318,,,,,,,,,*70
$GPGSA,M,3,05,26,08,09,10,28,,,,,,,4.2,2.1,3.7*34
Trace #105 at position 26.000000
$GPRMC,135120.00,A,4624.998625,N,00944.097471,E,001.8,231.6,110314,0.7,W,A*25
$GPGGA,135121.00,4624.998314,N,00944.096918,E,1,06,2.1,1800.93,M,48.00,M,,*5F
$GPGSV,3,1,10,05,57,227,45,19,05,043,,26,63,307,41,07,25,060,*77
$GPGSV,3,2,10,08,58,050,33,09,64,049,38,10,17,167,34,15,25,296,29*71
$GPGSV,3,3,10,28,54,124,39,21,07,318,,,,,,,,,*70
$GPGSA,M,3,05,26,08,09,10,28,,,,,,,4.2,2.1,3.7*34
Trace #106 at position 26.250000
$GPRMC,135121.00,A,4624.998314,N,00944.096918,E,001.8,226.0,110314,0.7,W,A*20
$GPGGA,135122.00,4624.997989,N,00944.096368,E,1,06,2.1,1801.16,M,48.00,M,,*5C
$GPGSV,3,1,10,05,57,227,45,19,05,043,,26,63,307,40,07,25,060,*76
$GPGSV,3,2,10,08,58,050,32,09,64,049,38,10,17,167,36,15,25,296,32*78
$GPGSV,3,3,10,28,54,124,39,21,07,318,,,,,,,,,*70
$GPGSA,M,3,05,26,08,09,10,28,,,,,,,4.2,2.1,3.7*34
Trace #107 at position 26.500000
$GPRMC,135121.00,A,4624.998314,N,00944.096918,E,001.8,226.0,110314,0.7,W,A*20
$GPGGA,135122.00,4624.997989,N,00944.096368,E,1,06,2.1,1801.16,M,48.00,M,,*5C
$GPGSV,3,1,10,05,57,227,45,19,05,043,,26,63,307,40,07,25,060,*76
$GPGSV,3,2,10,08,58,050,32,09,64,049,38,10,17,167,36,15,25,296,32*78
$GPGSV,3,3,10,28,54,124,39,21,07,318,,,,,,,,,*70
$GPGSA,M,3,05,26,08,09,10,28,,,,,,,4.2,2.1,3.7*34
Trace #108 at position 26.750000
$GPRMC,135121.00,A,4624.998314,N,00944.096918,E,001.8,226.0,110314,0.7,W,A*20
$GPGGA,135122.00,4624.997989,N,00944.096368,E,1,06,2.1,1801.16,M,48.00,M,,*5C
$GPGSV,3,1,10,05,57,227,45,19,05,043,,26,63,307,40,07,25,060,*76
$GPGSV,3,2,10,08,58,050,32,09,64,049,38,10,17,167,36,15,25,296,32*78
$GPGSV,3,3,10,28,54,124,39,21,07,318,,,,,,,,,*70
$GPGSA,M,3,05,26,08,09,10,28,,,,,,,4.2,2.1,3.7*34
Trace #109 at position 27.000000
$GPRMC,135122.00,A,4624.997989,N,00944.096368,E,001.8,229.2,110314,0.7,W,A*22
$GPGGA,135123.00,4624.997675,N,00944.095812,E,1,06,2.1,1801.26,M,48.00,M,,*57
$GPGSV,3,1,10,05,57,227,45,19,05,043,,26,63,307,40,07,25,060,*76
$GPGSV,3,2,10,08,58,050,31,09,64,049,40,10,17,167,33,15,25,296,30*73
$GPGSV,3,3,10,28,54,124,39,21,07,318,,,,,,,,,*70
$GPGSA,M,3,05,26,08,09,10,28,,,,,,,4.2,2.1,3.7*34
Trace #110 at position 27.250000
$GPRMC,135122.00,A,4624.997989,N,00944.096368,E,001.8,229.2,110314,0.7,W,A*22
$GPGGA,135123.00,4624.997675,N,00944.095812,E,1,06,2.1,1801.26,M,48.00,M,,*57
$GPGSV,3,1,10,05,57,227,45,19,05,043,,26,63,307,40,07,25,060,*76
$GPGSV,3,2,10,08,58,050,31,09,64,049,40,10,17,167,33,15,25,296,30*73
$GPGSV,3,3,10,28,54,124,39,21,07,318,,,,,,,,,*70
$GPGSA,M,3,05,26,08,09,10,28,,,,,,,4.2,2.1,3.7*34
Trace #111 at position 27.500000
$GPRMC,135122.00,A,4624.997989,N,00944.096368,E,001.8,229.2,110314,0.7,W,A*22
$GPGGA,135123.00,4624.997675,N,00944.095812,E,1,06,2.1,1801.26,M,48.00,M,,*57
$GPGSV,3,1,10,05,57,227,45,19,05,043,,26,63,307,40,07,25,060,*76
$GPGSV,3,2,10,08,58,050,31,09,64,049,40,10,17,167,33,15,25,296,30*73
$GPGSV,3,3,10,28,54,124,39,21,07,318,,,,,,,,,*70
$GPGSA,M,3,05,26,08,09,10,28,,,,,,,4.2,2.1,3.7*34
Trace #112 at position 27.750000
$GPRMC,135122.00,A,4624.997989,N,00944.096368,E,001.8,229.2,110314,0.7,W,A*22
$GPGGA,135123.00,4624.997675,N,00944.095812,E,1,06,2.1,1801.26,M,48.00,M,,*57
$GPGSV,3,1,10,05,57,227,45,19,05,043,,26,63,307,40,07,25,060,*76
$GPGSV,3,2,10,08,58,050,31,09,64,049,40,10,17,167,33,15,25,296,30*73
$GPGSV,3,3,10,28,54,124,39,21,07,318,,,,,,,,,*70
$GPGSA,M,3,05,26,08,09,10,28,,,,,,,4.2,2.1,3.7*34
Trace #113 at position 28.000000
$GPRMC,135123.00,A,4624.997675,N,00944.095812,E,001.7,229.6,110314,0.7,W,A*21
$GPGGA,135124.00,4624.997394,N,00944.095354,E,1,06,2.1,1801.43,M,48.00,M,,*50
$GPGSV,3,1,10,05,57,227,43,19,05,043,,26,63,307,40,07,25,060,*70
$GPGSV,3,2,10,08,58,050,31,09,63,049,39,10,17,167,37,15,25,296,30*7E
$GPGSV,3,3,10,28,54,124,39,21,07,318,,,,,,,,,*70
$GPGSA,M,3,05,26,08,09,10,28,,,,,,,4.2,2.1,3.7*34
Trace #114 at position 28.250000
$GPRMC,135123.00,A,4624.997675,N,00944.095812,E,001.7,229.6,110314,0.7,W,A*21
$GPGGA,135124.00,4624.997394,N,00944.095354,E,1,06,2.1,1801.43,M,48.00,M,,*50
$GPGSV,3,1,10,05,57,227,43,19,05,043,,26,63,307,40,07,25,060,*70
$GPGSV,3,2,10,08,58,050,31,09,63,049,39,10,17,167,37,15,25,296,30*7E
$GPGSV,3,3,10,28,54,124,39,21,07,318,,,,,,,,,*70
$GPGSA,M,3,05,26,08,09,10,28,,,,,,,4.2,2.1,3.7*34
Trace #115 at position 28.500000
$GPRMC,135123.00,A,4624.997675,N,00944.095812,E,001.7,229.6,110314,0.7,W,A*21
$GPGGA,135124.00,4624.997394,N,00944.095354,E,1,06,2.1,1801.43,M,48.00,M,,*50
$GPGSV,3,1,10,05,57,227,43,19,05,043,,26,63,307,40,07,25,060,*70
$GPGSV,3,2,10,08,58,050,31,09,63,049,39,10,17,167,37,15,25,296,30*7E
$GPGSV,3,3,10,28,54,124,39,21,07,318,,,,,,,,,*70
$GPGSA,M,3,05,26,08,09,10,28,,,,,,,4.2,2.1,3.7*34
Trace #116 at position 28.750000
$GPRMC,135124.00,A,4624.997394,N,00944.095354,E,001.3,222.5,110314,0.7,W,A*29
$GPGGA,135125.00,4624.997052,N,00944.094828,E,1,06,2.1,1801.55,M,48.00,M,,*5E
$GPGSV,3,1,10,05,57,227,45,19,05,043,,26,63,307,39,07,25,060,*78
$GPGSV,3,2,10,08,58,050,31,09,63,049,37,10,17,167,34,15,25,296,30*73
$GPGSV,3,3,10,28,54,124,38,21,07,318,,,,,,,,,*71
$GPGSA,M,3,05,26,08,09,10,28,,,,,,,4.2,2.1,3.7*34
Trace #117 at position 29.000000
$GPRMC,135124.00,A,4624.997394,N,00944.095354,E,001.3,222.5,110314,0.7,W,A*29
$GPGGA,135125.00,4624.997052,N,00944.094828,E,1,06,2.1,1801.55,M,48.00,M,,*5E
$GPGSV,3,1,10,05,57,227,45,19,05,043,,26,63,307,39,07,25,060,*78
$GPGSV,3,2,10,08,58,050,31,09,63,049,37,10,17,167,34,15,25,296,30*73
$GPGSV,3,3,10,28,54,124,38,21,07,318,,,,,,,,,*71
$GPGSA,M,3,05,26,08,09,10,28,,,,,,,4.2,2.1,3.7*34
Trace #118 at position 29.250000
$GPRMC,135124.00,A,4624.997394,N,00944.095354,E,001.3,222.5,110314,0.7,W,A*29
$GPGGA,135125.00,4624.997052,N,00944.094828,E,1,06,2.1,1801.55,M,48.00,M,,*5E
$GPGSV,3,1,10,05,57,227,45,19,05,043,,26,63,307,39,07,25,060,*78
$GPGSV,3,2,10,08,58,050,31,09,63,049,37,10,17,167,34,15,25,296,30*73
$GPGSV,3,3,10,28,54,124,38,21,07,318,,,,,,,,,*71
$GPGSA,M,3,05,26,08,09,10,28,,,,,,,4.2,2.1,3.7*34
Trace #119 at position 29.500000
$GPRMC,135124.00,A,4624.997394,N,00944.095354,E,001.3,222.5,110314,0.7,W,A*29
$GPGGA,135125.00,4624.997052,N,00944.094828,E,1,06,2.1,1801.55,M,48.00,M,,*5E
$GPGSV,3,1,10,05,57,227,45,19,05,043,,26,63,307,39,07,25,060,*78
$GPGSV,3,2,10,08,58,050,31,09,63,049,37,10,17,167,34,15,25,296,30*73
$GPGSV,3,3,10,28,54,124,38,21,07,318,,,,,,,,,*71
$GPGSA,M,3,05,26,08,09,10,28,,,,,,,4.2,2.1,3.7*34
Trace #120 at position 29.750000
$GPRMC,135125.00,A,4624.997052,N,00944.094828,E,002.3,226.0,110314,0.7,W,A*22
$GPGGA,135126.00,4624.996684,N,00944.094268,E,1,06,2.1,1801.24,M,48.00,M,,*59
$GPGSV,3,1,10,05,57,227,45,19,05,043,,26,63,307,40,07,25,060,*76
$GPGSV,3,2,10,08,58,050,32,09,63,049,38,10,17,167,33,15,25,296,*7B
$GPGSV,3,3,10,28,54,124,39,21,07,318,,,,,,,,,*70
$GPGSA,M,3,05,26,08,09,10,28,,,,,,,4.2,2.1,3.7*34
Trace #121 at position 30.000000
$GPRMC,135125.00,A,4624.997052,N,00944.094828,E,002.3,226.0,110314,0.7,W,A*22
$GPGGA,135126.00,4624.996684,N,00944.094268,E,1,06,2.1,1801.24,M,48.00,M,,*59
$GPGSV,3,1,10,05,57,227,45,19,05,043,,26,63,307,40,07,25,060,*76
$GPGSV,3,2,10,08,58,050,32,09,63,049,38,10,17,167,33,15,25,296,*7B
$GPGSV,3,3,10,28,54,124,39,21,07,318,,,,,,,,,*70
$GPGSA,M,3,05,26,08,09,10,28,,,,,,,4.2,2.1,3.7*34
Trace #122 at position 30.250000
$GPRMC,135125.00,A,4624.997052,N,00944.094828,E,002.3,226.0,110314,0.7,W,A*22
$GPGGA,135126.00,4624.996684,N,00944.094268,E,1,06,2.1,1801.24,M,48.00,M,,*59
$GPGSV,3,1,10,05,57,227,45,19,05,043,,26,63,307,40,07,25,060,*76
$GPGSV,3,2,10,08,58,050,32,09,63,049,38,10,17,167,33,15,25,296,*7B
$GPGSV,3,3,10,28,54,124,39,21,07,318,,,,,,,,,*70
$GPGSA,M,3,05,26,08,09,10,28,,,,,,,4.2,2.1,3.7*34
Trace #123 at position 30.500000
$GPRMC,135125.00,A,4624.997052,N,00944.094828,E,002.3,226.0,110314,0.7,W,A*22
$GPGGA,135126.00,4624.996684,N,00944.094268,E,1,06,2.1,1801.24,M,48.00,M,,*59
$GPGSV,3,1,10,05,57,227,45,19,05,043,,26,63,307,40,07,25,060,*76
$GPGSV,3,2,10,08,58,050,32,09,63,049,38,10,17,167,33,15,25,296,*7B
$GPGSV,3,3,10,28,54,124,39,21,07,318,,,,,,,,,*70
$GPGSA,M,3,05,26,08,09,10,28,,,,,,,4.2,2.1,3.7*34
Trace #124 at position 30.750000
$GPRMC,135126.00,A,4624.996684,N,00944.094268,E,001.6,222.3,110314,0.7,W,A*22
$GPGGA,135127.00,4624.996362,N,00944.093764,E,1,05,2.3,1800.23,M,48.00,M,,*5C
$GPGSV,3,1,10,05,57,227,44,19,05,043,,26,63,307,39,07,25,060,*79
$GPGSV,3,2,10,08,58,050,28,09,63,049,37,10,17,167,,15,25,296,31*7D
$GPGSV,3,3,10,28,54,124,38,21,07,318,,,,,,,,,*71
$GPGSA,M,3,05,26,09,10,28,,,,,,,,4.5,2.3,3.9*37
Trace #125 at position 31.000000
$GPRMC,135126.00,A,4624.996684,N,00944.094268,E,001.6,222.3,110314,0.7,W,A*22
$GPGGA,135127.00,4624.996362,N,00944.093764,E,1,05,2.3,1800.23,M,48.00,M,,*5C
$GPGSV,3,1,10,05,57,227,44,19,05,043,,26,63,307,39,07,25,060,*79
$GPGSV,3,2,10,08,58,050,28,09,63,049,37,10,17,167,,15,25,296,31*7D
$GPGSV,3,3,10,28,54,124,38,21,07,318,,,,,,,,,*71
$GPGSA,M,3,05,26,09,10,28,,,,,,,,4.5,2.3,3.9*37
Trace #126 at position 31.250000
$GPRMC,135126.00,A,4624.996684,N,00944.094268,E,001.6,222.3,110314,0.7,W,A*22
$GPGGA,135127.00,4624.996362,N,00944.093764,E,1,05,2.3,1800.23,M,48.00,M,,*5C
$GPGSV,3,1,10,05,57,227,44,19,05,043,,26,63,307,39,07,25,060,*79
$GPGSV,3,2,10,08,58,050,28,09,63,049,37,10,17,167,,15,25,296,31*7D
$GPGSV,3,3,10,28,54,124,38,21,07,318,,,,,,,,,*71
$GPGSA,M,3,05,26,09,10,28,,,,,,,,4.5,2.3,3.9*37
Trace #127 at position 31.500000
$GPRMC,135126.00,A,4624.996684,N,00944.094268,E,001.6,222.3,110314,0.7,W,A*22
$GPGGA,135127.00,4624.996362,N,00944.093764,E,1,05,2.3,1800.23,M,48.00,M,,*5C
$GPGSV,3,1,10,05,57,227,44,19,05,043,,26,63,307,39,07,25,060,*79
$GPGSV,3,2,10,08,58,050,28,09,63,049,37,10,17,167,,15,25,296,31*7D
$GPGSV,3,3,10,28,54,124,38,21,07,318,,,,,,,,,*71
$GPGSA,M,3,05,26,09,10,28,,,,,,,,4.5,2.3,3.9*37
Trace #128 at position 31.750000
$GPRMC,135127.00,A,4624.996362,N,00944.093764,E,001.4,234.6,110314,0.7,W,A*20
$GPGGA,135128.00,4624.996231,N,00944.093149,E,1,04,6.6,1796.34,M,48.00,M,,*5B
$GPGSV,3,1,10,05,57,227,45,19,05,043,,26,63,307,39,07,25,060,*78
$GPGSV,3,2,10,08,58,050,28,09,63,049,38,10,17,167,34,15,25,296,30*74
$GPGSV,3,3,10,28,54,124,39,21,07,318,,,,,,,,,*70
$GPGSA,M,3,05,26,09,28,,,,,,,,,61.9,6.6,61.5*30
Trace #129 at position 32.000000
$GPRMC,135127.00,A,4624.996362,N,00944.093764,E,001.4,234.6,110314,0.7,W,A*20
$GPGGA,135128.00,4624.996231,N,00944.093149,E,1,04,6.6,1796.34,M,48.00,M,,*5B
$GPGSV,3,1,10,05,57,227,45,19,05,043,,26,63,307,39,07,25,060,*78
$GPGSV,3,2,10,08,58,050,28,09,63,049,38,10,17,167,34,15,25,296,30*74
$GPGSV,3,3,10,28,54,124,39,21,07,318,,,,,,,,,*70
$GPGSA,M,3,05,26,09,28,,,,,,,,,61.9,6.6,61.5*30
Trace #130 at position 32.250000
$GPRMC,135127.00,A,4624.996362,N,00944.093764,E,001.4,234.6,110314,0.7,W,A*20
$GPGGA,135128.00,4624.996231,N,00944.093149,E,1,04,6.6,1796.34,M,48.00,M,,*5B
$GPGSV,3,1,10,05,57,227,45,19,05,043,,26,63,307,39,07,25,060,*78
$GPGSV,3,2,10,08,58,050,28,09,63,049,38,10,17,167,34,15,25,296,30*74
$GPGSV,3,3,10,28,54,124,39,21,07,318,,,,,,,,,*70
$GPGSA,M,3,05,26,09,28,,,,,,,,,61.9,6.6,61.5*30
Trace #131 at position 32.500000
$GPRMC,135128.00,A,4624.996231,N,00944.093149,E,001.7,241.8,110314,0.7,W,A*2E
$GPGGA,135129.00,4624.996010,N,00944.092558,E,1,04,6.6,1794.09,M,48.00,M,,*52
$GPGSV,3,1,10,05,57,227,43,19,05,043,,26,63,307,38,07,25,060,*7F
$GPGSV,3,2,10,08,58,050,29,09,63,049,38,10,17,167,34,15,25,296,*76
$GPGSV,3,3,10,28,54,124,38,21,07,318,,,,,,,,,*71
$GPGSA,M,3,05,26,09,28,,,,,,,,,61.9,6.6,61.5*30
Trace #132 at position 32.750000
$GPRMC,135128.00,A,4624.996231,N,00944.093149,E,001.7,241.8,110314,0.7,W,A*2E
$GPGGA,135129.00,4624.996010,N,00944.092558,E,1,04,6.6,1794.09,M,48.00,M,,*52
$GPGSV,3,1,10,05,57,227,43,19,05,043,,26,63,307,38,07,25,060,*7F
$GPGSV,3,2,10,08,58,050,29,09,63,049,38,10,17,167,34,15,25,296,*76
$GPGSV,3,3,10,28,54,124,38,21,07,318,,,,,,,,,*71
$GPGSA,M,3,05,26,09,28,,,,,,,,,61.9,6.6,61.5*30
Trace #133 at position 33.000000
$GPRMC,135128.00,A,4624.996231,N,00944.093149,E,001.7,241.8,110314,0.7,W,A*2E
$GPGGA,135129.00,4624.996010,N,00944.092558,E,1,04,6.6,1794.09,M,48.00,M,,*52
$GPGSV,3,1,10,05,57,227,43,19,05,043,,26,63,307,38,07,25,060,*7F
$GPGSV,3,2,10,08,58,050,29,09,63,049,38,10,17,167,34,15,25,296,*76
$GPGSV,3,3,10,28,54,124,38,21,07,318,,,,,,,,,*71
$GPGSA,M,3,05,26,09,28,,,,,,,,,61.9,6.6,61.5*30
Trace #134 at position 33.250000
$GPRMC,135128.00,A,4624.996231,N,00944.093149,E,001.7,241.8,110314,0.7,W,A*2E
$GPGGA,135129.00,4624.996010,N,00944.092558,E,1,04,6.6,1794.09,M,48.00,M,,*52
$GPGSV,3,1,10,05,57,227,43,19,05,043,,26,63,307,38,07,25,060,*7F
$GPGSV,3,2,10,08,58,050,29,09,63,049,38,10,17,167,34,15,25,296,*76
$GPGSV,3,3,10,28,54,124,38,21,07,318,,,,,,,,,*71
$GPGSA,M,3,05,26,09,28,,,,,,,,,61.9,6.6,61.5*30
Trace #135 at position 33.500000
$GPRMC,135129.00,A,4624.996010,N,00944.092558,E,001.7,219.8,110314,0.7,W,A*26
$GPGGA,135130.00,4624.995701,N,00944.092069,E,1,04,6.7,1793.30,M,48.00,M,,*55
$GPGSV,3,1,10,05,57,227,45,19,05,043,,26,63,307,39,07,25,060,*78
$GPGSV,3,2,10,08,58,050,31,09,63,049,38,10,17,167,35,15,25,296,32*7F
$GPGSV,3,3,10,28,54,124,40,21,07,318,,,,,,,,,*7E
$GPGSA,M,3,05,26,09,28,,,,,,,,,62.7,6.7,62.3*39
Trace #136 at position 33.750000
$GPRMC,135129.00,A,4624.996010,N,00944.092558,E,001.7,219.8,110314,0.7,W,A*26
$GPGGA,135130.00,4624.995701,N,00944.092069,E,1,04,6.7,1793.30,M,48.00,M,,*55
$GPGSV,3,1,10,05,57,227,45,19,05,043,,26,63,307,39,07,25,060,*78
$GPGSV,3,2,10,08,58,050,31,09,63,049,38,10,17,167,35,15,25,296,32*7F
$GPGSV,3,3,10,28,54,124,40,21,07,318,,,,,,,,,*7E
$GPGSA,M,3,05,26,09,28,,,,,,,,,62.7,6.7,62.3*39
Trace #137 at position 34.000000
$GPRMC,135129.00,A,4624.996010,N,00944.092558,E,001.7,219.8,110314,0.7,W,A*26
$GPGGA,135130.00,4624.995701,N,00944.092069,E,1,04,6.7,1793.30,M,48.00,M,,*55
$GPGSV,3,1,10,05,57,227,45,19,05,043,,26,63,307,39,07,25,060,*78
$GPGSV,3,2,10,08,58,050,31,09,63,049,38,10,17,167,35,15,25,296,32*7F
$GPGSV,3,3,10,28,54,124,40,21,07,318,,,,,,,,,*7E
$GPGSA,M,3,05,26,09,28,,,,,,,,,62.7,6.7,62.3*39
Trace #138 at position 34.250000
$GPRMC,135129.00,A,4624.996010,N,00944.092558,E,001.7,219.8,110314,0.7,W,A*26
$GPGGA,135130.00,4624.995701,N,00944.092069,E,1,04,6.7,1793.30,M,48.00,M,,*55
$GPGSV,3,1,10,05,57,227,45,19,05,043,,26,63,307,39,07,25,060,*78
$GPGSV,3,2,10,08,58,050,31,09,63,049,38,10,17,167,35,15,25,296,32*7F
$GPGSV,3,3,10,28,54,124,40,21,07,318,,,,,,,,,*7E
$GPGSA,M,3,05,26,09,28,,,,,,,,,62.7,6.7,62.3*39
Trace #139 at position 34.500000
$GPRMC,135129.00,A,4624.996010,N,00944.092558,E,001.7,219.8,110314,0.7,W,A*26
$GPGGA,135130.00,4624.995701,N,00944.092069,E,1,04,6.7,1793.30,M,48.00,M,,*55
$GPGSV,3,1,10,05,57,227,45,19,05,043,,26,63,307,39,07,25,060,*78
$GPGSV,3,2,10,08,58,050,31,09,63,049,38,10,17,167,35,15,25,296,32*7F
$GPGSV,3,3,10,28,54,124,40,21,07,318,,,,,,,,,*7E
$GPGSA,M,3,05,26,09,28,,,,,,,,,62.7,6.7,62.3*39
Trace #140 at position 34.750000
$GPRMC,135130.00,A,4624.995701,N,00944.092069,E,001.8,211.9,110314,0.7,W,A*2B
$GPGGA,135131.00,4624.995220,N,00944.091547,E,1,05,2.3,1795.51,M,48.00,M,,*58
$GPGSV,3,1,10,05,57,227,43,19,05,043,,26,63,307,40,07,25,060,*70
$GPGSV,3,2,10,08,58,050,29,09,63,049,37,10,17,167,37,15,25,296,*7A
$GPGSV,3,3,10,28,54,124,40,21,07,318,,,,,,,,,*7E
$GPGSA,M,3,05,26,09,10,28,,,,,,,,4.5,2.3,3.9*37
Trace #141 at position 35.000000
$GPRMC,135130.00,A,4624.995701,N,00944.092069,E,001.8,211.9,110314,0.7,W,A*2B
