Trace #1 at position 0.000000
$GPRMC,141029.00,A,4624.951132,N,00944.004457,E,000.0,87.3,110314,0.7,W,A*17
$GPGGA,141030.00,4624.951136,N,00944.004488,E,1,06,1.6,1799.11,M,48.00,M,,*54
$GPGSV,3,1,11,05,50,216,42,19,06,035,,26,71,316,47,07,18,063,*7E
$GPGSV,3,2,11,08,49,053,42,09,55,055,46,10,09,167,,15,33,299,36*7D
$GPGSV,3,3,11,28,59,109,46,24,05,250,,21,06,310,,,,,*46
$GPGSA,M,3,05,26,08,09,15,28,,,,,,,4.4,1.6,4.1*32
Trace #2 at position 0.250000
$GPRMC,141047.00,A,4624.951173,N,00944.004616,E,000.1,142.0,110314,0.7,W,A*27
$GPGGA,141048.00,4624.951171,N,00944.004640,E,1,05,2.3,1799.76,M,48.00,M,,*5A
$GPGSV,3,1,11,05,50,216,43,19,06,035,,26,72,317,42,07,18,063,*78
$GPGSV,3,2,11,08,49,053,42,09,55,055,43,10,09,167,,15,33,299,29*76
$GPGSV,3,3,11,28,59,109,44,24,05,250,,21,06,310,,,,,*44
$GPGSA,M,3,05,26,08,09,28,,,,,,,,7.7,2.3,7.3*31
Trace #3 at position 0.500000
$GPRMC,141048.00,A,4624.951171,N,00944.004640,E,000.1,79.9,110314,0.7,W,A*19
$GPGGA,141049.00,4624.951155,N,00944.004735,E,1,05,2.3,1799.75,M,48.00,M,,*5D
$GPGSV,3,1,11,05,50,216,41,19,06,035,,26,72,317,41,07,18,063,*79
$GPGSV,3,2,11,08,49,053,42,09,55,055,43,10,09,167,,15,33,299,29*76
$GPGSV,3,3,11,28,59,109,44,24,05,250,,21,06,310,,,,,*44
$GPGSA,M,3,05,26,08,09,28,,,,,,,,7.6,2.3,7.3*30
Trace #4 at position 0.750000
$GPRMC,141049.00,A,4624.951155,N,00944.004735,E,000.4,108.2,110314,0.7,W,A*24
$GPGGA,141050.00,4624.951155,N,00944.004907,E,1,06,1.6,1799.57,M,48.00,M,,*5F
$GPGSV,3,1,11,05,50,216,38,19,06,035,,26,72,317,44,07,18,063,*72
$GPGSV,3,2,11,08,49,053,43,09,55,055,43,10,09,167,,15,33,299,34*7B
$GPGSV,3,3,11,28,59,109,44,24,05,250,,21,06,310,,,,,*44
$GPGSA,M,3,05,26,08,09,15,28,,,,,,,4.4,1.6,4.1*32
Trace #5 at position 1.000000
$GPRMC,141049.00,A,4624.951155,N,00944.004735,E,000.4,108.2,110314,0.7,W,A*24
$GPGGA,141050.00,4624.951155,N,00944.004907,E,1,06,1.6,1799.57,M,48.00,M,,*5F
$GPGSV,3,1,11,05,50,216,38,19,06,035,,26,72,317,44,07,18,063,*72
$GPGSV,3,2,11,08,49,053,43,09,55,055,43,10,09,167,,15,33,299,34*7B
$GPGSV,3,3,11,28,59,109,44,24,05,250,,21,06,310,,,,,*44
$GPGSA,M,3,05,26,08,09,15,28,,,,,,,4.4,1.6,4.1*32
Trace #6 at position 1.250000
$GPRMC,141050.00,A,4624.951155,N,00944.004907,E,000.4,71.6,110314,0.7,W,A*18
$GPGGA,141051.00,4624.951083,N,00944.005121,E,1,05,2.3,1799.25,M,48.00,M,,*59
$GPGSV,3,1,11,05,50,216,39,19,06,035,,26,72,317,43,07,18,063,*74
$GPGSV,3,2,11,08,49,053,45,09,55,055,44,10,09,167,,15,33,299,29*76
$GPGSV,3,3,11,28,59,109,45,24,05,250,,21,06,310,,,,,*45
$GPGSA,M,3,05,26,08,09,28,,,,,,,,7.6,2.3,7.3*30
Trace #7 at position 1.500000
$GPRMC,141050.00,A,4624.951155,N,00944.004907,E,000.4,71.6,110314,0.7,W,A*18
$GPGGA,141051.00,4624.951083,N,00944.005121,E,1,05,2.3,1799.25,M,48.00,M,,*59
$GPGSV,3,1,11,05,50,216,39,19,06,035,,26,72,317,43,07,18,063,*74
$GPGSV,3,2,11,08,49,053,45,09,55,055,44,10,09,167,,15,33,299,29*76
$GPGSV,3,3,11,28,59,109,45,24,05,250,,21,06,310,,,,,*45
$GPGSA,M,3,05,26,08,09,28,,,,,,,,7.6,2.3,7.3*30
Trace #8 at position 1.750000
$GPRMC,141051.00,A,4624.951083,N,00944.005121,E,001.0,134.4,110314,0.7,W,A*29
$GPGGA,141052.00,4624.950960,N,00944.005502,E,1,06,1.6,1799.21,M,48.00,M,,*5B
$GPGSV,3,1,11,05,50,216,44,19,06,035,,26,72,317,43,07,18,063,*7E
$GPGSV,3,2,11,08,49,053,44,09,55,055,45,10,09,167,,15,33,299,33*7D
$GPGSV,3,3,11,28,59,109,45,24,05,250,,21,06,310,,,,,*45
$GPGSA,M,3,05,26,08,09,15,28,,,,,,,4.4,1.6,4.1*32
Trace #9 at position 2.000000
$GPRMC,141051.00,A,4624.951083,N,00944.005121,E,001.0,134.4,110314,0.7,W,A*29
$GPGGA,141052.00,4624.950960,N,00944.005502,E,1,06,1.6,1799.21,M,48.00,M,,*5B
$GPGSV,3,1,11,05,50,216,44,19,06,035,,26,72,317,43,07,18,063,*7E
$GPGSV,3,2,11,08,49,053,44,09,55,055,45,10,09,167,,15,33,299,33*7D
$GPGSV,3,3,11,28,59,109,45,24,05,250,,21,06,310,,,,,*45
$GPGSA,M,3,05,26,08,09,15,28,,,,,,,4.4,1.6,4.1*32
Trace #10 at position 2.250000
$GPRMC,141052.00,A,4624.950960,N,00944.005502,E,001.1,103.7,110314,0.7,W,A*2C
$GPGGA,141053.00,4624.950885,N,00944.005899,E,1,06,1.6,1799.50,M,48.00,M,,*59
$GPGSV,3,1,11,05,50,216,40,19,06,035,,26,72,317,43,07,18,063,*7A
$GPGSV,3,2,11,08,49,053,43,09,54,055,44,10,09,167,,15,33,299,33*7A
$GPGSV,3,3,11,28,59,109,45,24,05,250,,21,06,310,,,,,*45
$GPGSA,M,3,05,26,08,09,15,28,,,,,,,4.4,1.6,4.1*32
Trace #11 at position 2.500000
$GPRMC,141052.00,A,4624.950960,N,00944.005502,E,001.1,103.7,110314,0.7,W,A*2C
$GPGGA,141053.00,4624.950885,N,00944.005899,E,1,06,1.6,1799.50,M,48.00,M,,*59
$GPGSV,3,1,11,05,50,216,40,19,06,035,,26,72,317,43,07,18,063,*7A
$GPGSV,3,2,11,08,49,053,43,09,54,055,44,10,09,167,,15,33,299,33*7A
$GPGSV,3,3,11,28,59,109,45,24,05,250,,21,06,310,,,,,*45
$GPGSA,M,3,05,26,08,09,15,28,,,,,,,4.4,1.6,4.1*32
Trace #12 at position 2.750000
$GPRMC,141052.00,A,4624.950960,N,00944.005502,E,001.1,103.7,110314,0.7,W,A*2C
$GPGGA,141053.00,4624.950885,N,00944.005899,E,1,06,1.6,1799.50,M,48.00,M,,*59
$GPGSV,3,1,11,05,50,216,40,19,06,035,,26,72,317,43,07,18,063,*7A
$GPGSV,3,2,11,08,49,053,43,09,54,055,44,10,09,167,,15,33,299,33*7A
$GPGSV,3,3,11,28,59,109,45,24,05,250,,21,06,310,,,,,*45
$GPGSA,M,3,05,26,08,09,15,28,,,,,,,4.4,1.6,4.1*32
Trace #13 at position 3.000000
$GPRMC,141053.00,A,4624.950885,N,00944.005899,E,000.8,113.0,110314,0.7,W,A*26
$GPGGA,141054.00,4624.950824,N,00944.006299,E,1,05,2.3,1799.70,M,48.00,M,,*5B
$GPGSV,3,1,11,05,50,216,39,19,06,035,,26,72,317,41,07,18,063,*76
$GPGSV,3,2,11,08,49,053,44,09,54,055,43,10,09,167,,15,33,299,27*7F
$GPGSV,3,3,11,28,59,109,44,24,05,250,,21,06,310,,,,,*44
$GPGSA,M,3,05,26,08,09,28,,,,,,,,7.6,2.3,7.3*30
Trace #14 at position 3.250000
$GPRMC,141053.00,A,4624.950885,N,00944.005899,E,000.8,113.0,110314,0.7,W,A*26
$GPGGA,141054.00,4624.950824,N,00944.006299,E,1,05,2.3,1799.70,M,48.00,M,,*5B
$GPGSV,3,1,11,05,50,216,39,19,06,035,,26,72,317,41,07,18,063,*76
$GPGSV,3,2,11,08,49,053,44,09,54,055,43,10,09,167,,15,33,299,27*7F
$GPGSV,3,3,11,28,59,109,44,24,05,250,,21,06,310,,,,,*44
$GPGSA,M,3,05,26,08,09,28,,,,,,,,7.6,2.3,7.3*30
Trace #15 at position 3.500000
$GPRMC,141053.00,A,4624.950885,N,00944.005899,E,000.8,113.0,110314,0.7,W,A*26
$GPGGA,141054.00,4624.950824,N,00944.006299,E,1,05,2.3,1799.70,M,48.00,M,,*5B
$GPGSV,3,1,11,05,50,216,39,19,06,035,,26,72,317,41,07,18,063,*76
$GPGSV,3,2,11,08,49,053,44,09,54,055,43,10,09,167,,15,33,299,27*7F
$GPGSV,3,3,11,28,59,109,44,24,05,250,,21,06,310,,,,,*44
$GPGSA,M,3,05,26,08,09,28,,,,,,,,7.6,2.3,7.3*30
Trace #16 at position 3.750000
$GPRMC,141054.00,A,4624.950824,N,00944.006299,E,001.2,100.6,110314,0.7,W,A*2C
$GPGGA,141055.00,4624.950790,N,00944.006785,E,1,05,2.3,1799.68,M,48.00,M,,*5B
$GPGSV,3,1,11,05,50,216,39,19,06,035,,26,72,317,43,07,18,063,*74
$GPGSV,3,2,11,08,49,053,43,09,54,055,43,10,09,167,,15,33,299,32*7C
$GPGSV,3,3,11,28,59,109,44,24,05,250,,21,06,310,,,,,*44
$GPGSA,M,3,05,26,08,09,28,,,,,,,,7.6,2.3,7.3*30
Trace #17 at position 4.000000
$GPRMC,141054.00,A,4624.950824,N,00944.006299,E,001.2,100.6,110314,0.7,W,A*2C
$GPGGA,141055.00,4624.950790,N,00944.006785,E,1,05,2.3,1799.68,M,48.00,M,,*5B
$GPGSV,3,1,11,05,50,216,39,19,06,035,,26,72,317,43,07,18,063,*74
$GPGSV,3,2,11,08,49,053,43,09,54,055,43,10,09,167,,15,33,299,32*7C
$GPGSV,3,3,11,28,59,109,44,24,05,250,,21,06,310,,,,,*44
$GPGSA,M,3,05,26,08,09,28,,,,,,,,7.6,2.3,7.3*30
Trace #18 at position 4.250000
$GPRMC,141054.00,A,4624.950824,N,00944.006299,E,001.2,100.6,110314,0.7,W,A*2C
$GPGGA,141055.00,4624.950790,N,00944.006785,E,1,05,2.3,1799.68,M,48.00,M,,*5B
$GPGSV,3,1,11,05,50,216,39,19,06,035,,26,72,317,43,07,18,063,*74
$GPGSV,3,2,11,08,49,053,43,09,54,055,43,10,09,167,,15,33,299,32*7C
$GPGSV,3,3,11,28,59,109,44,24,05,250,,21,06,310,,,,,*44
$GPGSA,M,3,05,26,08,09,28,,,,,,,,7.6,2.3,7.3*30
Trace #19 at position 4.500000
$GPRMC,141055.00,A,4624.950790,N,00944.006785,E,001.2,95.3,110314,0.7,W,A*1D
$GPGGA,141056.00,4624.950751,N,00944.007349,E,1,05,2.3,1799.55,M,48.00,M,,*5E
$GPGSV,3,1,11,05,50,216,41,19,06,035,,26,72,317,42,07,18,063,*7A
$GPGSV,3,2,11,08,49,053,42,09,54,055,44,10,09,167,,15,33,299,29*70
$GPGSV,3,3,11,28,59,109,44,24,05,250,,21,06,310,,,,,*44
$GPGSA,M,3,05,26,08,09,28,,,,,,,,7.6,2.3,7.3*30
Trace #20 at position 4.750000
$GPRMC,141055.00,A,4624.950790,N,00944.006785,E,001.2,95.3,110314,0.7,W,A*1D
$GPGGA,141056.00,4624.950751,N,00944.007349,E,1,05,2.3,1799.55,M,48.00,M,,*5E
$GPGSV,3,1,11,05,50,216,41,19,06,035,,26,72,317,42,07,18,063,*7A
$GPGSV,3,2,11,08,49,053,42,09,54,055,44,10,09,167,,15,33,299,29*70
$GPGSV,3,3,11,28,59,109,44,24,05,250,,21,06,310,,,,,*44
$GPGSA,M,3,05,26,08,09,28,,,,,,,,7.6,2.3,7.3*30
Trace #21 at position 5.000000
$GPRMC,141055.00,A,4624.950790,N,00944.006785,E,001.2,95.3,110314,0.7,W,A*1D
$GPGGA,141056.00,4624.950751,N,00944.007349,E,1,05,2.3,1799.55,M,48.00,M,,*5E
$GPGSV,3,1,11,05,50,216,41,19,06,035,,26,72,317,42,07,18,063,*7A
$GPGSV,3,2,11,08,49,053,42,09,54,055,44,10,09,167,,15,33,299,29*70
$GPGSV,3,3,11,28,59,109,44,24,05,250,,21,06,310,,,,,*44
$GPGSA,M,3,05,26,08,09,28,,,,,,,,7.6,2.3,7.3*30
Trace #22 at position 5.250000
$GPRMC,141056.00,A,4624.950751,N,00944.007349,E,001.6,97.7,110314,0.7,W,A*14
$GPGGA,141057.00,4624.950683,N,00944.007977,E,1,05,2.3,1799.61,M,48.00,M,,*51
$GPGSV,3,1,11,05,50,216,40,19,06,035,,26,72,317,42,07,18,063,*7B
$GPGSV,3,2,11,08,49,053,44,09,54,055,44,10,09,167,,15,33,299,29*76
$GPGSV,3,3,11,28,59,109,45,24,05,250,,21,06,310,,,,,*45
$GPGSA,M,3,05,26,08,09,28,,,,,,,,7.6,2.3,7.2*31
Trace #23 at position 5.500000
$GPRMC,141056.00,A,4624.950751,N,00944.007349,E,001.6,97.7,110314,0.7,W,A*14
$GPGGA,141057.00,4624.950683,N,00944.007977,E,1,05,2.3,1799.61,M,48.00,M,,*51
$GPGSV,3,1,11,05,50,216,40,19,06,035,,26,72,317,42,07,18,063,*7B
$GPGSV,3,2,11,08,49,053,44,09,54,055,44,10,09,167,,15,33,299,29*76
$GPGSV,3,3,11,28,59,109,45,24,05,250,,21,06,310,,,,,*45
$GPGSA,M,3,05,26,08,09,28,,,,,,,,7.6,2.3,7.2*31
Trace #24 at position 5.750000
$GPRMC,141056.00,A,4624.950751,N,00944.007349,E,001.6,97.7,110314,0.7,W,A*14
$GPGGA,141057.00,4624.950683,N,00944.007977,E,1,05,2.3,1799.61,M,48.00,M,,*51
$GPGSV,3,1,11,05,50,216,40,19,06,035,,26,72,317,42,07,18,063,*7B
$GPGSV,3,2,11,08,49,053,44,09,54,055,44,10,09,167,,15,33,299,29*76
$GPGSV,3,3,11,28,59,109,45,24,05,250,,21,06,310,,,,,*45
$GPGSA,M,3,05,26,08,09,28,,,,,,,,7.6,2.3,7.2*31
Trace #25 at position 6.000000
$GPRMC,141057.00,A,4624.950683,N,00944.007977,E,001.6,101.7,110314,0.7,W,A*22
$GPGGA,141058.00,4624.950619,N,00944.008568,E,1,05,2.3,1799.88,M,48.00,M,,*57
$GPGSV,3,1,11,05,50,216,36,19,06,035,,26,72,317,42,07,18,063,*7A
$GPGSV,3,2,11,08,49,053,42,09,54,055,43,10,09,167,,15,33,299,32*7D
$GPGSV,3,3,11,28,59,109,44,24,05,250,,21,06,310,,,,,*44
$GPGSA,M,3,05,26,08,09,28,,,,,,,,7.6,2.3,7.2*31
Trace #26 at position 6.250000
$GPRMC,141057.00,A,4624.950683,N,00944.007977,E,001.6,101.7,110314,0.7,W,A*22
$GPGGA,141058.00,4624.950619,N,00944.008568,E,1,05,2.3,1799.88,M,48.00,M,,*57
$GPGSV,3,1,11,05,50,216,36,19,06,035,,26,72,317,42,07,18,063,*7A
$GPGSV,3,2,11,08,49,053,42,09,54,055,43,10,09,167,,15,33,299,32*7D
$GPGSV,3,3,11,28,59,109,44,24,05,250,,21,06,310,,,,,*44
$GPGSA,M,3,05,26,08,09,28,,,,,,,,7.6,2.3,7.2*31
Trace #27 at position 6.500000
$GPRMC,141057.00,A,4624.950683,N,00944.007977,E,001.6,101.7,110314,0.7,W,A*22
$GPGGA,141058.00,4624.950619,N,00944.008568,E,1,05,2.3,1799.88,M,48.00,M,,*57
$GPGSV,3,1,11,05,50,216,36,19,06,035,,26,72,317,42,07,18,063,*7A
$GPGSV,3,2,11,08,49,053,42,09,54,055,43,10,09,167,,15,33,299,32*7D
$GPGSV,3,3,11,28,59,109,44,24,05,250,,21,06,310,,,,,*44
$GPGSA,M,3,05,26,08,09,28,,,,,,,,7.6,2.3,7.2*31
Trace #28 at position 6.750000
$GPRMC,141057.00,A,4624.950683,N,00944.007977,E,001.6,101.7,110314,0.7,W,A*22
$GPGGA,141058.00,4624.950619,N,00944.008568,E,1,05,2.3,1799.88,M,48.00,M,,*57
$GPGSV,3,1,11,05,50,216,36,19,06,035,,26,72,317,42,07,18,063,*7A
$GPGSV,3,2,11,08,49,053,42,09,54,055,43,10,09,167,,15,33,299,32*7D
$GPGSV,3,3,11,28,59,109,44,24,05,250,,21,06,310,,,,,*44
$GPGSA,M,3,05,26,08,09,28,,,,,,,,7.6,2.3,7.2*31
Trace #29 at position 7.000000
$GPRMC,141058.00,A,4624.950619,N,00944.008568,E,001.4,97.4,110314,0.7,W,A*1C
$GPGGA,141059.00,4624.950545,N,00944.009175,E,1,05,2.3,1799.90,M,48.00,M,,*5C
$GPGSV,3,1,11,05,50,216,44,19,06,035,,26,72,317,43,07,18,063,*7E
$GPGSV,3,2,11,08,49,053,44,09,54,055,44,10,09,167,,15,33,299,31*7F
$GPGSV,3,3,11,28,59,109,46,24,05,250,,21,06,310,,,,,*46
$GPGSA,M,3,05,26,08,09,28,,,,,,,,7.6,2.3,7.2*31
Trace #30 at position 7.250000
$GPRMC,141058.00,A,4624.950619,N,00944.008568,E,001.4,97.4,110314,0.7,W,A*1C
$GPGGA,141059.00,4624.950545,N,00944.009175,E,1,05,2.3,1799.90,M,48.00,M,,*5C
$GPGSV,3,1,11,05,50,216,44,19,06,035,,26,72,317,43,07,18,063,*7E
$GPGSV,3,2,11,08,49,053,44,09,54,055,44,10,09,167,,15,33,299,31*7F
$GPGSV,3,3,11,28,59,109,46,24,05,250,,21,06,310,,,,,*46
$GPGSA,M,3,05,26,08,09,28,,,,,,,,7.6,2.3,7.2*31
Trace #31 at position 7.500000
$GPRMC,141058.00,A,4624.950619,N,00944.008568,E,001.4,97.4,110314,0.7,W,A*1C
$GPGGA,141059.00,4624.950545,N,00944.009175,E,1,05,2.3,1799.90,M,48.00,M,,*5C
$GPGSV,3,1,11,05,50,216,44,19,06,035,,26,72,317,43,07,18,063,*7E
$GPGSV,3,2,11,08,49,053,44,09,54,055,44,10,09,167,,15,33,299,31*7F
$GPGSV,3,3,11,28,59,109,46,24,05,250,,21,06,310,,,,,*46
$GPGSA,M,3,05,26,08,09,28,,,,,,,,7.6,2.3,7.2*31
Trace #32 at position 7.750000
$GPRMC,141058.00,A,4624.950619,N,00944.008568,E,001.4,97.4,110314,0.7,W,A*1C
$GPGGA,141059.00,4624.950545,N,00944.009175,E,1,05,2.3,1799.90,M,48.00,M,,*5C
$GPGSV,3,1,11,05,50,216,44,19,06,035,,26,72,317,43,07,18,063,*7E
$GPGSV,3,2,11,08,49,053,44,09,54,055,44,10,09,167,,15,33,299,31*7F
$GPGSV,3,3,11,28,59,109,46,24,05,250,,21,06,310,,,,,*46
$GPGSA,M,3,05,26,08,09,28,,,,,,,,7.6,2.3,7.2*31
Trace #33 at position 8.000000
$GPRMC,141059.00,A,4624.950545,N,00944.009175,E,001.7,105.0,110314,0.7,W,A*23
$GPGGA,141100.00,4624.950465,N,00944.009890,E,1,05,2.3,1799.80,M,48.00,M,,*51
$GPGSV,3,1,11,05,50,216,44,19,06,035,,26,72,317,43,07,18,063,*7E
$GPGSV,3,2,11,08,49,053,42,09,54,055,45,10,09,167,,15,33,299,33*7A
$GPGSV,3,3,11,28,59,109,45,24,05,250,,21,06,310,,,,,*45
$GPGSA,M,3,05,26,08,09,28,,,,,,,,7.6,2.3,7.2*31
Trace #34 at position 8.250000
$GPRMC,141059.00,A,4624.950545,N,00944.009175,E,001.7,105.0,110314,0.7,W,A*23
$GPGGA,141100.00,4624.950465,N,00944.009890,E,1,05,2.3,1799.80,M,48.00,M,,*51
$GPGSV,3,1,11,05,50,216,44,19,06,035,,26,72,317,43,07,18,063,*7E
$GPGSV,3,2,11,08,49,053,42,09,54,055,45,10,09,167,,15,33,299,33*7A
$GPGSV,3,3,11,28,59,109,45,24,05,250,,21,06,310,,,,,*45
$GPGSA,M,3,05,26,08,09,28,,,,,,,,7.6,2.3,7.2*31
Trace #35 at position 8.500000
$GPRMC,141059.00,A,4624.950545,N,00944.009175,E,001.7,105.0,110314,0.7,W,A*23
$GPGGA,141100.00,4624.950465,N,00944.009890,E,1,05,2.3,1799.80,M,48.00,M,,*51
$GPGSV,3,1,11,05,50,216,44,19,06,035,,26,72,317,43,07,18,063,*7E
$GPGSV,3,2,11,08,49,053,42,09,54,055,45,10,09,167,,15,33,299,33*7A
$GPGSV,3,3,11,28,59,109,45,24,05,250,,21,06,310,,,,,*45
$GPGSA,M,3,05,26,08,09,28,,,,,,,,7.6,2.3,7.2*31
Trace #36 at position 8.750000
$GPRMC,141059.00,A,4624.950545,N,00944.009175,E,001.7,105.0,110314,0.7,W,A*23
$GPGGA,141100.00,4624.950465,N,00944.009890,E,1,05,2.3,1799.80,M,48.00,M,,*51
$GPGSV,3,1,11,05,50,216,44,19,06,035,,26,72,317,43,07,18,063,*7E
$GPGSV,3,2,11,08,49,053,42,09,54,055,45,10,09,167,,15,33,299,33*7A
$GPGSV,3,3,11,28,59,109,45,24,05,250,,21,06,310,,,,,*45
$GPGSA,M,3,05,26,08,09,28,,,,,,,,7.6,2.3,7.2*31
Trace #37 at position 9.000000
$GPRMC,141100.00,A,4624.950465,N,00944.009890,E,001.9,97.0,110314,0.7,W,A*1B
$GPGGA,141101.00,4624.950369,N,00944.010611,E,1,05,2.3,1799.84,M,48.00,M,,*50
$GPGSV,3,1,11,05,50,216,43,19,06,035,,26,72,317,43,07,18,063,*79
$GPGSV,3,2,11,08,49,053,37,09,54,055,44,10,09,167,,15,33,299,29*72
$GPGSV,3,3,11,28,59,108,46,24,05,250,,21,06,310,,,,,*47
$GPGSA,M,3,05,26,08,09,28,,,,,,,,7.6,2.3,7.2*31
Trace #38 at position 9.250000
$GPRMC,141100.00,A,4624.950465,N,00944.009890,E,001.9,97.0,110314,0.7,W,A*1B
$GPGGA,141101.00,4624.950369,N,00944.010611,E,1,05,2.3,1799.84,M,48.00,M,,*50
$GPGSV,3,1,11,05,50,216,43,19,06,035,,26,72,317,43,07,18,063,*79
$GPGSV,3,2,11,08,49,053,37,09,54,055,44,10,09,167,,15,33,299,29*72
$GPGSV,3,3,11,28,59,108,46,24,05,250,,21,06,310,,,,,*47
$GPGSA,M,3,05,26,08,09,28,,,,,,,,7.6,2.3,7.2*31
Trace #39 at position 9.500000
$GPRMC,141100.00,A,4624.950465,N,00944.009890,E,001.9,97.0,110314,0.7,W,A*1B
$GPGGA,141101.00,4624.950369,N,00944.010611,E,1,05,2.3,1799.84,M,48.00,M,,*50
$GPGSV,3,1,11,05,50,216,43,19,06,035,,26,72,317,43,07,18,063,*79
$GPGSV,3,2,11,08,49,053,37,09,54,055,44,10,09,167,,15,33,299,29*72
$GPGSV,3,3,11,28,59,108,46,24,05,250,,21,06,310,,,,,*47
$GPGSA,M,3,05,26,08,09,28,,,,,,,,7.6,2.3,7.2*31
Trace #40 at position 9.750000
$GPRMC,141100.00,A,4624.950465,N,00944.009890,E,001.9,97.0,110314,0.7,W,A*1B
$GPGGA,141101.00,4624.950369,N,00944.010611,E,1,05,2.3,1799.84,M,48.00,M,,*50
$GPGSV,3,1,11,05,50,216,43,19,06,035,,26,72,317,43,07,18,063,*79
$GPGSV,3,2,11,08,49,053,37,09,54,055,44,10,09,167,,15,33,299,29*72
$GPGSV,3,3,11,28,59,108,46,24,05,250,,21,06,310,,,,,*47
$GPGSA,M,3,05,26,08,09,28,,,,,,,,7.6,2.3,7.2*31
Trace #41 at position 10.000000
$GPRMC,141101.00,A,4624.950369,N,00944.010611,E,001.7,108.5,110314,0.7,W,A*22
$GPGGA,141102.00,4624.950298,N,00944.011267,E,1,05,2.3,1799.72,M,48.00,M,,*51
$GPGSV,3,1,11,05,50,216,46,19,06,035,,26,72,317,41,07,18,063,36*7B
$GPGSV,3,2,11,08,49,053,43,09,54,055,45,10,09,167,,15,33,299,26*7F
$GPGSV,3,3,11,28,59,108,45,24,05,250,,21,06,310,,,,,*44
$GPGSA,M,3,05,26,08,09,28,,,,,,,,7.6,2.3,7.2*31
Trace #42 at position 10.250000
$GPRMC,141101.00,A,4624.950369,N,00944.010611,E,001.7,108.5,110314,0.7,W,A*22
$GPGGA,141102.00,4624.950298,N,00944.011267,E,1,05,2.3,1799.72,M,48.00,M,,*51
$GPGSV,3,1,11,05,50,216,46,19,06,035,,26,72,317,41,07,18,063,36*7B
$GPGSV,3,2,11,08,49,053,43,09,54,055,45,10,09,167,,15,33,299,26*7F
$GPGSV,3,3,11,28,59,108,45,24,05,250,,21,06,310,,,,,*44
$GPGSA,M,3,05,26,08,09,28,,,,,,,,7.6,2.3,7.2*31
Trace #43 at position 10.500000
$GPRMC,141101.00,A,4624.950369,N,00944.010611,E,001.7,108.5,110314,0.7,W,A*22
$GPGGA,141102.00,4624.950298,N,00944.011267,E,1,05,2.3,1799.72,M,48.00,M,,*51
$GPGSV,3,1,11,05,50,216,46,19,06,035,,26,72,317,41,07,18,063,36*7B
$GPGSV,3,2,11,08,49,053,43,09,54,055,45,10,09,167,,15,33,299,26*7F
$GPGSV,3,3,11,28,59,108,45,24,05,250,,21,06,310,,,,,*44
$GPGSA,M,3,05,26,08,09,28,,,,,,,,7.6,2.3,7.2*31
Trace #44 at position 10.750000
$GPRMC,141101.00,A,4624.950369,N,00944.010611,E,001.7,108.5,110314,0.7,W,A*22
$GPGGA,141102.00,4624.950298,N,00944.011267,E,1,05,2.3,1799.72,M,48.00,M,,*51
$GPGSV,3,1,11,05,50,216,46,19,06,035,,26,72,317,41,07,18,063,36*7B
$GPGSV,3,2,11,08,49,053,43,09,54,055,45,10,09,167,,15,33,299,26*7F
$GPGSV,3,3,11,28,59,108,45,24,05,250,,21,06,310,,,,,*44
$GPGSA,M,3,05,26,08,09,28,,,,,,,,7.6,2.3,7.2*31
Trace #45 at position 11.000000
$GPRMC,141102.00,A,4624.950298,N,00944.011267,E,001.6,91.1,110314,0.7,W,A*1E
$GPGGA,141103.00,4624.950209,N,00944.011925,E,1,05,2.3,1799.66,M,48.00,M,,*50
$GPGSV,3,1,11,05,50,216,41,19,06,035,,26,72,317,42,07,18,063,37*7E
$GPGSV,3,2,11,08,49,053,41,09,54,055,43,10,09,167,,15,33,299,*7F
$GPGSV,3,3,11,28,59,108,43,24,05,250,,21,06,310,,,,,*42
$GPGSA,M,3,05,26,08,09,28,,,,,,,,7.6,2.3,7.2*31
Trace #46 at position 11.250000
$GPRMC,141102.00,A,4624.950298,N,00944.011267,E,001.6,91.1,110314,0.7,W,A*1E
$GPGGA,141103.00,4624.950209,N,00944.011925,E,1,05,2.3,1799.66,M,48.00,M,,*50
$GPGSV,3,1,11,05,50,216,41,19,06,035,,26,72,317,42,07,18,063,37*7E
$GPGSV,3,2,11,08,49,053,41,09,54,055,43,10,09,167,,15,33,299,*7F
$GPGSV,3,3,11,28,59,108,43,24,05,250,,21,06,310,,,,,*42
$GPGSA,M,3,05,26,08,09,28,,,,,,,,7.6,2.3,7.2*31
Trace #47 at position 11.500000
$GPRMC,141102.00,A,4624.950298,N,00944.011267,E,001.6,91.1,110314,0.7,W,A*1E
$GPGGA,141103.00,4624.950209,N,00944.011925,E,1,05,2.3,1799.66,M,48.00,M,,*50
$GPGSV,3,1,11,05,50,216,41,19,06,035,,26,72,317,42,07,18,063,37*7E
$GPGSV,3,2,11,08,49,053,41,09,54,055,43,10,09,167,,15,33,299,*7F
$GPGSV,3,3,11,28,59,108,43,24,05,250,,21,06,310,,,,,*42
$GPGSA,M,3,05,26,08,09,28,,,,,,,,7.6,2.3,7.2*31
Trace #48 at position 11.750000
$GPRMC,141102.00,A,4624.950298,N,00944.011267,E,001.6,91.1,110314,0.7,W,A*1E
$GPGGA,141103.00,4624.950209,N,00944.011925,E,1,05,2.3,1799.66,M,48.00,M,,*50
$GPGSV,3,1,11,05,50,216,41,19,06,035,,26,72,317,42,07,18,063,37*7E
$GPGSV,3,2,11,08,49,053,41,09,54,055,43,10,09,167,,15,33,299,*7F
$GPGSV,3,3,11,28,59,108,43,24,05,250,,21,06,310,,,,,*42
$GPGSA,M,3,05,26,08,09,28,,,,,,,,7.6,2.3,7.2*31
Trace #49 at position 12.000000
$GPRMC,141103.00,A,4624.950209,N,00944.011925,E,001.8,111.9,110314,0.7,W,A*25
$GPGGA,141104.00,4624.950062,N,00944.012650,E,1,05,2.3,1799.77,M,48.00,M,,*56
$GPGSV,3,1,11,05,50,216,44,19,06,035,,26,72,317,43,07,18,063,39*74
$GPGSV,3,2,11,08,49,053,42,09,54,055,45,10,09,167,,15,33,299,29*71
$GPGSV,3,3,11,28,59,108,45,24,05,250,,21,06,310,,,,,*44
$GPGSA,M,3,05,26,08,09,28,,,,,,,,7.6,2.3,7.2*31
Trace #50 at position 12.250000
$GPRMC,141103.00,A,4624.950209,N,00944.011925,E,001.8,111.9,110314,0.7,W,A*25
$GPGGA,141104.00,4624.950062,N,00944.012650,E,1,05,2.3,1799.77,M,48.00,M,,*56
$GPGSV,3,1,11,05,50,216,44,19,06,035,,26,72,317,43,07,18,063,39*74
$GPGSV,3,2,11,08,49,053,42,09,54,055,45,10,09,167,,15,33,299,29*71
$GPGSV,3,3,11,28,59,108,45,24,05,250,,21,06,310,,,,,*44
$GPGSA,M,3,05,26,08,09,28,,,,,,,,7.6,2.3,7.2*31
Trace #51 at position 12.500000
$GPRMC,141103.00,A,4624.950209,N,00944.011925,E,001.8,111.9,110314,0.7,W,A*25
$GPGGA,141104.00,4624.950062,N,00944.012650,E,1,05,2.3,1799.77,M,48.00,M,,*56
$GPGSV,3,1,11,05,50,216,44,19,06,035,,26,72,317,43,07,18,063,39*74
$GPGSV,3,2,11,08,49,053,42,09,54,055,45,10,09,167,,15,33,299,29*71
$GPGSV,3,3,11,28,59,108,45,24,05,250,,21,06,310,,,,,*44
$GPGSA,M,3,05,26,08,09,28,,,,,,,,7.6,2.3,7.2*31
Trace #52 at position 12.750000
$GPRMC,141103.00,A,4624.950209,N,00944.011925,E,001.8,111.9,110314,0.7,W,A*25
$GPGGA,141104.00,4624.950062,N,00944.012650,E,1,05,2.3,1799.77,M,48.00,M,,*56
$GPGSV,3,1,11,05,50,216,44,19,06,035,,26,72,317,43,07,18,063,39*74
$GPGSV,3,2,11,08,49,053,42,09,54,055,45,10,09,167,,15,33,299,29*71
$GPGSV,3,3,11,28,59,108,45,24,05,250,,21,06,310,,,,,*44
$GPGSA,M,3,05,26,08,09,28,,,,,,,,7.6,2.3,7.2*31
Trace #53 at position 13.000000
$GPRMC,141104.00,A,4624.950062,N,00944.012650,E,002.0,104.1,110314,0.7,W,A*24
$GPGGA,141105.00,4624.949939,N,00944.013355,E,1,06,2.2,1799.24,M,48.00,M,,*5D
$GPGSV,3,1,11,05,50,216,44,19,06,035,,26,72,317,42,07,18,063,39*75
$GPGSV,3,2,11,08,49,053,43,09,54,055,44,10,09,167,,15,33,299,33*7A
$GPGSV,3,3,11,28,59,108,45,24,05,250,,21,06,310,,,,,*44
$GPGSA,M,3,05,26,07,08,09,28,,,,,,,3.4,2.2,2.5*33
Trace #54 at position 13.250000
$GPRMC,141104.00,A,4624.950062,N,00944.012650,E,002.0,104.1,110314,0.7,W,A*24
$GPGGA,141105.00,4624.949939,N,00944.013355,E,1,06,2.2,1799.24,M,48.00,M,,*5D
$GPGSV,3,1,11,05,50,216,44,19,06,035,,26,72,317,42,07,18,063,39*75
$GPGSV,3,2,11,08,49,053,43,09,54,055,44,10,09,167,,15,33,299,33*7A
$GPGSV,3,3,11,28,59,108,45,24,05,250,,21,06,310,,,,,*44
$GPGSA,M,3,05,26,07,08,09,28,,,,,,,3.4,2.2,2.5*33
Trace #55 at position 13.500000
$GPRMC,141104.00,A,4624.950062,N,00944.012650,E,002.0,104.1,110314,0.7,W,A*24
$GPGGA,141105.00,4624.949939,N,00944.013355,E,1,06,2.2,1799.24,M,48.00,M,,*5D
$GPGSV,3,1,11,05,50,216,44,19,06,035,,26,72,317,42,07,18,063,39*75
$GPGSV,3,2,11,08,49,053,43,09,54,055,44,10,09,167,,15,33,299,33*7A
$GPGSV,3,3,11,28,59,108,45,24,05,250,,21,06,310,,,,,*44
$GPGSA,M,3,05,26,07,08,09,28,,,,,,,3.4,2.2,2.5*33
Trace #56 at position 13.750000
$GPRMC,141104.00,A,4624.950062,N,00944.012650,E,002.0,104.1,110314,0.7,W,A*24
$GPGGA,141105.00,4624.949939,N,00944.013355,E,1,06,2.2,1799.24,M,48.00,M,,*5D
$GPGSV,3,1,11,05,50,216,44,19,06,035,,26,72,317,42,07,18,063,39*75
$GPGSV,3,2,11,08,49,053,43,09,54,055,44,10,09,167,,15,33,299,33*7A
$GPGSV,3,3,11,28,59,108,45,24,05,250,,21,06,310,,,,,*44
$GPGSA,M,3,05,26,07,08,09,28,,,,,,,3.4,2.2,2.5*33
Trace #57 at position 14.000000
$GPRMC,141105.00,A,4624.949939,N,00944.013355,E,001.8,112.4,110314,0.7,W,A*22
$GPGGA,141106.00,4624.949817,N,00944.013957,E,1,06,2.2,1798.77,M,48.00,M,,*5C
$GPGSV,3,1,11,05,50,216,45,19,06,035,,26,72,317,42,07,18,063,39*74
$GPGSV,3,2,11,08,49,053,43,09,54,055,44,10,09,167,,15,33,299,32*7B
$GPGSV,3,3,11,28,59,108,46,24,05,250,,21,06,310,,,,,*47
$GPGSA,M,3,05,26,07,08,09,28,,,,,,,3.4,2.2,2.5*33
Trace #58 at position 14.250000
$GPRMC,141105.00,A,4624.949939,N,00944.013355,E,001.8,112.4,110314,0.7,W,A*22
$GPGGA,141106.00,4624.949817,N,00944.013957,E,1,06,2.2,1798.77,M,48.00,M,,*5C
$GPGSV,3,1,11,05,50,216,45,19,06,035,,26,72,317,42,07,18,063,39*74
$GPGSV,3,2,11,08,49,053,43,09,54,055,44,10,09,167,,15,33,299,32*7B
$GPGSV,3,3,11,28,59,108,46,24,05,250,,21,06,310,,,,,*47
$GPGSA,M,3,05,26,07,08,09,28,,,,,,,3.4,2.2,2.5*33
Trace #59 at position 14.500000
$GPRMC,141105.00,A,4624.949939,N,00944.013355,E,001.8,112.4,110314,0.7,W,A*22
$GPGGA,141106.00,4624.949817,N,00944.013957,E,1,06,2.2,1798.77,M,48.00,M,,*5C
$GPGSV,3,1,11,05,50,216,45,19,06,035,,26,72,317,42,07,18,063,39*74
$GPGSV,3,2,11,08,49,053,43,09,54,055,44,10,09,167,,15,33,299,32*7B
$GPGSV,3,3,11,28,59,108,46,24,05,250,,21,06,310,,,,,*47
$GPGSA,M,3,05,26,07,08,09,28,,,,,,,3.4,2.2,2.5*33
Trace #60 at position 14.750000
$GPRMC,141105.00,A,4624.949939,N,00944.013355,E,001.8,112.4,110314,0.7,W,A*22
$GPGGA,141106.00,4624.949817,N,00944.013957,E,1,06,2.2,1798.77,M,48.00,M,,*5C
$GPGSV,3,1,11,05,50,216,45,19,06,035,,26,72,317,42,07,18,063,39*74
$GPGSV,3,2,11,08,49,053,43,09,54,055,44,10,09,167,,15,33,299,32*7B
$GPGSV,3,3,11,28,59,108,46,24,05,250,,21,06,310,,,,,*47
$GPGSA,M,3,05,26,07,08,09,28,,,,,,,3.4,2.2,2.5*33
Trace #61 at position 15.000000
$GPRMC,141106.00,A,4624.949817,N,00944.013957,E,001.4,109.7,110314,0.7,W,A*21
$GPGGA,141107.00,4624.949730,N,00944.014595,E,1,06,2.2,1798.37,M,48.00,M,,*56
$GPGSV,3,1,11,05,50,216,45,19,06,035,,26,72,317,41,07,18,063,37*79
$GPGSV,3,2,11,08,49,053,42,09,54,055,44,10,09,167,,15,33,299,29*70
$GPGSV,3,3,11,28,59,108,45,24,05,250,,21,06,310,,,,,*44
$GPGSA,M,3,05,26,07,08,09,28,,,,,,,3.4,2.2,2.5*33
Trace #62 at position 15.250000
$GPRMC,141106.00,A,4624.949817,N,00944.013957,E,001.4,109.7,110314,0.7,W,A*21
$GPGGA,141107.00,4624.949730,N,00944.014595,E,1,06,2.2,1798.37,M,48.00,M,,*56
$GPGSV,3,1,11,05,50,216,45,19,06,035,,26,72,317,41,07,18,063,37*79
$GPGSV,3,2,11,08,49,053,42,09,54,055,44,10,09,167,,15,33,299,29*70
$GPGSV,3,3,11,28,59,108,45,24,05,250,,21,06,310,,,,,*44
$GPGSA,M,3,05,26,07,08,09,28,,,,,,,3.4,2.2,2.5*33
Trace #63 at position 15.500000
$GPRMC,141106.00,A,4624.949817,N,00944.013957,E,001.4,109.7,110314,0.7,W,A*21
$GPGGA,141107.00,4624.949730,N,00944.014595,E,1,06,2.2,1798.37,M,48.00,M,,*56
$GPGSV,3,1,11,05,50,216,45,19,06,035,,26,72,317,41,07,18,063,37*79
$GPGSV,3,2,11,08,49,053,42,09,54,055,44,10,09,167,,15,33,299,29*70
$GPGSV,3,3,11,28,59,108,45,24,05,250,,21,06,310,,,,,*44
$GPGSA,M,3,05,26,07,08,09,28,,,,,,,3.4,2.2,2.5*33
Trace #64 at position 15.750000
$GPRMC,141106.00,A,4624.949817,N,00944.013957,E,001.4,109.7,110314,0.7,W,A*21
$GPGGA,141107.00,4624.949730,N,00944.014595,E,1,06,2.2,1798.37,M,48.00,M,,*56
$GPGSV,3,1,11,05,50,216,45,19,06,035,,26,72,317,41,07,18,063,37*79
$GPGSV,3,2,11,08,49,053,42,09,54,055,44,10,09,167,,15,33,299,29*70
$GPGSV,3,3,11,28,59,108,45,24,05,250,,21,06,310,,,,,*44
$GPGSA,M,3,05,26,07,08,09,28,,,,,,,3.4,2.2,2.5*33
Trace #65 at position 16.000000
$GPRMC,141107.00,A,4624.949730,N,00944.014595,E,001.8,102.2,110314,0.7,W,A*2D
$GPGGA,141108.00,4624.949621,N,00944.015301,E,1,06,2.2,1798.02,M,48.00,M,,*54
$GPGSV,3,1,11,05,50,216,42,19,06,035,,26,72,317,42,07,18,063,36*7C
$GPGSV,3,2,11,08,49,053,41,09,54,055,44,10,09,167,,15,33,299,31*7A
$GPGSV,3,3,11,28,59,108,46,24,05,250,,21,06,310,,,,,*47
$GPGSA,M,3,05,26,07,08,09,28,,,,,,,3.4,2.2,2.5*33
Trace #66 at position 16.250000
$GPRMC,141107.00,A,4624.949730,N,00944.014595,E,001.8,102.2,110314,0.7,W,A*2D
$GPGGA,141108.00,4624.949621,N,00944.015301,E,1,06,2.2,1798.02,M,48.00,M,,*54
$GPGSV,3,1,11,05,50,216,42,19,06,035,,26,72,317,42,07,18,063,36*7C
$GPGSV,3,2,11,08,49,053,41,09,54,055,44,10,09,167,,15,33,299,31*7A
$GPGSV,3,3,11,28,59,108,46,24,05,250,,21,06,310,,,,,*47
$GPGSA,M,3,05,26,07,08,09,28,,,,,,,3.4,2.2,2.5*33
Trace #67 at position 16.500000
$GPRMC,141107.00,A,4624.949730,N,00944.014595,E,001.8,102.2,110314,0.7,W,A*2D
$GPGGA,141108.00,4624.949621,N,00944.015301,E,1,06,2.2,1798.02,M,48.00,M,,*54
$GPGSV,3,1,11,05,50,216,42,19,06,035,,26,72,317,42,07,18,063,36*7C
$GPGSV,3,2,11,08,49,053,41,09,54,055,44,10,09,167,,15,33,299,31*7A
$GPGSV,3,3,11,28,59,108,46,24,05,250,,21,06,310,,,,,*47
$GPGSA,M,3,05,26,07,08,09,28,,,,,,,3.4,2.2,2.5*33
Trace #68 at position 16.750000
$GPRMC,141107.00,A,4624.949730,N,00944.014595,E,001.8,102.2,110314,0.7,W,A*2D
$GPGGA,141108.00,4624.949621,N,00944.015301,E,1,06,2.2,1798.02,M,48.00,M,,*54
$GPGSV,3,1,11,05,50,216,42,19,06,035,,26,72,317,42,07,18,063,36*7C
$GPGSV,3,2,11,08,49,053,41,09,54,055,44,10,09,167,,15,33,299,31*7A
$GPGSV,3,3,11,28,59,108,46,24,05,250,,21,06,310,,,,,*47
$GPGSA,M,3,05,26,07,08,09,28,,,,,,,3.4,2.2,2.5*33
Trace #69 at position 17.000000
$GPRMC,141107.00,A,4624.949730,N,00944.014595,E,001.8,102.2,110314,0.7,W,A*2D
$GPGGA,141108.00,4624.949621,N,00944.015301,E,1,06,2.2,1798.02,M,48.00,M,,*54
$GPGSV,3,1,11,05,50,216,42,19,06,035,,26,72,317,42,07,18,063,36*7C
$GPGSV,3,2,11,08,49,053,41,09,54,055,44,10,09,167,,15,33,299,31*7A
$GPGSV,3,3,11,28,59,108,46,24,05,250,,21,06,310,,,,,*47
$GPGSA,M,3,05,26,07,08,09,28,,,,,,,3.4,2.2,2.5*33
Trace #70 at position 17.250000
$GPRMC,141108.00,A,4624.949621,N,00944.015301,E,001.8,109.8,110314,0.7,W,A*28
$GPGGA,141109.00,4624.949505,N,00944.015973,E,1,06,2.2,1797.78,M,48.00,M,,*5D
$GPGSV,3,1,11,05,50,216,44,19,06,035,,26,72,317,42,07,18,063,38*74
$GPGSV,3,2,11,08,49,053,41,09,54,055,45,10,09,167,,15,33,299,32*78
$GPGSV,3,3,11,28,59,108,44,24,05,250,,21,06,310,,,,,*45
$GPGSA,M,3,05,26,07,08,09,28,,,,,,,3.4,2.2,2.5*33
Trace #71 at position 17.500000
$GPRMC,141108.00,A,4624.949621,N,00944.015301,E,001.8,109.8,110314,0.7,W,A*28
$GPGGA,141109.00,4624.949505,N,00944.015973,E,1,06,2.2,1797.78,M,48.00,M,,*5D
$GPGSV,3,1,11,05,50,216,44,19,06,035,,26,72,317,42,07,18,063,38*74
$GPGSV,3,2,11,08,49,053,41,09,54,055,45,10,09,167,,15,33,299,32*78
$GPGSV,3,3,11,28,59,108,44,24,05,250,,21,06,310,,,,,*45
$GPGSA,M,3,05,26,07,08,09,28,,,,,,,3.4,2.2,2.5*33
Trace #72 at position 17.750000
$GPRMC,141108.00,A,4624.949621,N,00944.015301,E,001.8,109.8,110314,0.7,W,A*28
$GPGGA,141109.00,4624.949505,N,00944.015973,E,1,06,2.2,1797.78,M,48.00,M,,*5D
$GPGSV,3,1,11,05,50,216,44,19,06,035,,26,72,317,42,07,18,063,38*74
$GPGSV,3,2,11,08,49,053,41,09,54,055,45,10,09,167,,15,33,299,32*78
$GPGSV,3,3,11,28,59,108,44,24,05,250,,21,06,310,,,,,*45
$GPGSA,M,3,05,26,07,08,09,28,,,,,,,3.4,2.2,2.5*33
Trace #73 at position 18.000000
$GPRMC,141108.00,A,4624.949621,N,00944.015301,E,001.8,109.8,110314,0.7,W,A*28
$GPGGA,141109.00,4624.949505,N,00944.015973,E,1,06,2.2,1797.78,M,48.00,M,,*5D
$GPGSV,3,1,11,05,50,216,44,19,06,035,,26,72,317,42,07,18,063,38*74
$GPGSV,3,2,11,08,49,053,41,09,54,055,45,10,09,167,,15,33,299,32*78
$GPGSV,3,3,11,28,59,108,44,24,05,250,,21,06,310,,,,,*45
$GPGSA,M,3,05,26,07,08,09,28,,,,,,,3.4,2.2,2.5*33
Trace #74 at position 18.250000
$GPRMC,141109.00,A,4624.949505,N,00944.015973,E,001.6,105.0,110314,0.7,W,A*29
$GPGGA,141110.00,4624.949405,N,00944.016662,E,1,06,2.2,1797.60,M,48.00,M,,*51
$GPGSV,3,1,11,05,50,216,45,19,06,035,,26,72,317,41,07,18,063,35*7B
$GPGSV,3,2,11,08,49,053,39,09,54,055,44,10,09,167,,15,33,299,29*7C
$GPGSV,3,3,11,28,59,108,44,24,05,250,,21,06,310,,,,,*45
$GPGSA,M,3,05,26,07,08,09,28,,,,,,,3.4,2.2,2.5*33
Trace #75 at position 18.500000
$GPRMC,141109.00,A,4624.949505,N,00944.015973,E,001.6,105.0,110314,0.7,W,A*29
$GPGGA,141110.00,4624.949405,N,00944.016662,E,1,06,2.2,1797.60,M,48.00,M,,*51
$GPGSV,3,1,11,05,50,216,45,19,06,035,,26,72,317,41,07,18,063,35*7B
$GPGSV,3,2,11,08,49,053,39,09,54,055,44,10,09,167,,15,33,299,29*7C
$GPGSV,3,3,11,28,59,108,44,24,05,250,,21,06,310,,,,,*45
$GPGSA,M,3,05,26,07,08,09,28,,,,,,,3.4,2.2,2.5*33
Trace #76 at position 18.750000
$GPRMC,141109.00,A,4624.949505,N,00944.015973,E,001.6,105.0,110314,0.7,W,A*29
$GPGGA,141110.00,4624.949405,N,00944.016662,E,1,06,2.2,1797.60,M,48.00,M,,*51
$GPGSV,3,1,11,05,50,216,45,19,06,035,,26,72,317,41,07,18,063,35*7B
$GPGSV,3,2,11,08,49,053,39,09,54,055,44,10,09,167,,15,33,299,29*7C
$GPGSV,3,3,11,28,59,108,44,24,05,250,,21,06,310,,,,,*45
$GPGSA,M,3,05,26,07,08,09,28,,,,,,,3.4,2.2,2.5*33
Trace #77 at position 19.000000
$GPRMC,141110.00,A,4624.949405,N,00944.016662,E,001.8,104.2,110314,0.7,W,A*21
$GPGGA,141111.00,4624.949298,N,00944.017346,E,1,06,2.2,1797.44,M,48.00,M,,*56
$GPGSV,3,1,11,05,50,216,43,19,06,035,,26,72,317,42,07,18,063,39*72
$GPGSV,3,2,11,08,49,053,41,09,54,055,44,10,09,167,,15,33,299,30*7B
$GPGSV,3,3,11,28,59,108,46,24,05,250,,21,06,310,,,,,*47
$GPGSA,M,3,05,26,07,08,09,28,,,,,,,3.4,2.2,2.5*33
Trace #78 at position 19.250000
$GPRMC,141110.00,A,4624.949405,N,00944.016662,E,001.8,104.2,110314,0.7,W,A*21
$GPGGA,141111.00,4624.949298,N,00944.017346,E,1,06,2.2,1797.44,M,48.00,M,,*56
$GPGSV,3,1,11,05,50,216,43,19,06,035,,26,72,317,42,07,18,063,39*72
$GPGSV,3,2,11,08,49,053,41,09,54,055,44,10,09,167,,15,33,299,30*7B
$GPGSV,3,3,11,28,59,108,46,24,05,250,,21,06,310,,,,,*47
$GPGSA,M,3,05,26,07,08,09,28,,,,,,,3.4,2.2,2.5*33
Trace #79 at position 19.500000
$GPRMC,141110.00,A,4624.949405,N,00944.016662,E,001.8,104.2,110314,0.7,W,A*21
$GPGGA,141111.00,4624.949298,N,00944.017346,E,1,06,2.2,1797.44,M,48.00,M,,*56
$GPGSV,3,1,11,05,50,216,43,19,06,035,,26,72,317,42,07,18,063,39*72
$GPGSV,3,2,11,08,49,053,41,09,54,055,44,10,09,167,,15,33,299,30*7B
$GPGSV,3,3,11,28,59,108,46,24,05,250,,21,06,310,,,,,*47
$GPGSA,M,3,05,26,07,08,09,28,,,,,,,3.4,2.2,2.5*33
Trace #80 at position 19.750000
$GPRMC,141110.00,A,4624.949405,N,00944.016662,E,001.8,104.2,110314,0.7,W,A*21
$GPGGA,141111.00,4624.949298,N,00944.017346,E,1,06,2.2,1797.44,M,48.00,M,,*56
$GPGSV,3,1,11,05,50,216,43,19,06,035,,26,72,317,42,07,18,063,39*72
$GPGSV,3,2,11,08,49,053,41,09,54,055,44,10,09,167,,15,33,299,30*7B
$GPGSV,3,3,11,28,59,108,46,24,05,250,,21,06,310,,,,,*47
$GPGSA,M,3,05,26,07,08,09,28,,,,,,,3.4,2.2,2.5*33
Trace #81 at position 20.000000
$GPRMC,141110.00,A,4624.949405,N,00944.016662,E,001.8,104.2,110314,0.7,W,A*21
$GPGGA,141111.00,4624.949298,N,00944.017346,E,1,06,2.2,1797.44,M,48.00,M,,*56
$GPGSV,3,1,11,05,50,216,43,19,06,035,,26,72,317,42,07,18,063,39*72
$GPGSV,3,2,11,08,49,053,41,09,54,055,44,10,09,167,,15,33,299,30*7B
$GPGSV,3,3,11,28,59,108,46,24,05,250,,21,06,310,,,,,*47
$GPGSA,M,3,05,26,07,08,09,28,,,,,,,3.4,2.2,2.5*33
Trace #82 at position 20.250000
$GPRMC,141111.00,A,4624.949298,N,00944.017346,E,001.7,105.6,110314,0.7,W,A*2A
$GPGGA,141112.00,4624.949195,N,00944.018046,E,1,06,2.2,1797.29,M,48.00,M,,*5C
$GPGSV,3,1,11,05,50,216,45,19,06,035,,26,72,317,42,07,18,063,37*7A
$GPGSV,3,2,11,08,49,053,42,09,54,055,44,10,09,167,,15,33,299,29*70
$GPGSV,3,3,11,28,59,108,44,24,05,250,,21,06,310,,,,,*45
$GPGSA,M,3,05,26,07,08,09,28,,,,,,,3.4,2.2,2.5*33
Trace #83 at position 20.500000
$GPRMC,141111.00,A,4624.949298,N,00944.017346,E,001.7,105.6,110314,0.7,W,A*2A
$GPGGA,141112.00,4624.949195,N,00944.018046,E,1,06,2.2,1797.29,M,48.00,M,,*5C
$GPGSV,3,1,11,05,50,216,45,19,06,035,,26,72,317,42,07,18,063,37*7A
$GPGSV,3,2,11,08,49,053,42,09,54,055,44,10,09,167,,15,33,299,29*70
$GPGSV,3,3,11,28,59,108,44,24,05,250,,21,06,310,,,,,*45
$GPGSA,M,3,05,26,07,08,09,28,,,,,,,3.4,2.2,2.5*33
Trace #84 at position 20.750000
$GPRMC,141111.00,A,4624.949298,N,00944.017346,E,001.7,105.6,110314,0.7,W,A*2A
$GPGGA,141112.00,4624.949195,N,00944.018046,E,1,06,2.2,1797.29,M,48.00,M,,*5C
$GPGSV,3,1,11,05,50,216,45,19,06,035,,26,72,317,42,07,18,063,37*7A
$GPGSV,3,2,11,08,49,053,42,09,54,055,44,10,09,167,,15,33,299,29*70
$GPGSV,3,3,11,28,59,108,44,24,05,250,,21,06,310,,,,,*45
$GPGSA,M,3,05,26,07,08,09,28,,,,,,,3.4,2.2,2.5*33
Trace #85 at position 21.000000
$GPRMC,141112.00,A,4624.949195,N,00944.018046,E,001.9,101.0,110314,0.7,W,A*27
$GPGGA,141113.00,4624.949065,N,00944.018810,E,1,06,2.2,1797.20,M,48.00,M,,*51
$GPGSV,3,1,11,05,50,216,43,19,06,035,,26,72,317,42,07,18,063,38*73
$GPGSV,3,2,11,08,49,053,42,09,54,055,43,10,09,167,,15,33,299,30*7F
$GPGSV,3,3,11,28,59,108,45,24,05,250,,21,06,310,,,,,*44
$GPGSA,M,3,05,26,07,08,09,28,,,,,,,3.4,2.2,2.5*33
Trace #86 at position 21.250000
$GPRMC,141112.00,A,4624.949195,N,00944.018046,E,001.9,101.0,110314,0.7,W,A*27
$GPGGA,141113.00,4624.949065,N,00944.018810,E,1,06,2.2,1797.20,M,48.00,M,,*51
$GPGSV,3,1,11,05,50,216,43,19,06,035,,26,72,317,42,07,18,063,38*73
$GPGSV,3,2,11,08,49,053,42,09,54,055,43,10,09,167,,15,33,299,30*7F
$GPGSV,3,3,11,28,59,108,45,24,05,250,,21,06,310,,,,,*44
$GPGSA,M,3,05,26,07,08,09,28,,,,,,,3.4,2.2,2.5*33
Trace #87 at position 21.500000
$GPRMC,141112.00,A,4624.949195,N,00944.018046,E,001.9,101.0,110314,0.7,W,A*27
$GPGGA,141113.00,4624.949065,N,00944.018810,E,1,06,2.2,1797.20,M,48.00,M,,*51
$GPGSV,3,1,11,05,50,216,43,19,06,035,,26,72,317,42,07,18,063,38*73
$GPGSV,3,2,11,08,49,053,42,09,54,055,43,10,09,167,,15,33,299,30*7F
$GPGSV,3,3,11,28,59,108,45,24,05,250,,21,06,310,,,,,*44
$GPGSA,M,3,05,26,07,08,09,28,,,,,,,3.4,2.2,2.5*33
Trace #88 at position 21.750000
$GPRMC,141113.00,A,4624.949065,N,00944.018810,E,002.0,107.6,110314,0.7,W,A*29
$GPGGA,141114.00,4624.948883,N,00944.019557,E,1,07,1.5,1797.27,M,48.00,M,,*5A
$GPGSV,3,1,11,05,50,216,44,19,06,035,,26,72,317,41,07,18,063,39*76
$GPGSV,3,2,11,08,49,053,42,09,54,055,43,10,09,167,,15,33,299,34*7B
$GPGSV,3,3,11,28,59,108,45,24,05,250,,21,06,310,,,,,*44
$GPGSA,M,3,05,26,07,08,09,15,28,,,,,,2.5,1.5,2.1*37
Trace #89 at position 22.000000
$GPRMC,141113.00,A,4624.949065,N,00944.018810,E,002.0,107.6,110314,0.7,W,A*29
$GPGGA,141114.00,4624.948883,N,00944.019557,E,1,07,1.5,1797.27,M,48.00,M,,*5A
$GPGSV,3,1,11,05,50,216,44,19,06,035,,26,72,317,41,07,18,063,39*76
$GPGSV,3,2,11,08,49,053,42,09,54,055,43,10,09,167,,15,33,299,34*7B
$GPGSV,3,3,11,28,59,108,45,24,05,250,,21,06,310,,,,,*44
$GPGSA,M,3,05,26,07,08,09,15,28,,,,,,2.5,1.5,2.1*37
Trace #90 at position 22.250000
$GPRMC,141113.00,A,4624.949065,N,00944.018810,E,002.0,107.6,110314,0.7,W,A*29
$GPGGA,141114.00,4624.948883,N,00944.019557,E,1,07,1.5,1797.27,M,48.00,M,,*5A
$GPGSV,3,1,11,05,50,216,44,19,06,035,,26,72,317,41,07,18,063,39*76
$GPGSV,3,2,11,08,49,053,42,09,54,055,43,10,09,167,,15,33,299,34*7B
$GPGSV,3,3,11,28,59,108,45,24,05,250,,21,06,310,,,,,*44
$GPGSA,M,3,05,26,07,08,09,15,28,,,,,,2.5,1.5,2.1*37
Trace #91 at position 22.500000
$GPRMC,141114.00,A,4624.948883,N,00944.019557,E,001.6,109.1,110314,0.7,W,A*2C
$GPGGA,141115.00,4624.948736,N,00944.020163,E,1,07,1.5,1797.33,M,48.00,M,,*56
$GPGSV,3,1,11,05,50,216,42,19,06,035,,26,72,317,41,07,17,063,41*70
$GPGSV,3,2,11,08,49,053,44,09,54,055,46,10,09,167,,15,33,299,32*7E
$GPGSV,3,3,11,28,59,108,46,24,05,250,,21,06,310,,,,,*47
$GPGSA,M,3,05,26,07,08,09,15,28,,,,,,2.5,1.5,2.1*37
Trace #92 at position 22.750000
$GPRMC,141114.00,A,4624.948883,N,00944.019557,E,001.6,109.1,110314,0.7,W,A*2C
$GPGGA,141115.00,4624.948736,N,00944.020163,E,1,07,1.5,1797.33,M,48.00,M,,*56
$GPGSV,3,1,11,05,50,216,42,19,06,035,,26,72,317,41,07,17,063,41*70
$GPGSV,3,2,11,08,49,053,44,09,54,055,46,10,09,167,,15,33,299,32*7E
$GPGSV,3,3,11,28,59,108,46,24,05,250,,21,06,310,,,,,*47
$GPGSA,M,3,05,26,07,08,09,15,28,,,,,,2.5,1.5,2.1*37
Trace #93 at position 23.000000
$GPRMC,141115.00,A,4624.948736,N,00944.020163,E,001.3,108.2,110314,0.7,W,A*22
$GPGGA,141116.00,4624.948602,N,00944.020694,E,1,07,1.5,1797.30,M,48.00,M,,*5F
$GPGSV,3,1,11,05,50,216,38,19,06,035,,26,72,317,43,07,17,063,41*7F
$GPGSV,3,2,11,08,49,053,42,09,54,055,44,10,09,167,,15,33,299,32*7A
$GPGSV,3,3,11,28,59,108,46,24,05,250,,21,06,310,,,,,*47
$GPGSA,M,3,05,26,07,08,09,15,28,,,,,,2.5,1.5,2.1*37
Trace #94 at position 23.250000
$GPRMC,141115.00,A,4624.948736,N,00944.020163,E,001.3,108.2,110314,0.7,W,A*22
$GPGGA,141116.00,4624.948602,N,00944.020694,E,1,07,1.5,1797.30,M,48.00,M,,*5F
$GPGSV,3,1,11,05,50,216,38,19,06,035,,26,72,317,43,07,17,063,41*7F
$GPGSV,3,2,11,08,49,053,42,09,54,055,44,10,09,167,,15,33,299,32*7A
$GPGSV,3,3,11,28,59,108,46,24,05,250,,21,06,310,,,,,*47
$GPGSA,M,3,05,26,07,08,09,15,28,,,,,,2.5,1.5,2.1*37
Trace #95 at position 23.500000
$GPRMC,141115.00,A,4624.948736,N,00944.020163,E,001.3,108.2,110314,0.7,W,A*22
$GPGGA,141116.00,4624.948602,N,00944.020694,E,1,07,1.5,1797.30,M,48.00,M,,*5F
$GPGSV,3,1,11,05,50,216,38,19,06,035,,26,72,317,43,07,17,063,41*7F
$GPGSV,3,2,11,08,49,053,42,09,54,055,44,10,09,167,,15,33,299,32*7A
$GPGSV,3,3,11,28,59,108,46,24,05,250,,21,06,310,,,,,*47
$GPGSA,M,3,05,26,07,08,09,15,28,,,,,,2.5,1.5,2.1*37
Trace #96 at position 23.750000
$GPRMC,141116.00,A,4624.948602,N,00944.020694,E,001.2,111.2,110314,0.7,W,A*21
$GPGGA,141117.00,4624.948455,N,00944.021246,E,1,07,1.5,1797.27,M,48.00,M,,*52
$GPGSV,3,1,11,05,50,216,42,19,06,035,,26,72,317,41,07,17,063,39*7F
$GPGSV,3,2,11,08,49,053,43,09,54,055,44,10,09,167,,15,33,299,37*7E
$GPGSV,3,3,11,28,59,108,46,24,05,250,,21,06,310,,,,,*47
$GPGSA,M,3,05,26,07,08,09,15,28,,,,,,2.5,1.5,2.1*37
Trace #97 at position 24.000000
$GPRMC,141116.00,A,4624.948602,N,00944.020694,E,001.2,111.2,110314,0.7,W,A*21
$GPGGA,141117.00,4624.948455,N,00944.021246,E,1,07,1.5,1797.27,M,48.00,M,,*52
$GPGSV,3,1,11,05,50,216,42,19,06,035,,26,72,317,41,07,17,063,39*7F
$GPGSV,3,2,11,08,49,053,43,09,54,055,44,10,09,167,,15,33,299,37*7E
$GPGSV,3,3,11,28,59,108,46,24,05,250,,21,06,310,,,,,*47
$GPGSA,M,3,05,26,07,08,09,15,28,,,,,,2.5,1.5,2.1*37
Trace #98 at position 24.250000
$GPRMC,141116.00,A,4624.948602,N,00944.020694,E,001.2,111.2,110314,0.7,W,A*21
$GPGGA,141117.00,4624.948455,N,00944.021246,E,1,07,1.5,1797.27,M,48.00,M,,*52
$GPGSV,3,1,11,05,50,216,42,19,06,035,,26,72,317,41,07,17,063,39*7F
$GPGSV,3,2,11,08,49,053,43,09,54,055,44,10,09,167,,15,33,299,37*7E
$GPGSV,3,3,11,28,59,108,46,24,05,250,,21,06,310,,,,,*47
$GPGSA,M,3,05,26,07,08,09,15,28,,,,,,2.5,1.5,2.1*37
Trace #99 at position 24.500000
$GPRMC,141117.00,A,4624.948455,N,00944.021246,E,001.5,112.0,110314,0.7,W,A*2C
$GPGGA,141118.00,4624.948337,N,00944.021887,E,1,07,1.5,1797.35,M,48.00,M,,*5A
$GPGSV,3,1,11,05,50,216,40,19,06,035,,26,72,317,45,07,17,063,40*77
$GPGSV,3,2,11,08,49,053,44,09,54,055,44,10,09,167,,15,33,299,35*7B
$GPGSV,3,3,11,28,59,108,46,24,05,250,,21,06,310,,,,,*47
$GPGSA,M,3,05,26,07,08,09,15,28,,,,,,2.5,1.5,2.1*37
Trace #100 at position 24.750000
$GPRMC,141117.00,A,4624.948455,N,00944.021246,E,001.5,112.0,110314,0.7,W,A*2C
$GPGGA,141118.00,4624.948337,N,00944.021887,E,1,07,1.5,1797.35,M,48.00,M,,*5A
$GPGSV,3,1,11,05,50,216,40,19,06,035,,26,72,317,45,07,17,063,40*77
$GPGSV,3,2,11,08,49,053,44,09,54,055,44,10,09,167,,15,33,299,35*7B
$GPGSV,3,3,11,28,59,108,46,24,05,250,,21,06,310,,,,,*47
$GPGSA,M,3,05,26,07,08,09,15,28,,,,,,2.5,1.5,2.1*37
Trace #101 at position 25.000000
$GPRMC,141117.00,A,4624.948455,N,00944.021246,E,001.5,112.0,110314,0.7,W,A*2C
$GPGGA,141118.00,4624.948337,N,00944.021887,E,1,07,1.5,1797.35,M,48.00,M,,*5A
$GPGSV,3,1,11,05,50,216,40,19,06,035,,26,72,317,45,07,17,063,40*77
$GPGSV,3,2,11,08,49,053,44,09,54,055,44,10,09,167,,15,33,299,35*7B
$GPGSV,3,3,11,28,59,108,46,24,05,250,,21,06,310,,,,,*47
$GPGSA,M,3,05,26,07,08,09,15,28,,,,,,2.5,1.5,2.1*37
Trace #102 at position 25.250000
$GPRMC,141117.00,A,4624.948455,N,00944.021246,E,001.5,112.0,110314,0.7,W,A*2C
$GPGGA,141118.00,4624.948337,N,00944.021887,E,1,07,1.5,1797.35,M,48.00,M,,*5A
$GPGSV,3,1,11,05,50,216,40,19,06,035,,26,72,317,45,07,17,063,40*77
$GPGSV,3,2,11,08,49,053,44,09,54,055,44,10,09,167,,15,33,299,35*7B
$GPGSV,3,3,11,28,59,108,46,24,05,250,,21,06,310,,,,,*47
$GPGSA,M,3,05,26,07,08,09,15,28,,,,,,2.5,1.5,2.1*37
Trace #103 at position 25.500000
$GPRMC,141118.00,A,4624.948337,N,00944.021887,E,001.6,97.7,110314,0.7,W,A*1F
$GPGGA,141119.00,4624.948249,N,00944.022570,E,1,07,1.5,1797.47,M,48.00,M,,*50
$GPGSV,3,1,11,05,50,216,41,19,06,035,,26,72,317,44,07,17,063,39*79
$GPGSV,3,2,11,08,49,053,43,09,54,055,43,10,09,167,,15,33,299,39*77
$GPGSV,3,3,11,28,59,108,45,24,05,250,,21,06,310,,,,,*44
$GPGSA,M,3,05,26,07,08,09,15,28,,,,,,2.5,1.5,2.1*37
Trace #104 at position 25.750000
$GPRMC,141118.00,A,4624.948337,N,00944.021887,E,001.6,97.7,110314,0.7,W,A*1F
$GPGGA,141119.00,4624.948249,N,00944.022570,E,1,07,1.5,1797.47,M,48.00,M,,*50
$GPGSV,3,1,11,05,50,216,41,19,06,035,,26,72,317,44,07,17,063,39*79
$GPGSV,3,2,11,08,49,053,43,09,54,055,43,10,09,167,,15,33,299,39*77
$GPGSV,3,3,11,28,59,108,45,24,05,250,,21,06,310,,,,,*44
$GPGSA,M,3,05,26,07,08,09,15,28,,,,,,2.5,1.5,2.1*37
Trace #105 at position 26.000000
$GPRMC,141119.00,A,4624.948249,N,00944.022570,E,001.7,101.6,110314,0.7,W,A*2E
$GPGGA,141120.00,4624.948125,N,00944.023194,E,1,07,1.5,1797.55,M,48.00,M,,*5F
$GPGSV,3,1,11,05,50,216,44,19,06,035,,26,72,317,44,07,17,063,38*7D
$GPGSV,3,2,11,08,49,053,42,09,54,055,44,10,09,167,,15,33,299,34*7C
$GPGSV,3,3,11,28,59,108,45,24,05,250,,21,06,310,,,,,*44
$GPGSA,M,3,05,26,07,08,09,15,28,,,,,,2.5,1.5,2.1*37
Trace #106 at position 26.250000
$GPRMC,141119.00,A,4624.948249,N,00944.022570,E,001.7,101.6,110314,0.7,W,A*2E
$GPGGA,141120.00,4624.948125,N,00944.023194,E,1,07,1.5,1797.55,M,48.00,M,,*5F
$GPGSV,3,1,11,05,50,216,44,19,06,035,,26,72,317,44,07,17,063,38*7D
$GPGSV,3,2,11,08,49,053,42,09,54,055,44,10,09,167,,15,33,299,34*7C
$GPGSV,3,3,11,28,59,108,45,24,05,250,,21,06,310,,,,,*44
$GPGSA,M,3,05,26,07,08,09,15,28,,,,,,2.5,1.5,2.1*37
Trace #107 at position 26.500000
$GPRMC,141119.00,A,4624.948249,N,00944.022570,E,001.7,101.6,110314,0.7,W,A*2E
$GPGGA,141120.00,4624.948125,N,00944.023194,E,1,07,1.5,1797.55,M,48.00,M,,*5F
$GPGSV,3,1,11,05,50,216,44,19,06,035,,26,72,317,44,07,17,063,38*7D
$GPGSV,3,2,11,08,49,053,42,09,54,055,44,10,09,167,,15,33,299,34*7C
$GPGSV,3,3,11,28,59,108,45,24,05,250,,21,06,310,,,,,*44
$GPGSA,M,3,05,26,07,08,09,15,28,,,,,,2.5,1.5,2.1*37
Trace #108 at position 26.750000
$GPRMC,141120.00,A,4624.948125,N,00944.023194,E,001.5,109.4,110314,0.7,W,A*2A
$GPGGA,141121.00,4624.947935,N,00944.023757,E,1,07,1.5,1797.64,M,48.00,M,,*53
$GPGSV,3,1,11,05,50,216,43,19,06,035,,26,72,317,45,07,17,063,38*7B
$GPGSV,3,2,11,08,49,053,42,09,54,055,44,10,09,167,,15,33,299,36*7E
$GPGSV,3,3,11,28,59,108,45,24,05,250,,21,06,310,,,,,*44
$GPGSA,M,3,05,26,07,08,09,15,28,,,,,,2.5,1.5,2.1*37
Trace #109 at position 27.000000
$GPRMC,141120.00,A,4624.948125,N,00944.023194,E,001.5,109.4,110314,0.7,W,A*2A
$GPGGA,141121.00,4624.947935,N,00944.023757,E,1,07,1.5,1797.64,M,48.00,M,,*53
$GPGSV,3,1,11,05,50,216,43,19,06,035,,26,72,317,45,07,17,063,38*7B
$GPGSV,3,2,11,08,49,053,42,09,54,055,44,10,09,167,,15,33,299,36*7E
$GPGSV,3,3,11,28,59,108,45,24,05,250,,21,06,310,,,,,*44
$GPGSA,M,3,05,26,07,08,09,15,28,,,,,,2.5,1.5,2.1*37
Trace #110 at position 27.250000
$GPRMC,141120.00,A,4624.948125,N,00944.023194,E,001.5,109.4,110314,0.7,W,A*2A
$GPGGA,141121.00,4624.947935,N,00944.023757,E,1,07,1.5,1797.64,M,48.00,M,,*53
$GPGSV,3,1,11,05,50,216,43,19,06,035,,26,72,317,45,07,17,063,38*7B
$GPGSV,3,2,11,08,49,053,42,09,54,055,44,10,09,167,,15,33,299,36*7E
$GPGSV,3,3,11,28,59,108,45,24,05,250,,21,06,310,,,,,*44
$GPGSA,M,3,05,26,07,08,09,15,28,,,,,,2.5,1.5,2.1*37
Trace #111 at position 27.500000
$GPRMC,141120.00,A,4624.948125,N,00944.023194,E,001.5,109.4,110314,0.7,W,A*2A
$GPGGA,141121.00,4624.947935,N,00944.023757,E,1,07,1.5,1797.64,M,48.00,M,,*53
$GPGSV,3,1,11,05,50,216,43,19,06,035,,26,72,317,45,07,17,063,38*7B
$GPGSV,3,2,11,08,49,053,42,09,54,055,44,10,09,167,,15,33,299,36*7E
$GPGSV,3,3,11,28,59,108,45,24,05,250,,21,06,310,,,,,*44
$GPGSA,M,3,05,26,07,08,09,15,28,,,,,,2.5,1.5,2.1*37
Trace #112 at position 27.750000
$GPRMC,141121.00,A,4624.947935,N,00944.023757,E,001.6,124.5,110314,0.7,W,A*29
$GPGGA,141122.00,4624.947767,N,00944.024295,E,1,07,1.5,1797.69,M,48.00,M,,*58
$GPGSV,3,1,11,05,50,216,43,19,06,035,,26,72,317,44,07,17,063,39*7B
$GPGSV,3,2,11,08,49,053,44,09,54,055,43,10,09,167,,15,33,299,34*7D
$GPGSV,3,3,11,28,59,108,45,24,05,250,,21,06,310,,,,,*44
$GPGSA,M,3,05,26,07,08,09,15,28,,,,,,2.5,1.5,2.1*37
Trace #113 at position 28.000000
$GPRMC,141121.00,A,4624.947935,N,00944.023757,E,001.6,124.5,110314,0.7,W,A*29
$GPGGA,141122.00,4624.947767,N,00944.024295,E,1,07,1.5,1797.69,M,48.00,M,,*58
$GPGSV,3,1,11,05,50,216,43,19,06,035,,26,72,317,44,07,17,063,39*7B
$GPGSV,3,2,11,08,49,053,44,09,54,055,43,10,09,167,,15,33,299,34*7D
$GPGSV,3,3,11,28,59,108,45,24,05,250,,21,06,310,,,,,*44
$GPGSA,M,3,05,26,07,08,09,15,28,,,,,,2.5,1.5,2.1*37
Trace #114 at position 28.250000
$GPRMC,141121.00,A,4624.947935,N,00944.023757,E,001.6,124.5,110314,0.7,W,A*29
$GPGGA,141122.00,4624.947767,N,00944.024295,E,1,07,1.5,1797.69,M,48.00,M,,*58
$GPGSV,3,1,11,05,50,216,43,19,06,035,,26,72,317,44,07,17,063,39*7B
$GPGSV,3,2,11,08,49,053,44,09,54,055,43,10,09,167,,15,33,299,34*7D
$GPGSV,3,3,11,28,59,108,45,24,05,250,,21,06,310,,,,,*44
$GPGSA,M,3,05,26,07,08,09,15,28,,,,,,2.5,1.5,2.1*37
Trace #115 at position 28.500000
$GPRMC,141122.00,A,4624.947767,N,00944.024295,E,001.3,108.5,110314,0.7,W,A*24
$GPGGA,141123.00,4624.947681,N,00944.024873,E,1,07,1.5,1797.71,M,48.00,M,,*5B
$GPGSV,3,1,11,05,50,216,44,19,06,035,,26,72,317,45,07,17,063,38*7C
$GPGSV,3,2,11,08,49,053,44,09,54,055,44,10,09,167,,15,33,299,35*7B
$GPGSV,3,3,11,28,59,108,46,24,05,250,,21,06,310,,,,,*47
$GPGSA,M,3,05,26,07,08,09,15,28,,,,,,2.5,1.5,2.1*37
Trace #116 at position 28.750000
$GPRMC,141122.00,A,4624.947767,N,00944.024295,E,001.3,108.5,110314,0.7,W,A*24
$GPGGA,141123.00,4624.947681,N,00944.024873,E,1,07,1.5,1797.71,M,48.00,M,,*5B
$GPGSV,3,1,11,05,50,216,44,19,06,035,,26,72,317,45,07,17,063,38*7C
$GPGSV,3,2,11,08,49,053,44,09,54,055,44,10,09,167,,15,33,299,35*7B
$GPGSV,3,3,11,28,59,108,46,24,05,250,,21,06,310,,,,,*47
$GPGSA,M,3,05,26,07,08,09,15,28,,,,,,2.5,1.5,2.1*37
Trace #117 at position 29.000000
$GPRMC,141122.00,A,4624.947767,N,00944.024295,E,001.3,108.5,110314,0.7,W,A*24
$GPGGA,141123.00,4624.947681,N,00944.024873,E,1,07,1.5,1797.71,M,48.00,M,,*5B
$GPGSV,3,1,11,05,50,216,44,19,06,035,,26,72,317,45,07,17,063,38*7C
$GPGSV,3,2,11,08,49,053,44,09,54,055,44,10,09,167,,15,33,299,35*7B
$GPGSV,3,3,11,28,59,108,46,24,05,250,,21,06,310,,,,,*47
$GPGSA,M,3,05,26,07,08,09,15,28,,,,,,2.5,1.5,2.1*37
Trace #118 at position 29.250000
$GPRMC,141123.00,A,4624.947681,N,00944.024873,E,001.5,100.8,110314,0.7,W,A*2D
$GPGGA,141124.00,4624.947574,N,00944.025517,E,1,07,1.5,1797.74,M,48.00,M,,*5E
$GPGSV,3,1,11,05,50,216,42,19,06,035,,26,72,317,45,07,17,063,38*7A
$GPGSV,3,2,11,08,49,053,43,09,54,055,43,10,09,167,,15,33,299,35*7B
$GPGSV,3,3,11,28,59,108,44,24,05,250,,21,06,310,,,,,*45
$GPGSA,M,3,05,26,07,08,09,15,28,,,,,,2.5,1.5,2.1*37
Trace #119 at position 29.500000
$GPRMC,141123.00,A,4624.947681,N,00944.024873,E,001.5,100.8,110314,0.7,W,A*2D
$GPGGA,141124.00,4624.947574,N,00944.025517,E,1,07,1.5,1797.74,M,48.00,M,,*5E
$GPGSV,3,1,11,05,50,216,42,19,06,035,,26,72,317,45,07,17,063,38*7A
$GPGSV,3,2,11,08,49,053,43,09,54,055,43,10,09,167,,15,33,299,35*7B
$GPGSV,3,3,11,28,59,108,44,24,05,250,,21,06,310,,,,,*45
$GPGSA,M,3,05,26,07,08,09,15,28,,,,,,2.5,1.5,2.1*37
Trace #120 at position 29.750000
$GPRMC,141123.00,A,4624.947681,N,00944.024873,E,001.5,100.8,110314,0.7,W,A*2D
$GPGGA,141124.00,4624.947574,N,00944.025517,E,1,07,1.5,1797.74,M,48.00,M,,*5E
$GPGSV,3,1,11,05,50,216,42,19,06,035,,26,72,317,45,07,17,063,38*7A
$GPGSV,3,2,11,08,49,053,43,09,54,055,43,10,09,167,,15,33,299,35*7B
$GPGSV,3,3,11,28,59,108,44,24,05,250,,21,06,310,,,,,*45
$GPGSA,M,3,05,26,07,08,09,15,28,,,,,,2.5,1.5,2.1*37
Trace #121 at position 30.000000
$GPRMC,141123.00,A,4624.947681,N,00944.024873,E,001.5,100.8,110314,0.7,W,A*2D
$GPGGA,141124.00,4624.947574,N,00944.025517,E,1,07,1.5,1797.74,M,48.00,M,,*5E
$GPGSV,3,1,11,05,50,216,42,19,06,035,,26,72,317,45,07,17,063,38*7A
$GPGSV,3,2,11,08,49,053,43,09,54,055,43,10,09,167,,15,33,299,35*7B
$GPGSV,3,3,11,28,59,108,44,24,05,250,,21,06,310,,,,,*45
$GPGSA,M,3,05,26,07,08,09,15,28,,,,,,2.5,1.5,2.1*37
Trace #122 at position 30.250000
$GPRMC,141124.00,A,4624.947574,N,00944.025517,E,001.7,108.8,110314,0.7,W,A*27
$GPGGA,141125.00,4624.947447,N,00944.026200,E,1,07,1.5,1797.83,M,48.00,M,,*54
$GPGSV,3,1,11,05,50,216,44,19,06,035,,26,72,317,45,07,17,063,40*73
$GPGSV,3,2,11,08,49,053,43,09,54,055,45,10,09,167,,15,33,299,35*7D
$GPGSV,3,3,11,28,59,108,46,24,05,250,,21,06,310,,,,,*47
$GPGSA,M,3,05,26,07,08,09,15,28,,,,,,2.5,1.5,2.1*37
Trace #123 at position 30.500000
$GPRMC,141124.00,A,4624.947574,N,00944.025517,E,001.7,108.8,110314,0.7,W,A*27
$GPGGA,141125.00,4624.947447,N,00944.026200,E,1,07,1.5,1797.83,M,48.00,M,,*54
$GPGSV,3,1,11,05,50,216,44,19,06,035,,26,72,317,45,07,17,063,40*73
$GPGSV,3,2,11,08,49,053,43,09,54,055,45,10,09,167,,15,33,299,35*7D
$GPGSV,3,3,11,28,59,108,46,24,05,250,,21,06,310,,,,,*47
$GPGSA,M,3,05,26,07,08,09,15,28,,,,,,2.5,1.5,2.1*37
Trace #124 at position 30.750000
$GPRMC,141124.00,A,4624.947574,N,00944.025517,E,001.7,108.8,110314,0.7,W,A*27
$GPGGA,141125.00,4624.947447,N,00944.026200,E,1,07,1.5,1797.83,M,48.00,M,,*54
$GPGSV,3,1,11,05,50,216,44,19,06,035,,26,72,317,45,07,17,063,40*73
$GPGSV,3,2,11,08,49,053,43,09,54,055,45,10,09,167,,15,33,299,35*7D
$GPGSV,3,3,11,28,59,108,46,24,05,250,,21,06,310,,,,,*47
$GPGSA,M,3,05,26,07,08,09,15,28,,,,,,2.5,1.5,2.1*37
Trace #125 at position 31.000000
$GPRMC,141125.00,A,4624.947447,N,00944.026200,E,001.8,105.0,110314,0.7,W,A*2F
$GPGGA,141126.00,4624.947335,N,00944.026854,E,1,07,1.5,1797.93,M,48.00,M,,*5F
$GPGSV,3,1,11,05,50,216,42,19,06,035,,26,72,317,45,07,17,063,37*75
$GPGSV,3,2,11,08,49,053,44,09,54,055,44,10,09,167,,15,33,299,34*7A
$GPGSV,3,3,11,28,59,108,46,24,05,250,,21,06,310,,,,,*47
$GPGSA,M,3,05,26,07,08,09,15,28,,,,,,2.5,1.5,2.1*37
Trace #126 at position 31.250000
$GPRMC,141125.00,A,4624.947447,N,00944.026200,E,001.8,105.0,110314,0.7,W,A*2F
$GPGGA,141126.00,4624.947335,N,00944.026854,E,1,07,1.5,1797.93,M,48.00,M,,*5F
$GPGSV,3,1,11,05,50,216,42,19,06,035,,26,72,317,45,07,17,063,37*75
$GPGSV,3,2,11,08,49,053,44,09,54,055,44,10,09,167,,15,33,299,34*7A
$GPGSV,3,3,11,28,59,108,46,24,05,250,,21,06,310,,,,,*47
$GPGSA,M,3,05,26,07,08,09,15,28,,,,,,2.5,1.5,2.1*37
Trace #127 at position 31.500000
$GPRMC,141125.00,A,4624.947447,N,00944.026200,E,001.8,105.0,110314,0.7,W,A*2F
$GPGGA,141126.00,4624.947335,N,00944.026854,E,1,07,1.5,1797.93,M,48.00,M,,*5F
$GPGSV,3,1,11,05,50,216,42,19,06,035,,26,72,317,45,07,17,063,37*75
$GPGSV,3,2,11,08,49,053,44,09,54,055,44,10,09,167,,15,33,299,34*7A
$GPGSV,3,3,11,28,59,108,46,24,05,250,,21,06,310,,,,,*47
$GPGSA,M,3,05,26,07,08,09,15,28,,,,,,2.5,1.5,2.1*37
Trace #128 at position 31.750000
$GPRMC,141125.00,A,4624.947447,N,00944.026200,E,001.8,105.0,110314,0.7,W,A*2F
$GPGGA,141126.00,4624.947335,N,00944.026854,E,1,07,1.5,1797.93,M,48.00,M,,*5F
$GPGSV,3,1,11,05,50,216,42,19,06,035,,26,72,317,45,07,17,063,37*75
$GPGSV,3,2,11,08,49,053,44,09,54,055,44,10,09,167,,15,33,299,34*7A
$GPGSV,3,3,11,28,59,108,46,24,05,250,,21,06,310,,,,,*47
$GPGSA,M,3,05,26,07,08,09,15,28,,,,,,2.5,1.5,2.1*37
Trace #129 at position 32.000000
$GPRMC,141126.00,A,4624.947335,N,00944.026854,E,001.5,106.9,110314,0.7,W,A*22
$GPGGA,141127.00,4624.947225,N,00944.027525,E,1,07,1.5,1797.94,M,48.00,M,,*53
$GPGSV,3,1,11,05,50,216,42,19,06,035,,26,72,317,43,07,17,063,39*7D
$GPGSV,3,2,11,08,49,053,43,09,54,055,44,10,09,167,,15,33,299,36*7F
$GPGSV,3,3,11,28,59,108,46,24,05,250,,21,06,310,,,,,*47
$GPGSA,M,3,05,26,07,08,09,15,28,,,,,,2.5,1.5,2.1*37
Trace #130 at position 32.250000
$GPRMC,141126.00,A,4624.947335,N,00944.026854,E,001.5,106.9,110314,0.7,W,A*22
$GPGGA,141127.00,4624.947225,N,00944.027525,E,1,07,1.5,1797.94,M,48.00,M,,*53
$GPGSV,3,1,11,05,50,216,42,19,06,035,,26,72,317,43,07,17,063,39*7D
$GPGSV,3,2,11,08,49,053,43,09,54,055,44,10,09,167,,15,33,299,36*7F
$GPGSV,3,3,11,28,59,108,46,24,05,250,,21,06,310,,,,,*47
$GPGSA,M,3,05,26,07,08,09,15,28,,,,,,2.5,1.5,2.1*37
Trace #131 at position 32.500000
$GPRMC,141127.00,A,4624.947225,N,00944.027525,E,001.9,104.0,110314,0.7,W,A*2E
$GPGGA,141128.00,4624.947134,N,00944.028185,E,1,07,1.5,1797.90,M,48.00,M,,*5A
$GPGSV,3,1,11,05,50,216,45,19,06,035,,26,72,317,46,07,17,063,39*7F
$GPGSV,3,2,11,08,49,053,45,09,54,055,45,10,09,167,,15,33,299,36*78
$GPGSV,3,3,11,28,59,108,47,24,05,250,,21,06,310,,,,,*46
$GPGSA,M,3,05,26,07,08,09,15,28,,,,,,2.5,1.5,2.1*37
Trace #132 at position 32.750000
$GPRMC,141127.00,A,4624.947225,N,00944.027525,E,001.9,104.0,110314,0.7,W,A*2E
$GPGGA,141128.00,4624.947134,N,00944.028185,E,1,07,1.5,1797.90,M,48.00,M,,*5A
$GPGSV,3,1,11,05,50,216,45,19,06,035,,26,72,317,46,07,17,063,39*7F
$GPGSV,3,2,11,08,49,053,45,09,54,055,45,10,09,167,,15,33,299,36*78
$GPGSV,3,3,11,28,59,108,47,24,05,250,,21,06,310,,,,,*46
$GPGSA,M,3,05,26,07,08,09,15,28,,,,,,2.5,1.5,2.1*37
Trace #133 at position 33.000000
$GPRMC,141127.00,A,4624.947225,N,00944.027525,E,001.9,104.0,110314,0.7,W,A*2E
$GPGGA,141128.00,4624.947134,N,00944.028185,E,1,07,1.5,1797.90,M,48.00,M,,*5A
$GPGSV,3,1,11,05,50,216,45,19,06,035,,26,72,317,46,07,17,063,39*7F
$GPGSV,3,2,11,08,49,053,45,09,54,055,45,10,09,167,,15,33,299,36*78
$GPGSV,3,3,11,28,59,108,47,24,05,250,,21,06,310,,,,,*46
$GPGSA,M,3,05,26,07,08,09,15,28,,,,,,2.5,1.5,2.1*37
Trace #134 at position 33.250000
$GPRMC,141127.00,A,4624.947225,N,00944.027525,E,001.9,104.0,110314,0.7,W,A*2E
$GPGGA,141128.00,4624.947134,N,00944.028185,E,1,07,1.5,1797.90,M,48.00,M,,*5A
$GPGSV,3,1,11,05,50,216,45,19,06,035,,26,72,317,46,07,17,063,39*7F
$GPGSV,3,2,11,08,49,053,45,09,54,055,45,10,09,167,,15,33,299,36*78
$GPGSV,3,3,11,28,59,108,47,24,05,250,,21,06,310,,,,,*46
$GPGSA,M,3,05,26,07,08,09,15,28,,,,,,2.5,1.5,2.1*37
Trace #135 at position 33.500000
$GPRMC,141128.00,A,4624.947134,N,00944.028185,E,001.4,101.3,110314,0.7,W,A*28
$GPGGA,141129.00,4624.947054,N,00944.028810,E,1,07,1.5,1797.89,M,48.00,M,,*51
$GPGSV,3,1,11,05,50,216,43,19,06,035,,26,72,317,44,07,17,063,40*75
$GPGSV,3,2,11,08,49,053,45,09,54,055,45,10,09,167,,15,33,299,36*78
$GPGSV,3,3,11,28,59,108,47,24,05,250,,21,06,310,,,,,*46
$GPGSA,M,3,05,26,07,08,09,15,28,,,,,,2.5,1.5,2.1*37
Trace #136 at position 33.750000
$GPRMC,141128.00,A,4624.947134,N,00944.028185,E,001.4,101.3,110314,0.7,W,A*28
$GPGGA,141129.00,4624.947054,N,00944.028810,E,1,07,1.5,1797.89,M,48.00,M,,*51
$GPGSV,3,1,11,05,50,216,43,19,06,035,,26,72,317,44,07,17,063,40*75
$GPGSV,3,2,11,08,49,053,45,09,54,055,45,10,09,167,,15,33,299,36*78
$GPGSV,3,3,11,28,59,108,47,24,05,250,,21,06,310,,,,,*46
$GPGSA,M,3,05,26,07,08,09,15,28,,,,,,2.5,1.5,2.1*37
Trace #137 at position 34.000000
$GPRMC,141128.00,A,4624.947134,N,00944.028185,E,001.4,101.3,110314,0.7,W,A*28
$GPGGA,141129.00,4624.947054,N,00944.028810,E,1,07,1.5,1797.89,M,48.00,M,,*51
$GPGSV,3,1,11,05,50,216,43,19,06,035,,26,72,317,44,07,17,063,40*75
$GPGSV,3,2,11,08,49,053,45,09,54,055,45,10,09,167,,15,33,299,36*78
$GPGSV,3,3,11,28,59,108,47,24,05,250,,21,06,310,,,,,*46
$GPGSA,M,3,05,26,07,08,09,15,28,,,,,,2.5,1.5,2.1*37
Trace #138 at position 34.250000
$GPRMC,141129.00,A,4624.947054,N,00944.028810,E,001.7,102.0,110314,0.7,W,A*28
$GPGGA,141130.00,4624.946965,N,00944.029443,E,1,07,1.5,1797.92,M,48.00,M,,*52
$GPGSV,3,1,11,05,50,216,42,19,06,035,,26,72,317,45,07,17,063,38*7A
$GPGSV,3,2,11,08,49,053,44,09,54,055,46,10,09,167,,15,33,299,35*79
$GPGSV,3,3,11,28,59,108,46,24,05,250,,21,06,310,,,,,*47
$GPGSA,M,3,05,26,07,08,09,15,28,,,,,,2.5,1.5,2.1*37
Trace #139 at position 34.500000
