Trace #1 at position 0.000000
$GPRMC,142007.00,A,4624.895792,N,00944.015502,E,000.0,110.8,110314,0.7,W,A*28
$GPGGA,142008.00,4624.895686,N,00944.015529,E,1,06,1.5,1800.72,M,48.00,M,,*5A
$GPGSV,3,1,11,05,46,212,38,19,05,032,,26,76,323,44,07,14,065,*7C
$GPGSV,3,2,11,08,45,055,33,09,50,057,37,10,05,167,,15,37,300,46*7E
$GPGSV,3,3,11,28,60,100,34,24,08,253,,21,05,307,,,,,*4B
$GPGSA,M,3,05,26,08,09,15,28,,,,,,,4.1,1.5,3.8*3A
Trace #2 at position 0.250000
$GPRMC,142104.00,A,4624.894943,N,00944.015734,E,000.1,310.9,110314,0.7,W,A*2C
$GPGGA,142105.00,4624.894957,N,00944.015730,E,1,06,1.5,1799.90,M,48.00,M,,*5D
$GPGSV,3,1,11,05,46,212,37,19,05,031,,26,76,324,44,07,14,065,*77
$GPGSV,3,2,11,08,45,055,40,09,50,057,42,10,05,167,,15,37,300,46*78
$GPGSV,3,3,11,28,60,099,33,24,08,253,,21,05,306,,,,,*4C
$GPGSA,M,3,05,26,08,09,15,28,,,,,,,4.1,1.5,3.8*3A
Trace #3 at position 0.500000
$GPRMC,142106.00,A,4624.895010,N,00944.015593,E,000.8,294.4,110314,0.7,W,A*26
$GPGGA,142107.00,4624.895003,N,00944.015433,E,1,05,1.6,1799.73,M,48.00,M,,*5B
$GPGSV,3,1,11,05,46,212,33,19,05,031,,26,76,324,42,07,14,065,*75
$GPGSV,3,2,11,08,45,055,36,09,50,057,38,10,05,167,,15,37,300,44*76
$GPGSV,3,3,11,28,60,099,25,24,08,253,,21,05,306,,,,,*4B
$GPGSA,M,3,05,26,08,09,15,,,,,,,,4.2,1.6,3.9*31
Trace #4 at position 0.750000
$GPRMC,142106.00,A,4624.895010,N,00944.015593,E,000.8,294.4,110314,0.7,W,A*26
$GPGGA,142107.00,4624.895003,N,00944.015433,E,1,05,1.6,1799.73,M,48.00,M,,*5B
$GPGSV,3,1,11,05,46,212,33,19,05,031,,26,76,324,42,07,14,065,*75
$GPGSV,3,2,11,08,45,055,36,09,50,057,38,10,05,167,,15,37,300,44*76
$GPGSV,3,3,11,28,60,099,25,24,08,253,,21,05,306,,,,,*4B
$GPGSA,M,3,05,26,08,09,15,,,,,,,,4.2,1.6,3.9*31
Trace #5 at position 1.000000
$GPRMC,142107.00,A,4624.895003,N,00944.015433,E,000.5,192.1,110314,0.7,W,A*23
$GPGGA,142108.00,4624.895031,N,00944.015216,E,1,05,1.6,1799.69,M,48.00,M,,*5F
$GPGSV,3,1,11,05,46,212,32,19,05,031,,26,76,324,43,07,14,065,*75
$GPGSV,3,2,11,08,45,055,40,09,50,057,38,10,05,167,,15,37,300,44*77
$GPGSV,3,3,11,28,60,099,32,24,09,253,,21,05,306,,,,,*4C
$GPGSA,M,3,05,26,08,09,15,,,,,,,,4.2,1.6,3.9*31
Trace #6 at position 1.250000
$GPRMC,142107.00,A,4624.895003,N,00944.015433,E,000.5,192.1,110314,0.7,W,A*23
$GPGGA,142108.00,4624.895031,N,00944.015216,E,1,05,1.6,1799.69,M,48.00,M,,*5F
$GPGSV,3,1,11,05,46,212,32,19,05,031,,26,76,324,43,07,14,065,*75
$GPGSV,3,2,11,08,45,055,40,09,50,057,38,10,05,167,,15,37,300,44*77
$GPGSV,3,3,11,28,60,099,32,24,09,253,,21,05,306,,,,,*4C
$GPGSA,M,3,05,26,08,09,15,,,,,,,,4.2,1.6,3.9*31
Trace #7 at position 1.500000
$GPRMC,142107.00,A,4624.895003,N,00944.015433,E,000.5,192.1,110314,0.7,W,A*23
$GPGGA,142108.00,4624.895031,N,00944.015216,E,1,05,1.6,1799.69,M,48.00,M,,*5F
$GPGSV,3,1,11,05,46,212,32,19,05,031,,26,76,324,43,07,14,065,*75
$GPGSV,3,2,11,08,45,055,40,09,50,057,38,10,05,167,,15,37,300,44*77
$GPGSV,3,3,11,28,60,099,32,24,09,253,,21,05,306,,,,,*4C
$GPGSA,M,3,05,26,08,09,15,,,,,,,,4.2,1.6,3.9*31
Trace #8 at position 1.750000
$GPRMC,142108.00,A,4624.895031,N,00944.015216,E,001.1,298.2,110314,0.7,W,A*23
$GPGGA,142109.00,4624.895192,N,00944.014848,E,1,05,1.6,1799.71,M,48.00,M,,*5F
$GPGSV,3,1,11,05,46,212,41,19,05,031,,26,76,324,44,07,14,065,*76
$GPGSV,3,2,11,08,45,055,37,09,50,057,39,10,05,167,,15,37,300,46*74
$GPGSV,3,3,11,28,60,099,31,24,09,253,,21,05,306,,,,,*4F
$GPGSA,M,3,05,26,08,09,15,,,,,,,,4.2,1.6,3.9*31
Trace #9 at position 2.000000
$GPRMC,142108.00,A,4624.895031,N,00944.015216,E,001.1,298.2,110314,0.7,W,A*23
$GPGGA,142109.00,4624.895192,N,00944.014848,E,1,05,1.6,1799.71,M,48.00,M,,*5F
$GPGSV,3,1,11,05,46,212,41,19,05,031,,26,76,324,44,07,14,065,*76
$GPGSV,3,2,11,08,45,055,37,09,50,057,39,10,05,167,,15,37,300,46*74
$GPGSV,3,3,11,28,60,099,31,24,09,253,,21,05,306,,,,,*4F
$GPGSA,M,3,05,26,08,09,15,,,,,,,,4.2,1.6,3.9*31
Trace #10 at position 2.250000
$GPRMC,142109.00,A,4624.895192,N,00944.014848,E,001.0,301.8,110314,0.7,W,A*20
$GPGGA,142110.00,4624.895391,N,00944.014490,E,1,05,1.6,1799.69,M,48.00,M,,*56
$GPGSV,3,1,11,05,46,212,38,19,05,031,,26,76,324,42,07,14,065,*7E
$GPGSV,3,2,11,08,45,055,39,09,50,057,39,10,05,167,,15,37,300,44*78
$GPGSV,3,3,11,28,60,099,32,24,09,253,34,21,05,306,,,,,*4B
$GPGSA,M,3,05,26,08,09,15,,,,,,,,4.2,1.6,3.9*31
Trace #11 at position 2.500000
$GPRMC,142109.00,A,4624.895192,N,00944.014848,E,001.0,301.8,110314,0.7,W,A*20
$GPGGA,142110.00,4624.895391,N,00944.014490,E,1,05,1.6,1799.69,M,48.00,M,,*56
$GPGSV,3,1,11,05,46,212,38,19,05,031,,26,76,324,42,07,14,065,*7E
$GPGSV,3,2,11,08,45,055,39,09,50,057,39,10,05,167,,15,37,300,44*78
$GPGSV,3,3,11,28,60,099,32,24,09,253,34,21,05,306,,,,,*4B
$GPGSA,M,3,05,26,08,09,15,,,,,,,,4.2,1.6,3.9*31
Trace #12 at position 2.750000
$GPRMC,142109.00,A,4624.895192,N,00944.014848,E,001.0,301.8,110314,0.7,W,A*20
$GPGGA,142110.00,4624.895391,N,00944.014490,E,1,05,1.6,1799.69,M,48.00,M,,*56
$GPGSV,3,1,11,05,46,212,38,19,05,031,,26,76,324,42,07,14,065,*7E
$GPGSV,3,2,11,08,45,055,39,09,50,057,39,10,05,167,,15,37,300,44*78
$GPGSV,3,3,11,28,60,099,32,24,09,253,34,21,05,306,,,,,*4B
$GPGSA,M,3,05,26,08,09,15,,,,,,,,4.2,1.6,3.9*31
Trace #13 at position 3.000000
$GPRMC,142110.00,A,4624.895391,N,00944.014490,E,001.2,313.1,110314,0.7,W,A*28
$GPGGA,142111.00,4624.895670,N,00944.014070,E,1,05,1.6,1799.69,M,48.00,M,,*57
$GPGSV,3,1,11,05,46,212,37,19,05,031,,26,76,324,44,07,14,065,*77
$GPGSV,3,2,11,08,45,055,39,09,50,057,38,10,05,167,,15,37,300,45*78
$GPGSV,3,3,11,28,60,099,31,24,09,253,33,21,05,306,,,,,*4F
$GPGSA,M,3,05,26,08,09,15,,,,,,,,4.2,1.6,3.9*31
Trace #14 at position 3.250000
$GPRMC,142110.00,A,4624.895391,N,00944.014490,E,001.2,313.1,110314,0.7,W,A*28
$GPGGA,142111.00,4624.895670,N,00944.014070,E,1,05,1.6,1799.69,M,48.00,M,,*57
$GPGSV,3,1,11,05,46,212,37,19,05,031,,26,76,324,44,07,14,065,*77
$GPGSV,3,2,11,08,45,055,39,09,50,057,38,10,05,167,,15,37,300,45*78
$GPGSV,3,3,11,28,60,099,31,24,09,253,33,21,05,306,,,,,*4F
$GPGSA,M,3,05,26,08,09,15,,,,,,,,4.2,1.6,3.9*31
Trace #15 at position 3.500000
$GPRMC,142110.00,A,4624.895391,N,00944.014490,E,001.2,313.1,110314,0.7,W,A*28
$GPGGA,142111.00,4624.895670,N,00944.014070,E,1,05,1.6,1799.69,M,48.00,M,,*57
$GPGSV,3,1,11,05,46,212,37,19,05,031,,26,76,324,44,07,14,065,*77
$GPGSV,3,2,11,08,45,055,39,09,50,057,38,10,05,167,,15,37,300,45*78
$GPGSV,3,3,11,28,60,099,31,24,09,253,33,21,05,306,,,,,*4F
$GPGSA,M,3,05,26,08,09,15,,,,,,,,4.2,1.6,3.9*31
Trace #16 at position 3.750000
$GPRMC,142111.00,A,4624.895670,N,00944.014070,E,001.6,316.5,110314,0.7,W,A*2C
$GPGGA,142112.00,4624.895984,N,00944.013436,E,1,05,1.6,1799.79,M,48.00,M,,*50
$GPGSV,3,1,11,05,46,212,37,19,05,031,,26,76,324,43,07,14,065,*70
$GPGSV,3,2,11,08,45,055,40,09,50,057,40,10,05,167,,15,37,300,43*7F
$GPGSV,3,3,11,28,60,099,32,24,09,253,,21,05,306,,,,,*4C
$GPGSA,M,3,05,26,08,09,15,,,,,,,,4.2,1.6,3.9*31
Trace #17 at position 4.000000
$GPRMC,142111.00,A,4624.895670,N,00944.014070,E,001.6,316.5,110314,0.7,W,A*2C
$GPGGA,142112.00,4624.895984,N,00944.013436,E,1,05,1.6,1799.79,M,48.00,M,,*50
$GPGSV,3,1,11,05,46,212,37,19,05,031,,26,76,324,43,07,14,065,*70
$GPGSV,3,2,11,08,45,055,40,09,50,057,40,10,05,167,,15,37,300,43*7F
$GPGSV,3,3,11,28,60,099,32,24,09,253,,21,05,306,,,,,*4C
$GPGSA,M,3,05,26,08,09,15,,,,,,,,4.2,1.6,3.9*31
Trace #18 at position 4.250000
$GPRMC,142112.00,A,4624.895984,N,00944.013436,E,002.3,301.5,110314,0.7,W,A*2A
$GPGGA,142113.00,4624.896141,N,00944.012923,E,1,05,1.6,1799.74,M,48.00,M,,*56
$GPGSV,3,1,11,05,46,212,36,19,05,031,,26,76,324,43,07,14,065,*71
$GPGSV,3,2,11,08,45,055,36,09,50,057,33,10,05,167,,15,37,300,44*7D
$GPGSV,3,3,11,28,60,099,,24,09,253,32,21,05,306,,,,,*4C
$GPGSA,M,3,05,26,08,09,15,,,,,,,,4.2,1.6,3.9*31
Trace #19 at position 4.500000
$GPRMC,142112.00,A,4624.895984,N,00944.013436,E,002.3,301.5,110314,0.7,W,A*2A
$GPGGA,142113.00,4624.896141,N,00944.012923,E,1,05,1.6,1799.74,M,48.00,M,,*56
$GPGSV,3,1,11,05,46,212,36,19,05,031,,26,76,324,43,07,14,065,*71
$GPGSV,3,2,11,08,45,055,36,09,50,057,33,10,05,167,,15,37,300,44*7D
$GPGSV,3,3,11,28,60,099,,24,09,253,32,21,05,306,,,,,*4C
$GPGSA,M,3,05,26,08,09,15,,,,,,,,4.2,1.6,3.9*31
Trace #20 at position 4.750000
$GPRMC,142112.00,A,4624.895984,N,00944.013436,E,002.3,301.5,110314,0.7,W,A*2A
$GPGGA,142113.00,4624.896141,N,00944.012923,E,1,05,1.6,1799.74,M,48.00,M,,*56
$GPGSV,3,1,11,05,46,212,36,19,05,031,,26,76,324,43,07,14,065,*71
$GPGSV,3,2,11,08,45,055,36,09,50,057,33,10,05,167,,15,37,300,44*7D
$GPGSV,3,3,11,28,60,099,,24,09,253,32,21,05,306,,,,,*4C
$GPGSA,M,3,05,26,08,09,15,,,,,,,,4.2,1.6,3.9*31
Trace #21 at position 5.000000
$GPRMC,142112.00,A,4624.895984,N,00944.013436,E,002.3,301.5,110314,0.7,W,A*2A
$GPGGA,142113.00,4624.896141,N,00944.012923,E,1,05,1.6,1799.74,M,48.00,M,,*56
$GPGSV,3,1,11,05,46,212,36,19,05,031,,26,76,324,43,07,14,065,*71
$GPGSV,3,2,11,08,45,055,36,09,50,057,33,10,05,167,,15,37,300,44*7D
$GPGSV,3,3,11,28,60,099,,24,09,253,32,21,05,306,,,,,*4C
$GPGSA,M,3,05,26,08,09,15,,,,,,,,4.2,1.6,3.9*31
Trace #22 at position 5.250000
$GPRMC,142113.00,A,4624.896141,N,00944.012923,E,000.6,280.6,110314,0.7,W,A*2D
$GPGGA,142114.00,4624.896190,N,00944.012586,E,1,06,1.6,1799.73,M,48.00,M,,*5A
$GPGSV,3,1,11,05,46,212,35,19,05,031,,26,76,324,43,07,14,065,*72
$GPGSV,3,2,11,08,45,055,36,09,50,057,36,10,05,167,,15,37,300,43*7F
$GPGSV,3,3,11,28,60,099,,24,09,253,32,21,05,306,,,,,*4C
$GPGSA,M,3,05,26,08,09,15,24,,,,,,,2.6,1.6,2.1*3C
Trace #23 at position 5.500000
$GPRMC,142113.00,A,4624.896141,N,00944.012923,E,000.6,280.6,110314,0.7,W,A*2D
$GPGGA,142114.00,4624.896190,N,00944.012586,E,1,06,1.6,1799.73,M,48.00,M,,*5A
$GPGSV,3,1,11,05,46,212,35,19,05,031,,26,76,324,43,07,14,065,*72
$GPGSV,3,2,11,08,45,055,36,09,50,057,36,10,05,167,,15,37,300,43*7F
$GPGSV,3,3,11,28,60,099,,24,09,253,32,21,05,306,,,,,*4C
$GPGSA,M,3,05,26,08,09,15,24,,,,,,,2.6,1.6,2.1*3C
Trace #24 at position 5.750000
$GPRMC,142113.00,A,4624.896141,N,00944.012923,E,000.6,280.6,110314,0.7,W,A*2D
$GPGGA,142114.00,4624.896190,N,00944.012586,E,1,06,1.6,1799.73,M,48.00,M,,*5A
$GPGSV,3,1,11,05,46,212,35,19,05,031,,26,76,324,43,07,14,065,*72
$GPGSV,3,2,11,08,45,055,36,09,50,057,36,10,05,167,,15,37,300,43*7F
$GPGSV,3,3,11,28,60,099,,24,09,253,32,21,05,306,,,,,*4C
$GPGSA,M,3,05,26,08,09,15,24,,,,,,,2.6,1.6,2.1*3C
Trace #25 at position 6.000000
$GPRMC,142114.00,A,4624.896190,N,00944.012586,E,001.1,285.4,110314,0.7,W,A*24
$GPGGA,142115.00,4624.896339,N,00944.012060,E,1,05,1.6,1799.72,M,48.00,M,,*55
$GPGSV,3,1,11,05,46,212,37,19,05,031,,26,76,324,44,07,14,065,*77
$GPGSV,3,2,11,08,45,055,39,09,50,057,38,10,05,167,,15,37,300,44*79
$GPGSV,3,3,11,28,60,099,,24,09,253,23,21,05,306,,,,,*4C
$GPGSA,M,3,05,26,08,09,15,,,,,,,,4.2,1.6,3.9*31
Trace #26 at position 6.250000
$GPRMC,142114.00,A,4624.896190,N,00944.012586,E,001.1,285.4,110314,0.7,W,A*24
$GPGGA,142115.00,4624.896339,N,00944.012060,E,1,05,1.6,1799.72,M,48.00,M,,*55
$GPGSV,3,1,11,05,46,212,37,19,05,031,,26,76,324,44,07,14,065,*77
$GPGSV,3,2,11,08,45,055,39,09,50,057,38,10,05,167,,15,37,300,44*79
$GPGSV,3,3,11,28,60,099,,24,09,253,23,21,05,306,,,,,*4C
$GPGSA,M,3,05,26,08,09,15,,,,,,,,4.2,1.6,3.9*31
Trace #27 at position 6.500000
$GPRMC,142114.00,A,4624.896190,N,00944.012586,E,001.1,285.4,110314,0.7,W,A*24
$GPGGA,142115.00,4624.896339,N,00944.012060,E,1,05,1.6,1799.72,M,48.00,M,,*55
$GPGSV,3,1,11,05,46,212,37,19,05,031,,26,76,324,44,07,14,065,*77
$GPGSV,3,2,11,08,45,055,39,09,50,057,38,10,05,167,,15,37,300,44*79
$GPGSV,3,3,11,28,60,099,,24,09,253,23,21,05,306,,,,,*4C
$GPGSA,M,3,05,26,08,09,15,,,,,,,,4.2,1.6,3.9*31
Trace #28 at position 6.750000
$GPRMC,142114.00,A,4624.896190,N,00944.012586,E,001.1,285.4,110314,0.7,W,A*24
$GPGGA,142115.00,4624.896339,N,00944.012060,E,1,05,1.6,1799.72,M,48.00,M,,*55
$GPGSV,3,1,11,05,46,212,37,19,05,031,,26,76,324,44,07,14,065,*77
$GPGSV,3,2,11,08,45,055,39,09,50,057,38,10,05,167,,15,37,300,44*79
$GPGSV,3,3,11,28,60,099,,24,09,253,23,21,05,306,,,,,*4C
$GPGSA,M,3,05,26,08,09,15,,,,,,,,4.2,1.6,3.9*31
Trace #29 at position 7.000000
$GPRMC,142115.00,A,4624.896339,N,00944.012060,E,001.7,297.9,110314,0.7,W,A*21
$GPGGA,142116.00,4624.896589,N,00944.011442,E,1,05,1.6,1799.78,M,48.00,M,,*56
$GPGSV,3,1,11,05,46,212,38,19,05,031,,26,76,324,44,07,14,065,*78
$GPGSV,3,2,11,08,45,055,39,09,50,057,40,10,05,167,,15,37,300,46*74
$GPGSV,3,3,11,28,60,099,,24,09,253,,21,05,306,,,,,*4D
$GPGSA,M,3,05,26,08,09,15,,,,,,,,4.2,1.6,3.9*31
Trace #30 at position 7.250000
$GPRMC,142115.00,A,4624.896339,N,00944.012060,E,001.7,297.9,110314,0.7,W,A*21
$GPGGA,142116.00,4624.896589,N,00944.011442,E,1,05,1.6,1799.78,M,48.00,M,,*56
$GPGSV,3,1,11,05,46,212,38,19,05,031,,26,76,324,44,07,14,065,*78
$GPGSV,3,2,11,08,45,055,39,09,50,057,40,10,05,167,,15,37,300,46*74
$GPGSV,3,3,11,28,60,099,,24,09,253,,21,05,306,,,,,*4D
$GPGSA,M,3,05,26,08,09,15,,,,,,,,4.2,1.6,3.9*31
Trace #31 at position 7.500000
$GPRMC,142115.00,A,4624.896339,N,00944.012060,E,001.7,297.9,110314,0.7,W,A*21
$GPGGA,142116.00,4624.896589,N,00944.011442,E,1,05,1.6,1799.78,M,48.00,M,,*56
$GPGSV,3,1,11,05,46,212,38,19,05,031,,26,76,324,44,07,14,065,*78
$GPGSV,3,2,11,08,45,055,39,09,50,057,40,10,05,167,,15,37,300,46*74
$GPGSV,3,3,11,28,60,099,,24,09,253,,21,05,306,,,,,*4D
$GPGSA,M,3,05,26,08,09,15,,,,,,,,4.2,1.6,3.9*31
Trace #32 at position 7.750000
$GPRMC,142115.00,A,4624.896339,N,00944.012060,E,001.7,297.9,110314,0.7,W,A*21
$GPGGA,142116.00,4624.896589,N,00944.011442,E,1,05,1.6,1799.78,M,48.00,M,,*56
$GPGSV,3,1,11,05,46,212,38,19,05,031,,26,76,324,44,07,14,065,*78
$GPGSV,3,2,11,08,45,055,39,09,50,057,40,10,05,167,,15,37,300,46*74
$GPGSV,3,3,11,28,60,099,,24,09,253,,21,05,306,,,,,*4D
$GPGSA,M,3,05,26,08,09,15,,,,,,,,4.2,1.6,3.9*31
Trace #33 at position 8.000000
$GPRMC,142116.00,A,4624.896589,N,00944.011442,E,001.8,304.6,110314,0.7,W,A*23
$GPGGA,142117.00,4624.896794,N,00944.010742,E,1,05,1.6,1799.76,M,48.00,M,,*55
$GPGSV,3,1,11,05,46,212,36,19,05,031,,26,76,324,43,07,14,065,*71
$GPGSV,3,2,11,08,45,055,39,09,50,057,39,10,05,167,,15,37,300,44*78
$GPGSV,3,3,11,28,60,099,,24,09,253,,21,05,306,,,,,*4D
$GPGSA,M,3,05,26,08,09,15,,,,,,,,4.2,1.6,3.9*31
Trace #34 at position 8.250000
$GPRMC,142116.00,A,4624.896589,N,00944.011442,E,001.8,304.6,110314,0.7,W,A*23
$GPGGA,142117.00,4624.896794,N,00944.010742,E,1,05,1.6,1799.76,M,48.00,M,,*55
$GPGSV,3,1,11,05,46,212,36,19,05,031,,26,76,324,43,07,14,065,*71
$GPGSV,3,2,11,08,45,055,39,09,50,057,39,10,05,167,,15,37,300,44*78
$GPGSV,3,3,11,28,60,099,,24,09,253,,21,05,306,,,,,*4D
$GPGSA,M,3,05,26,08,09,15,,,,,,,,4.2,1.6,3.9*31
Trace #35 at position 8.500000
$GPRMC,142116.00,A,4624.896589,N,00944.011442,E,001.8,304.6,110314,0.7,W,A*23
$GPGGA,142117.00,4624.896794,N,00944.010742,E,1,05,1.6,1799.76,M,48.00,M,,*55
$GPGSV,3,1,11,05,46,212,36,19,05,031,,26,76,324,43,07,14,065,*71
$GPGSV,3,2,11,08,45,055,39,09,50,057,39,10,05,167,,15,37,300,44*78
$GPGSV,3,3,11,28,60,099,,24,09,253,,21,05,306,,,,,*4D
$GPGSA,M,3,05,26,08,09,15,,,,,,,,4.2,1.6,3.9*31
Trace #36 at position 8.750000
$GPRMC,142116.00,A,4624.896589,N,00944.011442,E,001.8,304.6,110314,0.7,W,A*23
$GPGGA,142117.00,4624.896794,N,00944.010742,E,1,05,1.6,1799.76,M,48.00,M,,*55
$GPGSV,3,1,11,05,46,212,36,19,05,031,,26,76,324,43,07,14,065,*71
$GPGSV,3,2,11,08,45,055,39,09,50,057,39,10,05,167,,15,37,300,44*78
$GPGSV,3,3,11,28,60,099,,24,09,253,,21,05,306,,,,,*4D
$GPGSA,M,3,05,26,08,09,15,,,,,,,,4.2,1.6,3.9*31
Trace #37 at position 9.000000
$GPRMC,142117.00,A,4624.896794,N,00944.010742,E,002.0,284.3,110314,0.7,W,A*29
$GPGGA,142118.00,4624.896895,N,00944.010020,E,1,05,1.6,1799.57,M,48.00,M,,*54
$GPGSV,3,1,11,05,46,212,32,19,05,031,,26,76,324,42,07,14,065,*74
$GPGSV,3,2,11,08,45,055,39,09,50,058,39,10,05,167,,15,37,300,45*76
$GPGSV,3,3,11,28,60,099,,24,09,253,,21,05,306,,,,,*4D
$GPGSA,M,3,05,26,08,09,15,,,,,,,,4.2,1.6,3.9*31
Trace #38 at position 9.250000
$GPRMC,142117.00,A,4624.896794,N,00944.010742,E,002.0,284.3,110314,0.7,W,A*29
$GPGGA,142118.00,4624.896895,N,00944.010020,E,1,05,1.6,1799.57,M,48.00,M,,*54
$GPGSV,3,1,11,05,46,212,32,19,05,031,,26,76,324,42,07,14,065,*74
$GPGSV,3,2,11,08,45,055,39,09,50,058,39,10,05,167,,15,37,300,45*76
$GPGSV,3,3,11,28,60,099,,24,09,253,,21,05,306,,,,,*4D
$GPGSA,M,3,05,26,08,09,15,,,,,,,,4.2,1.6,3.9*31
Trace #39 at position 9.500000
$GPRMC,142117.00,A,4624.896794,N,00944.010742,E,002.0,284.3,110314,0.7,W,A*29
$GPGGA,142118.00,4624.896895,N,00944.010020,E,1,05,1.6,1799.57,M,48.00,M,,*54
$GPGSV,3,1,11,05,46,212,32,19,05,031,,26,76,324,42,07,14,065,*74
$GPGSV,3,2,11,08,45,055,39,09,50,058,39,10,05,167,,15,37,300,45*76
$GPGSV,3,3,11,28,60,099,,24,09,253,,21,05,306,,,,,*4D
$GPGSA,M,3,05,26,08,09,15,,,,,,,,4.2,1.6,3.9*31
Trace #40 at position 9.750000
$GPRMC,142117.00,A,4624.896794,N,00944.010742,E,002.0,284.3,110314,0.7,W,A*29
$GPGGA,142118.00,4624.896895,N,00944.010020,E,1,05,1.6,1799.57,M,48.00,M,,*54
$GPGSV,3,1,11,05,46,212,32,19,05,031,,26,76,324,42,07,14,065,*74
$GPGSV,3,2,11,08,45,055,39,09,50,058,39,10,05,167,,15,37,300,45*76
$GPGSV,3,3,11,28,60,099,,24,09,253,,21,05,306,,,,,*4D
$GPGSA,M,3,05,26,08,09,15,,,,,,,,4.2,1.6,3.9*31
Trace #41 at position 10.000000
$GPRMC,142117.00,A,4624.896794,N,00944.010742,E,002.0,284.3,110314,0.7,W,A*29
$GPGGA,142118.00,4624.896895,N,00944.010020,E,1,05,1.6,1799.57,M,48.00,M,,*54
$GPGSV,3,1,11,05,46,212,32,19,05,031,,26,76,324,42,07,14,065,*74
$GPGSV,3,2,11,08,45,055,39,09,50,058,39,10,05,167,,15,37,300,45*76
$GPGSV,3,3,11,28,60,099,,24,09,253,,21,05,306,,,,,*4D
$GPGSA,M,3,05,26,08,09,15,,,,,,,,4.2,1.6,3.9*31
Trace #42 at position 10.250000
$GPRMC,142118.00,A,4624.896895,N,00944.010020,E,001.6,274.0,110314,0.7,W,A*22
$GPGGA,142119.00,4624.897178,N,00944.009428,E,1,05,1.6,1799.36,M,48.00,M,,*5D
$GPGSV,3,1,11,05,46,212,33,19,05,031,,26,76,324,44,07,14,065,*73
$GPGSV,3,2,11,08,45,055,38,09,50,058,39,10,05,167,,15,37,300,44*76
$GPGSV,3,3,11,28,60,099,31,24,09,253,,21,05,306,,,,,*4F
$GPGSA,M,3,05,26,08,09,15,,,,,,,,4.2,1.6,3.9*31
Trace #43 at position 10.500000
$GPRMC,142118.00,A,4624.896895,N,00944.010020,E,001.6,274.0,110314,0.7,W,A*22
$GPGGA,142119.00,4624.897178,N,00944.009428,E,1,05,1.6,1799.36,M,48.00,M,,*5D
$GPGSV,3,1,11,05,46,212,33,19,05,031,,26,76,324,44,07,14,065,*73
$GPGSV,3,2,11,08,45,055,38,09,50,058,39,10,05,167,,15,37,300,44*76
$GPGSV,3,3,11,28,60,099,31,24,09,253,,21,05,306,,,,,*4F
$GPGSA,M,3,05,26,08,09,15,,,,,,,,4.2,1.6,3.9*31
Trace #44 at position 10.750000
$GPRMC,142118.00,A,4624.896895,N,00944.010020,E,001.6,274.0,110314,0.7,W,A*22
$GPGGA,142119.00,4624.897178,N,00944.009428,E,1,05,1.6,1799.36,M,48.00,M,,*5D
$GPGSV,3,1,11,05,46,212,33,19,05,031,,26,76,324,44,07,14,065,*73
$GPGSV,3,2,11,08,45,055,38,09,50,058,39,10,05,167,,15,37,300,44*76
$GPGSV,3,3,11,28,60,099,31,24,09,253,,21,05,306,,,,,*4F
$GPGSA,M,3,05,26,08,09,15,,,,,,,,4.2,1.6,3.9*31
Trace #45 at position 11.000000
$GPRMC,142118.00,A,4624.896895,N,00944.010020,E,001.6,274.0,110314,0.7,W,A*22
$GPGGA,142119.00,4624.897178,N,00944.009428,E,1,05,1.6,1799.36,M,48.00,M,,*5D
$GPGSV,3,1,11,05,46,212,33,19,05,031,,26,76,324,44,07,14,065,*73
$GPGSV,3,2,11,08,45,055,38,09,50,058,39,10,05,167,,15,37,300,44*76
$GPGSV,3,3,11,28,60,099,31,24,09,253,,21,05,306,,,,,*4F
$GPGSA,M,3,05,26,08,09,15,,,,,,,,4.2,1.6,3.9*31
Trace #46 at position 11.250000
$GPRMC,142119.00,A,4624.897178,N,00944.009428,E,002.2,324.6,110314,0.7,W,A*29
$GPGGA,142120.00,4624.897514,N,00944.008702,E,1,05,1.6,1799.35,M,48.00,M,,*50
$GPGSV,3,1,11,05,46,212,34,19,05,031,,26,76,324,44,07,14,065,*74
$GPGSV,3,2,11,08,45,055,34,09,50,058,39,10,05,167,,15,37,300,44*7A
$GPGSV,3,3,11,28,60,099,30,24,09,253,,21,05,306,,,,,*4E
$GPGSA,M,3,05,26,08,09,15,,,,,,,,4.2,1.6,3.9*31
Trace #47 at position 11.500000
$GPRMC,142119.00,A,4624.897178,N,00944.009428,E,002.2,324.6,110314,0.7,W,A*29
$GPGGA,142120.00,4624.897514,N,00944.008702,E,1,05,1.6,1799.35,M,48.00,M,,*50
$GPGSV,3,1,11,05,46,212,34,19,05,031,,26,76,324,44,07,14,065,*74
$GPGSV,3,2,11,08,45,055,34,09,50,058,39,10,05,167,,15,37,300,44*7A
$GPGSV,3,3,11,28,60,099,30,24,09,253,,21,05,306,,,,,*4E
$GPGSA,M,3,05,26,08,09,15,,,,,,,,4.2,1.6,3.9*31
Trace #48 at position 11.750000
$GPRMC,142119.00,A,4624.897178,N,00944.009428,E,002.2,324.6,110314,0.7,W,A*29
$GPGGA,142120.00,4624.897514,N,00944.008702,E,1,05,1.6,1799.35,M,48.00,M,,*50
$GPGSV,3,1,11,05,46,212,34,19,05,031,,26,76,324,44,07,14,065,*74
$GPGSV,3,2,11,08,45,055,34,09,50,058,39,10,05,167,,15,37,300,44*7A
$GPGSV,3,3,11,28,60,099,30,24,09,253,,21,05,306,,,,,*4E
$GPGSA,M,3,05,26,08,09,15,,,,,,,,4.2,1.6,3.9*31
Trace #49 at position 12.000000
$GPRMC,142120.00,A,4624.897514,N,00944.008702,E,002.4,287.2,110314,0.7,W,A*2D
$GPGGA,142121.00,4624.897725,N,00944.007893,E,1,05,1.6,1799.27,M,48.00,M,,*5A
$GPGSV,3,1,11,05,46,212,32,19,05,031,,26,76,324,44,07,14,065,*72
$GPGSV,3,2,11,08,45,055,41,09,50,058,42,10,05,167,,15,37,300,45*75
$GPGSV,3,3,11,28,60,099,35,24,09,253,,21,05,306,,,,,*4B
$GPGSA,M,3,05,26,08,09,15,,,,,,,,4.2,1.6,3.9*31
Trace #50 at position 12.250000
$GPRMC,142120.00,A,4624.897514,N,00944.008702,E,002.4,287.2,110314,0.7,W,A*2D
$GPGGA,142121.00,4624.897725,N,00944.007893,E,1,05,1.6,1799.27,M,48.00,M,,*5A
$GPGSV,3,1,11,05,46,212,32,19,05,031,,26,76,324,44,07,14,065,*72
$GPGSV,3,2,11,08,45,055,41,09,50,058,42,10,05,167,,15,37,300,45*75
$GPGSV,3,3,11,28,60,099,35,24,09,253,,21,05,306,,,,,*4B
$GPGSA,M,3,05,26,08,09,15,,,,,,,,4.2,1.6,3.9*31
Trace #51 at position 12.500000
$GPRMC,142120.00,A,4624.897514,N,00944.008702,E,002.4,287.2,110314,0.7,W,A*2D
$GPGGA,142121.00,4624.897725,N,00944.007893,E,1,05,1.6,1799.27,M,48.00,M,,*5A
$GPGSV,3,1,11,05,46,212,32,19,05,031,,26,76,324,44,07,14,065,*72
$GPGSV,3,2,11,08,45,055,41,09,50,058,42,10,05,167,,15,37,300,45*75
$GPGSV,3,3,11,28,60,099,35,24,09,253,,21,05,306,,,,,*4B
$GPGSA,M,3,05,26,08,09,15,,,,,,,,4.2,1.6,3.9*31
Trace #52 at position 12.750000
$GPRMC,142120.00,A,4624.897514,N,00944.008702,E,002.4,287.2,110314,0.7,W,A*2D
$GPGGA,142121.00,4624.897725,N,00944.007893,E,1,05,1.6,1799.27,M,48.00,M,,*5A
$GPGSV,3,1,11,05,46,212,32,19,05,031,,26,76,324,44,07,14,065,*72
$GPGSV,3,2,11,08,45,055,41,09,50,058,42,10,05,167,,15,37,300,45*75
$GPGSV,3,3,11,28,60,099,35,24,09,253,,21,05,306,,,,,*4B
$GPGSA,M,3,05,26,08,09,15,,,,,,,,4.2,1.6,3.9*31
Trace #53 at position 13.000000
$GPRMC,142121.00,A,4624.897725,N,00944.007893,E,002.0,295.3,110314,0.7,W,A*22
$GPGGA,142122.00,4624.898021,N,00944.007287,E,1,06,1.5,1798.97,M,48.00,M,,*50
$GPGSV,3,1,11,05,46,212,37,19,05,031,,26,76,324,44,07,14,065,*77
$GPGSV,3,2,11,08,45,055,40,09,50,058,39,10,05,167,,15,37,300,46*7B
$GPGSV,3,3,11,28,60,099,31,24,09,253,35,21,05,306,,,,,*49
$GPGSA,M,3,05,26,08,09,15,28,,,,,,,4.1,1.5,3.8*3A
Trace #54 at position 13.250000
$GPRMC,142121.00,A,4624.897725,N,00944.007893,E,002.0,295.3,110314,0.7,W,A*22
$GPGGA,142122.00,4624.898021,N,00944.007287,E,1,06,1.5,1798.97,M,48.00,M,,*50
$GPGSV,3,1,11,05,46,212,37,19,05,031,,26,76,324,44,07,14,065,*77
$GPGSV,3,2,11,08,45,055,40,09,50,058,39,10,05,167,,15,37,300,46*7B
$GPGSV,3,3,11,28,60,099,31,24,09,253,35,21,05,306,,,,,*49
$GPGSA,M,3,05,26,08,09,15,28,,,,,,,4.1,1.5,3.8*3A
Trace #55 at position 13.500000
$GPRMC,142121.00,A,4624.897725,N,00944.007893,E,002.0,295.3,110314,0.7,W,A*22
$GPGGA,142122.00,4624.898021,N,00944.007287,E,1,06,1.5,1798.97,M,48.00,M,,*50
$GPGSV,3,1,11,05,46,212,37,19,05,031,,26,76,324,44,07,14,065,*77
$GPGSV,3,2,11,08,45,055,40,09,50,058,39,10,05,167,,15,37,300,46*7B
$GPGSV,3,3,11,28,60,099,31,24,09,253,35,21,05,306,,,,,*49
$GPGSA,M,3,05,26,08,09,15,28,,,,,,,4.1,1.5,3.8*3A
Trace #56 at position 13.750000
$GPRMC,142122.00,A,4624.898021,N,00944.007287,E,001.7,318.8,110314,0.7,W,A*29
$GPGGA,142123.00,4624.898227,N,00944.006685,E,1,05,1.6,1798.87,M,48.00,M,,*53
$GPGSV,3,1,11,05,46,212,35,19,05,031,,26,76,324,44,07,14,065,*75
$GPGSV,3,2,11,08,45,055,38,09,50,058,39,10,05,167,,15,37,300,45*77
$GPGSV,3,3,11,28,60,099,31,24,09,253,34,21,05,306,,,,,*48
$GPGSA,M,3,05,26,08,09,15,,,,,,,,4.2,1.6,3.9*31
Trace #57 at position 14.000000
$GPRMC,142122.00,A,4624.898021,N,00944.007287,E,001.7,318.8,110314,0.7,W,A*29
$GPGGA,142123.00,4624.898227,N,00944.006685,E,1,05,1.6,1798.87,M,48.00,M,,*53
$GPGSV,3,1,11,05,46,212,35,19,05,031,,26,76,324,44,07,14,065,*75
$GPGSV,3,2,11,08,45,055,38,09,50,058,39,10,05,167,,15,37,300,45*77
$GPGSV,3,3,11,28,60,099,31,24,09,253,34,21,05,306,,,,,*48
$GPGSA,M,3,05,26,08,09,15,,,,,,,,4.2,1.6,3.9*31
Trace #58 at position 14.250000
$GPRMC,142122.00,A,4624.898021,N,00944.007287,E,001.7,318.8,110314,0.7,W,A*29
$GPGGA,142123.00,4624.898227,N,00944.006685,E,1,05,1.6,1798.87,M,48.00,M,,*53
$GPGSV,3,1,11,05,46,212,35,19,05,031,,26,76,324,44,07,14,065,*75
$GPGSV,3,2,11,08,45,055,38,09,50,058,39,10,05,167,,15,37,300,45*77
$GPGSV,3,3,11,28,60,099,31,24,09,253,34,21,05,306,,,,,*48
$GPGSA,M,3,05,26,08,09,15,,,,,,,,4.2,1.6,3.9*31
Trace #59 at position 14.500000
$GPRMC,142122.00,A,4624.898021,N,00944.007287,E,001.7,318.8,110314,0.7,W,A*29
$GPGGA,142123.00,4624.898227,N,00944.006685,E,1,05,1.6,1798.87,M,48.00,M,,*53
$GPGSV,3,1,11,05,46,212,35,19,05,031,,26,76,324,44,07,14,065,*75
$GPGSV,3,2,11,08,45,055,38,09,50,058,39,10,05,167,,15,37,300,45*77
$GPGSV,3,3,11,28,60,099,31,24,09,253,34,21,05,306,,,,,*48
$GPGSA,M,3,05,26,08,09,15,,,,,,,,4.2,1.6,3.9*31
Trace #60 at position 14.750000
$GPRMC,142123.00,A,4624.898227,N,00944.006685,E,001.9,282.2,110314,0.7,W,A*2D
$GPGGA,142124.00,4624.898334,N,00944.005997,E,1,05,1.6,1798.80,M,48.00,M,,*5F
$GPGSV,3,1,11,05,46,212,37,19,05,031,,26,76,324,43,07,14,065,*70
$GPGSV,3,2,11,08,45,055,41,09,50,058,41,10,05,167,,15,37,300,46*75
$GPGSV,3,3,11,28,60,099,32,24,09,253,32,21,05,306,,,,,*4D
$GPGSA,M,3,05,26,08,09,15,,,,,,,,4.2,1.6,3.9*31
Trace #61 at position 15.000000
$GPRMC,142123.00,A,4624.898227,N,00944.006685,E,001.9,282.2,110314,0.7,W,A*2D
$GPGGA,142124.00,4624.898334,N,00944.005997,E,1,05,1.6,1798.80,M,48.00,M,,*5F
$GPGSV,3,1,11,05,46,212,37,19,05,031,,26,76,324,43,07,14,065,*70
$GPGSV,3,2,11,08,45,055,41,09,50,058,41,10,05,167,,15,37,300,46*75
$GPGSV,3,3,11,28,60,099,32,24,09,253,32,21,05,306,,,,,*4D
$GPGSA,M,3,05,26,08,09,15,,,,,,,,4.2,1.6,3.9*31
Trace #62 at position 15.250000
$GPRMC,142123.00,A,4624.898227,N,00944.006685,E,001.9,282.2,110314,0.7,W,A*2D
$GPGGA,142124.00,4624.898334,N,00944.005997,E,1,05,1.6,1798.80,M,48.00,M,,*5F
$GPGSV,3,1,11,05,46,212,37,19,05,031,,26,76,324,43,07,14,065,*70
$GPGSV,3,2,11,08,45,055,41,09,50,058,41,10,05,167,,15,37,300,46*75
$GPGSV,3,3,11,28,60,099,32,24,09,253,32,21,05,306,,,,,*4D
$GPGSA,M,3,05,26,08,09,15,,,,,,,,4.2,1.6,3.9*31
Trace #63 at position 15.500000
$GPRMC,142123.00,A,4624.898227,N,00944.006685,E,001.9,282.2,110314,0.7,W,A*2D
$GPGGA,142124.00,4624.898334,N,00944.005997,E,1,05,1.6,1798.80,M,48.00,M,,*5F
$GPGSV,3,1,11,05,46,212,37,19,05,031,,26,76,324,43,07,14,065,*70
$GPGSV,3,2,11,08,45,055,41,09,50,058,41,10,05,167,,15,37,300,46*75
$GPGSV,3,3,11,28,60,099,32,24,09,253,32,21,05,306,,,,,*4D
$GPGSA,M,3,05,26,08,09,15,,,,,,,,4.2,1.6,3.9*31
Trace #64 at position 15.750000
$GPRMC,142124.00,A,4624.898334,N,00944.005997,E,001.7,285.8,110314,0.7,W,A*25
$GPGGA,142125.00,4624.898497,N,00944.005278,E,1,06,1.5,1798.71,M,48.00,M,,*54
$GPGSV,3,1,11,05,46,212,38,19,05,031,,26,76,324,43,07,14,065,*7F
$GPGSV,3,2,11,08,45,055,40,09,50,058,41,10,05,167,,15,37,300,46*74
$GPGSV,3,3,11,28,60,099,31,24,09,253,33,21,05,306,,,,,*4F
$GPGSA,M,3,05,26,08,09,15,28,,,,,,,4.1,1.5,3.8*3A
Trace #65 at position 16.000000
$GPRMC,142124.00,A,4624.898334,N,00944.005997,E,001.7,285.8,110314,0.7,W,A*25
$GPGGA,142125.00,4624.898497,N,00944.005278,E,1,06,1.5,1798.71,M,48.00,M,,*54
$GPGSV,3,1,11,05,46,212,38,19,05,031,,26,76,324,43,07,14,065,*7F
$GPGSV,3,2,11,08,45,055,40,09,50,058,41,10,05,167,,15,37,300,46*74
$GPGSV,3,3,11,28,60,099,31,24,09,253,33,21,05,306,,,,,*4F
$GPGSA,M,3,05,26,08,09,15,28,,,,,,,4.1,1.5,3.8*3A
Trace #66 at position 16.250000
$GPRMC,142124.00,A,4624.898334,N,00944.005997,E,001.7,285.8,110314,0.7,W,A*25
$GPGGA,142125.00,4624.898497,N,00944.005278,E,1,06,1.5,1798.71,M,48.00,M,,*54
$GPGSV,3,1,11,05,46,212,38,19,05,031,,26,76,324,43,07,14,065,*7F
$GPGSV,3,2,11,08,45,055,40,09,50,058,41,10,05,167,,15,37,300,46*74
$GPGSV,3,3,11,28,60,099,31,24,09,253,33,21,05,306,,,,,*4F
$GPGSA,M,3,05,26,08,09,15,28,,,,,,,4.1,1.5,3.8*3A
Trace #67 at position 16.500000
$GPRMC,142124.00,A,4624.898334,N,00944.005997,E,001.7,285.8,110314,0.7,W,A*25
$GPGGA,142125.00,4624.898497,N,00944.005278,E,1,06,1.5,1798.71,M,48.00,M,,*54
$GPGSV,3,1,11,05,46,212,38,19,05,031,,26,76,324,43,07,14,065,*7F
$GPGSV,3,2,11,08,45,055,40,09,50,058,41,10,05,167,,15,37,300,46*74
$GPGSV,3,3,11,28,60,099,31,24,09,253,33,21,05,306,,,,,*4F
$GPGSA,M,3,05,26,08,09,15,28,,,,,,,4.1,1.5,3.8*3A
Trace #68 at position 16.750000
$GPRMC,142125.00,A,4624.898497,N,00944.005278,E,002.1,286.2,110314,0.7,W,A*2C
$GPGGA,142126.00,4624.898742,N,00944.004640,E,1,05,1.6,1798.83,M,48.00,M,,*5F
$GPGSV,3,1,11,05,46,212,35,19,05,031,,26,76,324,43,07,14,065,*72
$GPGSV,3,2,11,08,44,055,35,09,50,058,38,10,05,167,,15,37,300,42*7D
$GPGSV,3,3,11,28,60,099,29,24,09,253,36,21,05,306,,,,,*43
$GPGSA,M,3,05,26,08,09,15,,,,,,,,4.2,1.6,3.9*31
Trace #69 at position 17.000000
$GPRMC,142125.00,A,4624.898497,N,00944.005278,E,002.1,286.2,110314,0.7,W,A*2C
$GPGGA,142126.00,4624.898742,N,00944.004640,E,1,05,1.6,1798.83,M,48.00,M,,*5F
$GPGSV,3,1,11,05,46,212,35,19,05,031,,26,76,324,43,07,14,065,*72
$GPGSV,3,2,11,08,44,055,35,09,50,058,38,10,05,167,,15,37,300,42*7D
$GPGSV,3,3,11,28,60,099,29,24,09,253,36,21,05,306,,,,,*43
$GPGSA,M,3,05,26,08,09,15,,,,,,,,4.2,1.6,3.9*31
Trace #70 at position 17.250000
$GPRMC,142125.00,A,4624.898497,N,00944.005278,E,002.1,286.2,110314,0.7,W,A*2C
$GPGGA,142126.00,4624.898742,N,00944.004640,E,1,05,1.6,1798.83,M,48.00,M,,*5F
$GPGSV,3,1,11,05,46,212,35,19,05,031,,26,76,324,43,07,14,065,*72
$GPGSV,3,2,11,08,44,055,35,09,50,058,38,10,05,167,,15,37,300,42*7D
$GPGSV,3,3,11,28,60,099,29,24,09,253,36,21,05,306,,,,,*43
$GPGSA,M,3,05,26,08,09,15,,,,,,,,4.2,1.6,3.9*31
Trace #71 at position 17.500000
$GPRMC,142125.00,A,4624.898497,N,00944.005278,E,002.1,286.2,110314,0.7,W,A*2C
$GPGGA,142126.00,4624.898742,N,00944.004640,E,1,05,1.6,1798.83,M,48.00,M,,*5F
$GPGSV,3,1,11,05,46,212,35,19,05,031,,26,76,324,43,07,14,065,*72
$GPGSV,3,2,11,08,44,055,35,09,50,058,38,10,05,167,,15,37,300,42*7D
$GPGSV,3,3,11,28,60,099,29,24,09,253,36,21,05,306,,,,,*43
$GPGSA,M,3,05,26,08,09,15,,,,,,,,4.2,1.6,3.9*31
Trace #72 at position 17.750000
$GPRMC,142126.00,A,4624.898742,N,00944.004640,E,001.8,311.7,110314,0.7,W,A*2A
$GPGGA,142127.00,4624.899046,N,00944.004051,E,1,06,1.6,1799.26,M,48.00,M,,*57
$GPGSV,3,1,11,05,46,212,36,19,05,031,,26,76,324,43,07,14,065,*71
$GPGSV,3,2,11,08,44,055,37,09,50,058,39,10,05,167,,15,37,300,44*78
$GPGSV,3,3,11,28,60,099,31,24,09,253,33,21,05,306,,,,,*4F
$GPGSA,M,3,05,26,08,09,15,24,,,,,,,2.6,1.6,2.1*3C
Trace #73 at position 18.000000
$GPRMC,142126.00,A,4624.898742,N,00944.004640,E,001.8,311.7,110314,0.7,W,A*2A
$GPGGA,142127.00,4624.899046,N,00944.004051,E,1,06,1.6,1799.26,M,48.00,M,,*57
$GPGSV,3,1,11,05,46,212,36,19,05,031,,26,76,324,43,07,14,065,*71
$GPGSV,3,2,11,08,44,055,37,09,50,058,39,10,05,167,,15,37,300,44*78
$GPGSV,3,3,11,28,60,099,31,24,09,253,33,21,05,306,,,,,*4F
$GPGSA,M,3,05,26,08,09,15,24,,,,,,,2.6,1.6,2.1*3C
Trace #74 at position 18.250000
$GPRMC,142126.00,A,4624.898742,N,00944.004640,E,001.8,311.7,110314,0.7,W,A*2A
$GPGGA,142127.00,4624.899046,N,00944.004051,E,1,06,1.6,1799.26,M,48.00,M,,*57
$GPGSV,3,1,11,05,46,212,36,19,05,031,,26,76,324,43,07,14,065,*71
$GPGSV,3,2,11,08,44,055,37,09,50,058,39,10,05,167,,15,37,300,44*78
$GPGSV,3,3,11,28,60,099,31,24,09,253,33,21,05,306,,,,,*4F
$GPGSA,M,3,05,26,08,09,15,24,,,,,,,2.6,1.6,2.1*3C
Trace #75 at position 18.500000
$GPRMC,142126.00,A,4624.898742,N,00944.004640,E,001.8,311.7,110314,0.7,W,A*2A
$GPGGA,142127.00,4624.899046,N,00944.004051,E,1,06,1.6,1799.26,M,48.00,M,,*57
$GPGSV,3,1,11,05,46,212,36,19,05,031,,26,76,324,43,07,14,065,*71
$GPGSV,3,2,11,08,44,055,37,09,50,058,39,10,05,167,,15,37,300,44*78
$GPGSV,3,3,11,28,60,099,31,24,09,253,33,21,05,306,,,,,*4F
$GPGSA,M,3,05,26,08,09,15,24,,,,,,,2.6,1.6,2.1*3C
Trace #76 at position 18.750000
$GPRMC,142127.00,A,4624.899046,N,00944.004051,E,002.0,299.8,110314,0.7,W,A*2A
$GPGGA,142128.00,4624.899297,N,00944.003335,E,1,07,1.5,1799.43,M,48.00,M,,*51
$GPGSV,3,1,11,05,46,212,39,19,05,031,,26,76,324,45,07,14,065,*78
$GPGSV,3,2,11,08,44,055,41,09,50,058,41,10,05,167,,15,37,300,47*75
$GPGSV,3,3,11,28,60,099,33,24,09,253,37,21,05,306,,,,,*49
$GPGSA,M,3,05,26,08,09,15,28,24,,,,,,2.6,1.5,2.1*35
Trace #77 at position 19.000000
$GPRMC,142127.00,A,4624.899046,N,00944.004051,E,002.0,299.8,110314,0.7,W,A*2A
$GPGGA,142128.00,4624.899297,N,00944.003335,E,1,07,1.5,1799.43,M,48.00,M,,*51
$GPGSV,3,1,11,05,46,212,39,19,05,031,,26,76,324,45,07,14,065,*78
$GPGSV,3,2,11,08,44,055,41,09,50,058,41,10,05,167,,15,37,300,47*75
$GPGSV,3,3,11,28,60,099,33,24,09,253,37,21,05,306,,,,,*49
$GPGSA,M,3,05,26,08,09,15,28,24,,,,,,2.6,1.5,2.1*35
Trace #78 at position 19.250000
$GPRMC,142127.00,A,4624.899046,N,00944.004051,E,002.0,299.8,110314,0.7,W,A*2A
$GPGGA,142128.00,4624.899297,N,00944.003335,E,1,07,1.5,1799.43,M,48.00,M,,*51
$GPGSV,3,1,11,05,46,212,39,19,05,031,,26,76,324,45,07,14,065,*78
$GPGSV,3,2,11,08,44,055,41,09,50,058,41,10,05,167,,15,37,300,47*75
$GPGSV,3,3,11,28,60,099,33,24,09,253,37,21,05,306,,,,,*49
$GPGSA,M,3,05,26,08,09,15,28,24,,,,,,2.6,1.5,2.1*35
Trace #79 at position 19.500000
$GPRMC,142127.00,A,4624.899046,N,00944.004051,E,002.0,299.8,110314,0.7,W,A*2A
$GPGGA,142128.00,4624.899297,N,00944.003335,E,1,07,1.5,1799.43,M,48.00,M,,*51
$GPGSV,3,1,11,05,46,212,39,19,05,031,,26,76,324,45,07,14,065,*78
$GPGSV,3,2,11,08,44,055,41,09,50,058,41,10,05,167,,15,37,300,47*75
$GPGSV,3,3,11,28,60,099,33,24,09,253,37,21,05,306,,,,,*49
$GPGSA,M,3,05,26,08,09,15,28,24,,,,,,2.6,1.5,2.1*35
Trace #80 at position 19.750000
$GPRMC,142128.00,A,4624.899297,N,00944.003335,E,001.9,287.8,110314,0.7,W,A*28
$GPGGA,142129.00,4624.899525,N,00944.002653,E,1,07,1.5,1799.57,M,48.00,M,,*5F
$GPGSV,3,1,11,05,46,212,38,19,05,031,,26,76,324,44,07,14,065,*78
$GPGSV,3,2,11,08,44,055,40,09,50,058,39,10,05,167,,15,37,300,46*7A
$GPGSV,3,3,11,28,60,099,32,24,09,253,38,21,05,306,,,,,*47
$GPGSA,M,3,05,26,08,09,15,28,24,,,,,,2.6,1.5,2.1*35
Trace #81 at position 20.000000
$GPRMC,142128.00,A,4624.899297,N,00944.003335,E,001.9,287.8,110314,0.7,W,A*28
$GPGGA,142129.00,4624.899525,N,00944.002653,E,1,07,1.5,1799.57,M,48.00,M,,*5F
$GPGSV,3,1,11,05,46,212,38,19,05,031,,26,76,324,44,07,14,065,*78
$GPGSV,3,2,11,08,44,055,40,09,50,058,39,10,05,167,,15,37,300,46*7A
$GPGSV,3,3,11,28,60,099,32,24,09,253,38,21,05,306,,,,,*47
$GPGSA,M,3,05,26,08,09,15,28,24,,,,,,2.6,1.5,2.1*35
Trace #82 at position 20.250000
$GPRMC,142128.00,A,4624.899297,N,00944.003335,E,001.9,287.8,110314,0.7,W,A*28
$GPGGA,142129.00,4624.899525,N,00944.002653,E,1,07,1.5,1799.57,M,48.00,M,,*5F
$GPGSV,3,1,11,05,46,212,38,19,05,031,,26,76,324,44,07,14,065,*78
$GPGSV,3,2,11,08,44,055,40,09,50,058,39,10,05,167,,15,37,300,46*7A
$GPGSV,3,3,11,28,60,099,32,24,09,253,38,21,05,306,,,,,*47
$GPGSA,M,3,05,26,08,09,15,28,24,,,,,,2.6,1.5,2.1*35
Trace #83 at position 20.500000
$GPRMC,142129.00,A,4624.899525,N,00944.002653,E,001.8,297.3,110314,0.7,W,A*28
$GPGGA,142130.00,4624.899792,N,00944.001977,E,1,07,1.5,1799.78,M,48.00,M,,*5E
$GPGSV,3,1,11,05,46,211,36,19,05,031,,26,76,324,43,07,14,065,*72
$GPGSV,3,2,11,08,44,055,39,09,50,058,40,10,05,167,,15,37,300,44*78
$GPGSV,3,3,11,28,60,099,33,24,09,253,37,21,05,306,,,,,*49
$GPGSA,M,3,05,26,08,09,15,28,24,,,,,,2.6,1.5,2.1*35
Trace #84 at position 20.750000
$GPRMC,142129.00,A,4624.899525,N,00944.002653,E,001.8,297.3,110314,0.7,W,A*28
$GPGGA,142130.00,4624.899792,N,00944.001977,E,1,07,1.5,1799.78,M,48.00,M,,*5E
$GPGSV,3,1,11,05,46,211,36,19,05,031,,26,76,324,43,07,14,065,*72
$GPGSV,3,2,11,08,44,055,39,09,50,058,40,10,05,167,,15,37,300,44*78
$GPGSV,3,3,11,28,60,099,33,24,09,253,37,21,05,306,,,,,*49
$GPGSA,M,3,05,26,08,09,15,28,24,,,,,,2.6,1.5,2.1*35
Trace #85 at position 21.000000
$GPRMC,142129.00,A,4624.899525,N,00944.002653,E,001.8,297.3,110314,0.7,W,A*28
$GPGGA,142130.00,4624.899792,N,00944.001977,E,1,07,1.5,1799.78,M,48.00,M,,*5E
$GPGSV,3,1,11,05,46,211,36,19,05,031,,26,76,324,43,07,14,065,*72
$GPGSV,3,2,11,08,44,055,39,09,50,058,40,10,05,167,,15,37,300,44*78
$GPGSV,3,3,11,28,60,099,33,24,09,253,37,21,05,306,,,,,*49
$GPGSA,M,3,05,26,08,09,15,28,24,,,,,,2.6,1.5,2.1*35
Trace #86 at position 21.250000
$GPRMC,142129.00,A,4624.899525,N,00944.002653,E,001.8,297.3,110314,0.7,W,A*28
$GPGGA,142130.00,4624.899792,N,00944.001977,E,1,07,1.5,1799.78,M,48.00,M,,*5E
$GPGSV,3,1,11,05,46,211,36,19,05,031,,26,76,324,43,07,14,065,*72
$GPGSV,3,2,11,08,44,055,39,09,50,058,40,10,05,167,,15,37,300,44*78
$GPGSV,3,3,11,28,60,099,33,24,09,253,37,21,05,306,,,,,*49
$GPGSA,M,3,05,26,08,09,15,28,24,,,,,,2.6,1.5,2.1*35
Trace #87 at position 21.500000
$GPRMC,142130.00,A,4624.899792,N,00944.001977,E,001.9,295.5,110314,0.7,W,A*21
$GPGGA,142131.00,4624.899958,N,00944.001388,E,1,06,1.6,1799.98,M,48.00,M,,*51
$GPGSV,3,1,11,05,46,211,41,19,05,031,,26,76,324,45,07,14,065,*74
$GPGSV,3,2,11,08,44,055,39,09,50,058,38,10,05,167,,15,37,300,46*75
$GPGSV,3,3,11,28,60,099,33,24,09,253,38,21,05,306,,,,,*46
$GPGSA,M,3,05,26,08,09,15,24,,,,,,,2.6,1.6,2.1*3C
Trace #88 at position 21.750000
$GPRMC,142130.00,A,4624.899792,N,00944.001977,E,001.9,295.5,110314,0.7,W,A*21
$GPGGA,142131.00,4624.899958,N,00944.001388,E,1,06,1.6,1799.98,M,48.00,M,,*51
$GPGSV,3,1,11,05,46,211,41,19,05,031,,26,76,324,45,07,14,065,*74
$GPGSV,3,2,11,08,44,055,39,09,50,058,38,10,05,167,,15,37,300,46*75
$GPGSV,3,3,11,28,60,099,33,24,09,253,38,21,05,306,,,,,*46
$GPGSA,M,3,05,26,08,09,15,24,,,,,,,2.6,1.6,2.1*3C
Trace #89 at position 22.000000
$GPRMC,142130.00,A,4624.899792,N,00944.001977,E,001.9,295.5,110314,0.7,W,A*21
$GPGGA,142131.00,4624.899958,N,00944.001388,E,1,06,1.6,1799.98,M,48.00,M,,*51
$GPGSV,3,1,11,05,46,211,41,19,05,031,,26,76,324,45,07,14,065,*74
$GPGSV,3,2,11,08,44,055,39,09,50,058,38,10,05,167,,15,37,300,46*75
$GPGSV,3,3,11,28,60,099,33,24,09,253,38,21,05,306,,,,,*46
$GPGSA,M,3,05,26,08,09,15,24,,,,,,,2.6,1.6,2.1*3C
Trace #90 at position 22.250000
$GPRMC,142130.00,A,4624.899792,N,00944.001977,E,001.9,295.5,110314,0.7,W,A*21
$GPGGA,142131.00,4624.899958,N,00944.001388,E,1,06,1.6,1799.98,M,48.00,M,,*51
$GPGSV,3,1,11,05,46,211,41,19,05,031,,26,76,324,45,07,14,065,*74
$GPGSV,3,2,11,08,44,055,39,09,50,058,38,10,05,167,,15,37,300,46*75
$GPGSV,3,3,11,28,60,099,33,24,09,253,38,21,05,306,,,,,*46
$GPGSA,M,3,05,26,08,09,15,24,,,,,,,2.6,1.6,2.1*3C
Trace #91 at position 22.500000
$GPRMC,142131.00,A,4624.899958,N,00944.001388,E,001.4,284.0,110314,0.7,W,A*2A
$GPGGA,142132.00,4624.900135,N,00944.000785,E,1,06,1.6,1800.06,M,48.00,M,,*50
$GPGSV,3,1,11,05,46,211,37,19,05,031,,26,77,324,44,07,14,065,*75
$GPGSV,3,2,11,08,44,055,38,09,50,058,38,10,05,167,,15,37,300,45*77
$GPGSV,3,3,11,28,60,099,30,24,09,253,36,21,05,306,,,,,*4B
$GPGSA,M,3,05,26,08,09,15,24,,,,,,,2.6,1.6,2.1*3C
Trace #92 at position 22.750000
$GPRMC,142131.00,A,4624.899958,N,00944.001388,E,001.4,284.0,110314,0.7,W,A*2A
$GPGGA,142132.00,4624.900135,N,00944.000785,E,1,06,1.6,1800.06,M,48.00,M,,*50
$GPGSV,3,1,11,05,46,211,37,19,05,031,,26,77,324,44,07,14,065,*75
$GPGSV,3,2,11,08,44,055,38,09,50,058,38,10,05,167,,15,37,300,45*77
$GPGSV,3,3,11,28,60,099,30,24,09,253,36,21,05,306,,,,,*4B
$GPGSA,M,3,05,26,08,09,15,24,,,,,,,2.6,1.6,2.1*3C
Trace #93 at position 23.000000
$GPRMC,142131.00,A,4624.899958,N,00944.001388,E,001.4,284.0,110314,0.7,W,A*2A
$GPGGA,142132.00,4624.900135,N,00944.000785,E,1,06,1.6,1800.06,M,48.00,M,,*50
$GPGSV,3,1,11,05,46,211,37,19,05,031,,26,77,324,44,07,14,065,*75
$GPGSV,3,2,11,08,44,055,38,09,50,058,38,10,05,167,,15,37,300,45*77
$GPGSV,3,3,11,28,60,099,30,24,09,253,36,21,05,306,,,,,*4B
$GPGSA,M,3,05,26,08,09,15,24,,,,,,,2.6,1.6,2.1*3C
Trace #94 at position 23.250000
$GPRMC,142131.00,A,4624.899958,N,00944.001388,E,001.4,284.0,110314,0.7,W,A*2A
$GPGGA,142132.00,4624.900135,N,00944.000785,E,1,06,1.6,1800.06,M,48.00,M,,*50
$GPGSV,3,1,11,05,46,211,37,19,05,031,,26,77,324,44,07,14,065,*75
$GPGSV,3,2,11,08,44,055,38,09,50,058,38,10,05,167,,15,37,300,45*77
$GPGSV,3,3,11,28,60,099,30,24,09,253,36,21,05,306,,,,,*4B
$GPGSA,M,3,05,26,08,09,15,24,,,,,,,2.6,1.6,2.1*3C
Trace #95 at position 23.500000
$GPRMC,142132.00,A,4624.900135,N,00944.000785,E,001.9,295.5,110314,0.7,W,A*2B
$GPGGA,142133.00,4624.900388,N,00944.000150,E,1,06,1.6,1800.09,M,48.00,M,,*54
$GPGSV,3,1,11,05,46,211,36,19,05,031,,26,77,324,43,07,14,065,*73
$GPGSV,3,2,11,08,44,055,40,09,50,058,42,10,05,167,,15,37,300,43*73
$GPGSV,3,3,11,28,60,099,26,24,09,253,36,21,05,306,,,,,*4C
$GPGSA,M,3,05,26,08,09,15,24,,,,,,,2.6,1.6,2.1*3C
Trace #96 at position 23.750000
$GPRMC,142132.00,A,4624.900135,N,00944.000785,E,001.9,295.5,110314,0.7,W,A*2B
$GPGGA,142133.00,4624.900388,N,00944.000150,E,1,06,1.6,1800.09,M,48.00,M,,*54
$GPGSV,3,1,11,05,46,211,36,19,05,031,,26,77,324,43,07,14,065,*73
$GPGSV,3,2,11,08,44,055,40,09,50,058,42,10,05,167,,15,37,300,43*73
$GPGSV,3,3,11,28,60,099,26,24,09,253,36,21,05,306,,,,,*4C
$GPGSA,M,3,05,26,08,09,15,24,,,,,,,2.6,1.6,2.1*3C
Trace #97 at position 24.000000
$GPRMC,142132.00,A,4624.900135,N,00944.000785,E,001.9,295.5,110314,0.7,W,A*2B
$GPGGA,142133.00,4624.900388,N,00944.000150,E,1,06,1.6,1800.09,M,48.00,M,,*54
$GPGSV,3,1,11,05,46,211,36,19,05,031,,26,77,324,43,07,14,065,*73
$GPGSV,3,2,11,08,44,055,40,09,50,058,42,10,05,167,,15,37,300,43*73
$GPGSV,3,3,11,28,60,099,26,24,09,253,36,21,05,306,,,,,*4C
$GPGSA,M,3,05,26,08,09,15,24,,,,,,,2.6,1.6,2.1*3C
Trace #98 at position 24.250000
$GPRMC,142132.00,A,4624.900135,N,00944.000785,E,001.9,295.5,110314,0.7,W,A*2B
$GPGGA,142133.00,4624.900388,N,00944.000150,E,1,06,1.6,1800.09,M,48.00,M,,*54
$GPGSV,3,1,11,05,46,211,36,19,05,031,,26,77,324,43,07,14,065,*73
$GPGSV,3,2,11,08,44,055,40,09,50,058,42,10,05,167,,15,37,300,43*73
$GPGSV,3,3,11,28,60,099,26,24,09,253,36,21,05,306,,,,,*4C
$GPGSA,M,3,05,26,08,09,15,24,,,,,,,2.6,1.6,2.1*3C
Trace #99 at position 24.500000
$GPRMC,142133.00,A,4624.900388,N,00944.000150,E,001.8,301.4,110314,0.7,W,A*2C
$GPGGA,142134.00,4624.900616,N,00943.999619,E,1,06,1.6,1800.14,M,48.00,M,,*59
$GPGSV,3,1,11,05,46,211,38,19,05,031,,26,77,324,42,07,14,065,*7C
$GPGSV,3,2,11,08,44,055,41,09,50,058,42,10,05,167,,15,37,300,43*72
$GPGSV,3,3,11,28,60,099,,24,09,253,39,21,05,306,,,,,*47
$GPGSA,M,3,05,26,08,09,15,24,,,,,,,2.6,1.6,2.1*3C
Trace #100 at position 24.750000
$GPRMC,142133.00,A,4624.900388,N,00944.000150,E,001.8,301.4,110314,0.7,W,A*2C
$GPGGA,142134.00,4624.900616,N,00943.999619,E,1,06,1.6,1800.14,M,48.00,M,,*59
$GPGSV,3,1,11,05,46,211,38,19,05,031,,26,77,324,42,07,14,065,*7C
$GPGSV,3,2,11,08,44,055,41,09,50,058,42,10,05,167,,15,37,300,43*72
$GPGSV,3,3,11,28,60,099,,24,09,253,39,21,05,306,,,,,*47
$GPGSA,M,3,05,26,08,09,15,24,,,,,,,2.6,1.6,2.1*3C
Trace #101 at position 25.000000
$GPRMC,142133.00,A,4624.900388,N,00944.000150,E,001.8,301.4,110314,0.7,W,A*2C
$GPGGA,142134.00,4624.900616,N,00943.999619,E,1,06,1.6,1800.14,M,48.00,M,,*59
$GPGSV,3,1,11,05,46,211,38,19,05,031,,26,77,324,42,07,14,065,*7C
$GPGSV,3,2,11,08,44,055,41,09,50,058,42,10,05,167,,15,37,300,43*72
$GPGSV,3,3,11,28,60,099,,24,09,253,39,21,05,306,,,,,*47
$GPGSA,M,3,05,26,08,09,15,24,,,,,,,2.6,1.6,2.1*3C
Trace #102 at position 25.250000
$GPRMC,142134.00,A,4624.900616,N,00943.999619,E,001.3,299.2,110314,0.7,W,A*20
$GPGGA,142135.00,4624.900811,N,00943.999050,E,1,06,1.6,1800.20,M,48.00,M,,*5D
$GPGSV,3,1,11,05,46,211,40,19,05,031,,26,77,324,43,07,14,065,*72
$GPGSV,3,2,11,08,44,055,38,09,50,058,38,10,05,167,,15,37,300,44*76
$GPGSV,3,3,11,28,60,099,,24,09,253,37,21,05,306,,,,,*49
$GPGSA,M,3,05,26,08,09,15,24,,,,,,,2.6,1.6,2.1*3C
Trace #103 at position 25.500000
$GPRMC,142134.00,A,4624.900616,N,00943.999619,E,001.3,299.2,110314,0.7,W,A*20
$GPGGA,142135.00,4624.900811,N,00943.999050,E,1,06,1.6,1800.20,M,48.00,M,,*5D
$GPGSV,3,1,11,05,46,211,40,19,05,031,,26,77,324,43,07,14,065,*72
$GPGSV,3,2,11,08,44,055,38,09,50,058,38,10,05,167,,15,37,300,44*76
$GPGSV,3,3,11,28,60,099,,24,09,253,37,21,05,306,,,,,*49
$GPGSA,M,3,05,26,08,09,15,24,,,,,,,2.6,1.6,2.1*3C
Trace #104 at position 25.750000
$GPRMC,142134.00,A,4624.900616,N,00943.999619,E,001.3,299.2,110314,0.7,W,A*20
$GPGGA,142135.00,4624.900811,N,00943.999050,E,1,06,1.6,1800.20,M,48.00,M,,*5D
$GPGSV,3,1,11,05,46,211,40,19,05,031,,26,77,324,43,07,14,065,*72
$GPGSV,3,2,11,08,44,055,38,09,50,058,38,10,05,167,,15,37,300,44*76
$GPGSV,3,3,11,28,60,099,,24,09,253,37,21,05,306,,,,,*49
$GPGSA,M,3,05,26,08,09,15,24,,,,,,,2.6,1.6,2.1*3C
Trace #105 at position 26.000000
$GPRMC,142134.00,A,4624.900616,N,00943.999619,E,001.3,299.2,110314,0.7,W,A*20
$GPGGA,142135.00,4624.900811,N,00943.999050,E,1,06,1.6,1800.20,M,48.00,M,,*5D
$GPGSV,3,1,11,05,46,211,40,19,05,031,,26,77,324,43,07,14,065,*72
$GPGSV,3,2,11,08,44,055,38,09,50,058,38,10,05,167,,15,37,300,44*76
$GPGSV,3,3,11,28,60,099,,24,09,253,37,21,05,306,,,,,*49
$GPGSA,M,3,05,26,08,09,15,24,,,,,,,2.6,1.6,2.1*3C
Trace #106 at position 26.250000
$GPRMC,142135.00,A,4624.900811,N,00943.999050,E,001.9,293.7,110314,0.7,W,A*26
$GPGGA,142136.00,4624.901040,N,00943.998423,E,1,06,1.6,1800.29,M,48.00,M,,*5B
$GPGSV,3,1,11,05,46,211,42,19,05,031,,26,77,324,44,07,14,065,*77
$GPGSV,3,2,11,08,44,055,39,09,50,058,39,10,05,167,,15,37,300,46*74
$GPGSV,3,3,11,28,60,099,26,24,09,253,37,21,05,306,,,,,*4D
$GPGSA,M,3,05,26,08,09,15,24,,,,,,,2.6,1.6,2.1*3C
Trace #107 at position 26.500000
$GPRMC,142135.00,A,4624.900811,N,00943.999050,E,001.9,293.7,110314,0.7,W,A*26
$GPGGA,142136.00,4624.901040,N,00943.998423,E,1,06,1.6,1800.29,M,48.00,M,,*5B
$GPGSV,3,1,11,05,46,211,42,19,05,031,,26,77,324,44,07,14,065,*77
$GPGSV,3,2,11,08,44,055,39,09,50,058,39,10,05,167,,15,37,300,46*74
$GPGSV,3,3,11,28,60,099,26,24,09,253,37,21,05,306,,,,,*4D
$GPGSA,M,3,05,26,08,09,15,24,,,,,,,2.6,1.6,2.1*3C
Trace #108 at position 26.750000
$GPRMC,142135.00,A,4624.900811,N,00943.999050,E,001.9,293.7,110314,0.7,W,A*26
$GPGGA,142136.00,4624.901040,N,00943.998423,E,1,06,1.6,1800.29,M,48.00,M,,*5B
$GPGSV,3,1,11,05,46,211,42,19,05,031,,26,77,324,44,07,14,065,*77
$GPGSV,3,2,11,08,44,055,39,09,50,058,39,10,05,167,,15,37,300,46*74
$GPGSV,3,3,11,28,60,099,26,24,09,253,37,21,05,306,,,,,*4D
$GPGSA,M,3,05,26,08,09,15,24,,,,,,,2.6,1.6,2.1*3C
Trace #109 at position 27.000000
$GPRMC,142136.00,A,4624.901040,N,00943.998423,E,001.8,302.3,110314,0.7,W,A*25
$GPGGA,142137.00,4624.901242,N,00943.997860,E,1,06,1.6,1800.34,M,48.00,M,,*52
$GPGSV,3,1,11,05,46,211,39,19,05,031,,26,77,324,43,07,14,065,*7C
$GPGSV,3,2,11,08,44,055,39,09,50,058,39,10,05,167,,15,37,300,43*71
$GPGSV,3,3,11,28,60,099,,24,09,253,36,21,05,306,,,,,*48
$GPGSA,M,3,05,26,08,09,15,24,,,,,,,2.6,1.6,2.1*3C
Trace #110 at position 27.250000
$GPRMC,142136.00,A,4624.901040,N,00943.998423,E,001.8,302.3,110314,0.7,W,A*25
$GPGGA,142137.00,4624.901242,N,00943.997860,E,1,06,1.6,1800.34,M,48.00,M,,*52
$GPGSV,3,1,11,05,46,211,39,19,05,031,,26,77,324,43,07,14,065,*7C
$GPGSV,3,2,11,08,44,055,39,09,50,058,39,10,05,167,,15,37,300,43*71
$GPGSV,3,3,11,28,60,099,,24,09,253,36,21,05,306,,,,,*48
$GPGSA,M,3,05,26,08,09,15,24,,,,,,,2.6,1.6,2.1*3C
Trace #111 at position 27.500000
$GPRMC,142136.00,A,4624.901040,N,00943.998423,E,001.8,302.3,110314,0.7,W,A*25
$GPGGA,142137.00,4624.901242,N,00943.997860,E,1,06,1.6,1800.34,M,48.00,M,,*52
$GPGSV,3,1,11,05,46,211,39,19,05,031,,26,77,324,43,07,14,065,*7C
$GPGSV,3,2,11,08,44,055,39,09,50,058,39,10,05,167,,15,37,300,43*71
$GPGSV,3,3,11,28,60,099,,24,09,253,36,21,05,306,,,,,*48
$GPGSA,M,3,05,26,08,09,15,24,,,,,,,2.6,1.6,2.1*3C
Trace #112 at position 27.750000
$GPRMC,142136.00,A,4624.901040,N,00943.998423,E,001.8,302.3,110314,0.7,W,A*25
$GPGGA,142137.00,4624.901242,N,00943.997860,E,1,06,1.6,1800.34,M,48.00,M,,*52
$GPGSV,3,1,11,05,46,211,39,19,05,031,,26,77,324,43,07,14,065,*7C
$GPGSV,3,2,11,08,44,055,39,09,50,058,39,10,05,167,,15,37,300,43*71
$GPGSV,3,3,11,28,60,099,,24,09,253,36,21,05,306,,,,,*48
$GPGSA,M,3,05,26,08,09,15,24,,,,,,,2.6,1.6,2.1*3C
Trace #113 at position 28.000000
$GPRMC,142137.00,A,4624.901242,N,00943.997860,E,001.5,293.2,110314,0.7,W,A*25
$GPGGA,142138.00,4624.901424,N,00943.997326,E,1,06,1.6,1800.37,M,48.00,M,,*51
$GPGSV,3,1,11,05,46,211,41,19,05,031,,26,77,324,45,07,14,065,*75
$GPGSV,3,2,11,08,44,055,33,09,50,058,32,10,05,167,,15,37,300,44*77
$GPGSV,3,3,11,28,60,099,20,24,09,253,39,21,05,306,,,,,*45
$GPGSA,M,3,05,26,08,09,15,24,,,,,,,2.6,1.6,2.1*3C
Trace #114 at position 28.250000
$GPRMC,142137.00,A,4624.901242,N,00943.997860,E,001.5,293.2,110314,0.7,W,A*25
$GPGGA,142138.00,4624.901424,N,00943.997326,E,1,06,1.6,1800.37,M,48.00,M,,*51
$GPGSV,3,1,11,05,46,211,41,19,05,031,,26,77,324,45,07,14,065,*75
$GPGSV,3,2,11,08,44,055,33,09,50,058,32,10,05,167,,15,37,300,44*77
$GPGSV,3,3,11,28,60,099,20,24,09,253,39,21,05,306,,,,,*45
$GPGSA,M,3,05,26,08,09,15,24,,,,,,,2.6,1.6,2.1*3C
Trace #115 at position 28.500000
$GPRMC,142137.00,A,4624.901242,N,00943.997860,E,001.5,293.2,110314,0.7,W,A*25
$GPGGA,142138.00,4624.901424,N,00943.997326,E,1,06,1.6,1800.37,M,48.00,M,,*51
$GPGSV,3,1,11,05,46,211,41,19,05,031,,26,77,324,45,07,14,065,*75
$GPGSV,3,2,11,08,44,055,33,09,50,058,32,10,05,167,,15,37,300,44*77
$GPGSV,3,3,11,28,60,099,20,24,09,253,39,21,05,306,,,,,*45
$GPGSA,M,3,05,26,08,09,15,24,,,,,,,2.6,1.6,2.1*3C
Trace #116 at position 28.750000
$GPRMC,142138.00,A,4624.901424,N,00943.997326,E,001.6,301.4,110314,0.7,W,A*2A
$GPGGA,142139.00,4624.901615,N,00943.996725,E,1,06,1.6,1800.34,M,48.00,M,,*55
$GPGSV,3,1,11,05,46,211,39,19,05,031,,26,77,324,45,07,14,065,*7A
$GPGSV,3,2,11,08,44,055,36,09,50,058,,10,05,167,,15,37,300,45*72
$GPGSV,3,3,11,28,60,099,30,24,09,253,39,21,05,306,,,,,*44
$GPGSA,M,3,05,26,08,09,15,24,,,,,,,2.6,1.6,2.1*3C
Trace #117 at position 29.000000
$GPRMC,142138.00,A,4624.901424,N,00943.997326,E,001.6,301.4,110314,0.7,W,A*2A
$GPGGA,142139.00,4624.901615,N,00943.996725,E,1,06,1.6,1800.34,M,48.00,M,,*55
$GPGSV,3,1,11,05,46,211,39,19,05,031,,26,77,324,45,07,14,065,*7A
$GPGSV,3,2,11,08,44,055,36,09,50,058,,10,05,167,,15,37,300,45*72
$GPGSV,3,3,11,28,60,099,30,24,09,253,39,21,05,306,,,,,*44
$GPGSA,M,3,05,26,08,09,15,24,,,,,,,2.6,1.6,2.1*3C
Trace #118 at position 29.250000
$GPRMC,142138.00,A,4624.901424,N,00943.997326,E,001.6,301.4,110314,0.7,W,A*2A
$GPGGA,142139.00,4624.901615,N,00943.996725,E,1,06,1.6,1800.34,M,48.00,M,,*55
$GPGSV,3,1,11,05,46,211,39,19,05,031,,26,77,324,45,07,14,065,*7A
$GPGSV,3,2,11,08,44,055,36,09,50,058,,10,05,167,,15,37,300,45*72
$GPGSV,3,3,11,28,60,099,30,24,09,253,39,21,05,306,,,,,*44
$GPGSA,M,3,05,26,08,09,15,24,,,,,,,2.6,1.6,2.1*3C
Trace #119 at position 29.500000
$GPRMC,142139.00,A,4624.901615,N,00943.996725,E,001.8,290.6,110314,0.7,W,A*28
$GPGGA,142140.00,4624.901768,N,00943.996253,E,1,06,1.6,1800.26,M,48.00,M,,*57
$GPGSV,3,1,11,05,46,211,32,19,05,031,,26,77,324,43,07,14,065,*77
$GPGSV,3,2,11,08,44,055,33,09,50,058,31,10,05,167,,15,37,300,44*74
$GPGSV,3,3,11,28,60,099,30,24,09,253,36,21,05,306,,,,,*4B
$GPGSA,M,3,05,26,08,09,15,24,,,,,,,2.6,1.6,2.1*3C
Trace #120 at position 29.750000
$GPRMC,142139.00,A,4624.901615,N,00943.996725,E,001.8,290.6,110314,0.7,W,A*28
$GPGGA,142140.00,4624.901768,N,00943.996253,E,1,06,1.6,1800.26,M,48.00,M,,*57
$GPGSV,3,1,11,05,46,211,32,19,05,031,,26,77,324,43,07,14,065,*77
$GPGSV,3,2,11,08,44,055,33,09,50,058,31,10,05,167,,15,37,300,44*74
$GPGSV,3,3,11,28,60,099,30,24,09,253,36,21,05,306,,,,,*4B
$GPGSA,M,3,05,26,08,09,15,24,,,,,,,2.6,1.6,2.1*3C
Trace #121 at position 30.000000
$GPRMC,142139.00,A,4624.901615,N,00943.996725,E,001.8,290.6,110314,0.7,W,A*28
$GPGGA,142140.00,4624.901768,N,00943.996253,E,1,06,1.6,1800.26,M,48.00,M,,*57
$GPGSV,3,1,11,05,46,211,32,19,05,031,,26,77,324,43,07,14,065,*77
$GPGSV,3,2,11,08,44,055,33,09,50,058,31,10,05,167,,15,37,300,44*74
$GPGSV,3,3,11,28,60,099,30,24,09,253,36,21,05,306,,,,,*4B
$GPGSA,M,3,05,26,08,09,15,24,,,,,,,2.6,1.6,2.1*3C
Trace #122 at position 30.250000
$GPRMC,142139.00,A,4624.901615,N,00943.996725,E,001.8,290.6,110314,0.7,W,A*28
$GPGGA,142140.00,4624.901768,N,00943.996253,E,1,06,1.6,1800.26,M,48.00,M,,*57
$GPGSV,3,1,11,05,46,211,32,19,05,031,,26,77,324,43,07,14,065,*77
$GPGSV,3,2,11,08,44,055,33,09,50,058,31,10,05,167,,15,37,300,44*74
$GPGSV,3,3,11,28,60,099,30,24,09,253,36,21,05,306,,,,,*4B
$GPGSA,M,3,05,26,08,09,15,24,,,,,,,2.6,1.6,2.1*3C
Trace #123 at position 30.500000
$GPRMC,142140.00,A,4624.901768,N,00943.996253,E,000.8,308.8,110314,0.7,W,A*26
$GPGGA,142141.00,4624.902007,N,00943.995836,E,1,04,2.9,1800.14,M,48.00,M,,*5E
$GPGSV,3,1,11,05,46,211,29,19,05,031,,26,77,324,44,07,14,065,*7A
$GPGSV,3,2,11,08,44,055,35,09,50,058,27,10,05,167,,15,37,300,45*74
$GPGSV,3,3,11,28,60,099,27,24,09,253,34,21,05,306,,,,,*4F
$GPGSA,M,3,26,08,15,24,,,,,,,,,3.9,2.9,2.6*35
Trace #124 at position 30.750000
$GPRMC,142140.00,A,4624.901768,N,00943.996253,E,000.8,308.8,110314,0.7,W,A*26
$GPGGA,142141.00,4624.902007,N,00943.995836,E,1,04,2.9,1800.14,M,48.00,M,,*5E
$GPGSV,3,1,11,05,46,211,29,19,05,031,,26,77,324,44,07,14,065,*7A
$GPGSV,3,2,11,08,44,055,35,09,50,058,27,10,05,167,,15,37,300,45*74
$GPGSV,3,3,11,28,60,099,27,24,09,253,34,21,05,306,,,,,*4F
$GPGSA,M,3,26,08,15,24,,,,,,,,,3.9,2.9,2.6*35
Trace #125 at position 31.000000
$GPRMC,142140.00,A,4624.901768,N,00943.996253,E,000.8,308.8,110314,0.7,W,A*26
$GPGGA,142141.00,4624.902007,N,00943.995836,E,1,04,2.9,1800.14,M,48.00,M,,*5E
$GPGSV,3,1,11,05,46,211,29,19,05,031,,26,77,324,44,07,14,065,*7A
$GPGSV,3,2,11,08,44,055,35,09,50,058,27,10,05,167,,15,37,300,45*74
$GPGSV,3,3,11,28,60,099,27,24,09,253,34,21,05,306,,,,,*4F
$GPGSA,M,3,26,08,15,24,,,,,,,,,3.9,2.9,2.6*35
Trace #126 at position 31.250000
$GPRMC,142141.00,A,4624.902007,N,00943.995836,E,001.4,287.2,110314,0.7,W,A*21
$GPGGA,142142.00,4624.902292,N,00943.995252,E,1,05,2.9,1800.07,M,48.00,M,,*58
$GPGSV,3,1,11,05,46,211,32,19,05,031,,26,77,324,43,07,14,065,*77
$GPGSV,3,2,11,08,44,055,37,09,50,058,34,10,05,167,,15,37,300,45*74
$GPGSV,3,3,11,28,60,099,31,24,09,253,36,21,05,306,,,,,*4A
$GPGSA,M,3,26,08,09,15,24,,,,,,,,3.8,2.9,2.5*3E
Trace #127 at position 31.500000
$GPRMC,142141.00,A,4624.902007,N,00943.995836,E,001.4,287.2,110314,0.7,W,A*21
$GPGGA,142142.00,4624.902292,N,00943.995252,E,1,05,2.9,1800.07,M,48.00,M,,*58
$GPGSV,3,1,11,05,46,211,32,19,05,031,,26,77,324,43,07,14,065,*77
$GPGSV,3,2,11,08,44,055,37,09,50,058,34,10,05,167,,15,37,300,45*74
$GPGSV,3,3,11,28,60,099,31,24,09,253,36,21,05,306,,,,,*4A
$GPGSA,M,3,26,08,09,15,24,,,,,,,,3.8,2.9,2.5*3E
Trace #128 at position 31.750000
$GPRMC,142141.00,A,4624.902007,N,00943.995836,E,001.4,287.2,110314,0.7,W,A*21
$GPGGA,142142.00,4624.902292,N,00943.995252,E,1,05,2.9,1800.07,M,48.00,M,,*58
$GPGSV,3,1,11,05,46,211,32,19,05,031,,26,77,324,43,07,14,065,*77
$GPGSV,3,2,11,08,44,055,37,09,50,058,34,10,05,167,,15,37,300,45*74
$GPGSV,3,3,11,28,60,099,31,24,09,253,36,21,05,306,,,,,*4A
$GPGSA,M,3,26,08,09,15,24,,,,,,,,3.8,2.9,2.5*3E
Trace #129 at position 32.000000
$GPRMC,142141.00,A,4624.902007,N,00943.995836,E,001.4,287.2,110314,0.7,W,A*21
$GPGGA,142142.00,4624.902292,N,00943.995252,E,1,05,2.9,1800.07,M,48.00,M,,*58
$GPGSV,3,1,11,05,46,211,32,19,05,031,,26,77,324,43,07,14,065,*77
$GPGSV,3,2,11,08,44,055,37,09,50,058,34,10,05,167,,15,37,300,45*74
$GPGSV,3,3,11,28,60,099,31,24,09,253,36,21,05,306,,,,,*4A
$GPGSA,M,3,26,08,09,15,24,,,,,,,,3.8,2.9,2.5*3E
Trace #130 at position 32.250000
$GPRMC,142142.00,A,4624.902292,N,00943.995252,E,001.8,302.5,110314,0.7,W,A*23
$GPGGA,142143.00,4624.902383,N,00943.994623,E,1,06,1.6,1800.06,M,48.00,M,,*55
$GPGSV,3,1,11,05,46,211,38,19,05,031,,26,77,324,45,07,14,065,*7B
$GPGSV,3,2,11,08,44,055,38,09,50,058,38,10,05,167,,15,38,300,45*78
$GPGSV,3,3,11,28,60,098,28,24,09,253,35,21,05,306,,,,,*40
$GPGSA,M,3,05,26,08,09,15,24,,,,,,,2.6,1.6,2.1*3C
Trace #131 at position 32.500000
$GPRMC,142142.00,A,4624.902292,N,00943.995252,E,001.8,302.5,110314,0.7,W,A*23
$GPGGA,142143.00,4624.902383,N,00943.994623,E,1,06,1.6,1800.06,M,48.00,M,,*55
$GPGSV,3,1,11,05,46,211,38,19,05,031,,26,77,324,45,07,14,065,*7B
$GPGSV,3,2,11,08,44,055,38,09,50,058,38,10,05,167,,15,38,300,45*78
$GPGSV,3,3,11,28,60,098,28,24,09,253,35,21,05,306,,,,,*40
$GPGSA,M,3,05,26,08,09,15,24,,,,,,,2.6,1.6,2.1*3C
Trace #132 at position 32.750000
$GPRMC,142142.00,A,4624.902292,N,00943.995252,E,001.8,302.5,110314,0.7,W,A*23
$GPGGA,142143.00,4624.902383,N,00943.994623,E,1,06,1.6,1800.06,M,48.00,M,,*55
$GPGSV,3,1,11,05,46,211,38,19,05,031,,26,77,324,45,07,14,065,*7B
$GPGSV,3,2,11,08,44,055,38,09,50,058,38,10,05,167,,15,38,300,45*78
$GPGSV,3,3,11,28,60,098,28,24,09,253,35,21,05,306,,,,,*40
$GPGSA,M,3,05,26,08,09,15,24,,,,,,,2.6,1.6,2.1*3C
Trace #133 at position 33.000000
$GPRMC,142142.00,A,4624.902292,N,00943.995252,E,001.8,302.5,110314,0.7,W,A*23
$GPGGA,142143.00,4624.902383,N,00943.994623,E,1,06,1.6,1800.06,M,48.00,M,,*55
$GPGSV,3,1,11,05,46,211,38,19,05,031,,26,77,324,45,07,14,065,*7B
$GPGSV,3,2,11,08,44,055,38,09,50,058,38,10,05,167,,15,38,300,45*78
$GPGSV,3,3,11,28,60,098,28,24,09,253,35,21,05,306,,,,,*40
$GPGSA,M,3,05,26,08,09,15,24,,,,,,,2.6,1.6,2.1*3C
Trace #134 at position 33.250000
$GPRMC,142143.00,A,4624.902383,N,00943.994623,E,001.7,267.4,110314,0.7,W,A*2C
$GPGGA,142144.00,4624.902444,N,00943.993933,E,1,06,1.6,1799.99,M,48.00,M,,*5E
$GPGSV,3,1,11,05,46,211,38,19,05,031,,26,77,324,44,07,14,065,*7A
$GPGSV,3,2,11,08,44,055,39,09,50,058,37,10,05,167,,15,38,300,44*77
$GPGSV,3,3,11,28,60,098,32,24,09,253,38,21,05,306,,,,,*46
$GPGSA,M,3,05,26,08,09,15,24,,,,,,,2.6,1.6,2.1*3C
Trace #135 at position 33.500000
$GPRMC,142143.00,A,4624.902383,N,00943.994623,E,001.7,267.4,110314,0.7,W,A*2C
$GPGGA,142144.00,4624.902444,N,00943.993933,E,1,06,1.6,1799.99,M,48.00,M,,*5E
$GPGSV,3,1,11,05,46,211,38,19,05,031,,26,77,324,44,07,14,065,*7A
$GPGSV,3,2,11,08,44,055,39,09,50,058,37,10,05,167,,15,38,300,44*77
$GPGSV,3,3,11,28,60,098,32,24,09,253,38,21,05,306,,,,,*46
$GPGSA,M,3,05,26,08,09,15,24,,,,,,,2.6,1.6,2.1*3C
Trace #136 at position 33.750000
$GPRMC,142143.00,A,4624.902383,N,00943.994623,E,001.7,267.4,110314,0.7,W,A*2C
$GPGGA,142144.00,4624.902444,N,00943.993933,E,1,06,1.6,1799.99,M,48.00,M,,*5E
$GPGSV,3,1,11,05,46,211,38,19,05,031,,26,77,324,44,07,14,065,*7A
$GPGSV,3,2,11,08,44,055,39,09,50,058,37,10,05,167,,15,38,300,44*77
$GPGSV,3,3,11,28,60,098,32,24,09,253,38,21,05,306,,,,,*46
$GPGSA,M,3,05,26,08,09,15,24,,,,,,,2.6,1.6,2.1*3C
Trace #137 at position 34.000000
$GPRMC,142143.00,A,4624.902383,N,00943.994623,E,001.7,267.4,110314,0.7,W,A*2C
$GPGGA,142144.00,4624.902444,N,00943.993933,E,1,06,1.6,1799.99,M,48.00,M,,*5E
$GPGSV,3,1,11,05,46,211,38,19,05,031,,26,77,324,44,07,14,065,*7A
$GPGSV,3,2,11,08,44,055,39,09,50,058,37,10,05,167,,15,38,300,44*77
$GPGSV,3,3,11,28,60,098,32,24,09,253,38,21,05,306,,,,,*46
$GPGSA,M,3,05,26,08,09,15,24,,,,,,,2.6,1.6,2.1*3C
Trace #138 at position 34.250000
$GPRMC,142144.00,A,4624.902444,N,00943.993933,E,001.9,286.7,110314,0.7,W,A*2C
$GPGGA,142145.00,4624.902623,N,00943.993217,E,1,06,1.6,1799.93,M,48.00,M,,*5B
$GPGSV,3,1,11,05,46,211,37,19,05,031,,26,77,324,45,07,14,065,*74
$GPGSV,3,2,11,08,44,055,38,09,50,058,40,10,04,167,,15,38,300,45*76
$GPGSV,3,3,11,28,60,098,31,24,09,253,36,21,05,306,,,,,*4B
$GPGSA,M,3,05,26,08,09,15,24,,,,,,,2.6,1.6,2.1*3C
Trace #139 at position 34.500000
$GPRMC,142144.00,A,4624.902444,N,00943.993933,E,001.9,286.7,110314,0.7,W,A*2C
$GPGGA,142145.00,4624.902623,N,00943.993217,E,1,06,1.6,1799.93,M,48.00,M,,*5B
